timestamp,stateEstimate.x,stateEstimate.y,stateEstimate.z,controller.cmd_thrust,controller.cmd_roll,controller.cmd_pitch,controller.cmd_yaw,controller.r_roll,controller.r_pitch,controller.r_yaw,controller.accelz,controller.actuatorThrust,controller.roll,controller.pitch,controller.yaw,controller.rollRate,controller.pitchRate,controller.yawRate,controller.ctr_yaw
0.0,0.07777173072099686,-0.02576022781431675,0.0011582383885979652,0.0,0.0,0.0,0.0,-0.001731818774715066,-0.0018446750473231077,0.004453175235539675,0.9997319579124451,0.0,0.0,0.0,31.15709114074707,7.981542587280273,3.713831663131714,-5639.49560546875,0
9.886999999998807,0.07772955298423767,-0.025872090831398964,0.001111503690481186,0.0,0.0,0.0,0.0,-0.0009991360129788518,-0.0025232185143977404,0.0014880660455673933,0.9993067383766174,0.0,0.0,0.0,31.157976150512695,7.96658992767334,3.7048635482788086,-5639.65576171875,0
19.774999999999636,0.07776674628257751,-0.02573528327047825,0.0011713494313880801,0.0,0.0,0.0,0.0,0.002289901254698634,-0.00038464710814878345,-0.0017574259545654058,0.9989691376686096,0.0,0.0,0.0,31.159433364868164,7.9886698722839355,3.7315046787261963,-5639.91943359375,0
29.646999999999025,0.07772786170244217,-0.02584853582084179,0.0011198380962014198,0.0,0.0,0.0,0.0,-0.0003378269320819527,0.006048713810741901,-0.00011820297368103638,1.0001983642578125,0.0,0.0,0.0,31.157459259033203,7.968903064727783,3.7209320068359375,-5639.56201171875,0
39.54199999999946,0.07777038961648941,-0.025695063173770905,0.0011832868913188577,0.0,0.0,0.0,0.0,0.002774357097223401,-0.0016963413218036294,-0.00637448113411665,1.0001018047332764,0.0,0.0,0.0,31.152463912963867,7.9894328117370605,3.7250730991363525,-5638.658203125,0
49.41699999999946,0.07777980715036392,-0.02587980218231678,0.0011126009048894048,0.0,0.0,0.0,0.0,-0.0012825931189581752,-0.0023984434083104134,-0.0005747923860326409,0.9989330768585205,0.0,0.0,0.0,31.152732849121094,7.952906608581543,3.7226922512054443,-5638.70654296875,0
59.30999999999949,0.07781858742237091,-0.025744138285517693,0.0011786178220063448,0.0,0.0,0.0,0.0,0.0015245241811499,-0.0023784071672707796,0.002182281343266368,1.0005947351455688,0.0,0.0,0.0,31.157329559326172,7.975356578826904,3.7466211318969727,-5639.53857421875,0
69.1880000000001,0.07779297977685928,-0.025852162390947342,0.0011331968707963824,0.0,0.0,0.0,0.0,-0.0016732397489249706,-0.0008756141760386527,-0.001614050823263824,1.0012933015823364,0.0,0.0,0.0,31.15151023864746,7.957214832305908,3.7347676753997803,-5638.4853515625,0
79.08599999999933,0.07782673835754395,-0.02573903650045395,0.0012000660644844174,0.0,0.0,0.0,0.0,0.0014763680519536138,-0.0027962045278400183,0.005228487309068441,1.0001909732818604,0.0,0.0,0.0,31.1546630859375,7.979543685913086,3.7458529472351074,-5639.056640625,0
88.95999999999913,0.07773375511169434,-0.02584671415388584,0.00113798794336617,0.0,0.0,0.0,0.0,-0.0027976329438388348,-0.0010710818460211158,-0.00306358328089118,0.9976143836975098,0.0,0.0,0.0,31.157190322875977,7.966845989227295,3.7341129779815674,-5639.51416015625,0
98.85599999999977,0.0777784213423729,-0.02569788135588169,0.0012042964808642864,0.0,0.0,0.0,0.0,-0.00025664272834546864,-0.006909163203090429,0.0024505052715539932,1.0001803636550903,0.0,0.0,0.0,31.155384063720703,7.992949485778809,3.7552402019500732,-5639.1865234375,0
108.73599999999897,0.07774558663368225,-0.025829685851931572,0.0011484329588711262,0.0,0.0,0.0,0.0,-0.0011260464088991284,0.0012518286239355803,0.0011647441424429417,1.003400444984436,0.0,0.0,0.0,31.15418243408203,7.968259811401367,3.7546420097351074,-5638.9697265625,0
118.62099999999919,0.07778893411159515,-0.025694504380226135,0.0012130052782595158,0.0,0.0,0.0,0.0,-0.0013348879292607307,-0.0013492436846718192,0.0027355526108294725,0.9991729855537415,0.0,0.0,0.0,31.157804489135742,7.98697566986084,3.7640533447265625,-5639.62451171875,0
128.49599999999919,0.07774459570646286,-0.025837551802396774,0.0011488718446344137,0.0,0.0,0.0,0.0,-0.0025885978247970343,-0.003411524696275592,0.002413666108623147,1.0013511180877686,0.0,0.0,0.0,31.159574508666992,7.9628987312316895,3.7520782947540283,-5639.9453125,0
138.40200000000004,0.07774074375629425,-0.025790072977542877,0.0012506393250077963,0.0,0.0,0.0,0.0,0.002508139004930854,0.003340580500662327,0.0010081497021019459,1.0011385679244995,0.0,0.0,0.0,31.164772033691406,7.9780073165893555,3.7556607723236084,-5640.88623046875,0
148.26599999999962,0.07762756198644638,-0.025863932445645332,0.0012030857615172863,0.0,0.0,0.0,0.0,-0.0009014221141114831,-0.0015186979435384274,-0.0007800557650625706,1.0012766122817993,0.0,0.0,0.0,31.16609764099121,7.966031551361084,3.728442907333374,-5641.1259765625,0
158.16399999999885,0.07765798270702362,-0.02576613985002041,0.001272897468879819,0.0,0.0,0.0,0.0,0.00022765299945604056,-0.004658709280192852,0.002454043598845601,0.9994246959686279,0.0,0.0,0.0,31.170156478881836,7.980912208557129,3.7438604831695557,-5641.8603515625,0
168.03700000000026,0.0776025578379631,-0.02584703080356121,0.001247091917321086,0.0,0.0,0.0,0.0,-0.0008445295388810337,-0.0009581992635503411,0.0028432246763259172,0.9949795007705688,0.0,0.0,0.0,31.167875289916992,7.968130111694336,3.742137908935547,-5641.44775390625,0
177.9349999999995,0.07767578214406967,-0.025720685720443726,0.001262160250917077,0.0,0.0,0.0,0.0,0.0002573516103439033,-0.0012382818385958672,-0.0014053300255909562,0.9975417852401733,0.0,0.0,0.0,31.16895866394043,7.981398105621338,3.7619028091430664,-5641.6435546875,0
187.80699999999888,0.07768896967172623,-0.02586592733860016,0.001212016330100596,0.0,0.0,0.0,0.0,0.0005868289154022932,0.0026345246005803347,0.0023409256245940924,0.9982509613037109,0.0,0.0,0.0,31.167165756225586,7.957721710205078,3.7564377784729004,-5641.31884765625,0
197.69800000000032,0.07775016129016876,-0.025721635669469833,0.0012493075337260962,0.0,0.0,0.0,0.0,0.0024367889855057,-0.003092995611950755,-0.002533281221985817,0.9982237219810486,0.0,0.0,0.0,31.167346954345703,7.9742889404296875,3.7671680450439453,-5641.35205078125,0
207.58200000000033,0.07771862298250198,-0.02585805580019951,0.001181267318315804,0.0,0.0,0.0,0.0,-0.0015951719833537936,-0.006836936809122562,-0.002108667278662324,0.9974576234817505,0.0,0.0,0.0,31.1657657623291,7.948654651641846,3.7550673484802246,-5641.06591796875,0
217.47199999999975,0.077731192111969,-0.02578122168779373,0.0012577680172398686,0.0,0.0,0.0,0.0,-0.001414771773852408,0.0045255133882164955,-0.002101402496919036,0.9983034729957581,0.0,0.0,0.0,31.16533851623535,7.962959289550781,3.7718780040740967,-5640.98876953125,0
227.34499999999935,0.07771982997655869,-0.025906827300786972,0.001208039466291666,0.0,0.0,0.0,0.0,-0.0002295393351232633,-0.003387542674317956,-0.00040957730379886925,0.9988224506378174,0.0,0.0,0.0,31.163562774658203,7.941637992858887,3.7552764415740967,-5640.6669921875,0
355.8629999999994,0.07773388177156448,-0.02580464817583561,0.0012565262150019407,0.0,0.0,0.0,0.0,0.00018394447397440672,0.009436971507966518,0.00020270230015739799,1.00063157081604,0.0,0.0,0.0,31.139917373657227,7.959733009338379,3.719038248062134,-5636.38720703125,0
365.7389999999996,0.07767273485660553,-0.025907544419169426,0.0011942392447963357,0.0,0.0,0.0,0.0,-0.0015925014158710837,-0.0047540306113660336,-0.0019030763069167733,1.0023561716079712,0.0,0.0,0.0,31.136384963989258,7.941762924194336,3.6793770790100098,-5635.74755859375,0
375.628999999999,0.07770814746618271,-0.025768890976905823,0.0012644139351323247,0.0,0.0,0.0,0.0,0.0017788260011002421,-0.002822198672220111,0.0011545171728357673,0.9995433688163757,0.0,0.0,0.0,31.13510513305664,7.965158462524414,3.6932103633880615,-5635.51611328125,0
385.5019999999986,0.07765860110521317,-0.025838743895292282,0.0012235884787514806,0.0,0.0,0.0,0.0,-0.0019666445441544056,0.004417577292770147,-0.0012269750004634261,0.999188244342804,0.0,0.0,0.0,31.133209228515625,7.954843521118164,3.6866769790649414,-5635.1728515625,0
395.3959999999988,0.0777258351445198,-0.025693506002426147,0.0012575192376971245,0.0,0.0,0.0,0.0,0.0010232586646452546,0.0003023681347258389,-0.0014923919225111604,0.9967389106750488,0.0,0.0,0.0,31.133264541625977,7.973770618438721,3.6932270526885986,-5635.18359375,0
405.27299999999923,0.07766055315732956,-0.025779472663998604,0.0012016695691272616,0.0,0.0,0.0,0.0,-0.0011270054383203387,-0.0008764154044911265,0.0004036537720821798,0.997747004032135,0.0,0.0,0.0,31.13185691833496,7.962027072906494,3.676002264022827,-5634.92822265625,0
415.16899999999987,0.07776167243719101,-0.02558613009750843,0.0012037486303597689,0.0,0.0,0.0,0.0,-2.280165790580213e-05,-0.0014607356861233711,0.00014592544175684452,1.0005711317062378,0.0,0.0,0.0,31.135927200317383,7.989313125610352,3.7100653648376465,-5635.6650390625,0
425.0450000000001,0.07776635885238647,-0.025739876553416252,0.0011261109029874206,0.0,0.0,0.0,0.0,0.002468961989507079,-0.0015574904391542077,-0.005452923942357302,1.0000078678131104,0.0,0.0,0.0,31.132600784301758,7.962375640869141,3.7047126293182373,-5635.06298828125,0
434.9449999999997,0.07783174514770508,-0.025622574612498283,0.0011519916588440537,0.0,0.0,0.0,0.0,0.000523117370903492,0.0038618259131908417,-0.003125377930700779,0.998394250869751,0.0,0.0,0.0,31.13160514831543,7.970111846923828,3.7230355739593506,-5634.8828125,0
444.8109999999997,0.07775753736495972,-0.02574959583580494,0.001058221678249538,0.0,0.0,0.0,0.0,-0.0017690384993329644,-0.0031940708868205547,-0.0004512167943175882,0.9996114373207092,0.0,0.0,0.0,31.130023956298828,7.9502973556518555,3.694521188735962,-5634.5966796875,0
454.70600000000013,0.07782293856143951,-0.025626732036471367,0.0010870428523048759,0.0,0.0,0.0,0.0,0.0021722728852182627,-0.0016968483105301857,-0.000846000446472317,1.0001649856567383,0.0,0.0,0.0,31.12982940673828,7.968651294708252,3.7105979919433594,-5634.56103515625,0
464.58200000000033,0.07781519740819931,-0.02574002370238304,0.0010214478243142366,0.0,0.0,0.0,0.0,-0.0004315424303058535,-0.003590244799852371,0.0006452982779592276,0.9998601078987122,0.0,0.0,0.0,31.126455307006836,7.947220802307129,3.7067580223083496,-5633.9501953125,0
474.4879999999994,0.07783059030771255,-0.02566741779446602,0.0011029792949557304,0.0,0.0,0.0,0.0,-0.0018596192821860313,-0.00842593889683485,-0.0009657173650339246,1.0013885498046875,0.0,0.0,0.0,31.127717971801758,7.964442729949951,3.7191362380981445,-5634.1787109375,0
484.35099999999875,0.07778280228376389,-0.025793859735131264,0.0010195339564234018,0.0,0.0,0.0,0.0,-2.3789129045326263e-05,-0.0021600171457976103,0.0010951959993690252,1.0005533695220947,0.0,0.0,0.0,31.127445220947266,7.955480098724365,3.7205848693847656,-5634.12939453125,0
494.2549999999992,0.07781080901622772,-0.02568703331053257,0.0010966764530166984,0.0,0.0,0.0,0.0,-0.0024586825165897608,-0.002687830477952957,0.0003183617372997105,0.9995266199111938,0.0,0.0,0.0,31.129377365112305,7.97392463684082,3.732436418533325,-5634.4794921875,0
504.1299999999992,0.077777199447155,-0.02579898200929165,0.0010353371035307646,0.0,0.0,0.0,0.0,0.0011368074920028448,-0.002053528092801571,0.0038250938523560762,0.9989251494407654,0.0,0.0,0.0,31.126659393310547,7.959947109222412,3.7236931324005127,-5633.98681640625,0
514.012999999999,0.07779794931411743,-0.02570337988436222,0.0011173546081408858,0.0,0.0,0.0,0.0,-0.0009492323733866215,-6.277618376770988e-05,0.00034737048554234207,0.9999394416809082,0.0,0.0,0.0,31.12689208984375,7.975606441497803,3.7312445640563965,-5634.02880859375,0
523.9009999999998,0.07776936888694763,-0.025821007788181305,0.0010541487718001008,0.0,0.0,0.0,0.0,0.0004219597904011607,-0.0013377458089962602,-0.0009468946373090148,1.0023291110992432,0.0,0.0,0.0,31.122970581054688,7.965066909790039,3.7177228927612305,-5633.3193359375,0
533.780999999999,0.07774809002876282,-0.02580874413251877,0.0011622640304267406,0.0,0.0,0.0,0.0,-0.00010283635492669418,-0.004439362790435553,0.0012005773605778813,0.999495804309845,0.0,0.0,0.0,31.118986129760742,7.972240447998047,3.716251850128174,-5632.59814453125,0
543.6610000000001,0.07772130519151688,-0.02589387632906437,0.0011307608801871538,0.0,0.0,0.0,0.0,-0.001495951903052628,-0.0016566977137699723,0.00264431512914598,0.9984483122825623,0.0,0.0,0.0,31.116153717041016,7.960587978363037,3.718799114227295,-5632.08544921875,0
553.5529999999999,0.0777399092912674,-0.025795426219701767,0.0012150959810242057,0.0,0.0,0.0,0.0,0.00023652333766222,-0.0017659170553088188,0.0014398092171177268,0.9998829364776611,0.0,0.0,0.0,31.12032699584961,7.979437351226807,3.7318365573883057,-5632.84130859375,0
563.4419999999991,0.07771347463130951,-0.025893762707710266,0.0011797535698860884,0.0,0.0,0.0,0.0,-0.0031800586730241776,0.0016253244830295444,-0.0012135307770222425,1.0002652406692505,0.0,0.0,0.0,31.11680030822754,7.959704399108887,3.7267823219299316,-5632.20263671875,0
573.3289999999997,0.07778060436248779,-0.025730688124895096,0.0012247345875948668,0.0,0.0,0.0,0.0,0.003688610391691327,0.0003496044082567096,0.00032692699460312724,1.0016613006591797,0.0,0.0,0.0,31.115734100341797,7.980703830718994,3.743701696395874,-5632.00927734375,0
583.2009999999991,0.07774331420660019,-0.025853488594293594,0.001171859330497682,0.0,0.0,0.0,0.0,-0.00018409047333989292,-0.0005772786098532379,0.0030051684007048607,0.9991223812103271,0.0,0.0,0.0,31.114795684814453,7.954096794128418,3.728053331375122,-5631.83984375,0
593.0939999999991,0.07779106497764587,-0.025749661028385162,0.0012221003416925669,0.0,0.0,0.0,0.0,0.0007491588476113975,-0.00484129274263978,0.0005732675199396908,0.9962766170501709,0.0,0.0,0.0,31.11512565612793,7.964798450469971,3.744607448577881,-5631.89990234375,0
602.9830000000002,0.07773944735527039,-0.025867342948913574,0.001164579181931913,0.0,0.0,0.0,0.0,0.0005135371466167271,-0.001318950206041336,0.0023801568895578384,0.9981076121330261,0.0,0.0,0.0,31.1143856048584,7.942543029785156,3.7386879920959473,-5631.765625,0
612.8649999999998,0.07780318707227707,-0.025711659342050552,0.0012137101730331779,0.0,0.0,0.0,0.0,0.00304036820307374,0.004835409577935934,0.002149955602362752,1.0000216960906982,0.0,0.0,0.0,31.1141357421875,7.966158390045166,3.765265703201294,-5631.72021484375,0
622.7489999999998,0.0777960941195488,-0.025823276489973068,0.0011671859538182616,0.0,0.0,0.0,0.0,-0.0006891319644637406,-0.004597618710249662,0.0018285643309354782,0.9980695247650146,0.0,0.0,0.0,31.109827041625977,7.9443511962890625,3.7432777881622314,-5630.94091796875,0
632.6279999999988,0.07783485949039459,-0.025732597336173058,0.0012272039894014597,0.0,0.0,0.0,0.0,0.003166859969496727,0.0074257636442780495,-0.001799237565137446,0.9993156790733337,0.0,0.0,0.0,31.10873031616211,7.958078861236572,3.7562992572784424,-5630.74169921875,0
642.509,0.07774803787469864,-0.025849085301160812,0.0011531279888004065,0.0,0.0,0.0,0.0,0.0002820277295541018,0.003075301880016923,0.0015816513914614916,0.9978864192962646,0.0,0.0,0.0,31.10464859008789,7.942569732666016,3.7208564281463623,-5630.0029296875,0
652.396999999999,0.07779209315776825,-0.025767505168914795,0.001193739240989089,0.0,0.0,0.0,0.0,-0.0009336141520179808,0.0006451242952607572,0.0018596234731376171,0.9981286525726318,0.0,0.0,0.0,31.107568740844727,7.95317268371582,3.725027084350586,-5630.53173828125,0
662.280999999999,0.07772697508335114,-0.0258769690990448,0.001128045842051506,0.0,0.0,0.0,0.0,-0.0014719384489580989,-0.0031531399581581354,-0.002623587381094694,0.9983948469161987,0.0,0.0,0.0,31.10488510131836,7.946744441986084,3.70572829246521,-5630.0458984375,0
672.1639999999989,0.07773399353027344,-0.025819001719355583,0.0012109344825148582,0.0,0.0,0.0,0.0,0.0009582946076989174,0.003596231574192643,-0.0008247307850979269,0.9975907802581787,0.0,0.0,0.0,31.10414695739746,7.960756778717041,3.71290922164917,-5629.912109375,0
682.0489999999991,0.07769941538572311,-0.025934215635061264,0.0011568749323487282,0.0,0.0,0.0,0.0,-0.0029060158412903547,-0.0027810868341475725,-0.00188823149073869,0.9991726875305176,0.0,0.0,0.0,31.100664138793945,7.942723274230957,3.6994869709014893,-5629.28173828125,0
691.9409999999989,0.0777464210987091,-0.02577713504433632,0.0012297832872718573,0.0,0.0,0.0,0.0,-0.00025246175937354565,-0.003399549750611186,0.002397158881649375,0.9985805153846741,0.0,0.0,0.0,31.100162506103516,7.969804286956787,3.7221603393554688,-5629.19091796875,0
701.8220000000001,0.0777854472398758,-0.025841666385531425,0.0012279164511710405,0.0,0.0,0.0,0.0,-0.0013523611705750227,0.003945682663470507,-0.0010131599847227335,0.9981210827827454,0.0,0.0,0.0,31.070201873779297,7.959161758422852,3.7235336303710938,-5623.7685546875,0
711.7160000000003,0.07781444489955902,-0.02569536678493023,0.0013069139095023274,0.0,0.0,0.0,0.0,0.0006644586683250964,-0.0035352883860468864,0.0012231337605044246,0.9980390667915344,0.0,0.0,0.0,31.073759078979492,7.991223335266113,3.7313754558563232,-5624.412109375,0
721.5889999999999,0.07785553485155106,-0.025751428678631783,0.0013084907550364733,0.0,0.0,0.0,0.0,-0.0038839145563542843,-0.004377457778900862,0.0022182781249284744,1.0006673336029053,0.0,0.0,0.0,31.04345703125,7.985250473022461,3.726064443588257,-5618.92724609375,0
731.4809999999998,0.07782769948244095,-0.025674249976873398,0.001443483866751194,0.0,0.0,0.0,0.0,0.0009226647089235485,-0.004633485805243254,-0.00012395804515108466,0.9998738169670105,0.0,0.0,0.0,31.05150604248047,8.023265838623047,3.7266881465911865,-5620.38427734375,0
741.3589999999986,0.07786265760660172,-0.02572605572640896,0.0014551630010828376,0.0,0.0,0.0,0.0,-0.0001075445834430866,0.0005863018450327218,0.0006271338206715882,0.9999676942825317,0.0,0.0,0.0,31.020265579223633,8.011425971984863,3.7275733947753906,-5614.7294921875,0
751.2559999999994,0.07787253707647324,-0.025639990344643593,0.00153636047616601,0.0,0.0,0.0,0.0,0.006391589064151049,0.0022444110363721848,0.0008702979539521039,1.0003143548965454,0.0,0.0,0.0,31.025415420532227,8.038284301757812,3.7378134727478027,-5615.66162109375,0
761.1329999999998,0.07790489494800568,-0.02568531036376953,0.0015541440807282925,0.0,0.0,0.0,0.0,-0.0028388891369104385,0.0012704585678875446,-0.000688563275616616,0.9994822144508362,0.0,0.0,0.0,30.995479583740234,8.022932052612305,3.7238500118255615,-5610.2431640625,0
771.021999999999,0.07791406661272049,-0.025610879063606262,0.0016351004596799612,0.0,0.0,0.0,0.0,-0.0024010525085031986,0.002995771123096347,0.0015548333758488297,0.9988057017326355,0.0,0.0,0.0,31.002954483032227,8.052456855773926,3.7254557609558105,-5611.59619140625,0
780.8979999999992,0.07794518023729324,-0.025652488693594933,0.0016571476589888334,0.0,0.0,0.0,0.0,0.0005046589067205787,-0.002085042418912053,0.002409476786851883,0.9986054301261902,0.0,0.0,0.0,30.97234535217285,8.04858112335205,3.710719108581543,-5606.05615234375,0
790.789999999999,0.07799206674098969,-0.025576276704669,0.0017010828014463186,0.0,0.0,0.0,0.0,-0.0011358531191945076,-0.0011583284940570593,-0.0014371175784617662,0.9978310465812683,0.0,0.0,0.0,30.97783660888672,8.067034721374512,3.7357611656188965,-5607.05029296875,0
800.6719999999987,0.07802671194076538,-0.025613365694880486,0.0017220376757904887,0.0,0.0,0.0,0.0,0.0019968929700553417,-0.0007886596722528338,-0.0011863093823194504,1.0001126527786255,0.0,0.0,0.0,30.9469051361084,8.06110954284668,3.7261669635772705,-5601.45166015625,0
810.5659999999989,0.0780407264828682,-0.025587132200598717,0.0017868406139314175,0.0,0.0,0.0,0.0,-0.0005694923456758261,0.0016148581635206938,0.0012169764377176762,1.0002321004867554,0.0,0.0,0.0,30.96179962158203,8.068835258483887,3.7311360836029053,-5604.14794921875,0
820.4380000000001,0.07807762920856476,-0.025620868429541588,0.0018105432391166687,0.0,0.0,0.0,0.0,0.00024237125762738287,0.00015365042781922966,-0.0024840470869094133,1.001815915107727,0.0,0.0,0.0,30.931917190551758,8.062148094177246,3.7278976440429688,-5598.73876953125,0
830.3320000000003,0.07809881120920181,-0.02559398114681244,0.0018743905238807201,0.0,0.0,0.0,0.0,-0.0006317999796010554,0.0053976159542799,0.000499556481372565,1.0012224912643433,0.0,0.0,0.0,30.94416046142578,8.071313858032227,3.7375905513763428,-5600.95458984375,0
840.2079999999987,0.07813576608896255,-0.02562481164932251,0.0019037703750655055,0.0,0.0,0.0,0.0,0.0009756939252838492,0.0018964449409395456,-0.0013262323336675763,0.9974426031112671,0.0,0.0,0.0,30.914316177368164,8.06486701965332,3.723465919494629,-5595.552734375,0
850.1009999999987,0.07816307991743088,-0.025634391233325005,0.001955252606421709,0.0,0.0,0.0,0.0,-0.0008751407731324434,-0.0007621052791364491,0.0023703891783952713,0.996558427810669,0.0,0.0,0.0,30.928499221801758,8.059612274169922,3.720217227935791,-5598.1201171875,0
859.985999999999,0.07820042967796326,-0.025667911395430565,0.0019835426937788725,0.0,0.0,0.0,0.0,0.0017725874204188585,-0.00019705985323525965,0.0009922196622937918,0.9992358088493347,0.0,0.0,0.0,30.899015426635742,8.054301261901855,3.7152645587921143,-5592.783203125,0
869.8649999999998,0.078244149684906,-0.025651847943663597,0.002030394971370697,0.0,0.0,0.0,0.0,0.00022580186487175524,-0.004135289695113897,-0.0006203933153301477,0.9994369745254517,0.0,0.0,0.0,30.90914535522461,8.058201789855957,3.7345709800720215,-5594.6171875,0
879.7469999999994,0.07828450947999954,-0.025681251659989357,0.0020577157847583294,0.0,0.0,0.0,0.0,-0.0009422290022484958,0.0005676711443811655,-0.0006174015579745173,0.9993517398834229,0.0,0.0,0.0,30.87922477722168,8.051816940307617,3.7505319118499756,-5589.20068359375,0
889.6389999999992,0.0783267691731453,-0.02571043372154236,0.002084878273308277,0.0,0.0,0.0,0.0,-0.002644132124260068,-0.0021165753714740276,0.0011974014341831207,1.000684142112732,0.0,0.0,0.0,30.849422454833984,8.045281410217285,3.7479894161224365,-5583.80712890625,0
899.518,0.07837112993001938,-0.025739897042512894,0.002112448215484619,0.0,0.0,0.0,0.0,-0.002346860710531473,-0.0008265207870863378,9.240164945367724e-05,1.0003660917282104,0.0,0.0,0.0,30.81904411315918,8.047812461853027,3.7485921382904053,-5578.30810546875,0
909.4030000000002,0.0784163773059845,-0.02576960250735283,0.0021408451721072197,0.0,0.0,0.0,0.0,-0.0009454109822399914,0.005276812706142664,-0.0012289993464946747,0.998625636100769,0.0,0.0,0.0,30.78894805908203,8.043539047241211,3.7469162940979004,-5572.861328125,0
919.2879999999986,0.07846234738826752,-0.025799721479415894,0.0021690847352147102,0.0,0.0,0.0,0.0,-0.0023907581344246864,0.0035446234978735447,-0.000991706270724535,0.9989827275276184,0.0,0.0,0.0,30.75768280029297,8.036349296569824,3.734062910079956,-5567.20166015625,0
929.1729999999989,0.07850967347621918,-0.02583027444779873,0.002196259330958128,0.0,0.0,0.0,0.0,0.0033489628694951534,0.0020985263399779797,0.00020454832701943815,0.9972257018089294,0.0,0.0,0.0,30.72677230834961,8.030973434448242,3.7224745750427246,-5561.607421875,0
939.0569999999989,0.07769571244716644,-0.025877248495817184,0.001364055322483182,0.0,0.0,0.0,0.0,0.0018258773488923907,0.0004930685390718281,0.0034433219116181135,1.0019193887710571,0.0,0.0,0.0,30.750463485717773,8.040070533752441,3.587104320526123,-5565.8955078125,0
948.9489999999987,0.07771018892526627,-0.02591758221387863,0.00135383615270257,0.0,0.0,0.0,0.0,-0.0001881140487967059,0.0020670555531978607,0.0012274394975975156,1.0021088123321533,0.0,0.0,0.0,30.72176170349121,8.027763366699219,3.5743205547332764,-5560.7001953125,0
958.8299999999999,0.07763968408107758,-0.02598343975841999,0.0013009944232180715,0.0,0.0,0.0,0.0,-0.0010960997315123677,0.0016627219738438725,3.8411868445109576e-05,1.0004968643188477,0.0,0.0,0.0,30.746070861816406,8.011878967285156,3.5551605224609375,-5565.10009765625,0
968.7240000000002,0.07765337079763412,-0.026027267798781395,0.0012920955196022987,0.0,0.0,0.0,0.0,-0.0006918084109202027,0.0007075431058183312,-0.0022528604604303837,1.0005794763565063,0.0,0.0,0.0,30.71563148498535,8.008172988891602,3.548794746398926,-5559.5908203125,0
978.5969999999998,0.07760514318943024,-0.026088010519742966,0.001262357458472252,0.0,0.0,0.0,0.0,0.002054962096735835,-0.001772746560163796,0.0006952431867830455,1.0002912282943726,0.0,0.0,0.0,30.74039077758789,7.996422290802002,3.541851758956909,-5564.07177734375,0
988.4809999999998,0.07761622220277786,-0.026137040928006172,0.001253423048183322,0.0,0.0,0.0,0.0,-0.0005872114561498165,-0.00013286394823808223,-0.002763474127277732,0.9995526075363159,0.0,0.0,0.0,30.710857391357422,7.985145092010498,3.5403571128845215,-5558.72607421875,0
998.366,0.07753150165081024,-0.026146436110138893,0.0012696373742073774,0.0,0.0,0.0,0.0,0.0018129395321011543,0.002398538403213024,-0.0038208577316254377,0.9989450573921204,0.0,0.0,0.0,30.738731384277344,7.995237827301025,3.5426273345947266,-5563.77197265625,0
1008.2510000000002,0.07754448056221008,-0.02619844488799572,0.0012624398805201054,0.0,0.0,0.0,0.0,-0.002020512707531452,-0.0011305554071441293,0.000662350794300437,0.9998860955238342,0.0,0.0,0.0,30.707050323486328,7.986545562744141,3.5298409461975098,-5558.037109375,0
1018.1409999999996,0.0775768831372261,-0.02621002122759819,0.0012870075879618526,0.0,0.0,0.0,0.0,0.00042023960850201547,-0.004737064242362976,-0.001460578991100192,1.0000337362289429,0.0,0.0,0.0,30.730859756469727,7.98844051361084,3.5397515296936035,-5562.3466796875,0
1028.0259999999998,0.0775918960571289,-0.026263831183314323,0.001282746670767665,0.0,0.0,0.0,0.0,-0.002723150420933962,0.0042961155995726585,-0.0005449389573186636,1.0008763074874878,0.0,0.0,0.0,30.69961929321289,7.980413913726807,3.537911891937256,-5556.6923828125,0
1037.911,0.0775708556175232,-0.026280105113983154,0.0012990589020773768,0.0,0.0,0.0,0.0,-0.0031827534548938274,-0.0011233713012188673,-9.706790297059342e-05,0.9997738003730774,0.0,0.0,0.0,30.721172332763672,7.993422985076904,3.528519868850708,-5560.59326171875,0
1047.8089999999993,0.07758370786905289,-0.026335321366786957,0.001297798240557313,0.0,0.0,0.0,0.0,0.0025453632697463036,-0.0016046320088207722,0.002620572689920664,0.9986675381660461,0.0,0.0,0.0,30.691118240356445,7.994526386260986,3.522570848464966,-5555.1533203125,0
1057.6849999999995,0.0775749459862709,-0.026325693354010582,0.001326271565631032,0.0,0.0,0.0,0.0,0.0007312812958844006,0.0005815717158839107,-0.0024783455301076174,0.9985256195068359,0.0,0.0,0.0,30.718538284301758,8.01016616821289,3.533752202987671,-5560.11669921875,0
1067.562,0.07758716493844986,-0.026382608339190483,0.0013270224444568157,0.0,0.0,0.0,0.0,0.0024518920108675957,-0.003974382299929857,0.003927429206669331,0.9976595044136047,0.0,0.0,0.0,30.687217712402344,8.000165939331055,3.527452230453491,-5554.44775390625,0
1077.455,0.0776033103466034,-0.026356561109423637,0.0013689533807337284,0.0,0.0,0.0,0.0,0.0006578214815817773,0.003534475574269891,0.0005194254918023944,0.9981225728988647,0.0,0.0,0.0,30.713733673095703,8.014782905578613,3.549182176589966,-5559.2470703125,0
1087.3329999999987,0.07761642336845398,-0.02641085535287857,0.0013708998449146748,0.0,0.0,0.0,0.0,-0.0009491255623288453,0.0032345654908567667,-0.0005673209670931101,0.9997696280479431,0.0,0.0,0.0,30.68333625793457,8.005430221557617,3.5441646575927734,-5553.7451171875,0
1097.2389999999996,0.07759612053632736,-0.02638056129217148,0.001387008116580546,0.0,0.0,0.0,0.0,0.0008860087837092578,-0.0013950420543551445,-0.002656308002769947,0.998147189617157,0.0,0.0,0.0,30.711278915405273,8.040510177612305,3.5455362796783447,-5558.802734375,0
1107.0990000000002,0.07760603725910187,-0.02642916329205036,0.0013896261807531118,0.0,0.0,0.0,0.0,-0.0029415010940283537,0.002587365685030818,0.000904860207810998,0.9973669052124023,0.0,0.0,0.0,30.679704666137695,8.03330135345459,3.545278310775757,-5553.08740234375,0
1116.9979999999996,0.07759182155132294,-0.026393363252282143,0.0014025390846654773,0.0,0.0,0.0,0.0,-0.003630740800872445,0.0004650615155696869,-0.0022140180226415396,0.9986352920532227,0.0,0.0,0.0,30.70530891418457,8.071157455444336,3.537729501724243,-5557.72216796875,0
1126.8739999999998,0.0777634009718895,-0.026040008291602135,0.0010624855058267713,0.0,0.0,0.0,0.0,-0.001020232681185007,-0.00075313332490623,-0.003780420171096921,1.0000427961349487,0.0,0.0,0.0,30.737680435180664,8.133577346801758,3.60575270652771,-5563.58154296875,0
1136.7669999999998,0.07767664641141891,-0.0260490570217371,0.0010306474287062883,0.0,0.0,0.0,0.0,-0.0010259151458740234,0.000725669611711055,-0.001715817372314632,0.9998911023139954,0.0,0.0,0.0,30.75881576538086,8.128769874572754,3.6037702560424805,-5567.40673828125,0
1146.643,0.07769868522882462,-0.025882776826620102,0.0011079718824476004,0.0,0.0,0.0,0.0,-0.000699303112924099,-0.0029889806173741817,-0.002859387779608369,0.998278796672821,0.0,0.0,0.0,30.782339096069336,8.138933181762695,3.618407964706421,-5571.66455078125,0
1156.5389999999989,0.07765862345695496,-0.025928951799869537,0.0010726616019383073,0.0,0.0,0.0,0.0,0.0021318309009075165,-0.004225768148899078,0.0006663186941295862,0.9971364140510559,0.0,0.0,0.0,30.798229217529297,8.127262115478516,3.614577531814575,-5574.541015625,0
1166.4219999999987,0.07766502350568771,-0.02579817920923233,0.00116561574395746,0.0,0.0,0.0,0.0,-0.0018494771793484688,-0.004965250845998526,0.001944459741935134,0.9990341663360596,0.0,0.0,0.0,30.822689056396484,8.124610900878906,3.6257007122039795,-5578.9677734375,0
1176.3140000000003,0.07765034586191177,-0.02586395852267742,0.001132529927417636,0.0,0.0,0.0,0.0,-0.001877323491498828,-0.0023762350901961327,0.0022825286723673344,0.9995735287666321,0.0,0.0,0.0,30.837018966674805,8.11612606048584,3.6389777660369873,-5581.5615234375,0
1186.1899999999987,0.0776594877243042,-0.02574567124247551,0.0012102930340915918,0.0,0.0,0.0,0.0,-0.0013945642858743668,0.0007225443259812891,-0.001276728929951787,0.9980996251106262,0.0,0.0,0.0,30.857358932495117,8.123241424560547,3.646127462387085,-5585.2431640625,0
1196.0789999999997,0.07760055363178253,-0.02580837346613407,0.0011654100380837917,0.0,0.0,0.0,0.0,0.0026953413616865873,-0.0009602931095287204,-0.0007253387593664229,0.9988528490066528,0.0,0.0,0.0,30.87282943725586,8.116033554077148,3.6370532512664795,-5588.04296875,0
1205.955,0.07764701545238495,-0.02568189986050129,0.0011870767921209335,0.0,0.0,0.0,0.0,0.0002554072707425803,-0.0020157629624009132,0.0002499096153769642,1.001798152923584,0.0,0.0,0.0,30.890146255493164,8.116104125976562,3.646806001663208,-5591.17822265625,0
1215.8419999999987,0.0775996521115303,-0.025773992761969566,0.0011300521437078714,0.0,0.0,0.0,0.0,-0.0020624345634132624,-0.002806698437780142,0.002680569887161255,0.9988895058631897,0.0,0.0,0.0,30.90203857421875,8.105223655700684,3.6442601680755615,-5593.33056640625,0
1225.7209999999995,0.07764049619436264,-0.025623032823204994,0.0011719085741788149,0.0,0.0,0.0,0.0,-0.0018450361676514149,-0.002774453954771161,-0.001366815180517733,0.998543381690979,0.0,0.0,0.0,30.918325424194336,8.111557960510254,3.661818742752075,-5596.2783203125,0
1235.6139999999996,0.07769067585468292,-0.02577528916299343,0.001114174840040505,0.0,0.0,0.0,0.0,-0.0017696286085993052,0.007471811026334763,0.0014184584142640233,0.9989413022994995,0.0,0.0,0.0,30.926671981811523,8.088434219360352,3.665252208709717,-5597.7890625,0
1245.4889999999996,0.07772084325551987,-0.02563030645251274,0.001174678560346365,0.0,0.0,0.0,0.0,-0.0013649421744048595,0.001106806448660791,0.0020718362648040056,0.9978685975074768,0.0,0.0,0.0,30.93692398071289,8.091056823730469,3.6553432941436768,-5599.64501953125,0
1255.3829999999998,0.07772521674633026,-0.0257719699293375,0.0011055103968828917,0.0,0.0,0.0,0.0,-0.0014738321769982576,-0.00010167794971494004,0.0029504126869142056,1.0012682676315308,0.0,0.0,0.0,30.9467830657959,8.069705963134766,3.644547700881958,-5601.42919921875,0
1265.2690000000002,0.0777384489774704,-0.025692395865917206,0.0011606336338445544,0.0,0.0,0.0,0.0,-0.002647659508511424,-0.002922491170465946,-0.0007541307713836432,1.0020564794540405,0.0,0.0,0.0,30.954248428344727,8.070743560791016,3.645791530609131,-5602.78076171875,0
1275.1599999999999,0.07776162773370743,-0.02586362138390541,0.0010850420221686363,0.0,0.0,0.0,0.0,0.0012873782543465495,0.0032343794591724873,-0.0006746993749402463,1.0010868310928345,0.0,0.0,0.0,30.956737518310547,8.051729202270508,3.6518912315368652,-5603.23095703125,0
1285.045,0.07778885960578918,-0.02570018544793129,0.001159912790171802,0.0,0.0,0.0,0.0,0.00042473728535696864,0.005290343891829252,0.00031896549626253545,1.0009435415267944,0.0,0.0,0.0,30.967866897583008,8.05684757232666,3.660720109939575,-5605.24560546875,0
1294.9219999999987,0.07776371389627457,-0.025855127722024918,0.001086024334654212,0.0,0.0,0.0,0.0,0.0023509503807872534,0.0008356939069926739,-0.001120775705203414,1.0016798973083496,0.0,0.0,0.0,30.97466278076172,8.033068656921387,3.6437461376190186,-5606.47607421875,0
1304.7979999999989,0.07778540998697281,-0.02570359595119953,0.0011672694236040115,0.0,0.0,0.0,0.0,0.0008129125344567001,-0.00892412569373846,0.002204497577622533,0.9998093843460083,0.0,0.0,0.0,30.98423957824707,8.03825569152832,3.6494710445404053,-5608.208984375,0
1314.6890000000003,0.07777786999940872,-0.025859765708446503,0.0011047543957829475,0.0,0.0,0.0,0.0,-0.0028116137254983187,-0.0046361773274838924,0.0006848641205579042,0.9986187815666199,0.0,0.0,0.0,30.992551803588867,8.014481544494629,3.656970739364624,-5609.71337890625,0
1324.5730000000003,0.07779982686042786,-0.025723617523908615,0.0011837417259812355,0.0,0.0,0.0,0.0,0.00040822417940944433,0.0037785957101732492,0.002397124655544758,0.9995741248130798,0.0,0.0,0.0,31.00160789489746,8.027758598327637,3.668816566467285,-5611.3525390625,0
1334.4669999999987,0.07777256518602371,-0.02588522993028164,0.0011063463753089309,0.0,0.0,0.0,0.0,0.001023571123369038,-0.00012451695511117578,-0.0018576850416138768,1.0017098188400269,0.0,0.0,0.0,31.002605438232422,8.008405685424805,3.648280382156372,-5611.533203125,0
1344.3379999999997,0.07780570536851883,-0.02571544423699379,0.0011810178402811289,0.0,0.0,0.0,0.0,0.00016406134818680584,-1.5008072296041064e-06,0.001525374362245202,1.0029267072677612,0.0,0.0,0.0,31.00859260559082,8.022943496704102,3.6593692302703857,-5612.6171875,0
1354.2389999999996,0.07772069424390793,-0.025826668366789818,0.001114117680117488,0.0,0.0,0.0,0.0,0.0015555501449853182,0.0034524379298090935,-0.00014549781917594373,0.9996880292892456,0.0,0.0,0.0,31.01333999633789,8.0114107131958,3.644812822341919,-5613.47607421875,0
1364.1080000000002,0.07774888724088669,-0.025686997920274734,0.001180846244096756,0.0,0.0,0.0,0.0,-0.0022481633350253105,-0.0019145988626405597,-0.0031287898309528828,0.9989426732063293,0.0,0.0,0.0,31.021610260009766,8.018202781677246,3.648463487625122,-5614.9736328125,0
1374.0010000000002,0.07781251519918442,-0.025858763605356216,0.0011322712525725365,0.0,0.0,0.0,0.0,-0.0004792060353793204,-0.0022568213753402233,0.0008329363190568984,0.9994780421257019,0.0,0.0,0.0,31.01988983154297,7.99095344543457,3.6449406147003174,-5614.66162109375,0
1383.8799999999992,0.07783873379230499,-0.025724604725837708,0.0012075314298272133,0.0,0.0,0.0,0.0,0.00012264637916814536,-0.0005666685756295919,0.00018833628564607352,0.9991639852523804,0.0,0.0,0.0,31.026430130004883,8.002904891967773,3.6658926010131836,-5615.845703125,0
1393.7829999999994,0.07773591578006744,-0.025820596143603325,0.0011471526231616735,0.0,0.0,0.0,0.0,-5.554571907850914e-05,0.0007196937804110348,-0.00016729971684981138,1.000069499015808,0.0,0.0,0.0,31.032258987426758,7.9911956787109375,3.653688669204712,-5616.900390625,0
1403.6589999999997,0.07776850461959839,-0.025699937716126442,0.0012083968613296747,0.0,0.0,0.0,0.0,0.00274392357096076,0.0043413653038442135,0.0015792082995176315,1.0007489919662476,0.0,0.0,0.0,31.039758682250977,8.005278587341309,3.6649973392486572,-5618.25830078125,0
1413.5519999999997,0.07771467417478561,-0.025810040533542633,0.0011559076374396682,0.0,0.0,0.0,0.0,-0.0018923749448731542,-0.0007662795833311975,-4.0128979890141636e-05,0.9968466758728027,0.0,0.0,0.0,31.043764114379883,7.983060359954834,3.6417648792266846,-5618.98291015625,0
1423.423999999999,0.07770150154829025,-0.025769487023353577,0.0012512917164713144,0.0,0.0,0.0,0.0,-0.0020931174512952566,0.0018954741535708308,-0.0010687769390642643,0.9987028241157532,0.0,0.0,0.0,31.048545837402344,7.987029552459717,3.6402835845947266,-5619.8486328125,0
1433.316999999999,0.07762087136507034,-0.0258975550532341,0.0011817726772278547,0.0,0.0,0.0,0.0,0.001976969186216593,0.004896190017461777,-0.0024359682574868202,0.9986129403114319,0.0,0.0,0.0,31.054187774658203,7.973738670349121,3.612640619277954,-5620.86962890625,0
1443.1859999999997,0.07764512300491333,-0.025792483240365982,0.0012447061017155647,0.0,0.0,0.0,0.0,-0.0003352448402438313,0.007879296317696571,-0.002088837558403611,0.9969940185546875,0.0,0.0,0.0,31.058616638183594,7.981501579284668,3.6047511100769043,-5621.67138671875,0
1453.0829999999987,0.07766498625278473,-0.025928806513547897,0.0012044182512909174,0.0,0.0,0.0,0.0,0.00031283244607038796,-0.00013008266978431493,0.0016227893065661192,0.9983751177787781,0.0,0.0,0.0,31.057405471801758,7.958929538726807,3.5722291469573975,-5621.4521484375,0
1462.9650000000001,0.07768615335226059,-0.02581954188644886,0.0012685677502304316,0.0,0.0,0.0,0.0,0.0022712561767548323,0.006647753994911909,0.00045084726298227906,0.9976670742034912,0.0,0.0,0.0,31.060815811157227,7.971118927001953,3.5797066688537598,-5622.0693359375,0
1472.8539999999994,0.07764965295791626,-0.02594039775431156,0.0012189942644909024,0.0,0.0,0.0,0.0,0.0011394883040338755,-0.003143079811707139,-0.0030682445503771305,1.0000994205474854,0.0,0.0,0.0,31.06265640258789,7.951229095458984,3.551870584487915,-5622.40234375,0
1482.7250000000004,0.07768455147743225,-0.02578394114971161,0.0012817924143746495,0.0,0.0,0.0,0.0,0.00018290328443981707,1.9794497347902507e-05,0.0008483231067657471,1.002343773841858,0.0,0.0,0.0,31.0701904296875,7.968254566192627,3.5682997703552246,-5623.76611328125,0
1492.6189999999988,0.07760242372751236,-0.02587716095149517,0.0012331476900726557,0.0,0.0,0.0,0.0,0.00017794470477383584,-0.004185514058917761,0.0008952941279858351,1.0005028247833252,0.0,0.0,0.0,31.071775436401367,7.958529472351074,3.5541372299194336,-5624.052734375,0
1502.5019999999986,0.07766930758953094,-0.02570362761616707,0.001253338996320963,0.0,0.0,0.0,0.0,-0.001455916091799736,-0.0072608510963618755,-0.0007553799659945071,0.9995655417442322,0.0,0.0,0.0,31.074800491333008,7.975913047790527,3.585617780685425,-5624.6005859375,0
1512.3949999999986,0.0776599794626236,-0.025853632017970085,0.0011963394936174154,0.0,0.0,0.0,0.0,0.001368095283396542,-0.0014938688836991787,-0.0002820756926666945,0.9998390078544617,0.0,0.0,0.0,31.077051162719727,7.951764106750488,3.5889978408813477,-5625.0078125,0
1522.2729999999992,0.07770643383264542,-0.025686675682663918,0.0012436422985047102,0.0,0.0,0.0,0.0,-0.001907280646264553,-0.0016609913436695933,-0.0025732694193720818,0.9997326135635376,0.0,0.0,0.0,31.079025268554688,7.967413902282715,3.609254837036133,-5625.365234375,0
1532.161,0.07768324762582779,-0.025837955996394157,0.0011793070007115602,0.0,0.0,0.0,0.0,0.002006024355068803,-0.006128891836851835,0.0033702647779136896,1.0017775297164917,0.0,0.0,0.0,31.07942771911621,7.948203086853027,3.598665714263916,-5625.43798828125,0
1542.0389999999989,0.07771946489810944,-0.025701448321342468,0.0012305768905207515,0.0,0.0,0.0,0.0,-0.00323210540227592,-0.003725877497345209,-0.0021272606682032347,1.000525712966919,0.0,0.0,0.0,31.084848403930664,7.959400653839111,3.630397319793701,-5626.41943359375,0
1551.9309999999987,0.07770849764347076,-0.025842254981398582,0.0011840318329632282,0.0,0.0,0.0,0.0,0.0011251525720581412,-0.005395666230469942,0.0014058105880394578,0.9978522062301636,0.0,0.0,0.0,31.08682632446289,7.935311317443848,3.630977153778076,-5626.77734375,0
1561.812,0.07774229347705841,-0.025744838640093803,0.0012252263259142637,0.0,0.0,0.0,0.0,0.001080655725672841,-0.0005030493484809995,0.00015597045421600342,0.9989696145057678,0.0,0.0,0.0,31.086139678955078,7.943155288696289,3.648263931274414,-5626.65283203125,0
1571.6989999999987,0.0776786208152771,-0.025884181261062622,0.0011538573307916522,0.0,0.0,0.0,0.0,-0.0008870866731740534,-0.0014967209426686168,-0.0021754582412540913,1.0004281997680664,0.0,0.0,0.0,31.08784294128418,7.923208236694336,3.6269538402557373,-5626.9609375,0
1581.574999999999,0.07772450894117355,-0.025734834372997284,0.0011984053999185562,0.0,0.0,0.0,0.0,0.0008695102296769619,0.007314168848097324,0.0013079192722216249,1.0004762411117554,0.0,0.0,0.0,31.088287353515625,7.9440741539001465,3.6407089233398438,-5627.04150390625,0
1591.4750000000004,0.07769618928432465,-0.025862962007522583,0.0011454205960035324,0.0,0.0,0.0,0.0,0.00043351337080821395,0.0009422567673027515,0.004195825662463903,0.9983640313148499,0.0,0.0,0.0,31.088167190551758,7.9247612953186035,3.614297389984131,-5627.02001953125,0
1601.348,0.07774075120687485,-0.02570960484445095,0.0011963843135163188,0.0,0.0,0.0,0.0,0.001776491990312934,0.008233749307692051,-0.00035211676731705666,0.9966475963592529,0.0,0.0,0.0,31.093942642211914,7.94444465637207,3.6267917156219482,-5628.06494140625,0
1611.2429999999986,0.07770172506570816,-0.025842931121587753,0.0011311941780149937,0.0,0.0,0.0,0.0,0.0012893935199826956,-0.0019695062655955553,0.0011481629917398095,0.9974828362464905,0.0,0.0,0.0,31.094486236572266,7.926198959350586,3.5918664932250977,-5628.16357421875,0
1621.1149999999998,0.07774463295936584,-0.025694485753774643,0.0011796366889029741,0.0,0.0,0.0,0.0,0.004209921229630709,0.0003072451218031347,0.006252641323953867,0.9993739724159241,0.0,0.0,0.0,31.08881378173828,7.941153526306152,3.613208293914795,-5627.13671875,0
1631.0069999999996,0.07767859101295471,-0.025823820382356644,0.0011058459058403969,0.0,0.0,0.0,0.0,0.0015850509516894817,0.0028653419576585293,0.001255348906852305,0.9995618462562561,0.0,0.0,0.0,31.093095779418945,7.914734363555908,3.5967957973480225,-5627.912109375,0
1640.884,0.07771086692810059,-0.025722112506628036,0.0011413691099733114,0.0,0.0,0.0,0.0,0.001580049516633153,-0.0003173362638335675,0.002061962615698576,0.9981750845909119,0.0,0.0,0.0,31.093891143798828,7.924374103546143,3.5983550548553467,-5628.05615234375,0
1650.777,0.07768198102712631,-0.025847341865301132,0.001080949674360454,0.0,0.0,0.0,0.0,0.00148322235327214,0.004719299729913473,-0.0013001407496631145,0.9987093806266785,0.0,0.0,0.0,31.095355987548828,7.901889801025391,3.5894575119018555,-5628.3212890625,0
1660.655999999999,0.07771900296211243,-0.02568955533206463,0.0011343833757564425,0.0,0.0,0.0,0.0,0.005500530358403921,-0.0010544293327257037,0.00044837407767772675,0.9994254112243652,0.0,0.0,0.0,31.09397315979004,7.9224042892456055,3.5979952812194824,-5628.0712890625,0
1670.565999999999,0.07773653417825699,-0.02580280601978302,0.0010958402417600155,0.0,0.0,0.0,0.0,-0.004984710365533829,-0.005942929536104202,0.0021187823731452227,1.0001260042190552,0.0,0.0,0.0,31.09246063232422,7.891209125518799,3.599069595336914,-5627.796875,0
1680.4309999999987,0.07776039093732834,-0.02567889355123043,0.001159952487796545,0.0,0.0,0.0,0.0,0.0014881412498652935,0.0005426634452305734,0.001767851528711617,0.9987695217132568,0.0,0.0,0.0,31.098064422607422,7.917543888092041,3.6233458518981934,-5628.81103515625,0
1690.321,0.07769404351711273,-0.025809643790125847,0.0010830857791006565,0.0,0.0,0.0,0.0,0.000685941893607378,0.0025407818611711264,-7.558300421806052e-05,0.9993696212768555,0.0,0.0,0.0,31.097658157348633,7.891809463500977,3.602316379547119,-5628.73779296875,0
1700.1980000000003,0.07768324762582779,-0.025755824521183968,0.001164938323199749,0.0,0.0,0.0,0.0,0.0016317468835040927,-0.0047014313749969006,-0.0010604527778923512,0.9998027682304382,0.0,0.0,0.0,31.099119186401367,7.893608093261719,3.5958240032196045,-5629.001953125,0
1710.0959999999995,0.0777037963271141,-0.025871017947793007,0.0011349320411682129,0.0,0.0,0.0,0.0,-0.0012268301798030734,-0.002137774368748069,0.005170195363461971,1.0014985799789429,0.0,0.0,0.0,31.100353240966797,7.861652374267578,3.603022336959839,-5629.2255859375,0
1719.9719999999998,0.07774749398231506,-0.0257586520165205,0.0011706931982189417,0.0,0.0,0.0,0.0,0.0011022837134078145,-0.004875839687883854,0.0007990633603185415,0.9995407462120056,0.0,0.0,0.0,31.09932518005371,7.878279685974121,3.6227893829345703,-5629.03955078125,0
1729.8599999999988,0.0777219757437706,-0.02588219940662384,0.0011192829115316272,0.0,0.0,0.0,0.0,7.021076453384012e-05,-0.008679622784256935,-0.000683036632835865,0.9975946545600891,0.0,0.0,0.0,31.098098754882812,7.856431007385254,3.6208291053771973,-5628.8173828125,0
1739.7349999999988,0.07776784151792526,-0.025726765394210815,0.0011706496588885784,0.0,0.0,0.0,0.0,-0.0007517611957155168,-0.004220469854772091,-0.0020443513058125973,0.9970488548278809,0.0,0.0,0.0,31.102672576904297,7.874786376953125,3.651808500289917,-5629.6455078125,0
1749.643,0.07776843011379242,-0.025900527834892273,0.0010941890068352222,0.0,0.0,0.0,0.0,-0.0009790684562176466,0.0008008464938029647,-0.0018859694246202707,0.9962322115898132,0.0,0.0,0.0,31.09922981262207,7.852443218231201,3.6438398361206055,-5629.02197265625,0
1759.5069999999996,0.07775779813528061,-0.02584066614508629,0.0011885438580065966,0.0,0.0,0.0,0.0,-0.0014374640304595232,-0.007012869231402874,-0.002425175393000245,0.9990252256393433,0.0,0.0,0.0,31.09922218322754,7.867660045623779,3.6371536254882812,-5629.02099609375,0
1769.3959999999988,0.07774146646261215,-0.025982284918427467,0.0011226249625906348,0.0,0.0,0.0,0.0,0.0007495184545405209,-0.0012331432662904263,0.0005441159009933472,0.9991492629051208,0.0,0.0,0.0,31.094270706176758,7.848681449890137,3.6347248554229736,-5628.12451171875,0
1779.2870000000003,0.07774990797042847,-0.025883961468935013,0.001203535357490182,0.0,0.0,0.0,0.0,0.003032379550859332,-0.001612942200154066,0.0013386523351073265,1.0012834072113037,0.0,0.0,0.0,31.098392486572266,7.8620076179504395,3.645656108856201,-5628.87060546875,0
1789.182999999999,0.07770964503288269,-0.025968311354517937,0.0011696054134517908,0.0,0.0,0.0,0.0,1.6437231806776254e-06,0.004071237985044718,0.0010334670078009367,0.9995716214179993,0.0,0.0,0.0,31.098854064941406,7.8446269035339355,3.6407389640808105,-5628.95458984375,0
1799.048999999999,0.07773515582084656,-0.025848733261227608,0.001238818746060133,0.0,0.0,0.0,0.0,0.004275559913367033,-0.0036448517348617315,-0.0009242504020221531,0.9997599720954895,0.0,0.0,0.0,31.097808837890625,7.859323501586914,3.643819808959961,-5628.76513671875,0
1808.941999999999,0.07769270986318588,-0.02593200094997883,0.001206208486109972,0.0,0.0,0.0,0.0,-0.003177420236170292,-0.003168304217979312,0.002126517007127404,0.9991762638092041,0.0,0.0,0.0,31.095643997192383,7.839013576507568,3.6401360034942627,-5628.373046875,0
1818.8179999999993,0.07776791602373123,-0.025740671902894974,0.0012350872857496142,0.0,0.0,0.0,0.0,0.0012196529423817992,0.002077225362882018,0.002528976649045944,0.999469518661499,0.0,0.0,0.0,31.092761993408203,7.869095325469971,3.674461841583252,-5627.8515625,0
1828.7109999999993,0.07771667093038559,-0.0258602537214756,0.0011768104741349816,0.0,0.0,0.0,0.0,-0.0031439554877579212,-0.002002859488129616,-0.0017196404514834285,0.9997711181640625,0.0,0.0,0.0,31.093116760253906,7.843454360961914,3.6598026752471924,-5627.91552734375,0
1838.5900000000001,0.07776277512311935,-0.025727618485689163,0.0012222537770867348,0.0,0.0,0.0,0.0,-0.003703033085912466,-0.004253898281604052,-0.002359189558774233,1.0004546642303467,0.0,0.0,0.0,31.096689224243164,7.862390995025635,3.679278612136841,-5628.5625,0
1848.4830000000002,0.07772035151720047,-0.02587166242301464,0.0011510844342410564,0.0,0.0,0.0,0.0,-0.0009097441215999424,-0.0026639446150511503,0.0015031059738248587,1.000388264656067,0.0,0.0,0.0,31.094301223754883,7.8448991775512695,3.6752989292144775,-5628.13037109375,0
1858.3589999999986,0.07777678966522217,-0.025702083483338356,0.0011989005142822862,0.0,0.0,0.0,0.0,0.0011857490753754973,0.005024034529924393,-0.0008147149346768856,0.9999951124191284,0.0,0.0,0.0,31.09162139892578,7.866837978363037,3.702404737472534,-5627.64501953125,0
1868.244999999999,0.07772692292928696,-0.02583572454750538,0.0011325199156999588,0.0,0.0,0.0,0.0,-0.0008254454587586224,0.001675361068919301,-0.001171200885437429,0.9999934434890747,0.0,0.0,0.0,31.089885711669922,7.848910331726074,3.67931866645813,-5627.33154296875,0
1878.1229999999996,0.0777672529220581,-0.025712648406624794,0.0011809698771685362,0.0,0.0,0.0,0.0,0.0015225199749693274,0.005864162463694811,-0.00023370346752926707,0.9989593625068665,0.0,0.0,0.0,31.092939376831055,7.867401599884033,3.6862401962280273,-5627.8837890625,0
1888.0139999999992,0.07771756500005722,-0.025824224576354027,0.0011213147081434727,0.0,0.0,0.0,0.0,0.0031726581510156393,0.004111259710043669,0.0008549134363420308,0.9979330897331238,0.0,0.0,0.0,31.09408187866211,7.849559307098389,3.6553149223327637,-5628.09033203125,0
1897.8909999999996,0.07775121927261353,-0.02573646605014801,0.0011624626349657774,0.0,0.0,0.0,0.0,-0.0013004757929593325,0.0004544694966170937,-0.003422665409743786,0.9978861808776855,0.0,0.0,0.0,31.093156814575195,7.855457305908203,3.6559832096099854,-5627.92333984375,0
1907.7819999999992,0.07770901918411255,-0.025841157883405685,0.0011078922543674707,0.0,0.0,0.0,0.0,-0.0015832693316042423,-0.008249970152974129,0.0032400316558778286,0.9995200037956238,0.0,0.0,0.0,31.093584060668945,7.843203067779541,3.6418142318725586,-5628.00048828125,0
1917.6710000000003,0.07774452120065689,-0.025702854618430138,0.0011599926510825753,0.0,0.0,0.0,0.0,0.000412214343668893,0.006143765524029732,-0.0015113336266949773,0.9990978837013245,0.0,0.0,0.0,31.09662628173828,7.865015029907227,3.6707041263580322,-5628.55078125,0
1927.5499999999993,0.07766621559858322,-0.02579055167734623,0.0010992413153871894,0.0,0.0,0.0,0.0,0.001100211520679295,-0.0004651386698242277,0.00024617317831143737,0.9987243413925171,0.0,0.0,0.0,31.095195770263672,7.85322904586792,3.6392934322357178,-5628.2919921875,0
1937.4359999999997,0.07769505679607391,-0.02566659264266491,0.0011515147052705288,0.0,0.0,0.0,0.0,-0.0026654014363884926,-0.008951151743531227,0.0003610331332311034,0.9987154603004456,0.0,0.0,0.0,31.092758178710938,7.8655314445495605,3.6527597904205322,-5627.85107421875,0
1947.33,0.07764741033315659,-0.025787554681301117,0.0010808464139699936,0.0,0.0,0.0,0.0,0.0029630817007273436,-8.426970453001559e-05,-0.00016453357238788158,1.0002387762069702,0.0,0.0,0.0,31.09111213684082,7.850317478179932,3.660169839859009,-5627.55322265625,0
1957.2029999999995,0.07768150418996811,-0.025648435577750206,0.0011330401757732034,0.0,0.0,0.0,0.0,-0.0031883057672530413,-0.0028043717611581087,0.002712928457185626,0.999580442905426,0.0,0.0,0.0,31.091238021850586,7.861311912536621,3.6801204681396484,-5627.57568359375,0
1967.0969999999998,0.07774010300636292,-0.025794029235839844,0.0010894692968577147,0.0,0.0,0.0,0.0,-0.0016281716525554657,-0.0005727721727453172,-0.00042433638009242713,0.9980556964874268,0.0,0.0,0.0,31.093860626220703,7.838136672973633,3.6881155967712402,-5628.05029296875,0
1976.9869999999992,0.07777468860149384,-0.02568526566028595,0.0011407393030822277,0.0,0.0,0.0,0.0,-0.0008731833659112453,0.0007200978579930961,-0.001799611491151154,1.000937819480896,0.0,0.0,0.0,31.098793029785156,7.855079174041748,3.7029311656951904,-5628.943359375,0
1986.857,0.0777585431933403,-0.02582952007651329,0.0010680933482944965,0.0,0.0,0.0,0.0,-0.002523378236219287,0.004321172833442688,0.0001803450722945854,0.9993327856063843,0.0,0.0,0.0,31.097618103027344,7.834022045135498,3.6866326332092285,-5628.73095703125,0
1996.741,0.07778903096914291,-0.02571132592856884,0.0011322570499032736,0.0,0.0,0.0,0.0,0.00024988516815938056,-0.001278216834180057,0.002385819563642144,1.0003408193588257,0.0,0.0,0.0,31.098655700683594,7.851307392120361,3.689568042755127,-5628.91845703125,0
2006.6299999999992,0.07784087210893631,-0.02586544305086136,0.0010804582852870226,0.0,0.0,0.0,0.0,0.0005868238513357937,0.0026911767199635506,0.0006983460043556988,0.9999933838844299,0.0,0.0,0.0,31.093873977661133,7.824209690093994,3.6821036338806152,-5628.05322265625,0
2016.5149999999994,0.07786425203084946,-0.025747176259756088,0.0011656945571303368,0.0,0.0,0.0,0.0,-0.00013007879897486418,-0.0007953695603646338,0.0010976011399179697,0.9985184669494629,0.0,0.0,0.0,31.093894958496094,7.8409318923950195,3.6898276805877686,-5628.056640625,0
2026.3959999999988,0.07786807417869568,-0.025891412049531937,0.0011067643063142896,0.0,0.0,0.0,0.0,-0.0006595462327823043,-0.00033210343099199235,0.0026389528065919876,0.9988865852355957,0.0,0.0,0.0,31.0898380279541,7.820062637329102,3.6757900714874268,-5627.322265625,0
2036.2819999999992,0.07790197432041168,-0.02577124536037445,0.0011849364964291453,0.0,0.0,0.0,0.0,8.459805394522846e-05,-0.00017553882207721472,0.0003065738710574806,0.99970543384552,0.0,0.0,0.0,31.094202041625977,7.83422327041626,3.6816768646240234,-5628.11279296875,0
2046.1689999999999,0.07776765525341034,-0.025854775682091713,0.0011115620145574212,0.0,0.0,0.0,0.0,0.00047767203068360686,0.0035717301070690155,-0.0025194729678332806,1.001083493232727,0.0,0.0,0.0,31.09597396850586,7.827012062072754,3.6520440578460693,-5628.4326171875,0
2056.0519999999997,0.07781041413545609,-0.025748414918780327,0.001166636124253273,0.0,0.0,0.0,0.0,-0.0008628241484984756,-0.0001047726982505992,-0.001464035827666521,0.9987897276878357,0.0,0.0,0.0,31.10018539428711,7.835328578948975,3.6549789905548096,-5629.1953125,0
2065.941999999999,0.07775100320577621,-0.025867516174912453,0.0011009605368599296,0.0,0.0,0.0,0.0,0.0008680676692165434,-0.003098870161920786,0.0029343569185584784,0.9972580075263977,0.0,0.0,0.0,31.09844970703125,7.822432518005371,3.647181987762451,-5628.880859375,0
2075.822,0.07778969407081604,-0.025743402540683746,0.0011673885164782405,0.0,0.0,0.0,0.0,0.00018286760314367712,0.002386520616710186,0.002439995529130101,1.0004738569259644,0.0,0.0,0.0,31.101770401000977,7.835384845733643,3.670283079147339,-5629.482421875,0
2085.705,0.07774736732244492,-0.025853676721453667,0.0011163887102156878,0.0,0.0,0.0,0.0,0.0008345874957740307,-0.0013066662941128016,0.0021547856740653515,1.0009227991104126,0.0,0.0,0.0,31.102397918701172,7.817821025848389,3.6492233276367188,-5629.595703125,0
2095.5949999999993,0.07774431258440018,-0.025799473747611046,0.0012146863155066967,0.0,0.0,0.0,0.0,-0.0010709548369050026,-0.0018711149459704757,0.001433569472283125,1.0006160736083984,0.0,0.0,0.0,31.106916427612305,7.827300071716309,3.6464903354644775,-5630.41357421875,0
2105.4750000000004,0.07769271731376648,-0.02590234763920307,0.001166442409157753,0.0,0.0,0.0,0.0,-0.0022050843108445406,-0.0036521439906209707,-0.0015708268620073795,1.000777244567871,0.0,0.0,0.0,31.108627319335938,7.809894561767578,3.6341819763183594,-5630.72314453125,0
2115.3599999999988,0.07776234298944473,-0.025771262124180794,0.0011962326243519783,0.0,0.0,0.0,0.0,0.0015561780892312527,-0.005705304443836212,0.002696856390684843,0.9995739459991455,0.0,0.0,0.0,31.108394622802734,7.825384616851807,3.6540544033050537,-5630.68115234375,0
2125.251,0.07771935313940048,-0.025865664705634117,0.0011562455911189318,0.0,0.0,0.0,0.0,0.0007157076615840197,0.0011742709903046489,0.000941492966376245,0.9968727827072144,0.0,0.0,0.0,31.106847763061523,7.815315246582031,3.6553468704223633,-5630.40087890625,0
2135.1309999999994,0.0777798593044281,-0.025729039683938026,0.0012055912520736456,0.0,0.0,0.0,0.0,0.00107191049028188,-0.005348800681531429,-0.00017510881298221648,0.9980075359344482,0.0,0.0,0.0,31.109249114990234,7.834714889526367,3.674830675125122,-5630.83544921875,0
2145.017,0.07772594690322876,-0.025862963870167732,0.0011373762972652912,0.0,0.0,0.0,0.0,-0.000446314545115456,0.0026368731632828712,-0.0040065329521894455,0.998347818851471,0.0,0.0,0.0,31.105663299560547,7.821490287780762,3.6720285415649414,-5630.1865234375,0
2154.9030000000002,0.07778555154800415,-0.02571234293282032,0.0011903941631317139,0.0,0.0,0.0,0.0,0.0033924710005521774,-0.0038707777857780457,-0.0021211581770330667,0.9995274543762207,0.0,0.0,0.0,31.099445343017578,7.846616744995117,3.6840243339538574,-5629.06103515625,0
2164.786,0.07777151465415955,-0.025895047932863235,0.0011099332477897406,0.0,0.0,0.0,0.0,-0.00012534398410934955,0.004956614691764116,0.000797156011685729,0.9993259310722351,0.0,0.0,0.0,31.09836196899414,7.812353610992432,3.6769096851348877,-5628.86572265625,0
2174.679,0.07782089710235596,-0.025789763778448105,0.0011567897163331509,0.0,0.0,0.0,0.0,-0.0008163164602592587,0.00449303537607193,-0.0007865389343351126,1.000775694847107,0.0,0.0,0.0,31.09407615661621,7.829195976257324,3.6805648803710938,-5628.08935546875,0
2184.557999999999,0.07777504622936249,-0.025942428037524223,0.0010779803851619363,0.0,0.0,0.0,0.0,-0.0023065011482685804,-0.0024116153363138437,-0.001694422448053956,1.0005522966384888,0.0,0.0,0.0,31.089807510375977,7.8116559982299805,3.6541922092437744,-5627.3173828125,0
2194.440999999999,0.0778326764702797,-0.025786427780985832,0.0011362985242158175,0.0,0.0,0.0,0.0,0.002264944836497307,0.0022628335282206535,-0.0033335741609334946,1.0019419193267822,0.0,0.0,0.0,31.096513748168945,7.837553024291992,3.6816680431365967,-5628.53076171875,0
2204.334999999999,0.07775620371103287,-0.025868574157357216,0.0010892138816416264,0.0,0.0,0.0,0.0,-0.0012120283208787441,0.0007859308389015496,-0.0022934989538043737,1.0003087520599365,0.0,0.0,0.0,31.093273162841797,7.828314304351807,3.665745258331299,-5627.94384765625,0
2214.209999999999,0.07776143401861191,-0.025812949985265732,0.0011860723607242107,0.0,0.0,0.0,0.0,0.001279480755329132,0.00207036011852324,0.00024584276252426207,0.9988036155700684,0.0,0.0,0.0,31.09646224975586,7.842566013336182,3.6725358963012695,-5628.52099609375,0
2224.0959999999995,0.07771836221218109,-0.025917714461684227,0.001139819622039795,0.0,0.0,0.0,0.0,0.0014449565205723047,0.00210742000490427,-0.0002804410469252616,0.9993304014205933,0.0,0.0,0.0,31.09342384338379,7.826503276824951,3.6478025913238525,-5627.97119140625,0
2233.9839999999986,0.0777440294623375,-0.025828037410974503,0.001221516402438283,0.0,0.0,0.0,0.0,-0.0012512562097981572,0.0028969338163733482,0.00035511062014847994,0.99977707862854,0.0,0.0,0.0,31.095726013183594,7.829619407653809,3.6370489597320557,-5628.38818359375,0
2243.875,0.07770678400993347,-0.025942781940102577,0.0011732731945812702,0.0,0.0,0.0,0.0,0.0026270931120961905,0.00038344506174325943,-0.0010067492257803679,0.9988172054290771,0.0,0.0,0.0,31.09380531311035,7.818120956420898,3.6150693893432617,-5628.04052734375,0
2253.7569999999996,0.07778219878673553,-0.025759078562259674,0.0012246769620105624,0.0,0.0,0.0,0.0,-0.0010096164187416434,0.009138057008385658,-0.003299020929262042,0.9977712035179138,0.0,0.0,0.0,31.094676971435547,7.832169055938721,3.6298999786376953,-5628.1982421875,0
2263.642,0.07770448923110962,-0.02588118612766266,0.0011616107076406479,0.0,0.0,0.0,0.0,0.001380248344503343,0.004210084676742554,0.001745565328747034,0.9992063641548157,0.0,0.0,0.0,31.092884063720703,7.814772605895996,3.585958957672119,-5627.87353515625,0
2273.520999999999,0.07780016213655472,-0.02570602297782898,0.0011745017254725099,0.0,0.0,0.0,0.0,-0.0007029770058579743,-0.009100193157792091,-0.00046437131823040545,0.9989486932754517,0.0,0.0,0.0,31.092859268188477,7.82860803604126,3.5940353870391846,-5627.869140625,0
2283.414999999999,0.07777649164199829,-0.025820204988121986,0.0011285749496892095,0.0,0.0,0.0,0.0,0.0016792529495432973,0.0022010577376931906,-0.002045043744146824,1.000070333480835,0.0,0.0,0.0,31.08917236328125,7.820472717285156,3.6057486534118652,-5627.20166015625,0
2293.288999999999,0.07781852036714554,-0.025716343894600868,0.0011877587530761957,0.0,0.0,0.0,0.0,-0.0005558358388952911,-0.0033106477931141853,-0.0017427789280191064,0.9978801012039185,0.0,0.0,0.0,31.09026527404785,7.834945201873779,3.61083984375,-5627.3994140625,0
2303.1800000000003,0.07774633914232254,-0.02565217763185501,0.0011711572296917439,0.0,0.0,0.0,0.0,0.0021354041527956724,0.0009614326991140842,-0.00190258352085948,0.9987278580665588,0.0,0.0,0.0,31.12022590637207,7.848660945892334,3.619189739227295,-5632.822265625,0
