timestamp,stateEstimate.x,stateEstimate.y,stateEstimate.z,controller.cmd_thrust,controller.cmd_roll,controller.cmd_pitch,controller.cmd_yaw,controller.r_roll,controller.r_pitch,controller.r_yaw,controller.accelz,controller.actuatorThrust,controller.roll,controller.pitch,controller.yaw,controller.rollRate,controller.pitchRate,controller.yawRate,controller.ctr_yaw
0.0,0.07449285686016083,-0.00032471524900756776,0.00140051927883178,0.0,0.0,0.0,0.0,-0.0008415075717493892,-0.0021621943451464176,-0.0012650963617488742,0.9997290968894958,0.0,0.0,0.0,26.439353942871094,9.455242156982422,3.1535329818725586,-4785.57568359375,0
9.88800000000083,0.07445762306451797,-0.0003664796822704375,0.001383448950946331,0.0,0.0,0.0,0.0,-0.001018838258460164,0.002832188503816724,-0.00205894629471004,1.0010628700256348,0.0,0.0,0.0,26.436445236206055,9.449152946472168,3.1462676525115967,-4785.048828125,0
19.769000000000233,0.0745270773768425,-0.0002737338072620332,0.001369774341583252,0.0,0.0,0.0,0.0,0.00034766815952025354,-0.0005369154387153685,-0.0003382931463420391,1.0001442432403564,0.0,0.0,0.0,26.441524505615234,9.460234642028809,3.1533963680267334,-4785.96826171875,0
29.673000000000684,0.07451003789901733,-0.0003107875236310065,0.0013572609750553966,0.0,0.0,0.0,0.0,0.00114734866656363,-6.16961406194605e-05,-0.0014986046589910984,0.9974298477172852,0.0,0.0,0.0,26.436763763427734,9.453598022460938,3.151901960372925,-4785.1064453125,0
39.538000000000466,0.07455123960971832,-0.0002344288513995707,0.0013787192292511463,0.0,0.0,0.0,0.0,-0.0005324091180227697,-0.003491220297291875,0.003201412735506892,0.9995929002761841,0.0,0.0,0.0,26.44292449951172,9.460678100585938,3.16491961479187,-4786.22216796875,0
49.43399999999929,0.07453126460313797,-0.00028924865182489157,0.001356101012788713,0.0,0.0,0.0,0.0,-0.004312723875045776,-0.00038948055589571595,0.00011283007188467309,0.9994792938232422,0.0,0.0,0.0,26.43599510192871,9.45568561553955,3.174233913421631,-4784.9677734375,0
59.310999999999694,0.07458293437957764,-0.00023270958627108485,0.001351875253021717,0.0,0.0,0.0,0.0,0.00017236876010429114,-0.0016364335315302014,-0.00409978860989213,0.9989710450172424,0.0,0.0,0.0,26.43703842163086,9.467708587646484,3.1837353706359863,-4785.15625,0
69.20700000000033,0.07454898953437805,-0.00027564895572140813,0.0013296182733029127,0.0,0.0,0.0,0.0,0.0017314775614067912,0.0016362033784389496,0.0014590142527595162,0.9974651336669922,0.0,0.0,0.0,26.430931091308594,9.462177276611328,3.1735823154449463,-4784.05078125,0
79.08599999999933,0.07461337745189667,-0.0001967112475540489,0.0013134455075487494,0.0,0.0,0.0,0.0,-0.0037056375294923782,-0.0011249191593378782,-0.001689964672550559,0.9978446364402771,0.0,0.0,0.0,26.43728256225586,9.464519500732422,3.1858041286468506,-4785.2001953125,0
88.96800000000076,0.07452615350484848,-0.00022180295491125435,0.0012788992607966065,0.0,0.0,0.0,0.0,-0.0011015725322067738,-0.002302135108038783,0.0006980809266678989,0.9976659417152405,0.0,0.0,0.0,26.43302345275879,9.472935676574707,3.174556016921997,-4784.4296875,0
98.85000000000036,0.07459291815757751,-0.00012270374281797558,0.0012609026161953807,0.0,0.0,0.0,0.0,-0.0018418771214783192,-0.005196888465434313,-0.005141383968293667,1.0000004768371582,0.0,0.0,0.0,26.43955421447754,9.481301307678223,3.194962739944458,-4785.61181640625,0
108.75300000000061,0.07451087236404419,-0.0001412592246197164,0.0012278747744858265,0.0,0.0,0.0,0.0,0.00025056872982531786,0.0031646541319787502,0.0026030640583485365,0.9991172552108765,0.0,0.0,0.0,26.432781219482422,9.482748985290527,3.192014217376709,-4784.3857421875,0
118.6180000000004,0.07451826333999634,-0.00014834129251539707,0.0012449084315449,0.0,0.0,0.0,0.0,0.002436445327475667,0.0014793979935348034,0.0020594485104084015,0.998049259185791,0.0,0.0,0.0,26.4397029876709,9.477420806884766,3.1912879943847656,-4785.638671875,0
128.5069999999996,0.07448968291282654,-0.00022352798259817064,0.0012011290527880192,0.0,0.0,0.0,0.0,0.002205390017479658,-0.0016078155022114515,0.00023858084750827402,0.9981896877288818,0.0,0.0,0.0,26.42958641052246,9.459040641784668,3.1762983798980713,-4783.8076171875,0
138.40300000000025,0.07446928322315216,-0.00023030233569443226,0.0012578396126627922,0.0,0.0,0.0,0.0,0.00242527574300766,-0.004484610166400671,0.0009202052606269717,1.0005120038986206,0.0,0.0,0.0,26.43140983581543,9.459855079650879,3.1696557998657227,-4784.1376953125,0
148.28399999999965,0.07444652169942856,-0.0002852605248335749,0.0012298059882596135,0.0,0.0,0.0,0.0,0.0022232544142752886,-0.0008910854230634868,0.0026676261331886053,1.0019227266311646,0.0,0.0,0.0,26.42291831970215,9.450996398925781,3.170734167098999,-4782.60107421875,0
158.16899999999987,0.07445362955331802,-0.00029126612935215235,0.0012527448125183582,0.0,0.0,0.0,0.0,-0.0001301441079704091,-0.003361296374350786,-0.0008094037766568363,1.0006061792373657,0.0,0.0,0.0,26.42923927307129,9.445425033569336,3.1677286624908447,-4783.7451171875,0
168.04299999999967,0.0744314193725586,-0.0003292567271273583,0.0012425007298588753,0.0,0.0,0.0,0.0,-0.0006523024057969451,-0.002807654906064272,-0.0006292153848335147,1.0024129152297974,0.0,0.0,0.0,26.41937828063965,9.441181182861328,3.17386794090271,-4781.9599609375,0
177.92399999999907,0.07444433867931366,-0.00039308128179982305,0.00123720639385283,0.0,0.0,0.0,0.0,-0.0032352504786103964,0.0030251669231802225,-0.0018215460004284978,1.0017646551132202,0.0,0.0,0.0,26.392868041992188,9.43289566040039,3.174440622329712,-4777.16162109375,0
187.83100000000013,0.07444038987159729,-0.00038110208697617054,0.0012931348755955696,0.0,0.0,0.0,0.0,0.000982864759862423,0.0011166648473590612,-0.0007377584115602076,0.9993192553520203,0.0,0.0,0.0,26.406158447265625,9.439672470092773,3.1678662300109863,-4779.56689453125,0
197.69900000000052,0.0744524747133255,-0.00044369406532496214,0.0012952073011547327,0.0,0.0,0.0,0.0,0.003219151170924306,-9.629636042518541e-05,0.0009207113762386143,0.9981540441513062,0.0,0.0,0.0,26.379547119140625,9.42900562286377,3.159536123275757,-4774.75048828125,0
207.58599999999933,0.07446413487195969,-0.00034990839776583016,0.0013533784076571465,0.0,0.0,0.0,0.0,-0.00209175911732018,0.0008874675258994102,-0.002657673554494977,0.9992356896400452,0.0,0.0,0.0,26.383556365966797,9.452630996704102,3.17449951171875,-4775.47607421875,0
217.46600000000035,0.07447866350412369,-0.0004091307055205107,0.0013584995176643133,0.0,0.0,0.0,0.0,-0.00331490533426404,-0.0030461291316896677,0.003067618003115058,0.9992974996566772,0.0,0.0,0.0,26.357452392578125,9.443824768066406,3.15824818611145,-4770.7509765625,0
227.35599999999977,0.07448780536651611,-0.00031463056802749634,0.0014226138591766357,0.0,0.0,0.0,0.0,-0.0008508742321282625,0.0004584534908644855,0.00023323493951465935,0.9981765151023865,0.0,0.0,0.0,26.363311767578125,9.484576225280762,3.1887590885162354,-4771.8115234375,0
355.85699999999997,0.074854776263237,-0.0004090421134606004,0.0017063720151782036,0.0,0.0,0.0,0.0,-0.001322831609286368,0.009006504900753498,0.0021557847503572702,0.9988467693328857,0.0,0.0,0.0,26.26656723022461,9.516289710998535,3.275122880935669,-4754.30126953125,0
365.7340000000004,0.07490772753953934,-0.00031334691448137164,0.0017672337125986814,0.0,0.0,0.0,0.0,0.0003371136263012886,-0.005533395800739527,0.0032124759163707495,0.9997360110282898,0.0,0.0,0.0,26.288515090942383,9.553412437438965,3.2918589115142822,-4758.2734375,0
375.6319999999996,0.07494644820690155,-0.00034400768345221877,0.001784415217116475,0.0,0.0,0.0,0.0,-0.0036097043193876743,-0.00264466879889369,0.0005740711349062622,1.00168776512146,0.0,0.0,0.0,26.263154983520508,9.544755935668945,3.2948906421661377,-4753.68359375,0
385.5169999999998,0.07498709857463837,-0.00037627556594088674,0.0018027646001428366,0.0,0.0,0.0,0.0,-0.004838660359382629,-0.00690953154116869,-0.0007371255196630955,1.000087022781372,0.0,0.0,0.0,26.236854553222656,9.541199684143066,3.2904112339019775,-4748.92236328125,0
395.40400000000045,0.07502944767475128,-0.00041035262984223664,0.0018221628852188587,0.0,0.0,0.0,0.0,0.0018234702292829752,0.008182062767446041,-0.0023856095504015684,0.9988113641738892,0.0,0.0,0.0,26.210201263427734,9.539874076843262,3.2975590229034424,-4744.09814453125,0
405.28100000000086,0.07446296513080597,-0.0002599621657282114,0.0014166268520057201,0.0,0.0,0.0,0.0,-0.00025661554536782205,-0.0015510690864175558,-0.0015460351714864373,1.0004761219024658,0.0,0.0,0.0,26.220787048339844,9.595787048339844,3.2106101512908936,-4746.01416015625,0
415.16799999999967,0.07448238879442215,-0.000292176817310974,0.0014196005649864674,0.0,0.0,0.0,0.0,-0.0002599507861305028,-0.001872594584710896,0.0010867042001336813,0.998672604560852,0.0,0.0,0.0,26.19452667236328,9.58697509765625,3.216305732727051,-4741.26123046875,0
425.0499999999993,0.07440803945064545,-0.0002692214329726994,0.0014408626593649387,0.0,0.0,0.0,0.0,0.0049084387719631195,0.0015794704668223858,0.0032026295084506273,0.9976293444633484,0.0,0.0,0.0,26.207178115844727,9.595767974853516,3.222437858581543,-4743.55126953125,0
434.9380000000001,0.07442573457956314,-0.0003022519522346556,0.0014436860801652074,0.0,0.0,0.0,0.0,-0.0024181674234569073,-0.004970017820596695,-0.0008265184587799013,0.9990525245666504,0.0,0.0,0.0,26.181997299194336,9.583216667175293,3.2205467224121094,-4738.9931640625,0
444.8250000000007,0.07439518719911575,-0.0003089451929554343,0.001461977488361299,0.0,0.0,0.0,0.0,-0.0005754255107603967,-0.0003828952321782708,0.00103914481587708,0.9996446967124939,0.0,0.0,0.0,26.195093154907227,9.588602066040039,3.233311176300049,-4741.36376953125,0
454.70600000000013,0.07441476732492447,-0.00034250065800733864,0.0014644884504377842,0.0,0.0,0.0,0.0,0.00204514991492033,0.0018043495947495103,-0.0005526914610527456,0.9995846152305603,0.0,0.0,0.0,26.169570922851562,9.582942008972168,3.2234299182891846,-4736.74462890625,0
464.59499999999935,0.07443602383136749,-0.0003768532769754529,0.0014670169912278652,0.0,0.0,0.0,0.0,-0.0019123661331832409,-0.006575504317879677,0.0034265005961060524,1.0011290311813354,0.0,0.0,0.0,26.143495559692383,9.570029258728027,3.215193033218384,-4732.0244140625,0
474.47999999999956,0.07445865124464035,-0.00041210633935406804,0.0014702333137392998,0.0,0.0,0.0,0.0,0.0020142344292253256,0.0014716818695887923,-0.0019849506206810474,0.9978334903717041,0.0,0.0,0.0,26.118431091308594,9.565364837646484,3.2239625453948975,-4727.48779296875,0
484.3670000000002,0.07448301464319229,-0.00044846063246950507,0.0014733411371707916,0.0,0.0,0.0,0.0,0.00035091376048512757,-0.0004448328400030732,0.0018392608035355806,0.999465823173523,0.0,0.0,0.0,26.091720581054688,9.554686546325684,3.2156670093536377,-4722.6533203125,0
494.2520000000004,0.07450917363166809,-0.00048718455946072936,0.001475961646065116,0.0,0.0,0.0,0.0,-0.0015705142868682742,-0.004722077399492264,-0.00027510058134794235,0.9999294877052307,0.0,0.0,0.0,26.06687355041504,9.547471046447754,3.2050957679748535,-4718.15625,0
504.1350000000002,0.07453560829162598,-0.0005287815583869815,0.0014790052082389593,0.0,0.0,0.0,0.0,-0.0006331269978545606,-0.0016005878569558263,-0.0015035218093544245,1.000396728515625,0.0,0.0,0.0,26.040987014770508,9.540881156921387,3.206864833831787,-4713.470703125,0
514.0149999999994,0.07456175237894058,-0.0005727792740799487,0.0014826904516667128,0.0,0.0,0.0,0.0,-0.0008796980255283415,0.0002799647336360067,0.005662846844643354,0.9990867376327515,0.0,0.0,0.0,26.013412475585938,9.532130241394043,3.202914237976074,-4708.47998046875,0
523.9030000000002,0.07458797097206116,-0.0006192961591295898,0.0014861833769828081,0.0,0.0,0.0,0.0,-0.0023730541579425335,0.0017524841241538525,0.0009453746606595814,0.9968417286872864,0.0,0.0,0.0,25.988630294799805,9.527802467346191,3.203644275665283,-4703.9931640625,0
533.7960000000003,0.07461459189653397,-0.0006688981666229665,0.0014882988762110472,0.0,0.0,0.0,0.0,-0.0025956102181226015,-0.006728233303874731,-0.0004689268535003066,1.0026804208755493,0.0,0.0,0.0,25.963592529296875,9.524059295654297,3.1974871158599854,-4699.4619140625,0
543.6700000000001,0.07464218884706497,-0.0007206418085843325,0.0014909927267581224,0.0,0.0,0.0,0.0,-0.003163783811032772,-0.0027815948706120253,0.0009989874670282006,1.0017008781433105,0.0,0.0,0.0,25.93824005126953,9.513471603393555,3.2013940811157227,-4694.87255859375,0
553.5570000000007,0.07467018812894821,-0.0007730458164587617,0.0014959939289838076,0.0,0.0,0.0,0.0,0.00019956212781835347,-0.0022922104690223932,0.00117885647341609,0.9989654421806335,0.0,0.0,0.0,25.912904739379883,9.50765609741211,3.190779685974121,-4690.28759765625,0
563.4400000000005,0.07469768822193146,-0.0008264455245807767,0.0015016138786450028,0.0,0.0,0.0,0.0,-0.0003479689476080239,-0.001105124014429748,0.0008381711668334901,0.9996848106384277,0.0,0.0,0.0,25.887462615966797,9.50130558013916,3.196500539779663,-4685.68212890625,0
573.3299999999999,0.07472511380910873,-0.0008818170172162354,0.001507176086306572,0.0,0.0,0.0,0.0,-5.287446128932061e-06,0.0009990943362936378,0.0010186159051954746,1.000137209892273,0.0,0.0,0.0,25.861942291259766,9.492474555969238,3.200437545776367,-4681.0634765625,0
583.2099999999991,0.0747523084282875,-0.0009396375389769673,0.0015132339904084802,0.0,0.0,0.0,0.0,0.0003245705156587064,0.006479272153228521,-0.0035347689408808947,1.0000091791152954,0.0,0.0,0.0,25.836448669433594,9.48215103149414,3.193279981613159,-4676.44873046875,0
593.0959999999995,0.07477840781211853,-0.001001149881631136,0.0015198179753497243,0.0,0.0,0.0,0.0,-0.00216175289824605,-0.0020531818736344576,-0.0003690225712489337,0.9991714358329773,0.0,0.0,0.0,25.8088436126709,9.46840763092041,3.1764168739318848,-4671.4521484375,0
602.982,0.07483866065740585,-0.0005691762780770659,0.0018042849842458963,0.0,0.0,0.0,0.0,0.0015625616069883108,-0.0016747020417824388,0.004889013711363077,0.9976932406425476,0.0,0.0,0.0,25.87299156188965,9.569721221923828,3.2405927181243896,-4683.06298828125,0
612.8709999999992,0.07486730813980103,-0.0006124620558694005,0.0018253379967063665,0.0,0.0,0.0,0.0,-0.001386906486004591,0.00039699056651443243,0.0001573016488691792,0.9985024333000183,0.0,0.0,0.0,25.84857940673828,9.55924129486084,3.2449915409088135,-4678.64404296875,0
622.7420000000002,0.07491244375705719,-0.000504752155393362,0.0019402410835027695,0.0,0.0,0.0,0.0,0.002692942740395665,0.0014324757503345609,0.0024820873513817787,0.9986960887908936,0.0,0.0,0.0,25.90839958190918,9.58138370513916,3.268021821975708,-4689.4716796875,0
632.6389999999992,0.07494434714317322,-0.0005427792202681303,0.00196413928642869,0.0,0.0,0.0,0.0,-0.00360887055285275,0.0006330092437565327,0.0015252219745889306,1.0002751350402832,0.0,0.0,0.0,25.8826961517334,9.571887016296387,3.2588632106781006,-4684.81982421875,0
642.5120000000006,0.07500439882278442,-0.000459609815152362,0.0020324706565588713,0.0,0.0,0.0,0.0,-0.00222007860429585,-0.0015092476969584823,0.0016202527331188321,1.0006804466247559,0.0,0.0,0.0,25.933456420898438,9.595046997070312,3.2865593433380127,-4694.0068359375,0
652.4089999999997,0.07503966987133026,-0.0004973955801688135,0.0020598392002284527,0.0,0.0,0.0,0.0,0.0022296977695077658,-0.002917550504207611,0.0001719207939459011,0.9995470643043518,0.0,0.0,0.0,25.908838272094727,9.587902069091797,3.2947309017181396,-4689.55126953125,0
662.2880000000005,0.0750754252076149,-0.0005388697027228773,0.002087837550789118,0.0,0.0,0.0,0.0,0.0020546065643429756,0.0014355548191815615,0.004112181719392538,0.9991530776023865,0.0,0.0,0.0,25.883581161499023,9.579632759094238,3.305109739303589,-4684.9794921875,0
672.1810000000005,0.0751115083694458,-0.0005836639902554452,0.0021159446332603693,0.0,0.0,0.0,0.0,-0.0005661725299432874,0.0031771708745509386,-0.0005951961502432823,1.0001708269119263,0.0,0.0,0.0,25.858631134033203,9.567493438720703,3.300906181335449,-4680.4638671875,0
682.0550000000003,0.0751480981707573,-0.0006310825701802969,0.002144435653463006,0.0,0.0,0.0,0.0,-0.0018372525228187442,-0.009504507295787334,0.003020022064447403,1.0024185180664062,0.0,0.0,0.0,25.83336639404297,9.558491706848145,3.284958839416504,-4675.890625,0
691.9529999999995,0.07438977062702179,-0.0004142617108300328,0.0016557516064494848,0.0,0.0,0.0,0.0,0.00045264698565006256,0.01063571684062481,0.0008275119471363723,0.9996880292892456,0.0,0.0,0.0,25.878429412841797,9.667773246765137,3.1726808547973633,-4684.046875,0
701.8259999999991,0.07439543306827545,-0.0004515218606684357,0.001667844713665545,0.0,0.0,0.0,0.0,0.0023866011761128902,0.001232834649272263,0.0033974763937294483,0.9969841241836548,0.0,0.0,0.0,25.85297393798828,9.654942512512207,3.144568920135498,-4679.439453125,0
711.7170000000006,0.07431842386722565,-0.0004963625688105822,0.0016439190367236733,0.0,0.0,0.0,0.0,-0.0007382810581475496,0.0005590246873907745,0.002535247476771474,0.9974269866943359,0.0,0.0,0.0,25.890056610107422,9.642004013061523,3.1413424015045166,-4686.1513671875,0
721.5990000000002,0.07432316243648529,-0.0005365572869777679,0.001650715828873217,0.0,0.0,0.0,0.0,-0.0045939660631120205,-0.002426680875942111,0.0031065146904438734,0.996971845626831,0.0,0.0,0.0,25.865493774414062,9.63516902923584,3.1343495845794678,-4681.70556640625,0
731.4930000000004,0.07430422306060791,-0.0005420247325673699,0.001690410077571869,0.0,0.0,0.0,0.0,5.3821378969587386e-05,-0.003273693611845374,-0.0018119020387530327,0.9982935190200806,0.0,0.0,0.0,25.906206130981445,9.639039993286133,3.1450977325439453,-4689.07470703125,0
741.3649999999998,0.0743073895573616,-0.0005831632879562676,0.001695652841590345,0.0,0.0,0.0,0.0,-0.0010774650145322084,0.000717861345037818,0.0063852546736598015,1.0004209280014038,0.0,0.0,0.0,25.878883361816406,9.629375457763672,3.1505720615386963,-4684.12939453125,0
751.2620000000006,0.07431918382644653,-0.0006025628536008298,0.0017262640176340938,0.0,0.0,0.0,0.0,0.00020194632816128433,-0.003976752050220966,-0.0005404290859587491,0.9999646544456482,0.0,0.0,0.0,25.91352653503418,9.623517036437988,3.156759023666382,-4690.3994140625,0
761.1319999999996,0.07432379573583603,-0.0006470625521615148,0.0017341561615467072,0.0,0.0,0.0,0.0,0.00037775939563289285,0.0032962418626993895,0.0006602905923500657,0.9982772469520569,0.0,0.0,0.0,25.887632369995117,9.611676216125488,3.1621274948120117,-4685.712890625,0
771.0290000000005,0.07431896775960922,-0.0006516746943816543,0.0017848378047347069,0.0,0.0,0.0,0.0,-0.000814745610114187,-0.002690086606889963,0.001530527020804584,0.997999906539917,0.0,0.0,0.0,25.928598403930664,9.61497688293457,3.172121524810791,-4693.1279296875,0
780.9079999999994,0.07432463020086288,-0.0006992953130975366,0.001794380135834217,0.0,0.0,0.0,0.0,-0.0005555198877118528,0.0004168721497990191,-0.001335810637101531,1.0000487565994263,0.0,0.0,0.0,25.902816772460938,9.609640121459961,3.1785354614257812,-4688.46142578125,0
790.8050000000003,0.07434271275997162,-0.0007161064422689378,0.0018364081624895334,0.0,0.0,0.0,0.0,0.0008286175434477627,-0.002405306790024042,0.000282923603663221,0.9990485310554504,0.0,0.0,0.0,25.939281463623047,9.60763168334961,3.1907284259796143,-4695.0615234375,0
800.6769999999997,0.07435030490159988,-0.0007635640795342624,0.0018482848536223173,0.0,0.0,0.0,0.0,-0.0023928089067339897,-0.0015320308739319444,-0.0006807057070545852,0.9998040199279785,0.0,0.0,0.0,25.913633346557617,9.596006393432617,3.185558795928955,-4690.41943359375,0
810.5669999999991,0.07431317865848541,-0.0007458986947312951,0.0019176686182618141,0.0,0.0,0.0,0.0,0.0028913654386997223,-0.0016954467864707112,-0.001843837439082563,0.9991241097450256,0.0,0.0,0.0,25.951467514038086,9.623214721679688,3.1942548751831055,-4697.267578125,0
820.4509999999991,0.07432243973016739,-0.0007884067599661648,0.0019337739795446396,0.0,0.0,0.0,0.0,-0.000517162261530757,-0.001368907280266285,0.0015008104965090752,0.9992978572845459,0.0,0.0,0.0,25.925806045532227,9.614110946655273,3.197396993637085,-4692.6220703125,0
830.3379999999997,0.07430505007505417,-0.0007837023003958166,0.0019861452747136354,0.0,0.0,0.0,0.0,0.0002838362706825137,0.0008349663112312555,-0.0019443162018433213,0.9991056323051453,0.0,0.0,0.0,25.96476173400879,9.624902725219727,3.2057137489318848,-4699.67333984375,0
840.2119999999995,0.07431073486804962,-0.0008238024893216789,0.002004416426643729,0.0,0.0,0.0,0.0,0.0001391723199049011,-0.00027644229703582823,0.0020719016902148724,0.9984161257743835,0.0,0.0,0.0,25.939102172851562,9.613139152526855,3.1975698471069336,-4695.029296875,0
850.1100000000006,0.0742642879486084,-0.0008083300781436265,0.0020488156005740166,0.0,0.0,0.0,0.0,0.002175954170525074,0.0012028435012325644,-0.00020993381622247398,0.9970531463623047,0.0,0.0,0.0,25.968595504760742,9.631781578063965,3.1820309162139893,-4700.3671875,0
859.9809999999998,0.07426314055919647,-0.0008456745999865234,0.002066683489829302,0.0,0.0,0.0,0.0,-0.000837694329675287,0.0012399377301335335,0.002752759261056781,0.9988053441047668,0.0,0.0,0.0,25.943140029907227,9.620013236999512,3.173676013946533,-4695.759765625,0
869.8790000000008,0.07424752414226532,-0.0008353640441782773,0.002114121103659272,0.0,0.0,0.0,0.0,0.000440176430856809,-0.003266362939029932,-0.003395920153707266,0.9995512366294861,0.0,0.0,0.0,25.96959114074707,9.637131690979004,3.17246675491333,-4700.54736328125,0
879.7530000000006,0.07424305379390717,-0.0008704508654773235,0.002133795525878668,0.0,0.0,0.0,0.0,-0.0016292351065203547,-0.00012172505375929177,-0.0003184107772540301,1.0016120672225952,0.0,0.0,0.0,25.943010330200195,9.627317428588867,3.1738321781158447,-4695.73681640625,0
889.6450000000004,0.07421768456697464,-0.0008577496628277004,0.002177812624722719,0.0,0.0,0.0,0.0,-0.0015992257976904511,-0.0003318319213576615,-0.004479697439819574,1.0001314878463745,0.0,0.0,0.0,25.965129852294922,9.643489837646484,3.170236587524414,-4699.740234375,0
899.5210000000006,0.07452496141195297,-0.00031059401226229966,0.0013833590783178806,0.0,0.0,0.0,0.0,-0.0015104427002370358,0.0019844730850309134,0.002312260679900646,0.9982401132583618,0.0,0.0,0.0,26.004352569580078,9.723676681518555,3.268479824066162,-4706.83935546875,0
909.4220000000005,0.0744062289595604,-0.0002452228800393641,0.0013903058134019375,0.0,0.0,0.0,0.0,-0.003097269916906953,-0.0004891087883152068,0.003720658365637064,0.9985597133636475,0.0,0.0,0.0,26.027795791625977,9.73301887512207,3.2661702632904053,-4711.08349609375,0
919.2970000000005,0.07444347441196442,-0.00013871114060748369,0.0013672224013134837,0.0,0.0,0.0,0.0,0.0004998065996915102,0.0026360289193689823,0.000689626089297235,1.0003242492675781,0.0,0.0,0.0,26.05455207824707,9.735196113586426,3.2673838138580322,-4715.92578125,0
929.1900000000005,0.0743744745850563,-0.00014107211609371006,0.0013366405619308352,0.0,0.0,0.0,0.0,-5.21577067047474e-06,0.00013012845010962337,0.002076493576169014,0.9973239898681641,0.0,0.0,0.0,26.07521629333496,9.726478576660156,3.256004810333252,-4719.666015625,0
939.0630000000001,0.0743618905544281,-0.00010252401989419013,0.0013836986618116498,0.0,0.0,0.0,0.0,0.0038409794215112925,0.00821975339204073,-0.0003701573587022722,0.9973010420799255,0.0,0.0,0.0,26.10355567932129,9.716863632202148,3.2584421634674072,-4724.79541015625,0
948.9570000000003,0.0744013786315918,-0.00013771062367595732,0.0013771579833701253,0.0,0.0,0.0,0.0,0.00256907707080245,0.004652629606425762,0.0015809467295184731,1.0007145404815674,0.0,0.0,0.0,26.118946075439453,9.697404861450195,3.248840093612671,-4727.58154296875,0
958.8330000000005,0.07439973950386047,-0.0001376383879687637,0.001387292635627091,0.0,0.0,0.0,0.0,-0.003071700921282172,-0.00017454173939768225,-0.00030143221374601126,0.9998628497123718,0.0,0.0,0.0,26.15345001220703,9.683820724487305,3.247441530227661,-4733.82666015625,0
968.7279999999992,0.07441996783018112,-0.000201998685952276,0.001359701855108142,0.0,0.0,0.0,0.0,0.0010464731603860855,-0.005389380268752575,-0.0020780330523848534,0.998561680316925,0.0,0.0,0.0,26.162351608276367,9.675682067871094,3.261040687561035,-4735.4375,0
978.6059999999998,0.07441924512386322,-0.00015494045510422438,0.0013944682432338595,0.0,0.0,0.0,0.0,0.0020973903592675924,0.004694832023233175,-3.15170873363968e-05,0.9966328740119934,0.0,0.0,0.0,26.179065704345703,9.665303230285645,3.2738139629364014,-4738.462890625,0
988.4989999999998,0.07446207851171494,-0.0002166058256989345,0.0013759948778897524,0.0,0.0,0.0,0.0,-0.003866019193083048,0.0009545643115416169,-0.0003876438131555915,0.9987546801567078,0.0,0.0,0.0,26.185707092285156,9.646340370178223,3.2690625190734863,-4739.6650390625,0
998.3719999999994,0.07446648925542831,-0.00016620017413515598,0.0014101534616202116,0.0,0.0,0.0,0.0,0.0011805322719737887,-0.005698504392057657,-0.0003516611468512565,0.9987823367118835,0.0,0.0,0.0,26.19832420349121,9.650371551513672,3.2691516876220703,-4741.94873046875,0
1008.2749999999996,0.07450718432664871,-0.0002255548315588385,0.001391440979205072,0.0,0.0,0.0,0.0,0.00016615266213193536,0.0026789535768330097,-0.0012961336178705096,0.998723030090332,0.0,0.0,0.0,26.206022262573242,9.63470458984375,3.274502992630005,-4743.34228515625,0
1018.1499999999996,0.07448141276836395,-0.00025136361364275217,0.0014395850012078881,0.0,0.0,0.0,0.0,-0.0035624851007014513,-0.0034647041466087103,-0.00018860115960706025,0.9991685152053833,0.0,0.0,0.0,26.231721878051758,9.62277603149414,3.262727975845337,-4747.99365234375,0
1028.0460000000003,0.07444759458303452,-0.00027455019881017506,0.0014225327176973224,0.0,0.0,0.0,0.0,-0.0034210786689072847,-0.003112547565251589,-9.178309846902266e-05,0.9989742636680603,0.0,0.0,0.0,26.23754119873047,9.619369506835938,3.269209384918213,-4749.046875,0
1037.9130000000005,0.07444079965353012,-0.0002707893727347255,0.0014597892295569181,0.0,0.0,0.0,0.0,-0.0011747656390070915,-0.0029290015809237957,0.0012005924945697188,0.9989846348762512,0.0,0.0,0.0,26.26102638244629,9.617449760437012,3.279799222946167,-4753.2978515625,0
1047.804,0.07446952164173126,-0.0003200812207069248,0.0014494522474706173,0.0,0.0,0.0,0.0,-0.0018645146628841758,0.00027601892361417413,5.051248808740638e-05,0.999262809753418,0.0,0.0,0.0,26.2609806060791,9.603683471679688,3.2867484092712402,-4753.2900390625,0
1057.6900000000005,0.07451657950878143,-0.0002557738625910133,0.0014368451666086912,0.0,0.0,0.0,0.0,-0.0004706800973508507,0.005006744526326656,0.0014885072596371174,1.0002168416976929,0.0,0.0,0.0,26.27781105041504,9.604926109313965,3.2997817993164062,-4756.33642578125,0
1067.5869999999995,0.07446702569723129,-0.00027007333119399846,0.0014156635152176023,0.0,0.0,0.0,0.0,-0.0018028097692877054,0.007927111349999905,-0.0005944959120824933,0.9998781085014343,0.0,0.0,0.0,26.281482696533203,9.598715782165527,3.2795581817626953,-4757.0009765625,0
1077.4560000000001,0.07441579550504684,-0.00017061864491552114,0.0014116789679974318,0.0,0.0,0.0,0.0,-0.0010564931435510516,-0.0032881072256714106,0.000621578365098685,1.0006897449493408,0.0,0.0,0.0,26.326087951660156,9.603212356567383,3.274656057357788,-4765.07421875,0
1087.3449999999993,0.07442818582057953,-0.00019976224575657398,0.0014077414525672793,0.0,0.0,0.0,0.0,0.0021557731088250875,-0.0059555391781032085,0.0029796678572893143,0.9996067881584167,0.0,0.0,0.0,26.30031967163086,9.599035263061523,3.279301166534424,-4760.41015625,0
1097.2240000000002,0.07445003092288971,-0.00020618354028556496,0.0013926386600360274,0.0,0.0,0.0,0.0,-0.0014548441395163536,-0.0003140695043839514,0.0010244392324239016,1.001991629600525,0.0,0.0,0.0,26.3377628326416,9.580254554748535,3.2922165393829346,-4767.1875,0
1107.1180000000004,0.07446328550577164,-0.0002363325038459152,0.0013898679753765464,0.0,0.0,0.0,0.0,-0.004518695175647736,-0.0035210768692195415,0.001169009367004037,1.0021551847457886,0.0,0.0,0.0,26.31183624267578,9.576711654663086,3.2880756855010986,-4762.4951171875,0
1116.9950000000008,0.07445976138114929,-0.00015378253010567278,0.0013126590056344867,0.0,0.0,0.0,0.0,-0.00042226348887197673,0.0012058713473379612,-0.0019186174031347036,1.001177191734314,0.0,0.0,0.0,26.348703384399414,9.58599853515625,3.3055708408355713,-4769.16748046875,0
1126.8870000000006,0.07447614520788193,-0.0001863630604930222,0.001307907048612833,0.0,0.0,0.0,0.0,-0.0019426530925557017,-0.003763263812288642,0.003251813817769289,1.000448226928711,0.0,0.0,0.0,26.3216552734375,9.579971313476562,3.2963600158691406,-4764.2724609375,0
1136.7649999999994,0.0744645744562149,-0.00016395126294810325,0.0012954894918948412,0.0,0.0,0.0,0.0,0.0014119648840278387,0.0022516062017530203,0.004643034189939499,0.9973350167274475,0.0,0.0,0.0,26.36602783203125,9.575430870056152,3.304893970489502,-4772.3037109375,0
1146.6669999999995,0.0744815245270729,-0.00020377314649522305,0.001290008774958551,0.0,0.0,0.0,0.0,-0.001977914245799184,-0.0007357406429946423,-0.0012162358034402132,0.9976068139076233,0.0,0.0,0.0,26.3422794342041,9.566773414611816,3.2953052520751953,-4768.0048828125,0
1156.5349999999999,0.07443548738956451,-0.0002271655830554664,0.0012865513563156128,0.0,0.0,0.0,0.0,0.0021041189320385456,-0.001012031571008265,-0.00043235206976532936,1.0010462999343872,0.0,0.0,0.0,26.38173484802246,9.560891151428223,3.2934341430664062,-4775.146484375,0
1166.429,0.07445365935564041,-0.0002707615203689784,0.0012798648094758391,0.0,0.0,0.0,0.0,-0.0003655466716736555,0.00045248051173985004,0.002487183315679431,1.0015299320220947,0.0,0.0,0.0,26.356351852416992,9.548632621765137,3.292451858520508,-4770.55224609375,0
1176.3029999999999,0.07441534847021103,-0.0002195394627051428,0.0013327418128028512,0.0,0.0,0.0,0.0,0.0003691055753733963,0.0030387267470359802,0.0009792426135390997,0.9997588396072388,0.0,0.0,0.0,26.39419174194336,9.55046558380127,3.2942163944244385,-4777.4013671875,0
1186.196,0.07443325966596603,-0.00026781155611388385,0.001333438092842698,0.0,0.0,0.0,0.0,-0.00015231019642669708,0.00025753062800504267,-0.0012751868925988674,0.9991421103477478,0.0,0.0,0.0,26.368000030517578,9.536482810974121,3.2880356311798096,-4772.66015625,0
1196.08,0.07443523406982422,-0.00022807024652138352,0.0013746042968705297,0.0,0.0,0.0,0.0,0.003653352614492178,0.002124568447470665,0.0017064728308469057,0.9979148507118225,0.0,0.0,0.0,26.398595809936523,9.53193187713623,3.2922873497009277,-4778.1982421875,0
1205.9650000000001,0.07445281744003296,-0.0002788230194710195,0.0013778747525066137,0.0,0.0,0.0,0.0,0.00439597899094224,-0.005529169924557209,-0.0013559426879510283,1.0010201930999756,0.0,0.0,0.0,26.37383270263672,9.518877983093262,3.283710241317749,-4773.71630859375,0
1215.8490000000002,0.07444651424884796,-0.00029924383852630854,0.0014286634977906942,0.0,0.0,0.0,0.0,-0.0033686738461256027,-0.000546439434401691,-0.0021825123112648726,0.997784435749054,0.0,0.0,0.0,26.387874603271484,9.503122329711914,3.292022705078125,-4776.2578125,0
1225.741,0.07447885721921921,-0.0003311102627776563,0.0014514259528368711,0.0,0.0,0.0,0.0,9.61024925345555e-05,0.0019173925975337625,0.00039249935070984066,0.998500406742096,0.0,0.0,0.0,26.388940811157227,9.501985549926758,3.2958872318267822,-4776.45068359375,0
1235.6149999999998,0.0744272917509079,-0.0003074421256314963,0.0014825727557763457,0.0,0.0,0.0,0.0,-0.0015743667026981711,-0.005668489262461662,-0.0025334805250167847,0.9973561763763428,0.0,0.0,0.0,26.432363510131836,9.496145248413086,3.2876055240631104,-4784.31005859375,0
1245.5040000000008,0.0744457095861435,-0.00036422215634956956,0.0014898960944265127,0.0,0.0,0.0,0.0,-0.0007999942172318697,0.0024197017773985863,-0.0008200605516321957,1.0009456872940063,0.0,0.0,0.0,26.405590057373047,9.487066268920898,3.289034128189087,-4779.46435546875,0
1255.3919999999998,0.07445785403251648,-0.00032209657365456223,0.0015168532263487577,0.0,0.0,0.0,0.0,-0.0009076670976355672,-0.0015890056965872645,-3.369909609318711e-05,1.0019794702529907,0.0,0.0,0.0,26.433034896850586,9.488242149353027,3.297389030456543,-4784.431640625,0
1265.277,0.07447419315576553,-0.0003777788660954684,0.001527781831100583,0.0,0.0,0.0,0.0,-0.0005350580904632807,0.0023875401820987463,0.0006672730669379234,0.9990975260734558,0.0,0.0,0.0,26.40699577331543,9.481383323669434,3.2970197200775146,-4779.71875,0
1275.1530000000002,0.07444581389427185,-0.00032946967985481024,0.0015509712975472212,0.0,0.0,0.0,0.0,0.0012846107129007578,-0.005623483564704657,0.001978555228561163,0.9979788064956665,0.0,0.0,0.0,26.445438385009766,9.482041358947754,3.3020668029785156,-4786.67724609375,0
1285.0460000000003,0.0744633898139,-0.00038353021955117583,0.0015627308748662472,0.0,0.0,0.0,0.0,-0.00237032538279891,-0.003150594886392355,-0.0004352237156126648,0.9978803396224976,0.0,0.0,0.0,26.420188903808594,9.472018241882324,3.314265489578247,-4782.1064453125,0
1294.9259999999995,0.07445332407951355,-0.0002676232543308288,0.001514504780061543,0.0,0.0,0.0,0.0,-0.0021748049184679985,-0.0030305744148790836,0.003329157130792737,0.9988186359405518,0.0,0.0,0.0,26.453960418701172,9.485057830810547,3.3234751224517822,-4788.21923828125,0
1304.8179999999993,0.07447192817926407,-0.00031914602732285857,0.0015194325242191553,0.0,0.0,0.0,0.0,0.003060106420889497,0.0009742958354763687,0.0002711318666115403,0.9996832013130188,0.0,0.0,0.0,26.4288387298584,9.478593826293945,3.316779613494873,-4783.67236328125,0
1314.7019999999993,0.07449732720851898,-0.00021920209110248834,0.0014863180695101619,0.0,0.0,0.0,0.0,-0.00472093652933836,0.0008611122611910105,0.0009108122903853655,0.9975489974021912,0.0,0.0,0.0,26.458520889282227,9.480033874511719,3.3257932662963867,-4789.04443359375,0
1324.5930000000008,0.07451821863651276,-0.0002696774317882955,0.0014870550949126482,0.0,0.0,0.0,0.0,0.0003928352671209723,0.0024675235617905855,-0.0009949414525181055,0.9980302453041077,0.0,0.0,0.0,26.432559967041016,9.478882789611816,3.3207757472991943,-4784.345703125,0
1334.4670000000006,0.07450240850448608,-0.00023076181241776794,0.0014666903298348188,0.0,0.0,0.0,0.0,0.0013726293109357357,0.005097189452499151,0.0009082330507226288,0.9973602294921875,0.0,0.0,0.0,26.458999633789062,9.477017402648926,3.3127870559692383,-4789.13134765625,0
1344.357,0.07452499121427536,-0.00028267456218600273,0.001462309854105115,0.0,0.0,0.0,0.0,0.0013696359237655997,0.0022213002666831017,-3.582415956771001e-05,0.9985946416854858,0.0,0.0,0.0,26.43291473388672,9.465785026550293,3.293567419052124,-4784.41015625,0
1354.2389999999996,0.0744481012225151,-0.0002590497024357319,0.0014515441143885255,0.0,0.0,0.0,0.0,0.0009142009657807648,0.0012838720576837659,-5.057564067101339e-06,0.9996182918548584,0.0,0.0,0.0,26.45476722717285,9.466354370117188,3.2755162715911865,-4788.365234375,0
1364.1290000000008,0.07446993887424469,-0.0003132232232019305,0.0014448899310082197,0.0,0.0,0.0,0.0,-0.0022440317552536726,0.0006711374153383076,-0.00026961357798427343,0.997724175453186,0.0,0.0,0.0,26.428203582763672,9.454317092895508,3.262085199356079,-4783.5576171875,0
1374.009,0.07438580691814423,-0.00023340842744801193,0.0014378989581018686,0.0,0.0,0.0,0.0,0.0004897851613350213,-0.0036239237524569035,-0.0019965446554124355,0.9988025426864624,0.0,0.0,0.0,26.449979782104492,9.474608421325684,3.2601118087768555,-4787.49853515625,0
1383.902,0.07440539449453354,-0.00028766703326255083,0.0014295980799943209,0.0,0.0,0.0,0.0,-0.00023177472758106887,0.006801242008805275,0.002886533970013261,1.000566840171814,0.0,0.0,0.0,26.42330551147461,9.465458869934082,3.259133815765381,-4782.6708984375,0
1393.7720000000008,0.07440130412578583,-0.00024542916798964143,0.0014087468152865767,0.0,0.0,0.0,0.0,-0.0028103101067245007,-0.002031913725659251,-0.0010310334619134665,1.0040960311889648,0.0,0.0,0.0,26.44692039489746,9.465459823608398,3.2467501163482666,-4786.9453125,0
1403.6759999999995,0.07441974431276321,-0.0002992390072904527,0.0014028174336999655,0.0,0.0,0.0,0.0,-0.00048359797801822424,-0.0012609991244971752,-0.0007159658125601709,0.9995579123497009,0.0,0.0,0.0,26.420520782470703,9.45871353149414,3.2488579750061035,-4782.16650390625,0
1413.5439999999999,0.07438147813081741,-0.00023780477931722999,0.0014210701920092106,0.0,0.0,0.0,0.0,0.001066553988493979,-0.006115656346082687,-0.002240906236693263,0.997423529624939,0.0,0.0,0.0,26.447832107543945,9.465015411376953,3.253812789916992,-4787.10986328125,0
1423.4349999999995,0.0744001641869545,-0.0002919674152508378,0.0014178742421790957,0.0,0.0,0.0,0.0,-0.0011133552761748433,-0.005117850843816996,-0.0019529496785253286,0.9992353916168213,0.0,0.0,0.0,26.421297073364258,9.453015327453613,3.2571675777435303,-4782.30712890625,0
1433.313,0.07450518757104874,-0.00029973185155540705,0.0014169788919389248,0.0,0.0,0.0,0.0,-0.0016830486711114645,-0.0018076960695907474,0.0031561634968966246,1.0004591941833496,0.0,0.0,0.0,26.445262908935547,9.446066856384277,3.28739333152771,-4786.64501953125,0
1443.2180000000008,0.07450518757104874,-0.00029973185155540705,0.0014169788919389248,0.0,0.0,0.0,0.0,-0.0006805281736887991,-0.0079842833802104,-1.4762822502234485e-05,1.000503420829773,0.0,0.0,0.0,26.445262908935547,9.446066856384277,3.28739333152771,-4786.64501953125,0
1453.0820000000003,0.07448253035545349,-0.0002799363574013114,0.0014264527708292007,0.0,0.0,0.0,0.0,-0.0007479942287318408,-0.003664348740130663,0.0023419042117893696,1.0012693405151367,0.0,0.0,0.0,26.467872619628906,9.456771850585938,3.3014893531799316,-4790.7373046875,0
1462.9740000000002,0.07450540363788605,-0.00033629685640335083,0.001425599679350853,0.0,0.0,0.0,0.0,0.0012646514223888516,0.006018948741257191,-0.0011061429977416992,0.9995795488357544,0.0,0.0,0.0,26.441543579101562,9.449817657470703,3.3123271465301514,-4785.97216796875,0
1472.8580000000002,0.07445259392261505,-0.0002702167257666588,0.0014363620430231094,0.0,0.0,0.0,0.0,-0.0017452096799388528,-0.00046140109770931304,0.0007730424404144287,0.9972537755966187,0.0,0.0,0.0,26.468029022216797,9.456039428710938,3.311325788497925,-4790.765625,0
1482.7510000000002,0.0744774267077446,-0.0003274030168540776,0.0014370211865752935,0.0,0.0,0.0,0.0,0.00032651275978423655,0.00159528199583292,-0.003402221715077758,0.9983964562416077,0.0,0.0,0.0,26.442031860351562,9.447175979614258,3.307574510574341,-4786.060546875,0
1492.6219999999994,0.07451558858156204,-0.00030919097480364144,0.0014109557960182428,0.0,0.0,0.0,0.0,0.0015819169348105788,-0.0023764322977513075,0.0018288448918610811,0.9995028376579285,0.0,0.0,0.0,26.473512649536133,9.444869995117188,3.312044620513916,-4791.75830078125,0
1502.5149999999994,0.07454611361026764,-0.0003665937692858279,0.001407249947078526,0.0,0.0,0.0,0.0,0.00015774402709212154,0.00497550331056118,-0.0014163244049996138,1.0003662109375,0.0,0.0,0.0,26.447046279907227,9.433124542236328,3.3005340099334717,-4786.9677734375,0
1512.3919999999998,0.0744837075471878,-0.00026986675220541656,0.0014203707687556744,0.0,0.0,0.0,0.0,-0.00013201538240537047,-0.0001513664028607309,-0.0012551496038213372,0.9993048310279846,0.0,0.0,0.0,26.47646141052246,9.447006225585938,3.2946717739105225,-4792.2919921875,0
1522.2919999999995,0.07451578229665756,-0.00032590774935670197,0.0014183972962200642,0.0,0.0,0.0,0.0,0.001737962826155126,0.005107424221932888,0.0026276716962456703,0.9983220100402832,0.0,0.0,0.0,26.45047378540039,9.434918403625488,3.288501262664795,-4787.587890625,0
1532.1630000000005,0.07445210963487625,-0.0002966733300127089,0.0014299149625003338,0.0,0.0,0.0,0.0,0.00018982660549227148,0.005847082007676363,0.0048564099706709385,0.9991827011108398,0.0,0.0,0.0,26.479219436645508,9.441840171813965,3.2752647399902344,-4792.79150390625,0
1542.0660000000007,0.0744844451546669,-0.0003547036903910339,0.001428026705980301,0.0,0.0,0.0,0.0,0.0013190602185204625,-0.001070342375896871,-1.2173795767012052e-05,0.9996591210365295,0.0,0.0,0.0,26.45431900024414,9.433249473571777,3.252077341079712,-4788.28466796875,0
1551.9410000000007,0.07450583577156067,-0.000250351702561602,0.0013923486694693565,0.0,0.0,0.0,0.0,0.0009849823545664549,0.002799802925437689,3.598481271183118e-05,1.0009875297546387,0.0,0.0,0.0,26.47797393798828,9.44276237487793,3.265645980834961,-4792.5654296875,0
1561.8240000000005,0.07454072684049606,-0.0003073001862503588,0.0013879690086469054,0.0,0.0,0.0,0.0,-0.0016235868679359555,-0.002855019411072135,-0.0028874443378299475,1.000872254371643,0.0,0.0,0.0,26.452077865600586,9.435113906860352,3.2578814029693604,-4787.87841796875,0
1571.7039999999997,0.07447614520788193,-0.00021346598805394024,0.0013596873031929135,0.0,0.0,0.0,0.0,0.00021453434601426125,0.0016954679740592837,-0.001664018607698381,0.9991859197616577,0.0,0.0,0.0,26.48069190979004,9.445500373840332,3.255552053451538,-4793.05810546875,0
1581.6000000000004,0.07450918108224869,-0.0002712796558625996,0.0013554322067648172,0.0,0.0,0.0,0.0,-0.0011999820126220584,0.004024807829409838,5.398264329414815e-05,0.9998691082000732,0.0,0.0,0.0,26.453962326049805,9.441694259643555,3.2511532306671143,-4788.21923828125,0
1591.4760000000006,0.0744994655251503,-0.00014372883015312254,0.0013083367375656962,0.0,0.0,0.0,0.0,-7.803388871252537e-05,-0.0038508253637701273,0.0011980141280218959,0.9994480013847351,0.0,0.0,0.0,26.476144790649414,9.459565162658691,3.24955415725708,-4792.234375,0
1601.3700000000008,0.07453349232673645,-0.00020075628708582371,0.0013008093228563666,0.0,0.0,0.0,0.0,-0.0024047165643423796,0.0017179405549541116,0.0023281900212168694,0.9984544515609741,0.0,0.0,0.0,26.449506759643555,9.455909729003906,3.247891664505005,-4787.41357421875,0
1611.2450000000008,0.07443343102931976,-0.00013556460908148438,0.0013125840341672301,0.0,0.0,0.0,0.0,0.001716415397822857,-0.0025077867321670055,-0.0038060485385358334,0.9993962049484253,0.0,0.0,0.0,26.475893020629883,9.475140571594238,3.232912540435791,-4792.189453125,0
1621.134,0.07446473091840744,-0.0001919751666719094,0.0013055315939709544,0.0,0.0,0.0,0.0,-0.0038691528607159853,-0.0017030126182362437,-0.002066502347588539,1.0001192092895508,0.0,0.0,0.0,26.449060440063477,9.465567588806152,3.2290570735931396,-4787.33203125,0
1631.0130000000008,0.07442408800125122,-0.00016338066780008376,0.0013378506992012262,0.0,0.0,0.0,0.0,-0.00013506138930097222,0.0026242989115417004,-0.0016029445687308908,0.9987563490867615,0.0,0.0,0.0,26.47737693786621,9.469307899475098,3.2309980392456055,-4792.45751953125,0
1640.9189999999999,0.07441969960927963,-0.00020636756380554289,0.0013861102052032948,0.0,0.0,0.0,0.0,-0.0007951289298944175,-0.004346778150647879,0.0021436484530568123,0.9973770380020142,0.0,0.0,0.0,26.488698959350586,9.464557647705078,3.225742816925049,-4794.5068359375,0
1650.7829999999994,0.0744112953543663,-0.00021195097360759974,0.0014017628272995353,0.0,0.0,0.0,0.0,0.0015662357909604907,0.0020767415408045053,-0.002902435138821602,0.9988169074058533,0.0,0.0,0.0,26.486406326293945,9.467191696166992,3.2293848991394043,-4794.091796875,0
1660.687,0.0744418352842331,-0.00022648260346613824,0.0014147200854495168,0.0,0.0,0.0,0.0,-0.00033310821163468063,0.0025202424731105566,-0.002075853990390897,0.999614953994751,0.0,0.0,0.0,26.49101448059082,9.459296226501465,3.235826015472412,-4794.9267578125,0
1670.5550000000003,0.07444921880960464,-0.00027943073655478656,0.0014121466083452106,0.0,0.0,0.0,0.0,-0.001085771480575204,-0.0031245402060449123,0.003569541499018669,1.000275731086731,0.0,0.0,0.0,26.47922706604004,9.450516700744629,3.236877202987671,-4792.79296875,0
1680.4590000000007,0.07451747357845306,-0.00020756629237439483,0.0014078147942200303,0.0,0.0,0.0,0.0,0.0012972371187061071,0.003757091471925378,-0.000545419636182487,0.9992866516113281,0.0,0.0,0.0,26.48472785949707,9.461600303649902,3.271127700805664,-4793.7880859375,0
1690.3230000000003,0.07446064054965973,-0.0002455507928971201,0.0013893349096179008,0.0,0.0,0.0,0.0,0.0012982066255062819,0.0008232711115851998,-0.0009687073761597276,0.9992936253547668,0.0,0.0,0.0,26.4800968170166,9.459716796875,3.2688353061676025,-4792.94970703125,0
1700.2160000000003,0.07446866482496262,-0.0002633554977364838,0.001431379816494882,0.0,0.0,0.0,0.0,0.00047013891162350774,-0.00032029737485572696,-0.00019275335944257677,0.9991785883903503,0.0,0.0,0.0,26.4914608001709,9.448740005493164,3.264660596847534,-4795.00732421875,0
1710.0930000000008,0.07449440658092499,-0.0003038922150153667,0.001440713764168322,0.0,0.0,0.0,0.0,0.0023831005673855543,0.004593491554260254,0.00024595644208602607,0.9990241527557373,0.0,0.0,0.0,26.485536575317383,9.443538665771484,3.2664072513580322,-4793.9345703125,0
1719.9950000000008,0.07451929152011871,-0.0002930974296759814,0.0014773629372939467,0.0,0.0,0.0,0.0,0.0017827587435021996,-0.0017769236583262682,-0.0006572442362084985,0.9997367262840271,0.0,0.0,0.0,26.49208641052246,9.439979553222656,3.2513670921325684,-4795.12060546875,0
1729.866,0.07450886815786362,-0.0003412566729821265,0.001473336131311953,0.0,0.0,0.0,0.0,0.0031493064016103745,-0.0012250314466655254,-0.0017277764854952693,1.0000053644180298,0.0,0.0,0.0,26.492170333862305,9.43281364440918,3.2550952434539795,-4795.13623046875,0
1739.7630000000008,0.07456183433532715,-0.0002736084279604256,0.0014980448177084327,0.0,0.0,0.0,0.0,-0.0017645100597292185,0.0038585015572607517,0.0021266601979732513,0.9993830323219299,0.0,0.0,0.0,26.492359161376953,9.439695358276367,3.2721712589263916,-4795.169921875,0
1749.6350000000002,0.0744493156671524,-0.0003049193473998457,0.0014685714850202203,0.0,0.0,0.0,0.0,0.0020748714450746775,-0.001310609863139689,0.0002283954236190766,0.998656153678894,0.0,0.0,0.0,26.492218017578125,9.441071510314941,3.2563018798828125,-4795.14404296875,0
1759.5259999999998,0.07448945939540863,-0.00030315815820358694,0.0014795046299695969,0.0,0.0,0.0,0.0,-0.0030415463261306286,-0.002666024025529623,-0.0007788864313624799,0.9978480339050293,0.0,0.0,0.0,26.49608612060547,9.443818092346191,3.2652335166931152,-4795.84423828125,0
1769.4050000000007,0.07449237257242203,-0.0003644268726930022,0.0014685809146612883,0.0,0.0,0.0,0.0,-0.00039581183227710426,-0.0037382920272648335,-0.0009217282640747726,0.9979676008224487,0.0,0.0,0.0,26.490570068359375,9.435619354248047,3.266273260116577,-4794.84619140625,0
1779.3050000000003,0.07453259080648422,-0.0003348741156514734,0.001492890645749867,0.0,0.0,0.0,0.0,-0.004222364164888859,-0.008722093887627125,0.0028920171316713095,0.9971672892570496,0.0,0.0,0.0,26.50075912475586,9.441064834594727,3.275128126144409,-4796.68994140625,0
1789.1749999999993,0.07445991784334183,-0.0003419984132051468,0.001484669279307127,0.0,0.0,0.0,0.0,-0.0002825447591021657,-0.002539866603910923,-0.003501355415210128,0.9999364614486694,0.0,0.0,0.0,26.4932804107666,9.446094512939453,3.275624990463257,-4795.33642578125,0
1799.0730000000003,0.07452564686536789,-0.0002644663327373564,0.0014931720215827227,0.0,0.0,0.0,0.0,0.003204852808266878,0.006689052097499371,0.0018679972272366285,0.9993563294410706,0.0,0.0,0.0,26.49640655517578,9.469253540039062,3.3041224479675293,-4795.90283203125,0
1808.9480000000003,0.07444150745868683,-0.000306023663142696,0.0014608704950660467,0.0,0.0,0.0,0.0,-0.002596869831904769,0.0016699287807568908,5.343292286852375e-06,1.0000569820404053,0.0,0.0,0.0,26.494800567626953,9.456034660339355,3.2757720947265625,-4795.61181640625,0
1818.8400000000001,0.07449211925268173,-0.00029593612998723984,0.0014568106271326542,0.0,0.0,0.0,0.0,0.00014591278159059584,-0.003504101186990738,0.00281274551525712,0.9982321262359619,0.0,0.0,0.0,26.497785568237305,9.454763412475586,3.2722229957580566,-4796.15234375,0
1828.7129999999997,0.07442456483840942,-0.000315751472953707,0.001441655564121902,0.0,0.0,0.0,0.0,0.0012067456264048815,0.0011662342585623264,-0.0002523163566365838,0.9978732466697693,0.0,0.0,0.0,26.492549896240234,9.457592964172363,3.256469964981079,-4795.2041015625,0
1838.6149999999998,0.07449463754892349,-0.0002544476301409304,0.001423644833266735,0.0,0.0,0.0,0.0,0.00018949218792840838,-0.0019908312242478132,-0.0001212841525557451,0.9993457198143005,0.0,0.0,0.0,26.49802017211914,9.466497421264648,3.2767629623413086,-4796.19482421875,0
1848.4840000000004,0.07443647086620331,-0.0003071347309742123,0.00138946867082268,0.0,0.0,0.0,0.0,-0.0011875757481902838,-0.0025392950046807528,-0.00029492887551896274,0.9981440305709839,0.0,0.0,0.0,26.49183464050293,9.454968452453613,3.2627718448638916,-4795.0751953125,0
1858.3860000000004,0.07448384165763855,-0.00027004347066394985,0.0013818751322105527,0.0,0.0,0.0,0.0,0.001800446305423975,-0.00483664870262146,0.0008932633209042251,0.9994047284126282,0.0,0.0,0.0,26.50080680847168,9.451931953430176,3.2710886001586914,-4796.69873046875,0
1868.2530000000006,0.07444769889116287,-0.0002891167241614312,0.0013712809886783361,0.0,0.0,0.0,0.0,9.207040420733392e-05,-0.00017114826187025756,0.004693167749792337,0.9997313022613525,0.0,0.0,0.0,26.49634552001953,9.453146934509277,3.265873670578003,-4795.89111328125,0
1878.1569999999992,0.0745164006948471,-0.00020632962696254253,0.0013526375405490398,0.0,0.0,0.0,0.0,-0.0005024317651987076,0.001885098172351718,0.0003664401301648468,0.9982544183731079,0.0,0.0,0.0,26.498044967651367,9.453514099121094,3.2785964012145996,-4796.19873046875,0
1888.0370000000003,0.07447151839733124,-0.00022752310906071216,0.0013344255276024342,0.0,0.0,0.0,0.0,0.0004817851586267352,7.187786650320049e-06,0.00016740005230531096,0.9990600943565369,0.0,0.0,0.0,26.493854522705078,9.460201263427734,3.274838447570801,-4795.44091796875,0
1897.9179999999997,0.07449604570865631,-0.00021924082830082625,0.0013451909180730581,0.0,0.0,0.0,0.0,0.0012102349428460002,-0.0011651691747829318,0.0008981868159025908,1.0001121759414673,0.0,0.0,0.0,26.499948501586914,9.457329750061035,3.273355722427368,-4796.54345703125,0
1907.7929999999997,0.07443657517433167,-0.00019829257507808506,0.0013491642894223332,0.0,0.0,0.0,0.0,-0.0037111612036824226,0.004306998569518328,0.0017550243064761162,1.0004687309265137,0.0,0.0,0.0,26.494434356689453,9.463245391845703,3.2659480571746826,-4795.5458984375,0
1917.696,0.07449644058942795,-0.0001108102296711877,0.0013469611294567585,0.0,0.0,0.0,0.0,-0.0038211303763091564,-0.003956328146159649,0.004801546223461628,1.0011402368545532,0.0,0.0,0.0,26.502897262573242,9.471209526062012,3.277801036834717,-4797.07763671875,0
1927.562,0.07445934414863586,-0.00019124377286061645,0.0013028812827542424,0.0,0.0,0.0,0.0,-0.0013977508060634136,0.0005386486882343888,-0.001135997474193573,1.0020338296890259,0.0,0.0,0.0,26.493711471557617,9.456765174865723,3.2672505378723145,-4795.4150390625,0
1937.4580000000005,0.07450025528669357,-0.00016755785327404737,0.0013042305363342166,0.0,0.0,0.0,0.0,0.0017825958784669638,0.010081087239086628,-0.0009261342347599566,0.9999940395355225,0.0,0.0,0.0,26.50130844116211,9.464324951171875,3.2746012210845947,-4796.78955078125,0
1947.3330000000005,0.0744728073477745,-0.00020198652055114508,0.0012905418407171965,0.0,0.0,0.0,0.0,0.0013796378625556827,0.003524860367178917,-0.0031786097679287195,0.9990748763084412,0.0,0.0,0.0,26.4969425201416,9.466023445129395,3.248250961303711,-4795.99951171875,0
1957.2369999999992,0.07450306415557861,-0.00015607522800564766,0.0013216794468462467,0.0,0.0,0.0,0.0,0.0005808487185277045,0.0004084932734258473,-0.0021909764036536217,0.9985650777816772,0.0,0.0,0.0,26.501453399658203,9.46752643585205,3.2414302825927734,-4796.81591796875,0
1967.1029999999992,0.07446200400590897,-0.00020905585552100092,0.001296491245739162,0.0,0.0,0.0,0.0,0.0008919962565414608,-0.00047488254494965076,0.0006481241434812546,0.998140275478363,0.0,0.0,0.0,26.498472213745117,9.457294464111328,3.2255589962005615,-4796.2763671875,0
1977.0069999999996,0.07448649406433105,-0.00021079613361507654,0.001316302572377026,0.0,0.0,0.0,0.0,-0.002408001571893692,0.00088615802815184,0.0013037060853093863,0.9982122182846069,0.0,0.0,0.0,26.50358772277832,9.453413963317871,3.220086097717285,-4797.2021484375,0
1986.8719999999994,0.07445252686738968,-0.000237087529967539,0.001309674233198166,0.0,0.0,0.0,0.0,-0.0015974382404237986,0.0026977260131388903,-0.004140271805226803,0.9963681697845459,0.0,0.0,0.0,26.49874496459961,9.451711654663086,3.209115743637085,-4796.326171875,0
1996.7729999999992,0.074466273188591,-0.0002265999501105398,0.0013520399807021022,0.0,0.0,0.0,0.0,-0.00047458490007556975,0.0038889769930392504,0.000871858443133533,0.9987743496894836,0.0,0.0,0.0,26.500019073486328,9.456137657165527,3.1985816955566406,-4796.55615234375,0
2006.643,0.0744745060801506,-0.0002450232277624309,0.0013679336989298463,0.0,0.0,0.0,0.0,-0.0013415891444310546,-0.0035467876587063074,0.0019493534928187728,0.998934268951416,0.0,0.0,0.0,26.494911193847656,9.449535369873047,3.1966543197631836,-4795.6318359375,0
2016.536,0.07449255138635635,-0.00026789336698129773,0.0013900428311899304,0.0,0.0,0.0,0.0,0.000143212586408481,0.0017770037520676851,0.003233397612348199,0.9995583891868591,0.0,0.0,0.0,26.49936294555664,9.443467140197754,3.1933231353759766,-4796.4375,0
2026.4140000000007,0.0744137242436409,-0.00024266632681246847,0.0014043455012142658,0.0,0.0,0.0,0.0,0.00044221177813597023,-0.0017086126608774066,-0.0006646141409873962,0.9993541836738586,0.0,0.0,0.0,26.495805740356445,9.455483436584473,3.194634437561035,-4795.79345703125,0
2036.3140000000003,0.07442101836204529,-0.0002619069127831608,0.0014405240071937442,0.0,0.0,0.0,0.0,-0.0023483007680624723,-0.0062972987070679665,0.0009300191886723042,1.0002458095550537,0.0,0.0,0.0,26.507930755615234,9.448209762573242,3.186565399169922,-4797.98828125,0
2046.182999999999,0.07445032894611359,-0.0003031935484614223,0.0014613328967243433,0.0,0.0,0.0,0.0,-0.0011913341004401445,0.004452437628060579,0.0023006643168628216,0.9989425539970398,0.0,0.0,0.0,26.49859046936035,9.450993537902832,3.20117449760437,-4796.2978515625,0
2056.0840000000007,0.07449407875537872,-0.000296521931886673,0.0014636103296652436,0.0,0.0,0.0,0.0,-0.0006263770628720522,-0.0024897344410419464,-0.0001494149910286069,0.9977065324783325,0.0,0.0,0.0,26.503402709960938,9.449857711791992,3.2085061073303223,-4797.1689453125,0
2065.9519999999993,0.07444190979003906,-0.00033726092078723013,0.0014582291478291154,0.0,0.0,0.0,0.0,0.0005612678942270577,0.0015239884378388524,-0.000863142020534724,0.9998467564582825,0.0,0.0,0.0,26.49283790588379,9.455744743347168,3.2001564502716064,-4795.25634765625,0
2075.8500000000004,0.07450463622808456,-0.000288590817945078,0.0014483315171673894,0.0,0.0,0.0,0.0,-0.001131247146986425,0.004331229254603386,-0.0005484136054292321,0.9999880790710449,0.0,0.0,0.0,26.498641967773438,9.453625679016113,3.219733953475952,-4796.30712890625,0
2085.7219999999998,0.074464812874794,-0.00033070147037506104,0.0014446151908487082,0.0,0.0,0.0,0.0,-0.0022998806089162827,-0.0059693665243685246,0.001059732399880886,0.9973793029785156,0.0,0.0,0.0,26.489038467407227,9.449121475219727,3.2009897232055664,-4794.568359375,0
2095.625,0.07453311234712601,-0.00023471836175303906,0.001445219968445599,0.0,0.0,0.0,0.0,-0.0003478982544038445,0.0021969485096633434,0.0019643616396933794,0.997984766960144,0.0,0.0,0.0,26.49746322631836,9.465397834777832,3.2176871299743652,-4796.09423828125,0
2105.504000000001,0.07444391399621964,-0.0002622234751470387,0.0014318607281893492,0.0,0.0,0.0,0.0,0.0011576481629163027,0.0036772429011762142,-0.005596190225332975,0.9989880323410034,0.0,0.0,0.0,26.492582321166992,9.474374771118164,3.2124366760253906,-4795.21044921875,0
2115.3909999999996,0.074508436024189,-0.00019943750521633774,0.0014179744757711887,0.0,0.0,0.0,0.0,-0.0016778227873146534,0.0008943955763243139,-0.0025523139629513025,0.9971851110458374,0.0,0.0,0.0,26.49090576171875,9.485209465026855,3.222384452819824,-4794.90673828125,0
2125.2690000000002,0.0744885802268982,-0.0002683454367797822,0.001399737549945712,0.0,0.0,0.0,0.0,0.0003326214791741222,-0.001859829993918538,0.0006250943406485021,0.9983471035957336,0.0,0.0,0.0,26.483722686767578,9.476868629455566,3.2212255001068115,-4793.60595703125,0
2135.1669999999995,0.07453487068414688,-0.00020742880587931722,0.0014121603453531861,0.0,0.0,0.0,0.0,0.0028642923571169376,0.007272196002304554,0.0033947478514164686,0.9992433190345764,0.0,0.0,0.0,26.48975944519043,9.478787422180176,3.2286410331726074,-4794.69921875,0
2145.0339999999997,0.07445432245731354,-0.0002449426974635571,0.0013874900760129094,0.0,0.0,0.0,0.0,0.001589799765497446,0.0009934887057170272,-9.030599903780967e-05,0.9998544454574585,0.0,0.0,0.0,26.48587989807129,9.477930068969727,3.216878652572632,-4793.9970703125,0
2154.9320000000007,0.07447025179862976,-0.00026836845790967345,0.001400516601279378,0.0,0.0,0.0,0.0,0.0009208690607920289,0.0020202137529850006,-0.00294620543718338,0.9979357123374939,0.0,0.0,0.0,26.48689079284668,9.4688138961792,3.198390007019043,-4794.1796875,0
2164.8050000000003,0.0744573324918747,-0.00030818706727586687,0.0013998168287798762,0.0,0.0,0.0,0.0,-0.00025643393746577203,0.00015843841538298875,-0.0015623823273926973,0.9983442425727844,0.0,0.0,0.0,26.478504180908203,9.464171409606934,3.1917428970336914,-4792.66162109375,0
2174.700999999999,0.07449403405189514,-0.00024716899497434497,0.0014158007688820362,0.0,0.0,0.0,0.0,0.0005562860169447958,0.003607805585488677,-0.0016971600707620382,0.9998162388801575,0.0,0.0,0.0,26.48048973083496,9.47545337677002,3.195244550704956,-4793.02099609375,0
2184.5840000000007,0.0744696632027626,-0.0002930829650722444,0.0014070915058255196,0.0,0.0,0.0,0.0,0.0027631083503365517,-0.003147535026073456,-0.00030866151791997254,1.0000526905059814,0.0,0.0,0.0,26.47555923461914,9.466559410095215,3.1753957271575928,-4792.12890625,0
2194.465,0.07449294626712799,-0.00025292648933827877,0.0014279846800491214,0.0,0.0,0.0,0.0,0.0003771419869735837,-0.00020746627706103027,3.0105587939033285e-05,1.0003021955490112,0.0,0.0,0.0,26.477981567382812,9.46745777130127,3.190547227859497,-4792.56689453125,0
2204.3420000000006,0.07448548078536987,-0.00032749181264080107,0.0014109400799497962,0.0,0.0,0.0,0.0,0.0016530813882127404,-0.0011848282301798463,0.0008629172225482762,0.9995032548904419,0.0,0.0,0.0,26.47416114807129,9.456384658813477,3.189134359359741,-4791.8759765625,0
2214.2350000000006,0.07455767691135406,-0.00022893767163623124,0.0013913040747866035,0.0,0.0,0.0,0.0,-0.0013590336311608553,-0.004624811001121998,0.0016507457476109266,0.9961363077163696,0.0,0.0,0.0,26.474550247192383,9.466121673583984,3.20743465423584,-4791.94580078125,0
2224.120000000001,0.07453106343746185,-0.0002695154689718038,0.0013851479161530733,0.0,0.0,0.0,0.0,-0.00042872977792285383,-0.002553935395553708,-0.0019435686990618706,0.9984355568885803,0.0,0.0,0.0,26.473630905151367,9.461413383483887,3.215629816055298,-4791.779296875,0
2234.013999999999,0.07455036789178848,-0.00023846942349337041,0.0014143376611173153,0.0,0.0,0.0,0.0,0.0025991627480834723,-0.00043173888116143644,0.0015482037561014295,0.9986312985420227,0.0,0.0,0.0,26.47330665588379,9.464308738708496,3.220513343811035,-4791.720703125,0
2243.883,0.07445920258760452,-0.0002746698446571827,0.0013884942745789886,0.0,0.0,0.0,0.0,0.0017675922717899084,0.0007519315113313496,-0.0034224737901240587,1.0000795125961304,0.0,0.0,0.0,26.47035026550293,9.46120834350586,3.2169249057769775,-4791.18603515625,0
2253.7749999999996,0.07448405772447586,-0.00027198452153243124,0.0013934101443737745,0.0,0.0,0.0,0.0,-0.0015587352681905031,0.004089408088475466,-0.0013373424299061298,0.9995341897010803,0.0,0.0,0.0,26.471208572387695,9.45746898651123,3.2166943550109863,-4791.3408203125,0
2263.652,0.07444123178720474,-0.0003016720584128052,0.001386455725878477,0.0,0.0,0.0,0.0,-0.0006795841618441045,-0.00014674317208118737,0.0013615996576845646,0.9998008608818054,0.0,0.0,0.0,26.467199325561523,9.461811065673828,3.216428518295288,-4790.615234375,0
2273.5470000000005,0.07446648925542831,-0.0002979466808028519,0.0013936188770458102,0.0,0.0,0.0,0.0,-0.0010899580083787441,-0.0011274713324382901,-0.0001613249914953485,0.9982084035873413,0.0,0.0,0.0,26.465728759765625,9.460198402404785,3.2265305519104004,-4790.34912109375,0
2283.4310000000005,0.07443086802959442,-0.00031211512396112084,0.0013959826901555061,0.0,0.0,0.0,0.0,-0.0034936938900500536,-0.00319497799500823,-0.0008995943935588002,0.9995370507240295,0.0,0.0,0.0,26.460041046142578,9.46048355102539,3.2215778827667236,-4789.31982421875,0
