timestamp,stateEstimate.x,stateEstimate.y,stateEstimate.z,controller.cmd_thrust,controller.cmd_roll,controller.cmd_pitch,controller.cmd_yaw,controller.r_roll,controller.r_pitch,controller.r_yaw,controller.accelz,controller.actuatorThrust,controller.roll,controller.pitch,controller.yaw,controller.rollRate,controller.pitchRate,controller.yawRate,controller.ctr_yaw
0.0,-3.595793532440439e-05,-0.00027806367143057287,-0.00019588368013501167,0.0,0.0,0.0,0.0,-0.0013736765831708908,0.00017638081044424325,0.00036832981277257204,1.0004595518112183,0.0,0.0,0.0,0.319978803396225,12.390201568603516,3.1070783138275146,-57.91680145263672,0
9.88300000000163,-1.941137270478066e-05,-0.00031823868630453944,-0.00015402570716105402,0.0,0.0,0.0,0.0,0.0008765162201598287,-0.004227351862937212,2.180282899644226e-05,0.9984663128852844,0.0,0.0,0.0,0.31266480684280396,12.384530067443848,3.1134464740753174,-56.592952728271484,0
19.769000000000233,-5.48496245755814e-05,-0.0003858874551951885,-0.0001174359058495611,0.0,0.0,0.0,0.0,-0.002416379516944289,0.003975009545683861,0.00011372556764399633,0.9981850981712341,0.0,0.0,0.0,0.330488383769989,12.373832702636719,3.1164920330047607,-59.819053649902344,0
29.662000000000262,-6.0528822359628975e-05,-0.0003660662332549691,-4.331636955612339e-05,0.0,0.0,0.0,0.0,-0.0011499241227284074,-0.003074716543778777,-0.0016066123498603702,0.9987601041793823,0.0,0.0,0.0,0.3193686008453369,12.381172180175781,3.1068406105041504,-57.80635070800781,0
39.53500000000167,-2.1263915186864324e-05,-0.0003203114029020071,-7.03482364770025e-05,0.0,0.0,0.0,0.0,-0.00043272358016110957,0.00020836440671700984,0.002623793436214328,0.9994630217552185,0.0,0.0,0.0,0.3348653018474579,12.391374588012695,3.1220695972442627,-60.611289978027344,0
49.42000000000007,-8.012589387362823e-05,-0.0003137455496471375,-1.6366302588721737e-05,0.0,0.0,0.0,0.0,0.0014831832377240062,0.0013276635436341166,-0.00038008246337994933,0.998414933681488,0.0,0.0,0.0,0.32320907711982727,12.397199630737305,3.10760760307312,-58.501487731933594,0
59.3119999999999,-2.2552158043254167e-06,-0.00025155843468382955,-9.987898374674842e-05,0.0,0.0,0.0,0.0,-0.0015250741271302104,0.002814789302647114,0.0002591326483525336,0.9990609288215637,0.0,0.0,0.0,0.3399457335472107,12.407875061035156,3.1104648113250732,-61.53084945678711,0
69.19700000000012,-0.00013535632751882076,-0.00023457148927263916,-7.17353104846552e-05,0.0,0.0,0.0,0.0,0.0012710944283753633,-0.003912476822733879,0.00035046853008680046,0.9979808330535889,0.0,0.0,0.0,0.32893261313438416,12.416790008544922,3.0748443603515625,-59.537452697753906,0
79.07400000000052,-3.490068775136024e-05,-0.00011986042954958975,-0.00017944304272532463,0.0,0.0,0.0,0.0,-0.0022984242532402277,0.006071467883884907,-0.0007139961235225201,0.998482882976532,0.0,0.0,0.0,0.3456953763961792,12.437501907348633,3.0950303077697754,-62.57155227661133,0
88.96300000000156,-9.936265996657312e-05,-0.00014288348029367626,-0.00016351143131032586,0.0,0.0,0.0,0.0,0.00016710425552446395,0.0006812656647525728,-0.0001260812859982252,0.997877836227417,0.0,0.0,0.0,0.33850929141044617,12.438332557678223,3.0744709968566895,-61.27085494995117,0
98.84400000000096,-6.459877477027476e-05,-0.0001043576339725405,-0.00020856299670413136,0.0,0.0,0.0,0.0,0.003087608842179179,0.004288194701075554,-0.0026868917047977448,0.9973096251487732,0.0,0.0,0.0,0.3524801433086395,12.446855545043945,3.080073356628418,-63.79960632324219,0
108.73300000000017,-3.445794936851598e-05,-0.00013603497063741088,-0.000173260472365655,0.0,0.0,0.0,0.0,0.000122734738397412,-0.0005951953935436904,-0.002368082059547305,1.0003275871276855,0.0,0.0,0.0,0.34388092160224915,12.441493034362793,3.0663888454437256,-62.243133544921875,0
118.6190000000006,-3.867851773975417e-06,-0.00010840705363079906,-0.00021184359502512962,0.0,0.0,0.0,0.0,-0.0005270245019346476,-0.0032221730798482895,-0.0008649700321257114,0.9984468817710876,0.0,0.0,0.0,0.3601778447628021,12.448761940002441,3.0822689533233643,-65.19290161132812,0
128.5,2.991564542753622e-05,-0.00018972085672430694,-0.0002012786571867764,0.0,0.0,0.0,0.0,-0.0036951065994799137,0.0003998462634626776,-0.0008315678569488227,0.9991059899330139,0.0,0.0,0.0,0.34899118542671204,12.439629554748535,3.097608804702759,-63.1681022644043,0
138.39700000000084,5.654140841215849e-05,-0.00021944803302176297,-0.0002579207066446543,0.0,0.0,0.0,0.0,0.0012669063871726394,0.0032958053052425385,-0.002485803095623851,1.000676155090332,0.0,0.0,0.0,0.3548131585121155,12.435296058654785,3.101017475128174,-64.22188568115234,0
148.26800000000003,2.6839383281185292e-05,-0.00014990984345786273,-0.00018715589249040931,0.0,0.0,0.0,0.0,-0.0026300232857465744,-0.0061141448095440865,0.0028786426410079002,0.9976285696029663,0.0,0.0,0.0,0.34506532549858093,12.448659896850586,3.095109224319458,-62.45751190185547,0
158.15900000000147,1.0449659384903498e-05,-0.00022030278341844678,-0.00018816333613358438,0.0,0.0,0.0,0.0,0.0021381278056651354,-0.003169876988977194,4.8720594350015745e-05,0.9983944296836853,0.0,0.0,0.0,0.3522642254829407,12.444369316101074,3.1178581714630127,-63.760528564453125,0
168.04100000000108,-6.764390127500519e-05,-0.00023174277157522738,-0.00017112723435275257,0.0,0.0,0.0,0.0,0.0052802651189267635,-0.004513924475759268,0.0006159139447845519,0.9984412789344788,0.0,0.0,0.0,0.3395317494869232,12.439486503601074,3.1148767471313477,-61.4559211730957,0
177.9290000000001,-5.776095713372342e-05,-0.00023907303693704307,-0.0001862190110841766,0.0,0.0,0.0,0.0,0.0012567120138555765,-0.0013051154091954231,-0.0019539110362529755,0.9973949193954468,0.0,0.0,0.0,0.35276129841804504,12.431596755981445,3.1261847019195557,-63.850502014160156,0
187.8080000000009,-8.073842036537826e-05,-0.00026977204834111035,-0.00016321854491252452,0.0,0.0,0.0,0.0,-0.0016348672797903419,0.001984906382858753,0.001733249519020319,0.9981062412261963,0.0,0.0,0.0,0.34245556592941284,12.425012588500977,3.1142637729644775,-61.985137939453125,0
197.6959999999999,-6.604401278309524e-05,-0.00028562385705299675,-0.00019272488134447485,0.0,0.0,0.0,0.0,-9.503812179900706e-05,-0.002736483933404088,0.0022210630122572184,0.9976443648338318,0.0,0.0,0.0,0.3416379392147064,12.41147518157959,3.1155266761779785,-61.83714294433594,0
207.57700000000114,-8.245868230005726e-05,-0.00025181268574669957,-0.00013701780699193478,0.0,0.0,0.0,0.0,0.0027068196795880795,0.003469038289040327,-0.0017928471788764,0.9975350499153137,0.0,0.0,0.0,0.33380308747291565,12.419356346130371,3.1017446517944336,-60.41902160644531,0
217.46300000000156,-6.169452535687014e-05,-0.00025310131604783237,-0.0001716721017146483,0.0,0.0,0.0,0.0,0.00012541994510684162,-0.0016199634410440922,-0.0027001085691154003,0.9987010359764099,0.0,0.0,0.0,0.3391767740249634,12.412650108337402,3.1049575805664062,-61.39167022705078,0
227.35200000000077,-7.355764682870358e-05,-0.0002406874264124781,-0.00012616065214388072,0.0,0.0,0.0,0.0,0.0011047904845327139,-0.0016300048446282744,0.0020062378607690334,1.0006273984909058,0.0,0.0,0.0,0.33135485649108887,12.413808822631836,3.10554575920105,-59.975887298583984,0
237.23199999999997,-6.322339322650805e-05,-0.00024003522412385792,-0.00014405792171601206,0.0,0.0,0.0,0.0,-0.00034241427783854306,0.0018880865536630154,-0.004741111770272255,1.001788854598999,0.0,0.0,0.0,0.3469204306602478,12.413468360900879,3.11271071434021,-62.79328918457031,0
247.13100000000122,-6.775752262910828e-05,-0.00022682255075778812,-8.88590220711194e-05,0.0,0.0,0.0,0.0,-0.0010952814482152462,-0.0005293526337482035,0.0025129083078354597,0.9998120069503784,0.0,0.0,0.0,0.3377745747566223,12.416179656982422,3.1130990982055664,-61.137874603271484,0
257.01400000000103,-8.013784281502012e-06,-0.00021627247042488307,-0.0001741656888043508,0.0,0.0,0.0,0.0,0.0007473255391232669,0.0034347751643508673,-0.0008215238922275603,0.9975739121437073,0.0,0.0,0.0,0.33839553594589233,12.400705337524414,3.114867687225342,-61.25025939941406,0
266.89000000000124,-7.495998579543084e-05,-0.00023079481616150588,-0.0001563953992445022,0.0,0.0,0.0,0.0,0.0016826021019369364,-0.000671323505230248,-0.004630504176020622,0.9994627833366394,0.0,0.0,0.0,0.32758840918540955,12.3956880569458,3.0970492362976074,-59.294151306152344,0
276.77600000000166,-2.0263727492420003e-05,-0.00014915369683876634,-0.00020736320584546775,0.0,0.0,0.0,0.0,-0.0005171674420125782,0.0020752688869833946,0.0009812270291149616,0.9985907673835754,0.0,0.0,0.0,0.3424167037010193,12.409552574157715,3.1079657077789307,-61.97810745239258,0
286.65800000000127,-1.86141041922383e-05,-0.0001699513231869787,-0.00017521288827992976,0.0,0.0,0.0,0.0,-0.0014724895590916276,-0.0030092447996139526,-0.0019507277756929398,1.0001426935195923,0.0,0.0,0.0,0.3338583707809448,12.40532398223877,3.109503984451294,-60.42903137207031,0
296.5480000000007,1.351879836875014e-05,-0.0001998348452616483,-0.0002341592771699652,0.0,0.0,0.0,0.0,-0.0044686333276331425,0.003409777069464326,-0.0015851176576688886,1.0016345977783203,0.0,0.0,0.0,0.3392446041107178,12.401142120361328,3.117948532104492,-61.403953552246094,0
306.4310000000005,-9.565796972310636e-06,-0.00019209901802241802,-0.00019462422642391175,0.0,0.0,0.0,0.0,-0.0007329809013754129,0.0006361050182022154,-0.002781699877232313,1.0002208948135376,0.0,0.0,0.0,0.3309604227542877,12.412678718566895,3.100886106491089,-59.90449905395508,0
316.3110000000015,2.791092629195191e-05,-0.00014835046022199094,-0.00022503123909700662,0.0,0.0,0.0,0.0,0.0013256067177280784,0.00196252204477787,-0.0009784281719475985,0.998498260974884,0.0,0.0,0.0,0.34044283628463745,12.425610542297363,3.103741407394409,-61.620826721191406,0
326.20900000000074,-8.223623444791883e-05,-0.0001450803247280419,-0.00021403044229373336,0.0,0.0,0.0,0.0,-0.0017278556479141116,-0.0038252160884439945,-0.0026278190780431032,0.9982282519340515,0.0,0.0,0.0,0.3329284191131592,12.421562194824219,3.0801968574523926,-60.26070785522461,0
336.09100000000035,-4.861851266468875e-05,-0.00010924584057647735,-0.0002505923039279878,0.0,0.0,0.0,0.0,0.005306394770741463,0.00815685372799635,-0.0010792126413434744,0.9995988011360168,0.0,0.0,0.0,0.34606048464775085,12.430020332336426,3.1013307571411133,-62.637630462646484,0
345.97700000000077,-7.243597792694345e-05,-0.00014208447828423232,-0.0002328230330022052,0.0,0.0,0.0,0.0,0.00443294458091259,-0.0013396015856415033,0.0025063431821763515,0.998708188533783,0.0,0.0,0.0,0.3321981728076935,12.412981986999512,3.07572078704834,-60.1285285949707,0
355.85100000000057,-4.4289554352872074e-05,-9.854690870270133e-05,-0.00026322866324335337,0.0,0.0,0.0,0.0,0.0031706320587545633,0.0015662809601053596,0.0005012322799302638,0.9994739294052124,0.0,0.0,0.0,0.34983140230178833,12.41080379486084,3.086646318435669,-63.3201789855957,0
365.7430000000004,-8.436279313173145e-05,-0.00011027888831449673,-0.00023920639068819582,0.0,0.0,0.0,0.0,0.0005344957462511957,0.0048063467256724834,0.000837495899759233,0.9987747073173523,0.0,0.0,0.0,0.34078601002693176,12.399964332580566,3.066727876663208,-61.682945251464844,0
375.6290000000008,-7.453621219610795e-05,-0.00014200742589309812,-0.0002715707814786583,0.0,0.0,0.0,0.0,-0.0007793863187544048,0.0036864918656647205,0.0022083192598074675,0.9976325035095215,0.0,0.0,0.0,0.35774609446525574,12.394817352294922,3.0687921047210693,-64.75275421142578,0
385.509,-9.53583003138192e-05,-0.00014569169434253126,-0.0002357719640713185,0.0,0.0,0.0,0.0,-0.0007526110275648534,-0.0017355859745293856,0.0010637850500643253,0.999259889125824,0.0,0.0,0.0,0.34876593947410583,12.397252082824707,3.0587329864501953,-63.1273307800293,0
395.39600000000064,-0.00010727807239163667,-0.00018827134044840932,-0.0002345406828681007,0.0,0.0,0.0,0.0,0.0019225716823711991,-0.000666423118673265,0.00508751580491662,1.0001775026321411,0.0,0.0,0.0,0.36752304434776306,12.390406608581543,3.061469078063965,-66.52239990234375,0
405.27800000000025,-0.00011634628754109144,-0.0001880654162960127,-0.00018740234372671694,0.0,0.0,0.0,0.0,-0.0033800823148339987,-0.004476577043533325,-0.0005853113834746182,0.9974929690361023,0.0,0.0,0.0,0.359944611787796,12.387537002563477,3.062769889831543,-65.15068054199219,0
415.16300000000047,-0.00011326689855195582,-0.0002068116154987365,-0.00019794800027739257,0.0,0.0,0.0,0.0,-0.0051771169528365135,-0.005089316051453352,-0.0013917501782998443,0.9974517822265625,0.0,0.0,0.0,0.37731191515922546,12.389433860778809,3.0706562995910645,-68.29420471191406,0
425.0550000000003,-0.00010878325701924041,-0.00023117147793527693,-0.00016140745719894767,0.0,0.0,0.0,0.0,0.0018936308333650231,0.008032734505832195,-0.001648473204113543,0.997999906539917,0.0,0.0,0.0,0.36482977867126465,12.390997886657715,3.0739126205444336,-66.03491973876953,0
434.9390000000003,-9.220155334332958e-05,-0.00022858282318338752,-0.0001831305999075994,0.0,0.0,0.0,0.0,-0.001317998394370079,-0.006491020787507296,0.001357829081825912,0.9986167550086975,0.0,0.0,0.0,0.3765968680381775,12.38728141784668,3.061387538909912,-68.16478729248047,0
444.8220000000001,-7.127624121494591e-05,-0.00024252093862742186,-0.0001361462491331622,0.0,0.0,0.0,0.0,0.0012363119749352336,0.0006688243593089283,0.00013625386054627597,0.9992334842681885,0.0,0.0,0.0,0.3627266585826874,12.393065452575684,3.074688673019409,-65.65425109863281,0
454.71300000000156,-4.9718539230525494e-05,-0.00023327376402448863,-0.00016058636538218707,0.0,0.0,0.0,0.0,-0.0018631803104653955,0.0035860573407262564,-0.00013209428288973868,1.0002881288528442,0.0,0.0,0.0,0.37492331862449646,12.39437198638916,3.0775303840637207,-67.86186981201172,0
464.58700000000135,-6.173486326588318e-05,-0.00023637710546609014,-0.0001165699795819819,0.0,0.0,0.0,0.0,0.003923173528164625,-0.0003259501827415079,-0.0016750319628044963,1.0018815994262695,0.0,0.0,0.0,0.36271196603775024,12.397555351257324,3.065636396408081,-65.6515884399414,0
474.47700000000077,3.94579183193855e-06,-0.00015042952145449817,-0.00017218572611454874,0.0,0.0,0.0,0.0,-0.002261333167552948,-0.004538430832326412,0.0016004998469725251,1.0014439821243286,0.0,0.0,0.0,0.3750357925891876,12.413618087768555,3.0823423862457275,-67.88221740722656,0
484.35699999999997,-2.3689544832450338e-06,-0.00016448349924758077,-0.00013201645924709737,0.0,0.0,0.0,0.0,0.0008445680723525584,-0.0016839882591739297,0.0014354453887790442,0.9997760653495789,0.0,0.0,0.0,0.36169636249542236,12.418929100036621,3.096956491470337,-65.46776580810547,0
494.2520000000004,3.56237796950154e-05,-0.00011954422370763496,-0.0001575667120050639,0.0,0.0,0.0,0.0,-0.00045115782995708287,1.34397769215866e-05,-0.003819594392552972,0.9995927810668945,0.0,0.0,0.0,0.3757157027721405,12.425046920776367,3.100844144821167,-68.00528717041016,0
504.1310000000012,4.258235276211053e-05,-0.00018770276801660657,-0.0001445247180527076,0.0,0.0,0.0,0.0,0.0013610678724944592,0.004366888664662838,0.00029380564228631556,0.9988219141960144,0.0,0.0,0.0,0.3632359504699707,12.417642593383789,3.0976011753082275,-65.74642944335938,0
514.0120000000006,3.265999839641154e-05,-0.00023038657673168927,-0.00013218526146374643,0.0,0.0,0.0,0.0,0.0003241132653784007,-0.005457828287035227,0.003382288385182619,0.9972792863845825,0.0,0.0,0.0,0.37640681862831116,12.40775203704834,3.083543300628662,-68.13037872314453,0
523.9070000000011,-2.0640743969124742e-05,-0.00021069153444841504,-8.606491610407829e-05,0.0,0.0,0.0,0.0,0.0014305923832580447,0.004073967691510916,0.001439601182937622,0.9978736042976379,0.0,0.0,0.0,0.3622370660305023,12.414109230041504,3.0883758068084717,-65.56562805175781,0
533.7850000000017,-1.4419682884181384e-05,-0.00021520744485314935,-8.871304453350604e-05,0.0,0.0,0.0,0.0,0.0002894021454267204,0.0016405554488301277,-0.0010102264350280166,0.9991790652275085,0.0,0.0,0.0,0.37688148021698,12.410104751586914,3.086695671081543,-68.21630096435547,0
543.6750000000011,-1.8586457372293808e-05,-0.0002876040816772729,-7.88281686254777e-05,0.0,0.0,0.0,0.0,-0.0008281670743599534,-0.0030148958321660757,0.0007408593082800508,0.9992334842681885,0.0,0.0,0.0,0.3675929307937622,12.403616905212402,3.089362859725952,-66.53504943847656,0
553.5490000000009,6.23030609858688e-06,-0.0002650756505317986,-0.00010102157830260694,0.0,0.0,0.0,0.0,0.001122275716625154,-0.0018058562418445945,0.0017484485870227218,0.999290406703949,0.0,0.0,0.0,0.38087716698646545,12.41122817993164,3.1004958152770996,-68.93952178955078,0
563.4450000000015,-4.13824527640827e-05,-0.00025275713414885104,-5.167885683476925e-05,0.0,0.0,0.0,0.0,-0.0016768405912443995,0.00033303347299806774,0.0011257505975663662,0.9998029470443726,0.0,0.0,0.0,0.36873629689216614,12.414527893066406,3.0920774936676025,-66.74200439453125,0
573.3270000000011,-2.702940400922671e-05,-0.000258399813901633,-7.061492942739278e-05,0.0,0.0,0.0,0.0,-0.0025239321403205395,-0.0025947110261768103,0.0019046656088903546,0.9978351593017578,0.0,0.0,0.0,0.3835042119026184,12.417315483093262,3.101290702819824,-69.41502380371094,0
583.2030000000013,-1.0135185220860876e-05,-0.00015215024177450687,-4.134786649956368e-06,0.0,0.0,0.0,0.0,-9.663381206337363e-05,0.005787140689790249,-2.2879312382428907e-05,0.9980837106704712,0.0,0.0,0.0,0.3728790581226349,12.439785957336426,3.102179765701294,-67.49185180664062,0
593.1020000000008,-3.7003746911068447e-06,-0.00020608433987945318,-2.3123735445551574e-05,0.0,0.0,0.0,0.0,0.0015966608189046383,-0.0012801890261471272,0.0015106794890016317,0.9990257024765015,0.0,0.0,0.0,0.38456130027770996,12.434168815612793,3.1016855239868164,-69.60636138916016,0
602.9760000000006,3.0454241368715884e-06,-0.00012908721691928804,2.3596456230734475e-05,0.0,0.0,0.0,0.0,0.000698677496984601,-0.0017338412581011653,-0.0010703930165618658,1.0014783143997192,0.0,0.0,0.0,0.37362784147262573,12.450291633605957,3.1003429889678955,-67.62738800048828,0
612.8580000000002,3.874297544825822e-05,-0.00015157251618802547,-3.293353438493796e-05,0.0,0.0,0.0,0.0,-0.0025702754501253366,-0.0019298226106911898,0.0034101861529052258,1.0003488063812256,0.0,0.0,0.0,0.38406872749328613,12.447632789611816,3.12211275100708,-69.51720428466797,0
622.746000000001,-6.653217133134604e-05,-0.00010164729610551149,-3.563652717275545e-05,0.0,0.0,0.0,0.0,-0.0007431243429891765,-0.0023778663016855717,0.0012390597257763147,0.9987664222717285,0.0,0.0,0.0,0.37249255180358887,12.45873737335205,3.102775812149048,-67.42189025878906,0
632.6370000000006,-3.434365498833358e-05,-8.836726192384958e-05,-8.844348485581577e-05,0.0,0.0,0.0,0.0,0.0006621882785111666,-0.0011386771220713854,-0.0003501228929962963,0.9994171261787415,0.0,0.0,0.0,0.38532161712646484,12.455876350402832,3.1303727626800537,-69.74397277832031,0
642.5280000000002,-7.513134914916009e-05,-6.471425149356946e-05,-8.385079854633659e-05,0.0,0.0,0.0,0.0,-0.0019153478788211942,-0.0039934925734996796,-0.0025362418964505196,0.9982165694236755,0.0,0.0,0.0,0.37247994542121887,12.461881637573242,3.122044086456299,-67.41960906982422,0
652.3950000000004,-9.532055992167443e-05,-0.00016766192857176065,-0.00011816675396403298,0.0,0.0,0.0,0.0,1.2292830433580093e-05,-0.006463710684329271,0.0004322043096181005,0.9973645210266113,0.0,0.0,0.0,0.37947914004325867,12.446456909179688,3.139296531677246,-68.68647766113281,0
662.2900000000009,-5.1057388191111386e-05,-0.00011738468310795724,-7.584012200823054e-05,0.0,0.0,0.0,0.0,-0.00179866177495569,-0.002257165964692831,-0.0014305680524557829,0.9996719360351562,0.0,0.0,0.0,0.36931219696998596,12.457135200500488,3.143460988998413,-66.84624481201172,0
672.1770000000015,-6.823519652243704e-05,-0.00017997977556660771,-0.00010008734534494579,0.0,0.0,0.0,0.0,0.0011559526901692152,0.0014646400231868029,0.0010320445289835334,1.0004777908325195,0.0,0.0,0.0,0.3827861547470093,12.444938659667969,3.1541848182678223,-69.28504943847656,0
682.0590000000011,-5.197891005082056e-05,-0.00012628840340767056,-6.563347415067255e-05,0.0,0.0,0.0,0.0,9.783923451323062e-05,0.00019800550944637507,0.0014024991542100906,0.9998278021812439,0.0,0.0,0.0,0.3734257221221924,12.456363677978516,3.1533610820770264,-67.5907974243164,0
691.9340000000011,-7.310311775654554e-05,-0.00019915387383662164,-7.839212048565969e-05,0.0,0.0,0.0,0.0,0.0005091982893645763,-0.001721218810416758,-0.0009409117046743631,0.9990221858024597,0.0,0.0,0.0,0.39069607853889465,12.430743217468262,3.153182029724121,-70.71675872802734,0
701.8250000000007,-6.203122029546648e-05,-0.00014630312216468155,-4.38156675954815e-05,0.0,0.0,0.0,0.0,0.002238174434751272,0.005044153891503811,-0.0009683786192908883,1.0002613067626953,0.0,0.0,0.0,0.3791850209236145,12.442091941833496,3.15250825881958,-68.63323974609375,0
711.7120000000014,-6.868949276395142e-05,-0.00022573127353098243,-6.57975033391267e-05,0.0,0.0,0.0,0.0,0.001233251066878438,0.0010163942351937294,0.002202531322836876,0.9993126392364502,0.0,0.0,0.0,0.3784024119377136,12.412324905395508,3.137202262878418,-68.49159240722656,0
721.598,-9.418107947567478e-05,-0.00019063705985900015,-5.2033228712389246e-05,0.0,0.0,0.0,0.0,-0.0004095382464583963,0.002483438001945615,0.00027825470897369087,0.9998361468315125,0.0,0.0,0.0,0.3650931119918823,12.420672416687012,3.1301047801971436,-66.08258056640625,0
731.478000000001,-8.303137292386964e-05,-0.00023076550860423595,-8.260130562121049e-05,0.0,0.0,0.0,0.0,0.0006662439554929733,9.020861034514382e-05,-0.00011137535329908133,0.9998133778572083,0.0,0.0,0.0,0.3818710148334503,12.407456398010254,3.1135306358337402,-69.11941528320312,0
741.3650000000016,-2.385975676588714e-05,-0.0001954200561158359,-4.473384979064576e-05,0.0,0.0,0.0,0.0,0.0011866027489304543,0.001846135244704783,-0.0017835873877629638,0.9988139867782593,0.0,0.0,0.0,0.37166762351989746,12.415404319763184,3.119795799255371,-67.27257537841797,0
751.2400000000016,-1.2018575944239274e-05,-0.000264933769358322,-7.547980203526095e-05,0.0,0.0,0.0,0.0,-0.001151618198491633,-0.004869653843343258,-0.0013602552935481071,0.999024510383606,0.0,0.0,0.0,0.370857298374176,12.387300491333008,3.117284059524536,-67.12590789794922,0
761.1330000000016,-2.6908137442660518e-05,-0.00018763772095553577,-3.5645989555632696e-05,0.0,0.0,0.0,0.0,-0.0018149269744753838,0.0011574530508369207,-0.0013947515981271863,0.9981033205986023,0.0,0.0,0.0,0.3585169315338135,12.403295516967773,3.1130876541137695,-64.89228057861328,0
771.0100000000002,2.2722386347595602e-05,-0.00020447862334549427,-0.0001041493087541312,0.0,0.0,0.0,0.0,0.0010391612304374576,0.00530227879062295,-0.0004622933338396251,0.9995047450065613,0.0,0.0,0.0,0.3684134781360626,12.402755737304688,3.1245474815368652,-66.6835708618164,0
780.9010000000017,-4.441897544893436e-06,-0.00015369578613899648,-8.306488598464057e-05,0.0,0.0,0.0,0.0,-0.0026299399323761463,0.0008779074414633214,0.0023924196138978004,0.9982008934020996,0.0,0.0,0.0,0.3591872751712799,12.41352653503418,3.1185972690582275,-65.01361083984375,0
790.7870000000003,3.806126187555492e-05,-0.00020599158597178757,-0.00016339046123903245,0.0,0.0,0.0,0.0,5.0823520723497495e-05,-0.004957237280905247,0.0029333459679037333,0.9981091618537903,0.0,0.0,0.0,0.3596382737159729,12.392313957214355,3.0940873622894287,-65.0952377319336,0
800.6660000000011,-4.194355642539449e-05,-0.00015830939810257405,-0.000159823612193577,0.0,0.0,0.0,0.0,0.001434573088772595,0.0011424289550632238,-0.002976047806441784,0.9990946054458618,0.0,0.0,0.0,0.3491400480270386,12.402837753295898,3.078922986984253,-63.195045471191406,0
810.5520000000015,-4.949529466102831e-05,-0.0002514083171263337,-0.00019680442346725613,0.0,0.0,0.0,0.0,0.0005851977621205151,-0.00026575487572699785,-0.0011884080013260245,1.0005221366882324,0.0,0.0,0.0,0.34851428866386414,12.379997253417969,3.094733476638794,-63.081783294677734,0
820.4410000000007,-4.5548596972366795e-05,-0.0001563526748213917,-0.00014513755741063505,0.0,0.0,0.0,0.0,0.001665816642343998,0.004421385936439037,-0.004258388187736273,0.9999871850013733,0.0,0.0,0.0,0.3405311703681946,12.399067878723145,3.0931289196014404,-61.63682174682617,0
830.3180000000011,-5.315756789059378e-05,-0.00023392229923047125,-0.00016160443192347884,0.0,0.0,0.0,0.0,-0.0016365075716748834,-0.0007127700955606997,0.002800053684040904,0.9989584684371948,0.0,0.0,0.0,0.3558695316314697,12.377514839172363,3.083512783050537,-64.41309356689453,0
840.2020000000011,-7.571342575829476e-05,-0.00018278595234733075,-0.00013829577073920518,0.0,0.0,0.0,0.0,0.00030102787422947586,0.007154068909585476,0.0005014922353439033,0.9984146952629089,0.0,0.0,0.0,0.3450254201889038,12.388445854187012,3.078415632247925,-62.450286865234375,0
850.0889999999999,-6.676404882455245e-05,-0.00023620412684977055,-0.0001689798227744177,0.0,0.0,0.0,0.0,0.003027313854545355,-0.0011675342684611678,0.0025988342240452766,0.9958739876747131,0.0,0.0,0.0,0.35980311036109924,12.3733549118042,3.064772605895996,-65.12507629394531,0
859.9750000000004,-7.476312748622149e-05,-0.00019810505909845233,-0.00014821549120824784,0.0,0.0,0.0,0.0,0.001806800253689289,0.004219049122184515,-0.00193758902605623,0.9981569647789001,0.0,0.0,0.0,0.35109445452690125,12.381614685058594,3.0624709129333496,-63.548797607421875,0
869.8630000000012,-2.3858774511609226e-05,-0.00017614313401281834,-0.00021355433273129165,0.0,0.0,0.0,0.0,0.0015938974684104323,0.0026976896915584803,-0.0004382843035273254,0.9976407289505005,0.0,0.0,0.0,0.35823264718055725,12.386670112609863,3.0645525455474854,-64.84082794189453,0
879.7430000000004,-2.3150238121161237e-05,-0.00010103341628564522,-0.00017319561447948217,0.0,0.0,0.0,0.0,-0.00021436315728351474,0.003621010109782219,-0.0016304118325933814,0.9971376657485962,0.0,0.0,0.0,0.34997907280921936,12.402000427246094,3.0623793601989746,-63.34690475463867,0
889.6260000000002,-4.421166886459105e-05,-0.00017627210763748735,-0.00017027376452460885,0.0,0.0,0.0,0.0,0.00032488114084117115,6.115608994150534e-05,-0.0009006523177959025,0.9975789785385132,0.0,0.0,0.0,0.36247047781944275,12.393117904663086,3.0569748878479004,-65.60787963867188,0
899.514000000001,-4.8948557378025725e-05,-0.0001577537477714941,-0.00012269601575098932,0.0,0.0,0.0,0.0,-0.0008148038759827614,0.0012675172183662653,-0.001049065263941884,0.9998696446418762,0.0,0.0,0.0,0.3528757691383362,12.401158332824707,3.06562876701355,-63.871219635009766,0
909.3990000000013,-4.662520223064348e-05,-0.00020074826898053288,-0.00013857055455446243,0.0,0.0,0.0,0.0,-0.0020769499242305756,0.0002161693264497444,0.00040392897790297866,1.0000457763671875,0.0,0.0,0.0,0.3691556453704834,12.390410423278809,3.0536210536956787,-66.81790924072266,0
919.2790000000005,-6.0226917412364855e-05,-0.00018213804287370294,-9.152604616247118e-05,0.0,0.0,0.0,0.0,0.0006724154227413237,-0.0008558304398320615,0.0019421401666477323,0.9971232414245605,0.0,0.0,0.0,0.36092647910118103,12.400829315185547,3.0545332431793213,-65.32841491699219,0
929.1760000000013,-5.401596718002111e-05,-0.00020802952349185944,-0.00010555537301115692,0.0,0.0,0.0,0.0,0.001862715114839375,0.0006546844961121678,-0.005097994580864906,0.9983637928962708,0.0,0.0,0.0,0.3777756690979004,12.402706146240234,3.0642786026000977,-68.3781509399414,0
939.0490000000009,-4.29075735155493e-05,-0.00020806724205613136,-5.3426032536663115e-05,0.0,0.0,0.0,0.0,0.0006222225492820144,-0.001770500559359789,0.0007437090971507132,1.0004223585128784,0.0,0.0,0.0,0.3659818470478058,12.409584045410156,3.062986373901367,-66.24344635009766,0
948.9400000000005,1.4764689694857225e-05,-0.00019627250730991364,-0.00012690559378825128,0.0,0.0,0.0,0.0,0.001207898952998221,-0.0034809631761163473,-0.002056530676782131,0.9981991648674011,0.0,0.0,0.0,0.3754504919052124,12.4132719039917,3.0784246921539307,-67.95728302001953,0
958.8280000000013,3.1691311050963122e-06,-0.0001460693310946226,-6.122758350102231e-05,0.0,0.0,0.0,0.0,0.0029972894117236137,-0.0014998032711446285,0.0007164096459746361,0.9978660345077515,0.0,0.0,0.0,0.3658113479614258,12.42542839050293,3.0830674171447754,-66.21258544921875,0
968.7110000000011,4.0073155105346814e-05,-0.00016288345796056092,-0.00011398705100873485,0.0,0.0,0.0,0.0,-0.00046888674842193723,-0.0003624909440986812,-0.0011293740244582295,0.99867182970047,0.0,0.0,0.0,0.37778133153915405,12.421653747558594,3.0959951877593994,-68.37916564941406,0
978.5889999999999,-1.8846223611035384e-05,-0.00014587501937057823,-8.463396807201207e-05,0.0,0.0,0.0,0.0,0.0006627499242313206,0.003206645604223013,-0.0008723524515517056,0.99825119972229,0.0,0.0,0.0,0.3694956600666046,12.430405616760254,3.0925703048706055,-66.87944793701172,0
988.4860000000008,-1.2637613508559298e-05,-0.00021072578965686262,-0.00010986439883708954,0.0,0.0,0.0,0.0,-0.002547662938013673,0.0001420406042598188,-0.002598484279587865,0.9992126822471619,0.0,0.0,0.0,0.3682016432285309,12.418671607971191,3.0812790393829346,-66.6452407836914,0
998.3590000000004,-8.058360253926367e-05,-0.00021497999841812998,-9.25770218600519e-05,0.0,0.0,0.0,0.0,0.002852870151400566,0.003673498285934329,0.0023584109731018543,1.0010366439819336,0.0,0.0,0.0,0.3552052080631256,12.421335220336914,3.0712735652923584,-64.2928466796875,0
1008.264000000001,-6.2146398704499e-05,-0.00021063408348709345,-0.00011779204942286015,0.0,0.0,0.0,0.0,-0.0008438933291472495,-0.0044590262696146965,-0.0011081153061240911,0.9998393058776855,0.0,0.0,0.0,0.3706858456134796,12.415383338928223,3.0687170028686523,-67.0948715209961,0
1018.1290000000008,-7.554011972388253e-05,-0.00021065035252831876,-8.003072434803471e-05,0.0,0.0,0.0,0.0,-0.0008348197443410754,-0.0020658704452216625,0.0007240800186991692,0.9991915225982666,0.0,0.0,0.0,0.35811707377433777,12.415513038635254,3.061807870864868,-64.81990814208984,0
1028.0290000000005,-5.878948650206439e-05,-0.00022972322767600417,-0.00010585811833152547,0.0,0.0,0.0,0.0,-4.1029728890862316e-05,-0.0021723173558712006,-0.0028234627097845078,0.9986581802368164,0.0,0.0,0.0,0.37311843037605286,12.412955284118652,3.0671603679656982,-67.5351791381836,0
1037.9040000000005,-6.400133861461654e-05,-0.00022013086709193885,-5.905535726924427e-05,0.0,0.0,0.0,0.0,0.0004769482766278088,-0.000852344324812293,0.0002913078060373664,0.9994723796844482,0.0,0.0,0.0,0.36181995272636414,12.421709060668945,3.0740864276885986,-65.4901351928711,0
1047.7920000000013,-3.458731953287497e-05,-0.000219444977119565,-9.220539504894987e-05,0.0,0.0,0.0,0.0,-0.0005008699954487383,-0.00018765412096399814,-7.99154513515532e-05,0.9989312291145325,0.0,0.0,0.0,0.37587592005729675,12.418723106384277,3.0752530097961426,-68.03429412841797,0
1057.6680000000015,-3.040083174710162e-05,-0.00020743950153701007,-3.978590393671766e-05,0.0,0.0,0.0,0.0,0.00040365391760133207,-0.0025088873226195574,-0.0012911974918097258,0.9970825910568237,0.0,0.0,0.0,0.3654657304286957,12.422351837158203,3.073042869567871,-66.1500244140625,0
1067.5790000000015,2.944313018815592e-05,-0.00018505140906199813,-0.00010727872722782195,0.0,0.0,0.0,0.0,0.001283892896026373,-0.0015528927324339747,-0.0031700595282018185,0.9980555176734924,0.0,0.0,0.0,0.3763425350189209,12.427165985107422,3.0856988430023193,-68.1187515258789,0
1077.446,-3.7850091757718474e-05,-0.00015580114268232137,-7.22892364137806e-05,0.0,0.0,0.0,0.0,0.00030245768721215427,-0.0016016734298318624,-0.0006828925688751042,0.9989593029022217,0.0,0.0,0.0,0.3664364218711853,12.43910026550293,3.074113607406616,-66.32571411132812,0
1087.3410000000003,1.8134869606001303e-05,-0.00017264473717659712,-0.00015184703806880862,0.0,0.0,0.0,0.0,5.0187423767056316e-05,-0.0007967986748553813,-0.0036290313582867384,0.9977595806121826,0.0,0.0,0.0,0.37173980474472046,12.439340591430664,3.0873794555664062,-67.28563690185547,0
1097.2110000000011,-2.0179599232506007e-05,-0.00014536177332047373,-0.0001123828551499173,0.0,0.0,0.0,0.0,-0.0016131092561408877,0.003121056593954563,0.0011798657942563295,0.9973503947257996,0.0,0.0,0.0,0.36379361152648926,12.450909614562988,3.0651838779449463,-65.84735870361328,0
1107.1060000000016,2.856148967111949e-05,-0.00010916907922364771,-0.00016275918460451066,0.0,0.0,0.0,0.0,-0.0025058668106794357,-0.00048478104872629046,-0.00039228895911946893,0.9997555613517761,0.0,0.0,0.0,0.37371277809143066,12.455562591552734,3.066143274307251,-67.64276123046875,0
1116.9770000000008,2.0251571186236106e-05,-0.00017332073184661567,-0.00017097403178922832,0.0,0.0,0.0,0.0,0.0007316282717511058,0.003511895891278982,0.0035597411915659904,1.0004897117614746,0.0,0.0,0.0,0.3731078505516052,12.449861526489258,3.072938919067383,-67.53326416015625,0
1126.8700000000008,4.55381850770209e-05,-0.00018613459542393684,-0.0002150262298528105,0.0,0.0,0.0,0.0,0.000457498972536996,-0.0003758095554076135,-0.0019642410334199667,1.0008344650268555,0.0,0.0,0.0,0.38369104266166687,12.449593544006348,3.0668082237243652,-69.44884490966797,0
1136.7470000000012,3.909022780135274e-05,-0.0002492190687917173,-0.00022398598957806826,0.0,0.0,0.0,0.0,0.00264511676505208,-0.00038237101398408413,-0.0019163964316248894,1.001147985458374,0.0,0.0,0.0,0.3825589716434479,12.433366775512695,3.077134609222412,-69.24393463134766,0
1146.6490000000013,2.2617205104324967e-05,-0.00026276562130078673,-0.00020214583491906524,0.0,0.0,0.0,0.0,0.0012481800513342023,-0.0012820855481550097,-0.002063189400359988,0.9999673366546631,0.0,0.0,0.0,0.3943069279193878,12.433494567871094,3.0763933658599854,-71.3703384399414,0
1156.5170000000016,1.3806690731144045e-05,-0.00032772368285804987,-0.00020602205768227577,0.0,0.0,0.0,0.0,-0.00024165166541934013,-0.00010619631211739033,0.0006347165326587856,0.9988220930099487,0.0,0.0,0.0,0.39401814341545105,12.416245460510254,3.075273036956787,-71.31806182861328,0
1166.4180000000015,1.2631469871848822e-05,-0.00029203775920905173,-0.00019243657879997045,0.0,0.0,0.0,0.0,-7.347841892624274e-05,-0.0013908022083342075,-0.00072670221561566,0.997635543346405,0.0,0.0,0.0,0.4061403274536133,12.439518928527832,3.0897316932678223,-73.51220703125,0
1176.2970000000005,6.100744485593168e-06,-0.00035699165891855955,-0.00019437681476119906,0.0,0.0,0.0,0.0,0.0007997290231287479,0.0003453961980994791,-0.004020628519356251,0.9996896982192993,0.0,0.0,0.0,0.4045659601688385,12.427230834960938,3.084707021713257,-73.22724914550781,0
1186.184000000001,3.947643199353479e-05,-0.00023922849504742771,-0.00019735348178073764,0.0,0.0,0.0,0.0,-0.003931114450097084,-0.0023339681793004274,-0.00015639621415175498,0.9997867941856384,0.0,0.0,0.0,0.4138999581336975,12.477205276489258,3.1090452671051025,-74.91671752929688,0
1196.0640000000003,3.994809230789542e-05,-0.00029508964507840574,-0.00019999421783722937,0.0,0.0,0.0,0.0,-0.0020766458474099636,0.0017944473074749112,0.002879043808206916,0.9997765421867371,0.0,0.0,0.0,0.41320765018463135,12.465057373046875,3.1208603382110596,-74.7914047241211,0
1205.955,3.295573333161883e-05,-0.0002701562480069697,-0.0001699344429653138,0.0,0.0,0.0,0.0,-0.0018358781235292554,0.0032884315587580204,0.0014450803864747286,0.9999159574508667,0.0,0.0,0.0,0.42625555396080017,12.484417915344238,3.1145777702331543,-77.15310668945312,0
1215.835000000001,2.877881888707634e-05,-0.0003254757320974022,-0.00016917273751460016,0.0,0.0,0.0,0.0,-0.0003954419807996601,-0.0031426874920725822,-0.0037095723673701286,0.9981411695480347,0.0,0.0,0.0,0.42755284905433655,12.473154067993164,3.1221752166748047,-77.3879165649414,0
1225.7250000000004,6.056902202544734e-05,-0.00022301392164081335,-0.0001570937893120572,0.0,0.0,0.0,0.0,0.003630794584751129,-0.0018921771552413702,0.0010092727607116103,0.9978386163711548,0.0,0.0,0.0,0.43616369366645813,12.511678695678711,3.1353328227996826,-78.94649505615234,0
1235.5970000000016,6.977056182222441e-05,-0.00023079323000274599,-0.00015633714792784303,0.0,0.0,0.0,0.0,-0.0008479879470542073,-0.007378682494163513,0.0022110522259026766,0.9980960488319397,0.0,0.0,0.0,0.4355503022670746,12.501033782958984,3.1223394870758057,-78.8354721069336,0
1245.4930000000004,6.627270340686664e-05,-0.0002798057103063911,-0.00015659011842217296,0.0,0.0,0.0,0.0,-0.004050003830343485,-0.0035981338005512953,-0.0020905686542391777,1.0016900300979614,0.0,0.0,0.0,0.4360140562057495,12.485852241516113,3.1269707679748535,-78.91940307617188,0
1255.366,7.009632827248424e-05,-0.00025950101553462446,-0.00013831548858433962,0.0,0.0,0.0,0.0,-0.0010618846863508224,-0.0028737294487655163,-0.0013605898711830378,0.9999432563781738,0.0,0.0,0.0,0.4447985589504242,12.50345230102539,3.147907257080078,-80.5094223022461,0
1265.2670000000016,6.475445843534544e-05,-0.0003110116522293538,-0.00013640575343742967,0.0,0.0,0.0,0.0,-0.000710969849023968,0.0016008210368454456,0.0003105992218479514,0.9975487589836121,0.0,0.0,0.0,0.44463929533958435,12.497286796569824,3.1451566219329834,-80.48060607910156,0
1275.1360000000004,7.383598131127656e-05,-0.000296215497655794,-0.00012134273129049689,0.0,0.0,0.0,0.0,-0.0037254872731864452,-0.0017383818048983812,-0.0011641487944871187,0.9993597269058228,0.0,0.0,0.0,0.4439009726047516,12.491690635681152,3.1531810760498047,-80.34695434570312,0
1285.036,7.014858420006931e-05,-0.00034654157934710383,-0.00011900522804353386,0.0,0.0,0.0,0.0,-0.0012316874926909804,0.0017369647976011038,0.0009766345610842109,1.0001825094223022,0.0,0.0,0.0,0.44389480352401733,12.485048294067383,3.157705068588257,-80.34584045410156,0
1294.9050000000007,0.00012037546548526734,-0.00025893523707054555,-0.00010435389413032681,0.0,0.0,0.0,0.0,-0.002262537833303213,-0.0006554197752848268,-0.0018034357344731688,0.9986841678619385,0.0,0.0,0.0,0.45341941714286804,12.540877342224121,3.1752660274505615,-82.06982421875,0
1304.8010000000013,0.00012073863763362169,-0.00029947090661153197,-0.00010135899356100708,0.0,0.0,0.0,0.0,-0.001430978300049901,0.0036812839098274708,0.0009468763018958271,0.9975144863128662,0.0,0.0,0.0,0.45296627283096313,12.530817031860352,3.1685261726379395,-81.98779296875,0
1314.6770000000015,0.00011973833170486614,-0.0003429974603932351,-9.865408355835825e-05,0.0,0.0,0.0,0.0,-0.002244924195110798,-0.003013534238561988,-0.0013032039860263467,0.998572826385498,0.0,0.0,0.0,0.45296770334243774,12.520475387573242,3.1688082218170166,-81.98805236816406,0
1324.5730000000003,0.00011867239663843066,-0.000389959110179916,-9.73208952927962e-05,0.0,0.0,0.0,0.0,-0.00042220362229272723,-0.000820426968857646,-0.0007636238005943596,1.0011670589447021,0.0,0.0,0.0,0.453611820936203,12.505284309387207,3.1483259201049805,-82.10464477539062,0
1334.4480000000003,0.00011847894347738475,-0.00044058923958800733,-9.621593926567584e-05,0.0,0.0,0.0,0.0,0.0019746131729334593,0.002317482139915228,0.002012957353144884,0.999958872795105,0.0,0.0,0.0,0.45342251658439636,12.48787784576416,3.147441864013672,-82.07037353515625,0
1344.3380000000016,0.00011872463801410049,-0.0004956953343935311,-9.389589831698686e-05,0.0,0.0,0.0,0.0,0.00013454537838697433,0.002765144221484661,0.001991342520341277,0.9999315738677979,0.0,0.0,0.0,0.45204323530197144,12.473523139953613,3.1458542346954346,-81.82072448730469,0
1354.2250000000004,-9.117161243921146e-05,-0.0002970714122056961,9.093707376450766e-06,0.0,0.0,0.0,0.0,0.0017007812857627869,0.005684900563210249,-0.005582406185567379,0.9984105229377747,0.0,0.0,0.0,0.4378575086593628,12.540481567382812,3.103024482727051,-79.25308227539062,0
1364.1190000000006,-0.00010018898319685832,-0.0003411057696212083,2.199985829065554e-05,0.0,0.0,0.0,0.0,0.00011575834651011974,-0.003706627292558551,0.0006229209247976542,0.9995224475860596,0.0,0.0,0.0,0.4379746913909912,12.525589942932129,3.0966575145721436,-79.2742919921875,0
1373.987000000001,-0.0001491259754402563,-0.00025307200849056244,0.00016001246694941074,0.0,0.0,0.0,0.0,0.0011476704385131598,-0.0031861416064202785,0.000753921689465642,0.9976487755775452,0.0,0.0,0.0,0.4214209318161011,12.552911758422852,3.081120491027832,-76.27802276611328,0
1383.880000000001,-0.00015967158833518624,-0.00029460195219144225,0.00018040651048067957,0.0,0.0,0.0,0.0,-0.0006157038151286542,-0.004850173834711313,0.0018835036316886544,0.9976454973220825,0.0,0.0,0.0,0.421250581741333,12.54279613494873,3.098022222518921,-76.24718475341797,0
1393.7530000000006,-0.00018348544836044312,-0.00029719382291659713,0.00024093956744764,0.0,0.0,0.0,0.0,0.0038069409783929586,0.0014147941255941987,-0.001669164514169097,1.0005658864974976,0.0,0.0,0.0,0.404989093542099,12.544106483459473,3.092841863632202,-73.30382537841797,0
1403.657000000001,-0.00019610290473792702,-0.00034093137946911156,0.0002615599660202861,0.0,0.0,0.0,0.0,-0.0013544360408559442,-0.0018873539520427585,0.0035542906261980534,0.9986705780029297,0.0,0.0,0.0,0.4054572284221649,12.52889633178711,3.099196434020996,-73.38856506347656,0
1413.5240000000013,-0.00013706400932278484,-0.0003519075398799032,0.00032290545641444623,0.0,0.0,0.0,0.0,0.0013353753602132201,0.0022042361088097095,-0.0008183922036550939,0.9980955719947815,0.0,0.0,0.0,0.3904092013835907,12.527546882629395,3.1010289192199707,-70.66483306884766,0
1423.429,-0.0001521669328212738,-0.0003991626435890794,0.00034714341745711863,0.0,0.0,0.0,0.0,0.003518986515700817,0.004661798011511564,0.00010113760799868032,0.9985523819923401,0.0,0.0,0.0,0.38979870080947876,12.509639739990234,3.0979812145233154,-70.55433654785156,0
1433.2930000000015,-0.0001885344390757382,-0.0004305114271119237,0.00038878744817338884,0.0,0.0,0.0,0.0,-0.0012629275443032384,-0.0002671531983651221,-0.0015106652863323689,0.9982221722602844,0.0,0.0,0.0,0.37403222918510437,12.503811836242676,3.0734152793884277,-67.70057678222656,0
1443.1980000000003,-0.00020583315927069634,-0.00048307946417480707,0.0004125467676203698,0.0,0.0,0.0,0.0,-0.0003168592229485512,0.0016261334531009197,-0.0013179691741243005,0.9987983703613281,0.0,0.0,0.0,0.3741801381111145,12.486900329589844,3.068868398666382,-67.72734832763672,0
1453.0720000000001,-0.0002259066532133147,-0.0005119748529978096,0.000461515155620873,0.0,0.0,0.0,0.0,0.0005285328370518982,-0.0017507803859189153,-0.001642312970943749,0.9956656694412231,0.0,0.0,0.0,0.357096403837204,12.48454475402832,3.0561602115631104,-64.63516235351562,0
1462.9560000000001,-0.00024694690364412963,-0.0005685299402102828,0.00048574962420389056,0.0,0.0,0.0,0.0,0.0005064182332716882,7.789732626406476e-05,0.0008467770530842245,0.9988871812820435,0.0,0.0,0.0,0.35738638043403625,12.476078987121582,3.0450546741485596,-64.6876449584961,0
1472.8320000000003,-0.00023396799224428833,-0.0005652906838804483,0.0005647691432386637,0.0,0.0,0.0,0.0,0.0021881824359297752,0.001377096283249557,-0.0012432769872248173,0.9992746710777283,0.0,0.0,0.0,0.34847813844680786,12.486541748046875,3.056175708770752,-63.07523727416992,0
1482.737000000001,-0.00025320990243926644,-0.0006217813352122903,0.0005913570639677346,0.0,0.0,0.0,0.0,-0.002342374064028263,-0.005749701522290707,9.920217416947708e-05,1.000001072883606,0.0,0.0,0.0,0.3475431203842163,12.472294807434082,3.0532491207122803,-62.9059944152832,0
1492.6050000000014,-0.0002552959485910833,-0.0006282130489125848,0.0006623714580200613,0.0,0.0,0.0,0.0,0.0009351627668365836,-0.0003076735883951187,0.0010293059749528766,0.9998518824577332,0.0,0.0,0.0,0.332491934299469,12.47766399383545,3.0519747734069824,-60.18170166015625,0
1502.4970000000012,-0.00027642189525067806,-0.0006863473099656403,0.0006942679174244404,0.0,0.0,0.0,0.0,0.0027952338568866253,-0.0019475334556773305,-0.0019460237817838788,0.9998337626457214,0.0,0.0,0.0,0.33193865418434143,12.464158058166504,3.05073881149292,-60.0815544128418,0
1512.3790000000008,-0.0002916378143709153,-0.000687146617565304,0.0007733851671218872,0.0,0.0,0.0,0.0,-2.2360625735018402e-05,0.00715221744030714,0.000158020862727426,0.998647928237915,0.0,0.0,0.0,0.32350966334342957,12.47230339050293,3.041644334793091,-58.55589294433594,0
1522.2670000000016,-0.00031235386268235743,-0.0007456331513822079,0.000810648372862488,0.0,0.0,0.0,0.0,0.0010116025805473328,-0.003586506936699152,-0.0010350530501455069,0.996882438659668,0.0,0.0,0.0,0.3240470290184021,12.454463958740234,3.0336995124816895,-58.653160095214844,0
1532.152,-0.00033536978298798203,-0.0007687550387345254,0.0008748297696001828,0.0,0.0,0.0,0.0,-8.552142389817163e-05,0.007524492219090462,0.0007595529314130545,0.9977110624313354,0.0,0.0,0.0,0.31078946590423584,12.464947700500488,3.0251429080963135,-56.25351333618164,0
1542.036,-0.0003302403201814741,-0.0007636203663423657,0.0009713597246445715,0.0,0.0,0.0,0.0,0.003927675541490316,-0.0007953465101309121,-0.0060651651583611965,1.000321388244629,0.0,0.0,0.0,0.29894015192985535,12.479817390441895,3.022165536880493,-54.108760833740234,0
1551.911,-3.9971168007468805e-05,-0.00023151046480052173,-4.611332406057045e-05,0.0,0.0,0.0,0.0,-0.0007861565100029111,-0.005022087134420872,-0.000568607822060585,0.9980039000511169,0.0,0.0,0.0,0.30769941210746765,12.577857971191406,3.065892219543457,-55.6942024230957,0
1561.808000000001,-8.497382077621296e-05,-0.00023468417930416763,-2.2497950340039097e-05,0.0,0.0,0.0,0.0,-0.0029922344256192446,0.00033375044586136937,-0.0013584229163825512,0.9988908767700195,0.0,0.0,0.0,0.2925013303756714,12.569985389709473,3.0587656497955322,-52.943321228027344,0
1571.683000000001,-4.233706204104237e-05,-0.00017609537462703884,-0.0001122394241974689,0.0,0.0,0.0,0.0,-0.0016057085013017058,-0.0033517852425575256,0.0010185819119215012,1.000527024269104,0.0,0.0,0.0,0.3119772970676422,12.576325416564941,3.064883232116699,-56.4685173034668,0
1581.5740000000005,-5.770290590589866e-05,-0.00021657798788510263,-0.00011106875172117725,0.0,0.0,0.0,0.0,0.0035851194988936186,0.002687476808205247,-0.0010477403411641717,0.9993740320205688,0.0,0.0,0.0,0.310844361782074,12.571503639221191,3.061605930328369,-56.263450622558594,0
1591.4500000000007,-4.652065399568528e-05,-0.00020111867343075573,-0.00015004225133452564,0.0,0.0,0.0,0.0,-0.0027133352123200893,0.002063735155388713,0.0009340367396362126,0.9992978572845459,0.0,0.0,0.0,0.32089415192604065,12.57103443145752,3.0774619579315186,-58.08247756958008,0
1601.3490000000002,-7.993804319994524e-05,-0.00018975911370944232,-0.00011477034422568977,0.0,0.0,0.0,0.0,-0.0006012180238030851,-0.0017247293144464493,0.00179036776535213,0.9973956942558289,0.0,0.0,0.0,0.30829331278800964,12.564382553100586,3.0625996589660645,-55.80170440673828,0
1611.2210000000014,-2.0615118046407588e-05,-9.069046791410074e-05,-0.00016808115469757468,0.0,0.0,0.0,0.0,-0.0019393586553633213,-0.004943034611642361,0.0002095254312735051,0.9982210993766785,0.0,0.0,0.0,0.32498836517333984,12.570013046264648,3.0736043453216553,-58.82353973388672,0
1621.1230000000014,-5.0624952564248815e-05,-0.00010676439706003293,-0.00015427247853949666,0.0,0.0,0.0,0.0,0.0006350906332954764,-0.0019405018538236618,-0.0006605326198041439,1.0005125999450684,0.0,0.0,0.0,0.3126322627067566,12.565386772155762,3.0719614028930664,-56.587059020996094,0
1630.9900000000016,-1.744842666084878e-05,-9.612425492377952e-05,-0.00020039736409671605,0.0,0.0,0.0,0.0,0.0017398991622030735,8.794226596364751e-05,-0.003264830680564046,0.9968818426132202,0.0,0.0,0.0,0.3287407159805298,12.559066772460938,3.0784482955932617,-59.50271987915039,0
1640.8880000000008,-5.735874947276898e-05,-8.554896339774132e-05,-0.00017733772983774543,0.0,0.0,0.0,0.0,-0.001029401901178062,-0.0053794835694134235,-0.00046021590242162347,0.9987465143203735,0.0,0.0,0.0,0.3183925449848175,12.549921035766602,3.0748605728149414,-57.62968063354492,0
1650.7600000000002,-2.608695467642974e-05,-0.00010546536941546947,-0.0002346256369492039,0.0,0.0,0.0,0.0,0.004437359981238842,0.008100561797618866,0.0002640911261551082,0.9982951283454895,0.0,0.0,0.0,0.32325994968414307,12.536971092224121,3.0690999031066895,-58.51069641113281,0
1660.657000000001,-2.536724969104398e-05,-8.663353946758434e-05,-0.00020080174726899713,0.0,0.0,0.0,0.0,-0.0009380426490679383,-0.000701598881278187,0.0027676918543875217,1.0002895593643188,0.0,0.0,0.0,0.3147985339164734,12.52347469329834,3.0637707710266113,-56.97916030883789,0
1670.5330000000013,-3.580249904189259e-05,-0.00012405661982484162,-0.00019895177683793008,0.0,0.0,0.0,0.0,0.0015321188839152455,0.003300705226138234,0.000319435668643564,1.000590205192566,0.0,0.0,0.0,0.33039161562919617,12.510571479797363,3.0500099658966064,-59.80154037475586,0
1680.4260000000013,-2.626343848532997e-05,-0.00010937927436316386,-0.00015607051318511367,0.0,0.0,0.0,0.0,0.0016980675281956792,0.00121770438272506,-0.000690624350681901,0.9999678730964661,0.0,0.0,0.0,0.3209165632724762,12.504822731018066,3.0432469844818115,-58.08653259277344,0
1690.3010000000013,-2.7097799829789437e-05,-0.00015339271340053529,-0.00016390503151342273,0.0,0.0,0.0,0.0,0.002167878206819296,-0.002271890640258789,0.005623242352157831,0.9989509582519531,0.0,0.0,0.0,0.3305976986885071,12.48437786102295,3.03817081451416,-59.83884048461914,0
1700.1930000000011,-3.2120700780069456e-05,-0.00016714015509933233,-0.00012990573304705322,0.0,0.0,0.0,0.0,-0.0002996448893100023,-0.007959778420627117,0.0001448174734832719,0.9970880150794983,0.0,0.0,0.0,0.3200159966945648,12.478135108947754,3.0300545692443848,-57.92353439331055,0
1710.071,-2.6714420528151095e-05,-0.000198671841644682,-0.0001431607233826071,0.0,0.0,0.0,0.0,0.0009248002315871418,0.005652563646435738,0.0026273943949490786,0.9970607161521912,0.0,0.0,0.0,0.3277261555194855,12.462908744812012,3.0328330993652344,-59.319087982177734,0
1719.9650000000001,-3.251328450915025e-08,-0.0001554191403556615,-6.972588016651571e-05,0.0,0.0,0.0,0.0,-0.00016669181059114635,-0.0003994270518887788,-0.001296322443522513,0.9984096884727478,0.0,0.0,0.0,0.3270736634731293,12.451803207397461,3.034298896789551,-59.20097732543945,0
1729.8420000000006,7.991761776793282e-06,-0.00017551904602441937,-7.869073306210339e-05,0.0,0.0,0.0,0.0,0.0036860709078609943,0.003819126170128584,0.0008164497558027506,0.9990412592887878,0.0,0.0,0.0,0.34342581033706665,12.446102142333984,3.024724006652832,-62.16075134277344,0
1739.7490000000016,-4.3357220420148224e-05,-0.00017238565487787127,-4.464808080228977e-05,0.0,0.0,0.0,0.0,-0.0003872184897772968,-0.0040888735093176365,-0.0004791705869138241,0.997844934463501,0.0,0.0,0.0,0.33540239930152893,12.449478149414062,3.014953136444092,-60.708499908447266,0
1749.612000000001,-1.8491824448574334e-05,-0.00019476092711556703,-7.959194772411138e-05,0.0,0.0,0.0,0.0,0.004702274221926928,0.0044448962435126305,0.0046706912107765675,0.9988163113594055,0.0,0.0,0.0,0.3353821337223053,12.430201530456543,3.016458034515381,-60.704833984375,0
1759.5160000000014,-7.852896669646725e-05,-0.00023390633577946573,-6.760453834431246e-05,0.0,0.0,0.0,0.0,0.00022812838142272085,-0.001692710560746491,-0.0013183057308197021,0.9987977743148804,0.0,0.0,0.0,0.3266313076019287,12.430721282958984,3.0072665214538574,-59.120914459228516,0
1769.3870000000006,-4.9992511776508763e-05,-0.00023784342920407653,-0.00010684558947104961,0.0,0.0,0.0,0.0,0.0018532396061345935,-0.0037706627044826746,-0.0009301738464273512,1.0006643533706665,0.0,0.0,0.0,0.3267157971858978,12.405325889587402,2.998840570449829,-59.13621139526367,0
1779.2780000000002,-3.02091175399255e-05,-0.0002732158754952252,-6.785881123505533e-05,0.0,0.0,0.0,0.0,0.001699328306131065,0.001930137979798019,0.0016540387878194451,0.9993987679481506,0.0,0.0,0.0,0.3156898021697998,12.399028778076172,2.996638298034668,-57.14048385620117,0
1789.1590000000015,-1.852934246926452e-06,-0.0002494645013939589,-9.597447933629155e-05,0.0,0.0,0.0,0.0,0.0024452637881040573,-0.002749068895354867,0.0018184141954407096,1.0019088983535767,0.0,0.0,0.0,0.33095237612724304,12.394758224487305,2.9942264556884766,-59.90304183959961,0
1799.0460000000003,-4.725308099295944e-05,-0.00022873269335832447,-4.546086347545497e-05,0.0,0.0,0.0,0.0,0.0014238241128623486,-0.003913536202162504,0.001746051711961627,1.0006227493286133,0.0,0.0,0.0,0.3200015425682068,12.392522811889648,2.995224952697754,-57.92091751098633,0
1808.9210000000003,-2.720615520956926e-05,-0.00022315098613034934,-7.06207865732722e-05,0.0,0.0,0.0,0.0,-0.0026624377351254225,-0.004365157335996628,-0.001248635700903833,1.0000602006912231,0.0,0.0,0.0,0.3385857343673706,12.387429237365723,3.004056692123413,-61.28469467163086,0
1818.8160000000007,-9.493381367065012e-05,-0.00024656698224134743,-4.0691396861802787e-05,0.0,0.0,0.0,0.0,0.00043473675032146275,0.0009344789432361722,0.003555119503289461,0.9978142976760864,0.0,0.0,0.0,0.32888588309288025,12.385207176208496,2.9977669715881348,-59.52899932861328,0
1828.696,-1.6065190720837563e-05,-0.0001913101295940578,-0.00013171460886951536,0.0,0.0,0.0,0.0,-0.0003174168523401022,-0.006307428237050772,-0.003254261566326022,0.996362030506134,0.0,0.0,0.0,0.335830956697464,12.399218559265137,3.0140388011932373,-60.786067962646484,0
1838.5860000000011,-4.5267719542607665e-05,-0.00017873533943202347,-7.879434997448698e-05,0.0,0.0,0.0,0.0,0.0010297565022483468,0.0007103453972376883,0.003019633237272501,1.0000814199447632,0.0,0.0,0.0,0.3287058174610138,12.407882690429688,3.00732159614563,-59.49641036987305,0
1848.4650000000001,1.4730123439221643e-05,-0.000159405535669066,-0.00015735097986180335,0.0,0.0,0.0,0.0,0.001783254323527217,0.004151116590946913,0.001137752435170114,0.9995991587638855,0.0,0.0,0.0,0.3275921940803528,12.38587760925293,3.004409074783325,-59.29484176635742,0
1858.353000000001,-2.55495760939084e-05,-0.0001508457789896056,-0.00011498061212478206,0.0,0.0,0.0,0.0,8.774684101808816e-05,-0.00016311822400894016,-0.001278424053452909,0.9991296529769897,0.0,0.0,0.0,0.3266895115375519,12.36782455444336,2.994929313659668,-59.131446838378906,0
1868.228000000001,2.0807185137527995e-05,-0.00016118872736115009,-0.00018711117445491254,0.0,0.0,0.0,0.0,-0.0008623098838143051,-0.0012194019509479403,0.0023675868287682533,0.9999974370002747,0.0,0.0,0.0,0.3272450566291809,12.349431037902832,3.0017330646514893,-59.23200988769531,0
1878.1380000000008,-3.0734190659131855e-05,-0.00014470209134742618,-0.00014433525211643428,0.0,0.0,0.0,0.0,0.0018242555670440197,-0.0020589891355484724,0.0017690028762444854,0.9994117021560669,0.0,0.0,0.0,0.31885188817977905,12.354121208190918,2.9957518577575684,-57.712825775146484,0
1887.9970000000012,6.502065843960736e-06,-0.00012966837675776333,-0.00019376608543097973,0.0,0.0,0.0,0.0,-0.00018507783534005284,0.0031924983486533165,-0.00022063507640268654,0.9971538186073303,0.0,0.0,0.0,0.33371517062187195,12.360111236572266,3.008577823638916,-60.40311050415039,0
1897.898000000001,-9.959173439710867e-06,-0.00012825330486521125,-0.00014852678577881306,0.0,0.0,0.0,0.0,-0.0010529451537877321,0.002334899501875043,-0.0035629102494567633,0.9961979985237122,0.0,0.0,0.0,0.3268560469150543,12.361283302307129,3.002617359161377,-59.161590576171875,0
1907.777,3.395924795768224e-05,-0.00010451345588080585,-0.00020413206948433071,0.0,0.0,0.0,0.0,-0.0015321788378059864,-0.0013814971316605806,0.0008367247064597905,0.9984099864959717,0.0,0.0,0.0,0.3320876359939575,12.371434211730957,3.0078489780426025,-60.108524322509766,0
1917.666000000001,-1.5696577975177206e-05,-0.00011969568731728941,-0.00017967791063711047,0.0,0.0,0.0,0.0,0.000284756300970912,-0.004494149703532457,-0.0036447541788220406,1.0002167224884033,0.0,0.0,0.0,0.32500913739204407,12.373291969299316,2.996103048324585,-58.82729721069336,0
1927.541000000001,2.124893944710493e-05,-0.0001367486547678709,-0.0002477038069628179,0.0,0.0,0.0,0.0,0.0004978369106538594,0.0003879475989378989,-0.001113803475163877,1.0017249584197998,0.0,0.0,0.0,0.3309546113014221,12.380967140197754,3.013300657272339,-59.903446197509766,0
1937.442000000001,-4.5602086174767464e-05,-0.0001544182450743392,-0.00022923860524315387,0.0,0.0,0.0,0.0,-0.0006268297438509762,-0.0015783262206241488,0.0006993290735408664,0.9974463582038879,0.0,0.0,0.0,0.31962886452674866,12.383115768432617,3.0048537254333496,-57.85346221923828,0
1947.3060000000005,-1.2558851267385762e-05,-0.00016796091222204268,-0.0002914512297138572,0.0,0.0,0.0,0.0,0.0005494490033015609,0.007644203025847673,-0.003000415861606598,0.9954721331596375,0.0,0.0,0.0,0.3196384012699127,12.37455940246582,2.997950315475464,-57.85519027709961,0
1957.2040000000015,-2.9494776754290797e-06,-0.000161641655722633,-0.00023647646594326943,0.0,0.0,0.0,0.0,-0.0006338573875837028,0.006023377645760775,0.0022118438500910997,0.9953112006187439,0.0,0.0,0.0,0.3094009459018707,12.379339218139648,2.9897751808166504,-56.00218963623047,0
1967.076000000001,-2.1217301764409058e-05,-0.00020190910436213017,-0.0002367808629060164,0.0,0.0,0.0,0.0,-0.0008255166467279196,-0.0012881471775472164,-0.00193989637773484,0.9982579946517944,0.0,0.0,0.0,0.3269188702106476,12.375624656677246,2.973094940185547,-59.17296600341797,0
1976.9700000000012,-3.518334779073484e-05,-0.0001735113764880225,-0.00018122060282621533,0.0,0.0,0.0,0.0,-0.0023737524170428514,-0.006092327181249857,0.0007851843256503344,0.9999786615371704,0.0,0.0,0.0,0.32664430141448975,12.365612030029297,2.966461658477783,-59.123268127441406,0
1986.8460000000014,-3.226034459657967e-05,-0.00020986612071283162,-0.00020674476400017738,0.0,0.0,0.0,0.0,0.001579584670253098,0.008487959392368793,-0.001373311853967607,0.99860680103302,0.0,0.0,0.0,0.3347064256668091,12.367786407470703,2.9799468517303467,-60.5825309753418,0
1996.7400000000016,-8.500062540406361e-05,-0.0002188772486988455,-0.0001776803401298821,0.0,0.0,0.0,0.0,-0.0013025420485064387,5.657724977936596e-05,0.002791120670735836,0.9986893534660339,0.0,0.0,0.0,0.3245582580566406,12.364377975463867,2.967122793197632,-58.74568557739258,0
2006.6150000000016,-6.827439938206226e-05,-0.0002044903376372531,-0.00020375283202156425,0.0,0.0,0.0,0.0,-0.0013453371357172728,-0.0025371757801622152,0.0002609336224850267,0.9988913536071777,0.0,0.0,0.0,0.3349517285823822,12.371528625488281,2.9568939208984375,-60.626930236816406,0
2016.5150000000012,-1.5153085769270547e-05,-0.0002239966270281002,-0.0001481199578847736,0.0,0.0,0.0,0.0,0.0009565357468090951,0.003459180472418666,-6.947834481252357e-05,0.9979720115661621,0.0,0.0,0.0,0.32626259326934814,12.370646476745605,2.970550298690796,-59.05418014526367,0
2026.3910000000014,3.295157148386352e-05,-0.00019371657981537282,-0.00020632393716368824,0.0,0.0,0.0,0.0,0.0001881937205325812,0.0004272157384548336,-0.0015978524461388588,0.9990644454956055,0.0,0.0,0.0,0.33975425362586975,12.38225269317627,2.998789072036743,-61.49619674682617,0
2036.277,2.0514591597020626e-05,-0.00020027901337016374,-0.00016296857211273164,0.0,0.0,0.0,0.0,-0.001534644397906959,0.0004305047041270882,-0.004071625880897045,0.9992456436157227,0.0,0.0,0.0,0.32813936471939087,12.383940696716309,2.988534688949585,-59.39387893676758,0
2046.1540000000005,2.6678397262003273e-05,-0.00021481206931639463,-0.00017871007730718702,0.0,0.0,0.0,0.0,-0.0005671490216627717,-0.0037228907458484173,0.0024580759927630424,1.0000946521759033,0.0,0.0,0.0,0.33744633197784424,12.389516830444336,2.985802173614502,-61.07845687866211,0
2056.0480000000007,-2.7750891604227945e-05,-0.00020573711663018912,-0.0001366037904517725,0.0,0.0,0.0,0.0,-0.002457789843901992,-0.003456807229667902,-0.0009428447228856385,0.9990045428276062,0.0,0.0,0.0,0.33007678389549255,12.394649505615234,2.980081558227539,-59.74455642700195,0
2065.924000000001,-1.4073922102397773e-05,-0.0002155242400476709,-0.00015962068573571742,0.0,0.0,0.0,0.0,0.002695207018405199,0.0013245074078440666,0.004484505858272314,0.9984462857246399,0.0,0.0,0.0,0.3440929651260376,12.398341178894043,2.9979074001312256,-62.28150939941406,0
2075.827000000001,-2.8502802251750836e-06,-0.00017642749298829585,-8.042315312195569e-05,0.0,0.0,0.0,0.0,-0.004158817231655121,0.001956203719601035,0.0003777836973313242,0.9983235597610474,0.0,0.0,0.0,0.33305683732032776,12.406635284423828,2.995087146759033,-60.28395080566406,0
2085.7000000000007,4.60767250842764e-06,-0.00019533517479430884,-9.26461725612171e-05,0.0,0.0,0.0,0.0,-0.00044352299300953746,0.003334307810291648,-0.0005767954280599952,0.9970553517341614,0.0,0.0,0.0,0.35028502345085144,12.407797813415527,2.999484062194824,-63.402286529541016,0
2095.5970000000016,-5.7266785006504506e-05,-0.00020362781651783735,-5.910042455070652e-05,0.0,0.0,0.0,0.0,0.00035117415245622396,-0.0021338791120797396,-0.000985278282314539,0.9987636804580688,0.0,0.0,0.0,0.34344935417175293,12.409131050109863,2.982696056365967,-62.165016174316406,0
