timestamp,stateEstimate.x,stateEstimate.y,stateEstimate.z,controller.cmd_thrust,controller.cmd_roll,controller.cmd_pitch,controller.cmd_yaw,controller.r_roll,controller.r_pitch,controller.r_yaw,controller.accelz,controller.actuatorThrust,controller.roll,controller.pitch,controller.yaw,controller.rollRate,controller.pitchRate,controller.yawRate,controller.ctr_yaw
0.0,0.009653279557824135,-0.016341563314199448,0.0003492621472105384,0.0,0.0,0.0,0.0,0.0008038528612814844,0.0012464639730751514,0.0007460782071575522,0.9992032647132874,0.0,0.0,0.0,-27.48185920715332,-1.1417741775512695,6.720010757446289,4974.271484375,0
9.904000000000451,0.009649268351495266,-0.01621028035879135,0.00037536045419983566,0.0,0.0,0.0,0.0,-0.00141091737896204,0.002635147189721465,-0.0019082986982539296,1.0007203817367554,0.0,0.0,0.0,-27.445415496826172,-1.1241530179977417,6.70460844039917,4967.67431640625,0
19.817000000000917,0.00968232098966837,-0.016384543851017952,0.00033647744567133486,0.0,0.0,0.0,0.0,-0.0005954661755822599,-0.0027076860424131155,-0.0007846967200748622,1.0007340908050537,0.0,0.0,0.0,-27.479400634765625,-1.1399075984954834,6.730049133300781,4973.826171875,0
29.72400000000016,0.009675913490355015,-0.016297994181513786,0.00035383677459321916,0.0,0.0,0.0,0.0,-0.0023403558880090714,0.0004683062434196472,0.0019193526823073626,0.9976155161857605,0.0,0.0,0.0,-27.47109031677246,-1.1269131898880005,6.719450950622559,4972.322265625,0
39.649999999999636,0.009664737619459629,-0.016351908445358276,0.00034175574546679854,0.0,0.0,0.0,0.0,0.001641196315176785,0.003472360549494624,0.0019450222607702017,0.9990185499191284,0.0,0.0,0.0,-27.481029510498047,-1.1307930946350098,6.736874580383301,4974.12109375,0
49.55899999999929,0.00965456385165453,-0.016286801546812057,0.0003553410351742059,0.0,0.0,0.0,0.0,0.0002249116514576599,-0.004768101032823324,0.002539144130423665,0.9986047744750977,0.0,0.0,0.0,-27.47313117980957,-1.1217105388641357,6.709105491638184,4972.69140625,0
59.46600000000035,0.009618580341339111,-0.016287939622998238,0.0003494134871289134,0.0,0.0,0.0,0.0,-0.0019881250336766243,-0.0023452898021787405,0.0002742818323895335,0.9967935681343079,0.0,0.0,0.0,-27.475448608398438,-1.1228667497634888,6.705109596252441,4973.11083984375,0
69.38000000000102,0.009602275677025318,-0.016237270087003708,0.0003626896650530398,0.0,0.0,0.0,0.0,-0.0021272560115903616,-0.001986296847462654,-0.0017932760529220104,0.9976477026939392,0.0,0.0,0.0,-27.464170455932617,-1.1088272333145142,6.703197479248047,4971.0693359375,0
79.28800000000047,0.00966213084757328,-0.01633569411933422,0.00034859776496887207,0.0,0.0,0.0,0.0,-0.00452084094285965,0.0018077322747558355,0.00203120824880898,1.00002920627594,0.0,0.0,0.0,-27.471298217773438,-1.120725154876709,6.733616352081299,4972.35986328125,0
89.19800000000032,0.009656812995672226,-0.016278252005577087,0.0003520632744766772,0.0,0.0,0.0,0.0,-0.0001948088320204988,-0.003020896576344967,0.0014592407969757915,1.0005706548690796,0.0,0.0,0.0,-27.461503982543945,-1.1113234758377075,6.714466571807861,4970.58642578125,0
99.12299999999959,0.009686625562608242,-0.01637999527156353,0.000322157284244895,0.0,0.0,0.0,0.0,-0.0007316630217246711,0.0007739440770819783,-0.0005255094147287309,1.000956416130066,0.0,0.0,0.0,-27.471778869628906,-1.1220563650131226,6.737972259521484,4972.44677734375,0
109.02100000000064,0.009692964144051075,-0.016252247616648674,0.0003392703365534544,0.0,0.0,0.0,0.0,0.001385282026603818,0.000901366351172328,-0.0004197722882963717,0.9988309741020203,0.0,0.0,0.0,-27.461915969848633,-1.102352261543274,6.716270446777344,4970.6611328125,0
118.94100000000071,0.009670337662100792,-0.01631874032318592,0.00029935460770502687,0.0,0.0,0.0,0.0,0.00027203146601095796,0.001516972086392343,0.0007777935243211687,1.0001976490020752,0.0,0.0,0.0,-27.46277618408203,-1.1174522638320923,6.726989269256592,4970.8173828125,0
128.84799999999996,0.00964389368891716,-0.016282854601740837,0.000319842278258875,0.0,0.0,0.0,0.0,0.003201933577656746,-0.0035900159273296595,-0.0015156046720221639,0.9997397065162659,0.0,0.0,0.0,-27.46277618408203,-1.1191402673721313,6.714517593383789,4970.8173828125,0
138.75900000000001,0.009683364070951939,-0.016387056559324265,0.0002905375440604985,0.0,0.0,0.0,0.0,0.0011726415250450373,-0.0017959803808480501,-0.0011717163724824786,0.999920666217804,0.0,0.0,0.0,-27.467863082885742,-1.1255850791931152,6.737457275390625,4971.73779296875,0
148.67300000000068,0.009665876626968384,-0.016318337991833687,0.00031218028743751347,0.0,0.0,0.0,0.0,0.002559336833655834,-0.0016174709890037775,0.0005440502427518368,0.9994440674781799,0.0,0.0,0.0,-27.45895004272461,-1.118240475654602,6.735336780548096,4970.12451171875,0
158.57899999999972,0.009697879664599895,-0.016358312219381332,0.0003056642017327249,0.0,0.0,0.0,0.0,-0.0008440334931947291,-0.002573456382378936,0.004533448722213507,1.0002959966659546,0.0,0.0,0.0,-27.46015167236328,-1.1240675449371338,6.746381759643555,4970.341796875,0
168.4940000000006,0.009680879302322865,-0.016297396272420883,0.00032654005917720497,0.0,0.0,0.0,0.0,0.0021004932932555676,0.0006259630899876356,5.195399353397079e-05,1.0015605688095093,0.0,0.0,0.0,-27.46599006652832,-1.1149766445159912,6.73624849319458,4971.39892578125,0
178.40099999999984,0.009694124571979046,-0.016382813453674316,0.0002970718778669834,0.0,0.0,0.0,0.0,0.0009444947936572134,-0.0025878611486405134,-2.698074786167126e-05,1.0028738975524902,0.0,0.0,0.0,-27.473114013671875,-1.1306538581848145,6.735581398010254,4972.68896484375,0
188.3119999999999,0.00967575516551733,-0.016347886994481087,0.00031331178615801036,0.0,0.0,0.0,0.0,0.002173579065129161,0.004141903016716242,-0.0017333169234916568,1.0024293661117554,0.0,0.0,0.0,-27.48000144958496,-1.1224695444107056,6.740395545959473,4973.93505859375,0
198.23199999999997,0.009685035794973373,-0.016417160630226135,0.00029260842711664736,0.0,0.0,0.0,0.0,0.0007658150279894471,-0.0009564735228195786,0.00035241444129496813,0.9995882511138916,0.0,0.0,0.0,-27.48675537109375,-1.1299207210540771,6.755585670471191,4975.1572265625,0
208.13400000000001,0.00968235544860363,-0.01632971502840519,0.0003139700856991112,0.0,0.0,0.0,0.0,0.0020511315669864416,-0.005891989450901747,0.0009476587292738259,0.9993324279785156,0.0,0.0,0.0,-27.47727394104004,-1.1187739372253418,6.740187168121338,4973.44189453125,0
218.04700000000048,0.009656031616032124,-0.016374604776501656,0.0002887405571527779,0.0,0.0,0.0,0.0,0.00041011531720869243,0.002017554361373186,-0.0016296644462272525,0.9998905062675476,0.0,0.0,0.0,-27.47776222229004,-1.125123143196106,6.750932216644287,4973.5302734375,0
227.95000000000073,0.009704113006591797,-0.016228800639510155,0.0002705120714381337,0.0,0.0,0.0,0.0,-0.0023929288145154715,-0.0040902383625507355,-0.006047599948942661,0.9981896877288818,0.0,0.0,0.0,-27.468008041381836,-1.1037005186080933,6.739720344543457,4971.76416015625,0
237.8719999999994,0.009677823632955551,-0.01630559377372265,0.0002251064288429916,0.0,0.0,0.0,0.0,-0.00250025512650609,-0.0004994853516109288,-0.002152837812900543,0.9991915225982666,0.0,0.0,0.0,-27.47062873840332,-1.1177778244018555,6.742926120758057,4972.23876953125,0
247.78100000000086,0.009644189849495888,-0.016265710815787315,0.000258417654549703,0.0,0.0,0.0,0.0,0.0016093660378828645,-0.0012649968266487122,-0.0013372839894145727,1.0002365112304688,0.0,0.0,0.0,-27.477596282958984,-1.111216425895691,6.742931842803955,4973.5,0
257.6880000000001,0.009704173542559147,-0.016328750178217888,0.00024556409334763885,0.0,0.0,0.0,0.0,0.0015112890396267176,-0.004391750320792198,0.0015517092542722821,1.0011478662490845,0.0,0.0,0.0,-27.473604202270508,-1.1162636280059814,6.768529891967773,4972.77734375,0
267.603000000001,0.00968516618013382,-0.016254136338829994,0.00027832560590468347,0.0,0.0,0.0,0.0,-0.000710098713170737,0.00048730947310104966,-0.0003882103774230927,1.001501441001892,0.0,0.0,0.0,-27.464170455932617,-1.1173945665359497,6.766279697418213,4971.0693359375,0
277.51900000000023,0.009715949185192585,-0.016350364312529564,0.00025049058604054153,0.0,0.0,0.0,0.0,-0.002176574431359768,-0.001460938947275281,8.850696758599952e-05,1.0010496377944946,0.0,0.0,0.0,-27.469486236572266,-1.1270273923873901,6.770195007324219,4972.03173828125,0
287.4339999999993,0.009699543938040733,-0.01627482660114765,0.00028507623937912285,0.0,0.0,0.0,0.0,0.001379811787046492,0.006125693675130606,-0.002493391977623105,1.0012208223342896,0.0,0.0,0.0,-27.46166229248047,-1.1193314790725708,6.750296115875244,4970.615234375,0
297.33699999999953,0.009713536128401756,-0.016349727287888527,0.0002619386650621891,0.0,0.0,0.0,0.0,0.002723291516304016,0.002279601525515318,-0.001251000794582069,0.9984024167060852,0.0,0.0,0.0,-27.470991134643555,-1.1309514045715332,6.747021198272705,4972.3046875,0
307.25,0.009665252640843391,-0.016293784603476524,0.0003316088696010411,0.0,0.0,0.0,0.0,0.0011459137313067913,0.002862527733668685,0.0031214142218232155,1.0008056163787842,0.0,0.0,0.0,-27.477294921875,-1.1262725591659546,6.7264909744262695,4973.4453125,0
317.15799999999945,0.009738585911691189,-0.016396690160036087,0.00031966192182153463,0.0,0.0,0.0,0.0,-0.0011076139053329825,-0.0015261882217600942,-0.0014028531732037663,1.001216173171997,0.0,0.0,0.0,-27.477588653564453,-1.1368601322174072,6.741515159606934,4973.49853515625,0
327.0670000000009,0.009734027087688446,-0.01631767675280571,0.0003537542943377048,0.0,0.0,0.0,0.0,-0.002844650764018297,-0.0027214179281145334,-0.0022580004297196865,0.9996160864830017,0.0,0.0,0.0,-27.46937370300293,-1.124226450920105,6.7283101081848145,4972.01171875,0
336.9850000000006,0.009744077920913696,-0.01641315408051014,0.00032023718813434243,0.0,0.0,0.0,0.0,-0.0024478582199662924,0.0035313284024596214,-0.0005367871490307152,0.9991326928138733,0.0,0.0,0.0,-27.47124671936035,-1.1370375156402588,6.744679927825928,4972.3505859375,0
346.8899999999994,0.009698263369500637,-0.016394682228565216,0.0003838560951407999,0.0,0.0,0.0,0.0,-0.00030840368708595634,-0.004684122744947672,0.005730167962610722,1.001872181892395,0.0,0.0,0.0,-27.477394104003906,-1.1329346895217896,6.726783752441406,4973.462890625,0
356.8050000000003,0.009635243564844131,-0.016392674297094345,0.0003680730005726218,0.0,0.0,0.0,0.0,-5.221572064328939e-05,-0.0016402845503762364,-0.00031129378476180136,0.9995895028114319,0.0,0.0,0.0,-27.47441864013672,-1.1368876695632935,6.722359657287598,4972.9248046875,0
366.71600000000035,0.009673970751464367,-0.016276715323328972,0.0003696517669595778,0.0,0.0,0.0,0.0,0.00041192935896106064,-0.001794151496142149,0.0013455060543492436,0.9996591806411743,0.0,0.0,0.0,-27.481586456298828,-1.1145310401916504,6.711931228637695,4974.22216796875,0
376.6280000000006,0.009680736809968948,-0.016327939927577972,0.00035709046642296016,0.0,0.0,0.0,0.0,-0.0013412481639534235,-0.0025120063219219446,0.00042527448385953903,0.9995309114456177,0.0,0.0,0.0,-27.483028411865234,-1.114441156387329,6.719910144805908,4974.48291015625,0
386.53900000000067,0.009693748317658901,-0.0162602998316288,0.00037315706140361726,0.0,0.0,0.0,0.0,-0.003348463447764516,-0.0016024220967665315,-0.00165272643789649,1.0025744438171387,0.0,0.0,0.0,-27.486738204956055,-1.1006954908370972,6.716634750366211,4975.154296875,0
396.4539999999997,0.009676310233771801,-0.016314879059791565,0.0003506853827275336,0.0,0.0,0.0,0.0,0.001923394505865872,-0.00035757242585532367,0.0006931083044037223,1.0006566047668457,0.0,0.0,0.0,-27.49285316467285,-1.1077916622161865,6.724343776702881,4976.26123046875,0
406.3629999999994,0.009687722660601139,-0.01624436303973198,0.0003686058335006237,0.0,0.0,0.0,0.0,-0.00017851346638053656,-0.00044354022247716784,-0.003172471886500716,0.998862624168396,0.0,0.0,0.0,-27.49652671813965,-1.100694179534912,6.7114787101745605,4976.92626953125,0
416.27299999999923,0.009666967205703259,-0.01631993241608143,0.0003313656779937446,0.0,0.0,0.0,0.0,-0.0015830685151740909,0.003975028172135353,-0.0018834933871403337,0.9984278082847595,0.0,0.0,0.0,-27.496585845947266,-1.1147125959396362,6.712726593017578,4976.93701171875,0
426.1900000000005,0.009717073291540146,-0.016223542392253876,0.00030844128923490644,0.0,0.0,0.0,0.0,0.001201203791424632,0.0026063353288918734,0.0015043718740344048,0.9984566569328308,0.0,0.0,0.0,-27.504573822021484,-1.09658944606781,6.694644927978516,4978.3828125,0
436.08300000000054,0.009698180481791496,-0.016276497393846512,0.0002768032718449831,0.0,0.0,0.0,0.0,-0.0012127864174544811,0.0003315620997454971,-0.0008883121190592647,0.9998942017555237,0.0,0.0,0.0,-27.50556755065918,-1.1109675168991089,6.695384502410889,4978.5625,0
446.0069999999996,0.00973321869969368,-0.016170471906661987,0.00026774179423227906,0.0,0.0,0.0,0.0,0.004280223976820707,-0.00013767779455520213,0.001510764705017209,1.000315546989441,0.0,0.0,0.0,-27.508338928222656,-1.0953651666641235,6.682913303375244,4979.06396484375,0
455.90500000000065,0.009694996289908886,-0.016242263838648796,0.00021324734552763402,0.0,0.0,0.0,0.0,-0.0009207163820974529,0.00041098485235124826,-0.00025029591051861644,0.9999180436134338,0.0,0.0,0.0,-27.506702423095703,-1.114001750946045,6.683227062225342,4978.76806640625,0
465.8299999999999,0.009698404930531979,-0.01619454100728035,0.0002125426399288699,0.0,0.0,0.0,0.0,-0.001007147366181016,-0.003629033686593175,-0.002682058373466134,1.0007985830307007,0.0,0.0,0.0,-27.511640548706055,-1.108229398727417,6.672107696533203,4979.66162109375,0
475.72700000000077,0.00969536043703556,-0.01626177877187729,0.00017799678607843816,0.0,0.0,0.0,0.0,0.0019662445411086082,0.002201218158006668,0.0045107523910701275,1.0009348392486572,0.0,0.0,0.0,-27.513364791870117,-1.115752935409546,6.681645393371582,4979.9736328125,0
485.65200000000004,0.009703584015369415,-0.016167206689715385,0.00018475209071766585,0.0,0.0,0.0,0.0,0.0033481435384601355,0.00331242592073977,-0.0018262056400999427,1.0004119873046875,0.0,0.0,0.0,-27.498952865600586,-1.110506296157837,6.665077209472656,4977.365234375,0
495.5560000000005,0.009698198176920414,-0.016229651868343353,0.00015064225590322167,0.0,0.0,0.0,0.0,-0.0023756360169500113,-0.0026243114843964577,0.0001407095551257953,0.9994714856147766,0.0,0.0,0.0,-27.500455856323242,-1.121249794960022,6.663540363311768,4977.6376953125,0
505.46999999999935,0.009652280248701572,-0.016199437901377678,0.00019739939307328314,0.0,0.0,0.0,0.0,-0.001173870638012886,-0.0016399867599830031,0.0049582552164793015,0.9986830353736877,0.0,0.0,0.0,-27.508079528808594,-1.1153043508529663,6.647764682769775,4979.01708984375,0
515.3729999999996,0.009719990193843842,-0.01627136766910553,0.00018864733283407986,0.0,0.0,0.0,0.0,-0.003230229252949357,-0.001669154386036098,0.001960295718163252,0.9989014267921448,0.0,0.0,0.0,-27.505409240722656,-1.1162734031677246,6.6632513999938965,4978.53369140625,0
525.3029999999999,0.00967467576265335,-0.016245462000370026,0.00023464021796826273,0.0,0.0,0.0,0.0,0.00262031564489007,0.00024776437203399837,-0.0002692680573090911,1.0013147592544556,0.0,0.0,0.0,-27.50645637512207,-1.1150732040405273,6.653425216674805,4978.72314453125,0
535.1949999999997,0.009748677723109722,-0.016345180571079254,0.00021958172146696597,0.0,0.0,0.0,0.0,-0.0011700286995619535,-0.0010986796114593744,0.0024159017484635115,1.0009446144104004,0.0,0.0,0.0,-27.504547119140625,-1.1282315254211426,6.677739143371582,4978.3779296875,0
545.1110000000008,0.009717137552797794,-0.01628642901778221,0.0002665921056177467,0.0,0.0,0.0,0.0,0.0007015689625404775,-0.0051947953179478645,-0.0015489031793549657,0.9997702240943909,0.0,0.0,0.0,-27.51022720336914,-1.1172904968261719,6.663523197174072,4979.40625,0
555.0159999999996,0.009730069898068905,-0.016319891437888145,0.00025980809004977345,0.0,0.0,0.0,0.0,-0.0005683151539415121,-0.001274974667467177,-0.00020133786892984062,1.000952124595642,0.0,0.0,0.0,-27.509437561035156,-1.1179786920547485,6.678664207458496,4979.26318359375,0
564.9490000000005,0.009702181443572044,-0.01626615971326828,0.0003022107994183898,0.0,0.0,0.0,0.0,0.0013180759269744158,-0.000941029516980052,0.001931560575030744,0.9992673397064209,0.0,0.0,0.0,-27.511856079101562,-1.1127346754074097,6.678155422210693,4979.701171875,0
574.8400000000001,0.009673031978309155,-0.016314953565597534,0.00027538498397916555,0.0,0.0,0.0,0.0,0.006274905987083912,2.6460971639608033e-05,-0.001323351520113647,1.0018244981765747,0.0,0.0,0.0,-27.512056350708008,-1.124387502670288,6.671637058258057,4979.73681640625,0
584.7569999999996,0.009654716588556767,-0.016245488077402115,0.0003069091762881726,0.0,0.0,0.0,0.0,0.00023807275283616036,-0.0023621520958840847,-0.0009537332225590944,1.0021618604660034,0.0,0.0,0.0,-27.50205421447754,-1.1214898824691772,6.66483736038208,4977.9267578125,0
594.6610000000001,0.009726367890834808,-0.016359925270080566,0.00029439045465551317,0.0,0.0,0.0,0.0,0.0011411202140152454,0.0034969623666256666,0.0014537022216245532,0.9996019005775452,0.0,0.0,0.0,-27.502782821655273,-1.1412038803100586,6.685927867889404,4978.05859375,0
604.5910000000003,0.009704506024718285,-0.016281481832265854,0.0003374139778316021,0.0,0.0,0.0,0.0,0.0015226105460897088,0.0034402015153318644,0.0015985086793079972,0.9990876913070679,0.0,0.0,0.0,-27.493995666503906,-1.133219838142395,6.668593883514404,4976.4677734375,0
614.4850000000006,0.009673265740275383,-0.01633104495704174,0.0003154155856464058,0.0,0.0,0.0,0.0,0.0013776479754596949,0.0026540812104940414,0.0038145771250128746,1.0020807981491089,0.0,0.0,0.0,-27.49644660949707,-1.1433767080307007,6.663573741912842,4976.91162109375,0
624.4069999999992,0.009660300798714161,-0.01625906117260456,0.000343009945936501,0.0,0.0,0.0,0.0,0.0006695534102618694,-0.0003010209184139967,-0.0011204916518181562,1.0015485286712646,0.0,0.0,0.0,-27.48737144470215,-1.1400113105773926,6.644244194030762,4975.26953125,0
634.3060000000005,0.009649102576076984,-0.01632092520594597,0.0003233245515730232,0.0,0.0,0.0,0.0,-0.002319354098290205,-0.0035892971791327,0.0034143903758376837,1.001559853553772,0.0,0.0,0.0,-27.488405227661133,-1.1503803730010986,6.650747776031494,4975.45654296875,0
644.2250000000004,0.009639527648687363,-0.016268132254481316,0.0003419019631110132,0.0,0.0,0.0,0.0,-0.00365420151501894,0.002381893340498209,0.0005847263964824378,1.0004993677139282,0.0,0.0,0.0,-27.479007720947266,-1.1448906660079956,6.65234899520874,4973.75537109375,0
654.1280000000006,0.009670346044003963,-0.01636461541056633,0.0003295077185612172,0.0,0.0,0.0,0.0,-0.00019984667596872896,0.0029981450643390417,0.0005207671201787889,0.9988256692886353,0.0,0.0,0.0,-27.487445831298828,-1.1471229791641235,6.667621612548828,4975.28271484375,0
664.0509999999995,0.009673149324953556,-0.016277452930808067,0.00034911761758849025,0.0,0.0,0.0,0.0,0.001955836545675993,-0.0006482887547463179,-0.004684009123593569,1.0004920959472656,0.0,0.0,0.0,-27.49375343322754,-1.1344778537750244,6.649017810821533,4976.42431640625,0
673.9500000000007,0.009660368785262108,-0.01632937416434288,0.000336317258188501,0.0,0.0,0.0,0.0,4.628031820175238e-05,0.005399609915912151,-0.0003457190468907356,1.0001920461654663,0.0,0.0,0.0,-27.494253158569336,-1.1459168195724487,6.654290199279785,4976.5146484375,0
683.8690000000006,0.009653370827436447,-0.01625908352434635,0.00035667733754962683,0.0,0.0,0.0,0.0,-0.0015483710449188948,-0.003294495865702629,-0.0006187728140503168,0.9983770251274109,0.0,0.0,0.0,-27.498783111572266,-1.140943169593811,6.638925075531006,4977.33447265625,0
693.7729999999992,0.009649635292589664,-0.016324494034051895,0.0003404556482564658,0.0,0.0,0.0,0.0,-0.005233704578131437,-0.0013222325360402465,-0.0004913783632218838,0.9997563362121582,0.0,0.0,0.0,-27.5006046295166,-1.1449306011199951,6.649827003479004,4977.6640625,0
703.6910000000007,0.009705903008580208,-0.016171619296073914,0.0003130253462586552,0.0,0.0,0.0,0.0,0.003731476841494441,-0.0017010201700031757,-0.0007483987719751894,1.0009957551956177,0.0,0.0,0.0,-27.491594314575195,-1.1135692596435547,6.6441802978515625,4976.03369140625,0
713.5949999999993,0.009714445099234581,-0.016313623636960983,0.0002596628910396248,0.0,0.0,0.0,0.0,0.004025630187243223,-0.000775027321651578,0.00012459082063287497,1.002371072769165,0.0,0.0,0.0,-27.497203826904297,-1.1373790502548218,6.665122985839844,4977.048828125,0
723.5169999999998,0.009729397483170033,-0.01620396226644516,0.0002639290760271251,0.0,0.0,0.0,0.0,0.000827992451377213,0.004500954411923885,3.586824095691554e-05,0.9994106292724609,0.0,0.0,0.0,-27.484304428100586,-1.127440333366394,6.648194313049316,4974.7138671875,0
733.4240000000009,0.009697400033473969,-0.016268908977508545,0.0002270784170832485,0.0,0.0,0.0,0.0,0.002923832507804036,0.00010827833466464654,0.001007904764264822,1.0004732608795166,0.0,0.0,0.0,-27.486310958862305,-1.1341040134429932,6.642508029937744,4975.07763671875,0
743.3359999999993,0.009662534110248089,-0.01622915454208851,0.00026664399774745107,0.0,0.0,0.0,0.0,-0.001890909974463284,-0.00020726406364701688,-0.0035908001009374857,1.0009453296661377,0.0,0.0,0.0,-27.49538230895996,-1.1291468143463135,6.632055282592773,4976.71875,0
753.2399999999998,0.009691255167126656,-0.01633797399699688,0.0002403280377620831,0.0,0.0,0.0,0.0,-0.0023228428326547146,0.001248307409696281,0.0035542191471904516,1.0011281967163086,0.0,0.0,0.0,-27.502532958984375,-1.1374216079711914,6.644636154174805,4978.01318359375,0
763.152,0.009669950231909752,-0.01627270318567753,0.00027723328093998134,0.0,0.0,0.0,0.0,-0.00303786713629961,-0.001608914346434176,0.0052579427137970924,0.9999630451202393,0.0,0.0,0.0,-27.50484848022461,-1.1257333755493164,6.637920379638672,4978.4326171875,0
773.0730000000003,0.009668526239693165,-0.016314126551151276,0.00026948339655064046,0.0,0.0,0.0,0.0,0.0016174493357539177,0.00030380283715203404,0.001537759555503726,1.000314712524414,0.0,0.0,0.0,-27.505416870117188,-1.1217262744903564,6.6425886154174805,4978.53564453125,0
782.9770000000008,0.009703808464109898,-0.016199523583054543,0.0002597650745883584,0.0,0.0,0.0,0.0,-0.0039160544984042645,-0.0027425792068243027,0.0018544455524533987,0.9986875057220459,0.0,0.0,0.0,-27.49140739440918,-1.1049079895019531,6.631796836853027,4975.99951171875,0
792.8850000000002,0.009724816307425499,-0.01630820333957672,0.00022856920259073377,0.0,0.0,0.0,0.0,-0.00036424168501980603,-0.0004080361104570329,-0.0006145632942207158,1.0005691051483154,0.0,0.0,0.0,-27.498239517211914,-1.1118158102035522,6.651041030883789,4977.23583984375,0
802.7999999999993,0.00969674065709114,-0.01625797152519226,0.00027040194254368544,0.0,0.0,0.0,0.0,0.00402178056538105,-0.003931205254048109,-0.0012344535207375884,0.9989078044891357,0.0,0.0,0.0,-27.502073287963867,-1.1064107418060303,6.644137382507324,4977.93017578125,0
812.7070000000003,0.009715124033391476,-0.01634763926267624,0.000247492513153702,0.0,0.0,0.0,0.0,-0.00021115031267981976,-0.0010176632786169648,0.002947043627500534,0.9985278248786926,0.0,0.0,0.0,-27.50675392150879,-1.1240907907485962,6.656259059906006,4978.77734375,0
822.6200000000008,0.009651665575802326,-0.016326656565070152,0.00031757893157191575,0.0,0.0,0.0,0.0,-0.004601523280143738,-0.003427220741286874,0.0017695219721645117,0.9996726512908936,0.0,0.0,0.0,-27.51114845275879,-1.1301522254943848,6.6485466957092285,4979.57275390625,0
832.5499999999993,0.009638534858822823,-0.016310211271047592,0.0003220915677957237,0.0,0.0,0.0,0.0,-0.00010306268086424097,0.0025905808433890343,-0.0007495099562220275,0.9996592402458191,0.0,0.0,0.0,-27.5264892578125,-1.116268277168274,6.653132915496826,4982.34912109375,0
842.4400000000005,0.009646589867770672,-0.016274452209472656,0.0003274384653195739,0.0,0.0,0.0,0.0,0.0011849699076265097,-0.0026524087879806757,0.0029631583020091057,0.9982555508613586,0.0,0.0,0.0,-27.499191284179688,-1.116895318031311,6.639437675476074,4977.408203125,0
852.3520000000008,0.009655068628489971,-0.016322271898388863,0.0003175052988808602,0.0,0.0,0.0,0.0,-0.000788108620326966,0.0031319954432547092,0.0024450840428471565,1.0004698038101196,0.0,0.0,0.0,-27.498769760131836,-1.1246474981307983,6.648542404174805,4977.33203125,0
862.2659999999996,0.00964831467717886,-0.016255568712949753,0.00033295349567197263,0.0,0.0,0.0,0.0,0.001694393577054143,-0.0006771477637812495,-0.000584702065680176,1.0020561218261719,0.0,0.0,0.0,-27.48655891418457,-1.112386703491211,6.639547348022461,4975.1220703125,0
872.1800000000003,0.00970600824803114,-0.016335947439074516,0.0003269508306402713,0.0,0.0,0.0,0.0,-0.003652258776128292,-0.001929678488522768,0.005347995087504387,1.0016820430755615,0.0,0.0,0.0,-27.48444938659668,-1.1230720281600952,6.6556854248046875,4974.740234375,0
882.085000000001,0.009704367257654667,-0.016261272132396698,0.00034883045009337366,0.0,0.0,0.0,0.0,0.0005665032658725977,-0.00046506221406161785,0.0021258669439703226,0.998326301574707,0.0,0.0,0.0,-27.490997314453125,-1.103894829750061,6.647686004638672,4975.92529296875,0
892.0010000000002,0.009674654342234135,-0.016317471861839294,0.0003208686539437622,0.0,0.0,0.0,0.0,0.001369211939163506,-0.0031095619779080153,0.001268770662136376,1.000832438468933,0.0,0.0,0.0,-27.492630004882812,-1.116044521331787,6.655916690826416,4976.220703125,0
901.9069999999992,0.009728416800498962,-0.016177469864487648,0.0003005567705258727,0.0,0.0,0.0,0.0,0.0009791511110961437,0.0011952891945838928,-0.002853427082300186,0.9988089799880981,0.0,0.0,0.0,-27.48236846923828,-1.0958893299102783,6.652438640594482,4974.36328125,0
911.8220000000001,0.009719236753880978,-0.016177166253328323,0.0002660395693965256,0.0,0.0,0.0,0.0,-0.0006727420259267092,-0.003422529436647892,0.0004706141189672053,1.0006245374679565,0.0,0.0,0.0,-27.517887115478516,-1.0953936576843262,6.6465277671813965,4980.79248046875,0
921.7289999999994,0.009733803570270538,-0.01613745652139187,0.0002660558093339205,0.0,0.0,0.0,0.0,0.0034267345909029245,0.004575537517666817,0.0008043525740504265,0.9978066086769104,0.0,0.0,0.0,-27.49007797241211,-1.089920163154602,6.6411566734313965,4975.7587890625,0
931.6440000000002,0.009634334594011307,-0.01626928336918354,0.00025979476049542427,0.0,0.0,0.0,0.0,-0.001288884086534381,0.0014015915803611279,-0.001754861674271524,0.999286949634552,0.0,0.0,0.0,-27.528074264526367,-1.1173968315124512,6.634764671325684,4982.63623046875,0
941.5529999999999,0.009644079953432083,-0.0162313561886549,0.00025822233874350786,0.0,0.0,0.0,0.0,0.00031883339397609234,0.0011840052902698517,-0.0023272342514246702,1.0010015964508057,0.0,0.0,0.0,-27.502395629882812,-1.1130738258361816,6.624052047729492,4977.98828125,0
951.4699999999993,0.009679479524493217,-0.016209693625569344,0.00022180168889462948,0.0,0.0,0.0,0.0,0.004412847105413675,0.002190197817981243,-0.001498840400017798,1.0009740591049194,0.0,0.0,0.0,-27.52009391784668,-1.1050866842269897,6.629088401794434,4981.19189453125,0
961.3739999999998,0.009688186459243298,-0.016169628128409386,0.00021828414173796773,0.0,0.0,0.0,0.0,-0.0003386176540516317,-0.005789649207144976,0.0011862247483804822,1.000527262687683,0.0,0.0,0.0,-27.49213218688965,-1.1124683618545532,6.6210246086120605,4976.130859375,0
971.2919999999995,0.0097011998295784,-0.01615218073129654,0.0001953212049556896,0.0,0.0,0.0,0.0,0.0029604046139866114,0.0003022929304279387,-0.0019955667667090893,0.9995928406715393,0.0,0.0,0.0,-27.511484146118164,-1.1022868156433105,6.626414775848389,4979.63330078125,0
981.1959999999999,0.00970980804413557,-0.01610935851931572,0.00019155752670485526,0.0,0.0,0.0,0.0,-9.810718620428815e-05,-0.0008978520636446774,-0.0019612652249634266,1.0000261068344116,0.0,0.0,0.0,-27.48464012145996,-1.109401822090149,6.615791320800781,4974.7744140625,0
991.1090000000004,0.009671250358223915,-0.01626450940966606,0.0002099376288242638,0.0,0.0,0.0,0.0,0.0005634131375700235,0.0009207260445691645,-0.0012244468089193106,1.0012776851654053,0.0,0.0,0.0,-27.52363395690918,-1.1279622316360474,6.621000289916992,4981.83251953125,0
1001.018,0.009678209200501442,-0.016229061409831047,0.00020882836543023586,0.0,0.0,0.0,0.0,0.002707892097532749,-0.0022262732964009047,-0.0007343495381064713,0.9993690252304077,0.0,0.0,0.0,-27.49662971496582,-1.1345462799072266,6.611180782318115,4976.9453125,0
1010.9310000000005,0.009663927368819714,-0.01630738191306591,0.00022565950348507613,0.0,0.0,0.0,0.0,-0.0010982435196638107,-0.0011921086115762591,0.0011524587171152234,1.0009416341781616,0.0,0.0,0.0,-27.533296585083008,-1.1445426940917969,6.619292259216309,4983.58154296875,0
1020.8420000000006,0.009668782353401184,-0.016274651512503624,0.0002273519494337961,0.0,0.0,0.0,0.0,-0.0022034060675650835,0.0012600523186847568,-0.0029495253693312407,0.9987266063690186,0.0,0.0,0.0,-27.504989624023438,-1.1353799104690552,6.623533725738525,4978.4580078125,0
1030.7530000000006,0.009620996192097664,-0.016295840963721275,0.00024370913160964847,0.0,0.0,0.0,0.0,0.0017804057570174336,0.0008508471073582768,-0.00011459654342615977,0.999160885810852,0.0,0.0,0.0,-27.5233154296875,-1.1344633102416992,6.614514350891113,4981.77490234375,0
1040.6640000000007,0.009621037170290947,-0.01625823974609375,0.0002466672449372709,0.0,0.0,0.0,0.0,0.0004109354049433023,-0.0019026810768991709,-0.00029554354841820896,1.0000829696655273,0.0,0.0,0.0,-27.49593162536621,-1.1357331275939941,6.602707386016846,4976.818359375,0
1050.58,0.009547803550958633,-0.016352465376257896,0.0003203856758773327,0.0,0.0,0.0,0.0,0.002086085034534335,-6.70426816213876e-05,-0.003493847791105509,0.9995183944702148,0.0,0.0,0.0,-27.53264045715332,-1.1483105421066284,6.6056599617004395,4983.462890625,0
1060.4930000000004,0.009541645646095276,-0.016311360523104668,0.0003300598473288119,0.0,0.0,0.0,0.0,0.002569593722000718,0.0029663736931979656,-0.0007198816165328026,0.9999203085899353,0.0,0.0,0.0,-27.506982803344727,-1.152437448501587,6.5941314697265625,4978.81884765625,0
1070.4089999999997,0.009607849642634392,-0.01633664220571518,0.00039184698835015297,0.0,0.0,0.0,0.0,-0.0006808657781220973,0.002668533707037568,0.001929376507177949,0.996491551399231,0.0,0.0,0.0,-27.530977249145508,-1.147755742073059,6.603218078613281,4983.162109375,0
1080.3089999999993,0.009603573009371758,-0.016298694536089897,0.00040428334614261985,0.0,0.0,0.0,0.0,0.004654785618185997,-0.004129138309508562,-0.0012805911246687174,1.0008660554885864,0.0,0.0,0.0,-27.503427505493164,-1.14712655544281,6.594274520874023,4978.17529296875,0
1090.2330000000002,0.00965076219290495,-0.016360845416784286,0.00038824460352770984,0.0,0.0,0.0,0.0,0.0004226950986776501,0.0059764571487903595,-0.0009455355466343462,1.0012789964675903,0.0,0.0,0.0,-27.530000686645508,-1.1513028144836426,6.60508918762207,4982.9853515625,0
1100.130000000001,0.009650500491261482,-0.016322731971740723,0.0003973784332629293,0.0,0.0,0.0,0.0,0.0009069975349120796,-0.0008971754577942193,-0.0007640706608071923,0.998028576374054,0.0,0.0,0.0,-27.503494262695312,-1.1503158807754517,6.579396724700928,4978.18701171875,0
1110.0529999999999,0.00964105874300003,-0.0163554884493351,0.00037185661494731903,0.0,0.0,0.0,0.0,0.004374817945063114,0.002450477797538042,0.0027760774828493595,1.000974178314209,0.0,0.0,0.0,-27.536069869995117,-1.1467406749725342,6.588812828063965,4984.08349609375,0
1119.9529999999995,0.009641379117965698,-0.01631687954068184,0.0003780944971367717,0.0,0.0,0.0,0.0,-0.00047998750233091414,-0.0009328193264082074,0.0018946782220155,0.9986898303031921,0.0,0.0,0.0,-27.507770538330078,-1.154129981994629,6.574416160583496,4978.96142578125,0
1129.8790000000008,0.009689576923847198,-0.016251081600785255,0.00032403322984464467,0.0,0.0,0.0,0.0,-0.0004059437778778374,-0.001616931171156466,0.001434330828487873,0.9984700083732605,0.0,0.0,0.0,-27.523635864257812,-1.1315332651138306,6.580137252807617,4981.8330078125,0
1139.7749999999996,0.009692252613604069,-0.016206910833716393,0.00032462269882671535,0.0,0.0,0.0,0.0,-0.0006964319618418813,-0.0018797635566443205,-0.004546135198324919,0.9990801811218262,0.0,0.0,0.0,-27.496309280395508,-1.1382395029067993,6.5746660232543945,4976.88720703125,0
1149.6980000000003,0.009699773974716663,-0.01617778092622757,0.0002780659415293485,0.0,0.0,0.0,0.0,-0.0004669453774113208,-0.0026623886078596115,0.0027467310428619385,1.000023603439331,0.0,0.0,0.0,-27.53305435180664,-1.1215479373931885,6.580038070678711,4983.53759765625,0
1159.612000000001,0.00969692599028349,-0.01626480370759964,0.0002337507758056745,0.0,0.0,0.0,0.0,0.0004939489299431443,0.0037819277495145798,0.0022335562389343977,1.0005147457122803,0.0,0.0,0.0,-27.53417205810547,-1.1356050968170166,6.59399938583374,4983.73974609375,0
1169.5290000000005,0.009689319878816605,-0.016203690320253372,0.00023146800231188536,0.0,0.0,0.0,0.0,-0.002638408914208412,-0.0027794979978352785,0.0012716505443677306,1.0015822649002075,0.0,0.0,0.0,-27.543672561645508,-1.1332473754882812,6.582217216491699,4985.4599609375,0
1179.42,0.009691049344837666,-0.016158124431967735,0.000224990799324587,0.0,0.0,0.0,0.0,0.0012283690739423037,0.0011816462501883507,-0.00014498048403766006,1.0000503063201904,0.0,0.0,0.0,-27.515661239624023,-1.1300363540649414,6.584842681884766,4980.38916015625,0
1189.3410000000003,0.00963482353836298,-0.016236279159784317,0.00023101364786271006,0.0,0.0,0.0,0.0,-0.00343874073587358,0.0036039212718605995,0.004090514965355396,0.999274730682373,0.0,0.0,0.0,-27.54843521118164,-1.1376341581344604,6.597502708435059,4986.3212890625,0
1199.2440000000006,0.00965153332799673,-0.01629912480711937,0.00020667894568759948,0.0,0.0,0.0,0.0,-0.00046979085891507566,0.004295697435736656,-0.0032648013439029455,1.0002473592758179,0.0,0.0,0.0,-27.546098709106445,-1.1427969932556152,6.610567092895508,4985.8984375,0
1209.1650000000009,0.009615999646484852,-0.01623767986893654,0.00023582158610224724,0.0,0.0,0.0,0.0,0.0019959972705692053,0.003464548848569393,-0.0012764487182721496,1.000852346420288,0.0,0.0,0.0,-27.551225662231445,-1.1341365575790405,6.5946502685546875,4986.82666015625,0
1219.0750000000007,0.009710428304970264,-0.016312191262841225,0.00023809386766515672,0.0,0.0,0.0,0.0,0.000970191671513021,-0.0016515646129846573,0.0002485204313416034,0.9999794960021973,0.0,0.0,0.0,-27.55127716064453,-1.1461577415466309,6.601593494415283,4986.8359375,0
1228.9879999999994,0.00966347474604845,-0.016280896961688995,0.0002773379092104733,0.0,0.0,0.0,0.0,0.0016743273008614779,-7.858681055950001e-05,-0.0010102231753990054,1.0010287761688232,0.0,0.0,0.0,-27.554773330688477,-1.1505577564239502,6.59904146194458,4987.46875,0
1238.893,0.009697109460830688,-0.016384221613407135,0.00025194513727910817,0.0,0.0,0.0,0.0,-0.0015231898287311196,0.0032646236941218376,-0.004508425015956163,0.9989422559738159,0.0,0.0,0.0,-27.558834075927734,-1.169111967086792,6.615025043487549,4988.20361328125,0
1248.813,0.009682415053248405,-0.016301801428198814,0.0002748148108366877,0.0,0.0,0.0,0.0,-0.0009381956770084798,0.00017684843624010682,-0.0013557163765653968,1.0001965761184692,0.0,0.0,0.0,-27.565654754638672,-1.155489444732666,6.592456817626953,4989.4384765625,0
1258.7160000000003,0.00972793996334076,-0.0164166446775198,0.00024338418734259903,0.0,0.0,0.0,0.0,0.006167334970086813,-0.0009153516148217022,0.001752545707859099,1.000818133354187,0.0,0.0,0.0,-27.562400817871094,-1.1725636720657349,6.6094794273376465,4988.849609375,0
1268.6350000000002,0.009653620421886444,-0.01640685275197029,0.0003112192789558321,0.0,0.0,0.0,0.0,-0.0001296391274081543,0.004604179412126541,-0.00258955848403275,0.999370813369751,0.0,0.0,0.0,-27.567384719848633,-1.1842148303985596,6.597459316253662,4989.75146484375,0
1278.5390000000007,0.009705191478133202,-0.016482273116707802,0.0003055468259844929,0.0,0.0,0.0,0.0,0.0014069594908505678,0.0032622760627418756,0.00040316247032023966,0.999032199382782,0.0,0.0,0.0,-27.56680679321289,-1.1924573183059692,6.604910850524902,4989.64697265625,0
1288.4560000000001,0.009692872874438763,-0.01640518754720688,0.000331873947288841,0.0,0.0,0.0,0.0,0.00047673843801021576,-0.0008600704022683203,-0.0014467735309153795,0.9986360669136047,0.0,0.0,0.0,-27.55755043029785,-1.185922384262085,6.586785793304443,4987.97119140625,0
1298.3590000000004,0.009702429175376892,-0.01645742915570736,0.0003190309216734022,0.0,0.0,0.0,0.0,0.0004925077082589269,0.0027058827690780163,0.002358210738748312,0.9986110329627991,0.0,0.0,0.0,-27.55830955505371,-1.197843074798584,6.593437194824219,4988.10888671875,0
1308.2810000000009,0.009703234769403934,-0.016359368339180946,0.00033596984576433897,0.0,0.0,0.0,0.0,-0.0009207060793414712,-0.0024057854898273945,0.002459309296682477,1.001559853553772,0.0,0.0,0.0,-27.562013626098633,-1.1808154582977295,6.57666015625,4988.779296875,0
1318.1820000000007,0.009688801132142544,-0.016428982838988304,0.00030631673871539533,0.0,0.0,0.0,0.0,0.0017172894440591335,0.001290969899855554,0.0018890080973505974,0.9994942545890808,0.0,0.0,0.0,-27.567001342773438,-1.1930115222930908,6.576390266418457,4989.68212890625,0
1328.0949999999993,0.00968459527939558,-0.01633724384009838,0.0003263980324845761,0.0,0.0,0.0,0.0,-0.0003001120057888329,-0.00016932525613810867,-0.00205106264911592,1.002363920211792,0.0,0.0,0.0,-27.56905746459961,-1.1801667213439941,6.567785263061523,4990.0546875,0
1338.0,0.009656054899096489,-0.016344550997018814,0.00031591657898388803,0.0,0.0,0.0,0.0,0.0034705449361354113,-0.0006636488833464682,0.00030881320708431304,0.9987099766731262,0.0,0.0,0.0,-27.57514190673828,-1.187995195388794,6.563560962677002,4991.1552734375,0
1347.9230000000007,0.009644330479204655,-0.016274534165859222,0.0003336922382004559,0.0,0.0,0.0,0.0,0.0022649418096989393,-0.002947271568700671,0.0010897077154368162,1.0000218152999878,0.0,0.0,0.0,-27.576885223388672,-1.1839344501495361,6.556027412414551,4991.47119140625,0
1357.8250000000007,0.009678719565272331,-0.01638551615178585,0.0003058688307646662,0.0,0.0,0.0,0.0,-0.0017029481241479516,-0.00042480500997044146,-0.001166979898698628,1.0012751817703247,0.0,0.0,0.0,-27.5831356048584,-1.1993805170059204,6.573925495147705,4992.6025390625,0
1367.7479999999996,0.009670084342360497,-0.01630445383489132,0.000322768377372995,0.0,0.0,0.0,0.0,0.0026766015216708183,-0.0047846147790551186,-0.00043962939525954425,1.0010530948638916,0.0,0.0,0.0,-27.587621688842773,-1.1859831809997559,6.562868118286133,4993.41455078125,0
1377.6450000000004,0.009612306021153927,-0.016334567219018936,0.00029578933026641607,0.0,0.0,0.0,0.0,-0.00237552379257977,-0.005154031794518232,0.0002070283080684021,0.9998351335525513,0.0,0.0,0.0,-27.59621810913086,-1.1956489086151123,6.56868314743042,4994.97021484375,0
1387.567000000001,0.009610293433070183,-0.016248056665062904,0.000304519257042557,0.0,0.0,0.0,0.0,-0.0006652377778664231,0.0006411356152966619,0.0012765905121341348,1.0002803802490234,0.0,0.0,0.0,-27.601858139038086,-1.180391550064087,6.557247161865234,4995.99169921875,0
1397.4680000000008,0.009651659987866879,-0.016314053907990456,0.0002952507056761533,0.0,0.0,0.0,0.0,-0.002711629495024681,-0.001223089755512774,0.0014174998505041003,1.0015041828155518,0.0,0.0,0.0,-27.607818603515625,-1.1867647171020508,6.5758137702941895,4997.06982421875,0
1407.3940000000002,0.00963246077299118,-0.016249967738986015,0.0003170997661072761,0.0,0.0,0.0,0.0,0.001709911273792386,-0.000832918391097337,-0.003946787212044001,1.0007023811340332,0.0,0.0,0.0,-27.608951568603516,-1.1702486276626587,6.57119607925415,4997.275390625,0
1417.2929999999997,0.009661153890192509,-0.016316397115588188,0.00030504987807944417,0.0,0.0,0.0,0.0,0.0026509948074817657,-1.817970951378811e-05,-0.0021686041727662086,1.001483678817749,0.0,0.0,0.0,-27.614654541015625,-1.1861354112625122,6.57864236831665,4998.30712890625,0
1427.2109999999993,0.009664971381425858,-0.01627262681722641,0.0003101285547018051,0.0,0.0,0.0,0.0,0.0009029072825796902,-0.002103180391713977,-0.00511997239664197,0.999987781047821,0.0,0.0,0.0,-27.587684631347656,-1.1866986751556396,6.57346248626709,4993.42578125,0
1437.1110000000008,0.009644663892686367,-0.016213474795222282,0.00033748603891581297,0.0,0.0,0.0,0.0,-0.0032060493249446154,-0.0013010083930566907,-0.0020708797965198755,0.9980372786521912,0.0,0.0,0.0,-27.591779708862305,-1.1778491735458374,6.570014476776123,4994.16748046875,0
1447.0280000000002,0.00964664202183485,-0.016166867688298225,0.0003452811506576836,0.0,0.0,0.0,0.0,-0.0015011790674179792,-0.007787000387907028,0.0022043322678655386,0.9987642168998718,0.0,0.0,0.0,-27.564109802246094,-1.1762381792068481,6.553844928741455,4989.1591796875,0
1456.938,0.009617699310183525,-0.016171926632523537,0.000371359521523118,0.0,0.0,0.0,0.0,0.0016462139319628477,0.0008382190717384219,-0.0006422666483558714,0.999678909778595,0.0,0.0,0.0,-27.56865692138672,-1.1851307153701782,6.557177543640137,4989.98193359375,0
1466.8490000000002,0.009615304879844189,-0.016122417524456978,0.0003784653381444514,0.0,0.0,0.0,0.0,0.0004104967229068279,-0.0012585475342348218,0.0022353962995111942,1.0007076263427734,0.0,0.0,0.0,-27.541601181030273,-1.1854146718978882,6.543065547943115,4985.08447265625,0
1476.7579999999998,0.009602638892829418,-0.016088036820292473,0.00039025573641993105,0.0,0.0,0.0,0.0,-0.003688246011734009,-0.0024257695768028498,0.001294596935622394,1.0027070045471191,0.0,0.0,0.0,-27.54506492614746,-1.195414423942566,6.537672519683838,4985.7119140625,0
1486.674000000001,0.009595251642167568,-0.016036473214626312,0.0003993435821030289,0.0,0.0,0.0,0.0,0.00011775309394579381,-0.004829935263842344,-0.004975802730768919,1.0002431869506836,0.0,0.0,0.0,-27.5179386138916,-1.1881911754608154,6.534526824951172,4980.8017578125,0
1496.5830000000005,0.00957510806620121,-0.016017844900488853,0.00041127571603283286,0.0,0.0,0.0,0.0,0.0014481726102530956,0.000586380367167294,-0.0014956051018089056,0.9983124136924744,0.0,0.0,0.0,-27.525482177734375,-1.1943937540054321,6.534402847290039,4982.1669921875,0
1506.4979999999996,0.00956354383379221,-0.01596490666270256,0.0004225876764394343,0.0,0.0,0.0,0.0,0.003184729954227805,-0.00246027042157948,-0.002480807714164257,1.0008625984191895,0.0,0.0,0.0,-27.49847412109375,-1.1993049383163452,6.52780818939209,4977.2783203125,0
1516.3999999999996,0.009531116113066673,-0.01601685956120491,0.0004171552136540413,0.0,0.0,0.0,0.0,-0.0003889678046107292,0.006151105742901564,0.0007863740320317447,0.999802827835083,0.0,0.0,0.0,-27.50695037841797,-1.2415193319320679,6.538738250732422,4978.8125,0
1526.312,0.009513096883893013,-0.015970613807439804,0.000427529274020344,0.0,0.0,0.0,0.0,0.0034176346380263567,0.0066170780919492245,-0.001582748838700354,1.001448631286621,0.0,0.0,0.0,-27.47969627380371,-1.2403171062469482,6.524129867553711,4973.88037109375,0
1536.2240000000002,0.009488594718277454,-0.015992768108844757,0.00041759369196370244,0.0,0.0,0.0,0.0,-0.0028204990085214376,-0.001701449858956039,-0.003120408160611987,1.0006647109985352,0.0,0.0,0.0,-27.468887329101562,-1.2730847597122192,6.511953830718994,4971.923828125,0
1546.1380000000008,0.009467873722314835,-0.01595277152955532,0.0004281155997887254,0.0,0.0,0.0,0.0,-0.0003245926054660231,-0.002682281192392111,-0.0022997898049652576,1.000287652015686,0.0,0.0,0.0,-27.44269561767578,-1.2761033773422241,6.503113746643066,4967.18212890625,0
1556.0470000000005,0.009460026398301125,-0.015965113416314125,0.0004097489290870726,0.0,0.0,0.0,0.0,-0.0006833762163296342,0.005440224427729845,-0.0017472865292802453,1.0006130933761597,0.0,0.0,0.0,-27.45326042175293,-1.2888630628585815,6.516243934631348,4969.0947265625,0
1565.9570000000003,0.009438793174922466,-0.01592821441590786,0.00041967188008129597,0.0,0.0,0.0,0.0,0.0020777147728949785,-0.0008345808601006866,-0.003221765160560608,1.000935435295105,0.0,0.0,0.0,-27.42639923095703,-1.2902485132217407,6.499816417694092,4964.23291015625,0
1575.8680000000004,0.009470940567553043,-0.015898721292614937,0.00038781651528552175,0.0,0.0,0.0,0.0,-0.001079096575267613,-0.0035935582127422094,0.0025728021282702684,1.0013765096664429,0.0,0.0,0.0,-27.4226131439209,-1.2844715118408203,6.509331226348877,4963.54736328125,0
1585.7819999999992,0.00945286825299263,-0.015860039740800858,0.0003963433555327356,0.0,0.0,0.0,0.0,6.908398063387722e-05,0.005389753263443708,-0.004110418260097504,0.9988071918487549,0.0,0.0,0.0,-27.39510154724121,-1.2827423810958862,6.509442329406738,4958.56787109375,0
1595.6929999999993,0.00947721116244793,-0.015896901488304138,0.0003508530789986253,0.0,0.0,0.0,0.0,4.6427205234067515e-05,0.0021924234461039305,-0.0014776670141145587,0.9999563694000244,0.0,0.0,0.0,-27.41353416442871,-1.2936979532241821,6.530503273010254,4961.904296875,0
1605.603000000001,0.009461507201194763,-0.015865173190832138,0.00035547727020457387,0.0,0.0,0.0,0.0,-0.0016240566037595272,-4.406350490171462e-05,0.0028662048280239105,0.999755859375,0.0,0.0,0.0,-27.386478424072266,-1.2989557981491089,6.5312180519104,4957.0068359375,0
1615.5120000000006,0.00947355106472969,-0.01583385281264782,0.0003363826253917068,0.0,0.0,0.0,0.0,0.0009219328057952225,-0.0012539576273411512,0.0001270210777875036,0.9995476603507996,0.0,0.0,0.0,-27.381702423095703,-1.2825913429260254,6.525052070617676,4956.142578125,0
1625.4230000000007,0.009454378858208656,-0.015800785273313522,0.0003389970806892961,0.0,0.0,0.0,0.0,0.003536693984642625,0.005078907590359449,0.0010948444250971079,0.9999450445175171,0.0,0.0,0.0,-27.354637145996094,-1.2869030237197876,6.517771244049072,4951.244140625,0
1635.3369999999995,0.009430794976651669,-0.015766840428113937,0.00034160740324296057,0.0,0.0,0.0,0.0,0.0007940662326291203,-0.0030357742216438055,0.0020247900392860174,1.0013577938079834,0.0,0.0,0.0,-27.327024459838867,-1.2913782596588135,6.508869171142578,4946.24560546875,0
1645.2489999999998,0.009402892552316189,-0.015731289982795715,0.0003449411306064576,0.0,0.0,0.0,0.0,0.000527857628185302,0.0023874365724623203,0.0006396281532943249,0.9978277683258057,0.0,0.0,0.0,-27.300168991088867,-1.3010451793670654,6.492539405822754,4941.384765625,0
1655.1579999999994,0.009372304193675518,-0.015693914145231247,0.00034869261435233057,0.0,0.0,0.0,0.0,-0.0013720083516091108,0.0021149124950170517,0.002935008378699422,1.000867247581482,0.0,0.0,0.0,-27.272226333618164,-1.2965030670166016,6.488442897796631,4936.3271484375,0
1665.0689999999995,0.00934014841914177,-0.015655403956770897,0.00035186196328140795,0.0,0.0,0.0,0.0,-0.0021483723539859056,-0.00310008623637259,0.0025631259195506573,1.0013682842254639,0.0,0.0,0.0,-27.24468994140625,-1.290829062461853,6.480137348175049,4931.34375,0
1674.9879999999994,0.009730079211294651,-0.016171643510460854,0.00035261016455478966,0.0,0.0,0.0,0.0,-0.003077689092606306,0.004293324425816536,-0.006545579060912132,1.0001214742660522,0.0,0.0,0.0,-27.267333984375,-1.3889248371124268,6.620367527008057,4935.44189453125,0
1684.8909999999996,0.009717011824250221,-0.0161666888743639,0.000348926754668355,0.0,0.0,0.0,0.0,0.001443740795366466,-0.0018557349685579538,-0.0007594020571559668,1.0005673170089722,0.0,0.0,0.0,-27.241500854492188,-1.391553521156311,6.606054306030273,4930.76611328125,0
1694.8019999999997,0.009677181951701641,-0.016254780814051628,0.0002629054943099618,0.0,0.0,0.0,0.0,-0.0014133069198578596,0.0008724813815206289,-0.00218363874591887,0.9987027645111084,0.0,0.0,0.0,-27.267724990844727,-1.4163228273391724,6.6065263748168945,4935.5126953125,0
1704.7129999999997,0.009663771837949753,-0.016255570575594902,0.0002549514756537974,0.0,0.0,0.0,0.0,-0.001555115100927651,0.0046518947929143906,-0.007089104037731886,0.998719334602356,0.0,0.0,0.0,-27.24121856689453,-1.4075955152511597,6.609464645385742,4930.71484375,0
1714.6239999999998,0.009648608043789864,-0.01625850610435009,0.00024649061379022896,0.0,0.0,0.0,0.0,0.0003251476737204939,0.004721768666058779,-7.422609633067623e-05,0.9990056157112122,0.0,0.0,0.0,-27.215442657470703,-1.4118266105651855,6.594775676727295,4926.048828125,0
1724.5349999999999,0.00963250920176506,-0.016262920573353767,0.00023698603035882115,0.0,0.0,0.0,0.0,-0.0010914858430624008,-0.000819916429463774,-0.0016214617062360048,0.9989070296287537,0.0,0.0,0.0,-27.188261032104492,-1.415791392326355,6.582878112792969,4921.12890625,0
1734.446,0.009629831649363041,-0.01631857641041279,0.000184987424290739,0.0,0.0,0.0,0.0,0.003470333991572261,0.0005239996244199574,-0.0028164221439510584,0.9982566833496094,0.0,0.0,0.0,-27.217958450317383,-1.4193460941314697,6.5871663093566895,4926.50439453125,0
1744.3600000000006,0.00961210671812296,-0.016327623277902603,0.0001706809998722747,0.0,0.0,0.0,0.0,0.0004992720205336809,-0.0019616344943642616,-0.003176370868459344,0.9986258745193481,0.0,0.0,0.0,-27.191587448120117,-1.4216852188110352,6.582658290863037,4921.73095703125,0
1754.277,0.009630153886973858,-0.016346655786037445,0.00014387426199391484,0.0,0.0,0.0,0.0,-0.003236006712540984,-0.0018891741055995226,-0.0025035536382347345,1.0001814365386963,0.0,0.0,0.0,-27.220890045166016,-1.4223248958587646,6.595487594604492,4927.03466796875,0
1764.183000000001,0.009611790999770164,-0.016355907544493675,0.00012675474863499403,0.0,0.0,0.0,0.0,-0.0005675638094544411,0.000952595379203558,0.0036966344341635704,1.0024173259735107,0.0,0.0,0.0,-27.194965362548828,-1.4164745807647705,6.587586879730225,4922.3427734375,0
1774.094000000001,0.009654956869781017,-0.016386758536100388,8.503517892677337e-05,0.0,0.0,0.0,0.0,-0.0013576012570410967,0.0011675397399812937,6.174873851705343e-05,0.9993304014205933,0.0,0.0,0.0,-27.2255859375,-1.4190131425857544,6.600331783294678,4927.88525390625,0
1784.005000000001,0.009637322276830673,-0.016396967694163322,6.885755283292383e-05,0.0,0.0,0.0,0.0,0.0005416483618319035,-0.0043503884226083755,0.004137970041483641,1.0000659227371216,0.0,0.0,0.0,-27.197975158691406,-1.4155728816986084,6.590357303619385,4922.8876953125,0
1793.9140000000007,0.0096344705671072,-0.016393667086958885,5.495186633197591e-05,0.0,0.0,0.0,0.0,-0.00020034800400026143,-0.002134038135409355,-0.0008431048481725156,0.9991017580032349,0.0,0.0,0.0,-27.226457595825195,-1.4017406702041626,6.595159530639648,4928.04345703125,0
1803.826000000001,0.009617813862860203,-0.016402825713157654,3.984176873927936e-05,0.0,0.0,0.0,0.0,-0.0031365840695798397,-0.0019627425353974104,0.0018624013755470514,1.0003924369812012,0.0,0.0,0.0,-27.20030975341797,-1.401869297027588,6.5935163497924805,4923.3095703125,0
1813.737000000001,0.009681454859673977,-0.01642308384180069,1.1176825864822604e-05,0.0,0.0,0.0,0.0,-0.001719143008813262,-0.0020281944889575243,0.0004472045984584838,0.9983150959014893,0.0,0.0,0.0,-27.223308563232422,-1.3930925130844116,6.618234157562256,4927.47314453125,0
1823.6479999999992,0.009665598161518574,-0.016431748867034912,-4.842737325816415e-06,0.0,0.0,0.0,0.0,-0.0003187625261489302,-0.0010961374500766397,0.0016834089765325189,0.999759316444397,0.0,0.0,0.0,-27.195308685302734,-1.3952783346176147,6.606655597686768,4922.40478515625,0
1833.5589999999993,0.009648652747273445,-0.016439808532595634,-2.1450110580190085e-05,0.0,0.0,0.0,0.0,0.002200351795181632,0.0030510462820529938,-0.0007986800628714263,1.0013554096221924,0.0,0.0,0.0,-27.167774200439453,-1.3900067806243896,6.606778621673584,4917.42138671875,0
1843.473,0.009630982764065266,-0.016448063775897026,-3.778283280553296e-05,0.0,0.0,0.0,0.0,-0.0005315907765179873,-0.0026672622188925743,0.0014395136386156082,1.000998616218567,0.0,0.0,0.0,-27.140331268310547,-1.3980045318603516,6.600745677947998,4912.45361328125,0
1853.3919999999998,0.009664149954915047,-0.016425766050815582,-4.4516040361486375e-05,0.0,0.0,0.0,0.0,0.0020003728568553925,0.004041839856654406,0.0009816052624955773,0.9989764094352722,0.0,0.0,0.0,-27.18218231201172,-1.3720003366470337,6.60950231552124,4920.029296875,0
1863.2960000000003,0.009586866945028305,-0.016418857499957085,5.211805910221301e-05,0.0,0.0,0.0,0.0,-0.000232334467000328,-0.0003162524662911892,0.00398029712960124,1.0003379583358765,0.0,0.0,0.0,-27.1975154876709,-1.3507012128829956,6.582785129547119,4922.80419921875,0
1873.2029999999995,0.009593882597982883,-0.016428275033831596,0.00011736825399566442,0.0,0.0,0.0,0.0,0.002056033117696643,0.004769362509250641,-0.0031992311123758554,1.001163125038147,0.0,0.0,0.0,-27.2230167388916,-1.341254711151123,6.589099407196045,4927.42041015625,0
1883.1270000000004,0.009533229283988476,-0.016416409984230995,0.00019009130483027548,0.0,0.0,0.0,0.0,0.0034465219359844923,-0.0010039660846814513,0.00394568033516407,1.0008925199508667,0.0,0.0,0.0,-27.257314682006836,-1.3268293142318726,6.570269584655762,4933.62841796875,0
1893.0249999999996,0.009585192427039146,-0.016445407643914223,0.00026540044927969575,0.0,0.0,0.0,0.0,0.004366669338196516,0.000695842900313437,0.0021093522664159536,0.9988862872123718,0.0,0.0,0.0,-27.28384780883789,-1.321539282798767,6.589441776275635,4938.4306640625,0
1902.937,0.009574518539011478,-0.016402848064899445,0.00026920734671875834,0.0,0.0,0.0,0.0,0.001367811462841928,-0.006167286541312933,-0.0006158351898193359,0.9986756443977356,0.0,0.0,0.0,-27.305522918701172,-1.3198268413543701,6.575851917266846,4942.35400390625,0
1912.857,0.009572108276188374,-0.016439827159047127,0.00029850422288291156,0.0,0.0,0.0,0.0,0.0011153735686093569,0.0023790630511939526,-0.003861802164465189,1.0015562772750854,0.0,0.0,0.0,-27.324687957763672,-1.3107635974884033,6.587123870849609,4945.8232421875,0
1922.7659999999996,0.009584237821400166,-0.016339214518666267,0.0002913612697739154,0.0,0.0,0.0,0.0,-0.00285927252843976,0.0049578347243368626,0.0007998418295755982,1.0003409385681152,0.0,0.0,0.0,-27.32942771911621,-1.3006260395050049,6.580868244171143,4946.6806640625,0
1932.688,0.00960666872560978,-0.01641109399497509,0.0003134078870061785,0.0,0.0,0.0,0.0,0.0006011971272528172,-0.0016326566692441702,0.00028543101507239044,1.0008777379989624,0.0,0.0,0.0,-27.346878051757812,-1.2947349548339844,6.5778679847717285,4949.83935546875,0
1942.5830000000005,0.00964900478720665,-0.016295816749334335,0.0002777873014565557,0.0,0.0,0.0,0.0,0.00046631114673800766,-0.003995098639279604,0.001924320007674396,1.0013129711151123,0.0,0.0,0.0,-27.350934982299805,-1.2704259157180786,6.578127861022949,4950.5732421875,0
1952.4969999999994,0.009654310531914234,-0.0164132472127676,0.0002700526383705437,0.0,0.0,0.0,0.0,0.0019788395147770643,0.0021980060264468193,0.0005644744378514588,1.0018757581710815,0.0,0.0,0.0,-27.370882034301758,-1.2763158082962036,6.5873541831970215,4954.18408203125,0
1962.4030000000002,0.009639297612011433,-0.01633806899189949,0.0002864193229470402,0.0,0.0,0.0,0.0,0.00010397716687293723,0.0012816248927265406,0.0005046359729021788,1.0002520084381104,0.0,0.0,0.0,-27.371776580810547,-1.268630027770996,6.5744829177856445,4954.345703125,0
1972.3250000000007,0.009654409252107143,-0.01644638180732727,0.0002882293483708054,0.0,0.0,0.0,0.0,-0.0008424519328400493,0.00039869171450845897,-0.0001789633824955672,1.0009552240371704,0.0,0.0,0.0,-27.38909339904785,-1.2718901634216309,6.575223445892334,4957.47998046875,0
1982.228000000001,0.00965296383947134,-0.01635379157960415,0.0003012017987202853,0.0,0.0,0.0,0.0,-0.00018824358994606882,-0.0004825067881029099,0.00024291087174788117,0.9998548626899719,0.0,0.0,0.0,-27.40583610534668,-1.2552604675292969,6.563645839691162,4960.5107421875,0
1992.1460000000006,0.00966411642730236,-0.016467949375510216,0.0003004249301739037,0.0,0.0,0.0,0.0,-0.001586219179444015,0.00026123522548004985,-0.0016248893225565553,1.0000944137573242,0.0,0.0,0.0,-27.42274284362793,-1.2603368759155273,6.570933818817139,4963.5712890625,0
2002.0480000000007,0.009673690423369408,-0.016357310116291046,0.00030685646925121546,0.0,0.0,0.0,0.0,-0.0035937475040555,0.0010727413464337587,0.005046934820711613,1.0002186298370361,0.0,0.0,0.0,-27.43941307067871,-1.2347654104232788,6.560137748718262,4966.587890625,0
2011.969000000001,0.009708568453788757,-0.016467653214931488,0.0003114682622253895,0.0,0.0,0.0,0.0,-0.00039531185757368803,-0.0009403621661476791,0.0019293848890811205,1.0011829137802124,0.0,0.0,0.0,-27.445880889892578,-1.2339338064193726,6.573697090148926,4967.7587890625,0
2021.8760000000002,0.009701144881546497,-0.016382910311222076,0.0003278832300566137,0.0,0.0,0.0,0.0,-0.00193200318608433,-0.0016659433022141457,-0.0004382920451462269,1.0012893676757812,0.0,0.0,0.0,-27.443363189697266,-1.216378927230835,6.567208290100098,4967.30322265625,0
2031.7939999999999,0.009645815938711166,-0.016477100551128387,0.0003035503323189914,0.0,0.0,0.0,0.0,0.003889078041538596,0.0002498831017874181,0.002695527859032154,1.001576542854309,0.0,0.0,0.0,-27.450284957885742,-1.2224006652832031,6.569788455963135,4968.5556640625,0
2041.6929999999993,0.009654027409851551,-0.016377650201320648,0.0003043655015062541,0.0,0.0,0.0,0.0,-0.00016405561473220587,0.0027040550485253334,0.0020151904318481684,0.9996722936630249,0.0,0.0,0.0,-27.4446964263916,-1.2119272947311401,6.557702541351318,4967.54443359375,0
2051.6129999999994,0.009678053669631481,-0.01641959324479103,0.00033431421616114676,0.0,0.0,0.0,0.0,0.0027485773898661137,-0.001153638120740652,0.0044701844453811646,1.0013072490692139,0.0,0.0,0.0,-27.449295043945312,-1.2116672992706299,6.568881988525391,4968.37646484375,0
2061.5239999999994,0.009665139950811863,-0.016345560550689697,0.0003511041577439755,0.0,0.0,0.0,0.0,0.002775420667603612,0.005072458181530237,-0.002282547764480114,0.9997488856315613,0.0,0.0,0.0,-27.442588806152344,-1.2057900428771973,6.562300682067871,4967.1630859375,0
2071.437,0.009700613096356392,-0.016454940661787987,0.00036038170219399035,0.0,0.0,0.0,0.0,-0.00014254107372835279,0.00037724041612818837,0.002640332328155637,1.0003238916397095,0.0,0.0,0.0,-27.451416015625,-1.205095648765564,6.577006816864014,4968.7607421875,0
2081.3449999999993,0.009695900604128838,-0.0163604523986578,0.00037567532854154706,0.0,0.0,0.0,0.0,-0.0029417334590107203,-0.00023640225117560476,-0.0018718328792601824,1.002326488494873,0.0,0.0,0.0,-27.44740104675293,-1.1874338388442993,6.557404518127441,4968.0341796875,0
2091.2569999999996,0.009676211513578892,-0.01642110012471676,0.00037858079303987324,0.0,0.0,0.0,0.0,0.003381662769243121,-5.237261575530283e-05,0.0008201071177609265,1.000955581665039,0.0,0.0,0.0,-27.451005935668945,-1.1888560056686401,6.5707292556762695,4968.6865234375,0
2101.1630000000005,0.009674057364463806,-0.016346119344234467,0.00038791008410044014,0.0,0.0,0.0,0.0,0.0008633985999040306,0.004758549854159355,0.0010416380828246474,1.0016729831695557,0.0,0.0,0.0,-27.459556579589844,-1.175250768661499,6.56182336807251,4970.23388671875,0
2111.0859999999993,0.009631363674998283,-0.01640302501618862,0.00038612083881162107,0.0,0.0,0.0,0.0,-0.0015560607425868511,-0.0032837786711752415,-0.0031795576214790344,1.000447392463684,0.0,0.0,0.0,-27.46428871154785,-1.1816020011901855,6.558072566986084,4971.09033203125,0
2120.983,0.009643582627177238,-0.016312267631292343,0.00038180756382644176,0.0,0.0,0.0,0.0,0.0014195111580193043,0.004027785267680883,-0.000879589410033077,1.001101016998291,0.0,0.0,0.0,-27.45911407470703,-1.1641703844070435,6.56049108505249,4970.154296875,0
2130.9030000000002,0.009634860791265965,-0.016383236274123192,0.00038588891038671136,0.0,0.0,0.0,0.0,0.0019479740876704454,-0.002905098954215646,0.001751049654558301,1.0024480819702148,0.0,0.0,0.0,-27.466197967529297,-1.1728851795196533,6.564717769622803,4971.43701171875,0
2140.8089999999993,0.009650539606809616,-0.016287660226225853,0.00038230136851780117,0.0,0.0,0.0,0.0,-0.0012353552738204598,0.0025201651733368635,0.0011420698137953877,1.0027942657470703,0.0,0.0,0.0,-27.47541046142578,-1.1552551984786987,6.554927825927734,4973.10400390625,0
2150.724,0.009632988832890987,-0.016364531591534615,0.0003783501742873341,0.0,0.0,0.0,0.0,-0.002952870912849903,0.005243993364274502,0.0003764751018024981,1.000493049621582,0.0,0.0,0.0,-27.479124069213867,-1.1624380350112915,6.556771755218506,4973.7763671875,0
2160.6319999999996,0.009673147462308407,-0.016270644962787628,0.00034742517163977027,0.0,0.0,0.0,0.0,-0.0023556072264909744,0.0026216136757284403,0.0023817955516278744,1.0019285678863525,0.0,0.0,0.0,-27.48788833618164,-1.135550618171692,6.533517360687256,4975.3623046875,0
