timestamp,stateEstimate.x,stateEstimate.y,stateEstimate.z,controller.cmd_thrust,controller.cmd_roll,controller.cmd_pitch,controller.cmd_yaw,controller.r_roll,controller.r_pitch,controller.r_yaw,controller.accelz,controller.actuatorThrust,controller.roll,controller.pitch,controller.yaw,controller.rollRate,controller.pitchRate,controller.yawRate,controller.ctr_yaw
0.0,0.003456589300185442,-0.023520221933722496,-1.3008812857151497e-05,0.0,0.0,0.0,0.0,-0.0006812323699705303,0.0015529313823208213,0.0023066196590662003,0.999576985836029,0.0,0.0,0.0,-13.746580123901367,-1.3130854368209839,6.732036113739014,2488.158447265625,0
9.929000000000087,0.003434540471062064,-0.023518357425928116,-3.4015927667496726e-05,0.0,0.0,0.0,0.0,-0.0026105805300176144,-6.001802103128284e-05,0.002170013962313533,0.9996204972267151,0.0,0.0,0.0,-13.731411933898926,-1.3059264421463013,6.720803260803223,2485.41259765625,0
19.82600000000093,0.003441475797444582,-0.023528434336185455,2.980604585900437e-05,0.0,0.0,0.0,0.0,0.003932710736989975,0.00015449368220288306,-0.0008122277213260531,1.0000948905944824,0.0,0.0,0.0,-13.770855903625488,-1.2936925888061523,6.720493316650391,2492.552490234375,0
29.739000000001397,0.0034219888038933277,-0.02352730929851532,1.3309383575688116e-05,0.0,0.0,0.0,0.0,0.0018439642153680325,8.938158862292767e-05,0.003534088609740138,0.9987937808036804,0.0,0.0,0.0,-13.757319450378418,-1.3042452335357666,6.710667133331299,2490.102294921875,0
39.64500000000044,0.0034761568531394005,-0.023411082103848457,3.5716555430553854e-05,0.0,0.0,0.0,0.0,0.003195736324414611,0.0005797460908070207,-8.726584928808734e-05,0.9998583793640137,0.0,0.0,0.0,-13.801331520080566,-1.2877717018127441,6.711165428161621,2498.068603515625,0
49.57000000000153,0.0034541015047580004,-0.023406242951750755,2.2003761841915548e-05,0.0,0.0,0.0,0.0,-0.00044385308865457773,-0.0006134416908025742,0.0032777877058833838,1.001224160194397,0.0,0.0,0.0,-13.787761688232422,-1.2901697158813477,6.705887317657471,2495.6123046875,0
59.46800000000076,0.003479094710201025,-0.02347457967698574,1.0913986443483736e-05,0.0,0.0,0.0,0.0,0.00043222977546975017,0.009273391216993332,0.0017608742928132415,1.000892996788025,0.0,0.0,0.0,-13.820140838623047,-1.2859430313110352,6.706024169921875,2501.47314453125,0
69.38700000000063,0.0033995164558291435,-0.02343851886689663,6.089119051466696e-05,0.0,0.0,0.0,0.0,-0.001991699682548642,0.0029290062375366688,0.003877245122566819,1.00005042552948,0.0,0.0,0.0,-13.836134910583496,-1.2776145935058594,6.681228160858154,2504.367919921875,0
79.29000000000087,0.0034229187294840813,-0.023462431505322456,6.838651461293921e-05,0.0,0.0,0.0,0.0,0.0015741514507681131,-0.0015905824257060885,-0.002087503904476762,0.9979420304298401,0.0,0.0,0.0,-13.83927059173584,-1.2804147005081177,6.671722412109375,2504.935302734375,0
89.21399999999994,0.0033645317889750004,-0.02341040037572384,0.00010476596798980609,0.0,0.0,0.0,0.0,-0.0007523999665863812,0.00031886767828837037,0.001297274953685701,0.9991092681884766,0.0,0.0,0.0,-13.851006507873535,-1.272270917892456,6.667913913726807,2507.0595703125,0
99.11200000000099,0.0034302391577512026,-0.02350541390478611,0.00010227142774965614,0.0,0.0,0.0,0.0,0.0015011020004749298,-0.0012082704342901707,0.0026764392387121916,1.0000795125961304,0.0,0.0,0.0,-13.85526180267334,-1.2819079160690308,6.667022705078125,2507.830078125,0
109.03500000000167,0.0033690338023006916,-0.02346191741526127,0.00013690591731574386,0.0,0.0,0.0,0.0,0.002038998994976282,-0.000421844917582348,0.002584187313914299,0.9983428120613098,0.0,0.0,0.0,-13.870261192321777,-1.2718102931976318,6.656960964202881,2510.545166015625,0
118.9330000000009,0.0034140879288315773,-0.02355642057955265,0.00012889796926174313,0.0,0.0,0.0,0.0,-0.0024829108733683825,0.0013466839445754886,-0.004477442242205143,0.9986133575439453,0.0,0.0,0.0,-13.87048625946045,-1.2811760902404785,6.667020320892334,2510.585693359375,0
128.85100000000057,0.0032993184868246317,-0.023520978167653084,0.00022300411364994943,0.0,0.0,0.0,0.0,0.0006765997968614101,-0.0016216831281781197,-0.0012027485063299537,1.0016062259674072,0.0,0.0,0.0,-13.886587142944336,-1.2768876552581787,6.646401882171631,2513.5,0
138.75700000000143,0.0034109754487872124,-0.023592302575707436,0.00025762157747521996,0.0,0.0,0.0,0.0,0.001703231013379991,0.0010907059768214822,0.0008756026509217918,0.9985736012458801,0.0,0.0,0.0,-13.884923934936523,-1.2800427675247192,6.658847332000732,2513.198974609375,0
148.67300000000068,0.003381438087671995,-0.023489149287343025,0.0002864361449610442,0.0,0.0,0.0,0.0,0.0017462412361055613,0.001882683951407671,-0.0012728162109851837,0.9969962239265442,0.0,0.0,0.0,-13.899524688720703,-1.2684223651885986,6.651603698730469,2515.841796875,0
158.57800000000134,0.0034340047277510166,-0.02356911450624466,0.0002939595724456012,0.0,0.0,0.0,0.0,0.0009469793294556439,0.0013280643615871668,0.0007393474807031453,1.0018174648284912,0.0,0.0,0.0,-13.894539833068848,-1.2779343128204346,6.656637191772461,2514.939208984375,0
168.4930000000004,0.00335966469720006,-0.02352363057434559,0.0003534833376761526,0.0,0.0,0.0,0.0,-0.001113059464842081,-0.0008455897332169116,0.00048238865565508604,1.0005313158035278,0.0,0.0,0.0,-13.908822059631348,-1.26996910572052,6.646232604980469,2517.5244140625,0
178.40600000000086,0.0034256624057888985,-0.023602966219186783,0.00037222125683911145,0.0,0.0,0.0,0.0,0.000511747959535569,-0.0031348022166639566,0.0007826933870092034,0.9971632361412048,0.0,0.0,0.0,-13.904707908630371,-1.2739421129226685,6.658461570739746,2516.77978515625,0
188.32400000000052,0.0034475557040423155,-0.023465661332011223,0.00035898914211429656,0.0,0.0,0.0,0.0,0.003201624844223261,0.0057137091644108295,-0.0008504885481670499,0.9985966682434082,0.0,0.0,0.0,-13.91406536102295,-1.2489908933639526,6.653542518615723,2518.473388671875,0
198.22500000000036,0.0034392313100397587,-0.023579467087984085,0.00032698182621970773,0.0,0.0,0.0,0.0,-0.0020890794694423676,0.0006428872584365308,-0.0017336568562313914,0.9996712803840637,0.0,0.0,0.0,-13.91295337677002,-1.2683541774749756,6.658738136291504,2518.2724609375,0
208.14000000000124,0.0033856539521366358,-0.0235290564596653,0.00036149087827652693,0.0,0.0,0.0,0.0,0.002062002429738641,0.003203541971743107,8.696252189110965e-05,0.9969496726989746,0.0,0.0,0.0,-13.926652908325195,-1.2563012838363647,6.6358489990234375,2520.751708984375,0
218.0550000000003,0.003408351680263877,-0.023625029250979424,0.000350351445376873,0.0,0.0,0.0,0.0,0.001408131211064756,0.00374402292072773,0.0007033040164969862,0.997296154499054,0.0,0.0,0.0,-13.92689323425293,-1.2694875001907349,6.6392107009887695,2520.795166015625,0
227.96399999999994,0.003420401830226183,-0.023493124172091484,0.00033513156813569367,0.0,0.0,0.0,0.0,-0.00023113966744858772,-0.00013579938968177885,0.0004427588719408959,0.9980465173721313,0.0,0.0,0.0,-13.937599182128906,-1.2519557476043701,6.618703842163086,2522.733154296875,0
237.8680000000004,0.0034190777223557234,-0.023549923673272133,0.00032190995989367366,0.0,0.0,0.0,0.0,0.001214824034832418,0.00040647710557095706,-0.00039221139741130173,1.0017404556274414,0.0,0.0,0.0,-13.933899879455566,-1.259255290031433,6.625695705413818,2522.063720703125,0
247.78000000000065,0.0034054263960570097,-0.023462139070034027,0.0003151493438053876,0.0,0.0,0.0,0.0,0.0015500778099521995,0.00015686757978983223,-0.0009076051064766943,1.0006701946258545,0.0,0.0,0.0,-13.943830490112305,-1.24430513381958,6.619357109069824,2523.861083984375,0
257.6950000000015,0.0033753635361790657,-0.023510094732046127,0.00029038579668849707,0.0,0.0,0.0,0.0,0.0008790897554717958,-0.00010399040183983743,0.0018433236982673407,0.9982455968856812,0.0,0.0,0.0,-13.937861442565918,-1.257569432258606,6.614927768707275,2522.780517578125,0
267.60100000000057,0.0034109274856746197,-0.023356856778264046,0.0002470942563377321,0.0,0.0,0.0,0.0,-0.000717657501809299,-0.002803301438689232,0.002109668217599392,0.9993181228637695,0.0,0.0,0.0,-13.948138236999512,-1.225569486618042,6.623434066772461,2524.640625,0
277.51300000000083,0.0034396634437143803,-0.023439491167664528,0.00022353677195496857,0.0,0.0,0.0,0.0,-0.0009374420624226332,0.0054284692741930485,-0.0008215690031647682,1.0001009702682495,0.0,0.0,0.0,-13.943275451660156,-1.233839511871338,6.628188133239746,2523.760498046875,0
287.4230000000007,0.003439942840486765,-0.023317810148000717,0.00020574552763719112,0.0,0.0,0.0,0.0,-0.0048047080636024475,-0.002114643808454275,-0.0002879073435906321,1.0022666454315186,0.0,0.0,0.0,-13.953989028930664,-1.2128361463546753,6.61060905456543,2525.69970703125,0
297.33800000000156,0.003457572776824236,-0.02341185137629509,0.00017005890549626201,0.0,0.0,0.0,0.0,0.0033160224556922913,0.000927360204514116,-0.0004965742118656635,0.9998712539672852,0.0,0.0,0.0,-13.950218200683594,-1.2254332304000854,6.605412483215332,2525.017333984375,0
307.2540000000008,0.0034406366758048534,-0.023315049707889557,0.00016137298371177167,0.0,0.0,0.0,0.0,-0.002335203345865011,0.003097205888479948,-0.0005373324966058135,1.000764012336731,0.0,0.0,0.0,-13.956442832946777,-1.199242115020752,6.601892948150635,2526.14404296875,0
317.15800000000127,0.0034797193948179483,-0.02346239984035492,0.000112799862108659,0.0,0.0,0.0,0.0,-0.0013381709577515721,0.0009729582816362381,-0.0004890239797532558,1.002016305923462,0.0,0.0,0.0,-13.951898574829102,-1.2263586521148682,6.602778911590576,2525.3212890625,0
327.0680000000011,0.0034025637432932854,-0.023432914167642593,0.00014708886737935245,0.0,0.0,0.0,0.0,0.00088681117631495,-0.00363304209895432,0.00032431638101115823,1.0008991956710815,0.0,0.0,0.0,-13.95987319946289,-1.2199866771697998,6.582492828369141,2526.7646484375,0
336.9830000000002,0.0034478139132261276,-0.023530736565589905,0.0001278050767723471,0.0,0.0,0.0,0.0,0.00045425360440276563,0.0009634679299779236,0.0017936876974999905,0.9999160170555115,0.0,0.0,0.0,-13.955643653869629,-1.22628915309906,6.597254753112793,2525.9990234375,0
346.89100000000144,0.003352778498083353,-0.023515088483691216,0.00017997849499806762,0.0,0.0,0.0,0.0,-0.003603729186579585,-0.005259562749415636,-6.175542694109026e-06,0.9994980692863464,0.0,0.0,0.0,-13.964186668395996,-1.2227565050125122,6.585399150848389,2527.54541015625,0
356.8030000000017,0.0034102890640497208,-0.023608336225152016,0.00017496290092822164,0.0,0.0,0.0,0.0,-0.0001377556473016739,0.005787970032542944,6.759943789802492e-05,1.0006049871444702,0.0,0.0,0.0,-13.957497596740723,-1.230282187461853,6.593620300292969,2526.334716796875,0
366.71800000000076,0.0033498001284897327,-0.02350257895886898,0.00022142153466120362,0.0,0.0,0.0,0.0,-0.0018886267207562923,-0.003978578373789787,0.003227382432669401,1.000420331954956,0.0,0.0,0.0,-13.962740898132324,-1.211790680885315,6.576905727386475,2527.28369140625,0
376.625,0.003410038538277149,-0.02360456995666027,0.00022103548690211028,0.0,0.0,0.0,0.0,0.0008582421578466892,0.0014423658140003681,-0.0008310777484439313,0.9983687996864319,0.0,0.0,0.0,-13.95969295501709,-1.2233365774154663,6.593184947967529,2526.73193359375,0
386.5430000000015,0.0033956817351281643,-0.023482946678996086,0.0002209303347626701,0.0,0.0,0.0,0.0,-0.00013971490261610597,-0.002296763239428401,0.0003112706763204187,0.9984252452850342,0.0,0.0,0.0,-13.968847274780273,-1.2015067338943481,6.577249050140381,2528.388916015625,0
396.45600000000013,0.003449435578659177,-0.02362098917365074,0.00020111502090003341,0.0,0.0,0.0,0.0,-0.0002185224584536627,-0.00032614110386930406,-0.0011408478021621704,0.9988185167312622,0.0,0.0,0.0,-13.961458206176758,-1.2197431325912476,6.598867893218994,2527.0517578125,0
406.366,0.0034279613755643368,-0.023483803495764732,0.0002102538855979219,0.0,0.0,0.0,0.0,-0.002421835670247674,0.0034618605859577656,0.0010306345066055655,0.9991957545280457,0.0,0.0,0.0,-13.963665962219238,-1.1906795501708984,6.596229076385498,2527.451171875,0
416.26900000000023,0.003463953733444214,-0.023604771122336388,0.00018570563406683505,0.0,0.0,0.0,0.0,-0.0003357378882355988,0.002538833301514387,0.0012105904752388597,1.000299096107483,0.0,0.0,0.0,-13.958677291870117,-1.2077611684799194,6.608314037322998,2526.548095703125,0
426.1930000000011,0.0034790250938385725,-0.023436695337295532,0.00016237578529398888,0.0,0.0,0.0,0.0,-7.354915578616783e-05,0.0031122718937695026,9.705425327410921e-06,0.9993647336959839,0.0,0.0,0.0,-13.96723461151123,-1.1748887300491333,6.597955226898193,2528.09716796875,0
436.09200000000055,0.0035521683748811483,-0.023558855056762695,0.0001459463674109429,0.0,0.0,0.0,0.0,0.0009023267775774002,-0.002965893130749464,0.002113145310431719,0.9997949600219727,0.0,0.0,0.0,-13.961906433105469,-1.193419098854065,6.613039016723633,2527.1328125,0
446.0110000000004,0.0034845396876335144,-0.0234889667481184,0.00018369921599514782,0.0,0.0,0.0,0.0,-0.0032539311796426773,-0.0036114705726504326,0.002658282173797488,1.0004863739013672,0.0,0.0,0.0,-13.968127250671387,-1.1768137216567993,6.593161106109619,2528.2587890625,0
455.9160000000011,0.003471042960882187,-0.023595888167619705,0.00014030461898073554,0.0,0.0,0.0,0.0,-0.0023289103992283344,-0.0001999282685574144,-0.002858499065041542,1.001979112625122,0.0,0.0,0.0,-13.961697578430176,-1.1926029920578003,6.611346244812012,2527.094970703125,0
465.83300000000054,0.003436204046010971,-0.023452352732419968,0.00016540208889637142,0.0,0.0,0.0,0.0,0.00020954044885002077,0.0002519122208468616,0.0009801994310691953,0.9980695843696594,0.0,0.0,0.0,-13.969980239868164,-1.1584291458129883,6.589628219604492,2528.593994140625,0
475.741,0.0034585606772452593,-0.02347492426633835,0.0001715874532237649,0.0,0.0,0.0,0.0,0.0014546470483765006,-0.0010313285747542977,-0.0011093467473983765,0.9987303614616394,0.0,0.0,0.0,-13.955349922180176,-1.158759593963623,6.585208892822266,2525.946044921875,0
485.66200000000026,0.0034103530924767256,-0.023393243551254272,0.00018940762674901634,0.0,0.0,0.0,0.0,0.0014062364352867007,0.000769978214520961,0.00018313390319235623,1.0003515481948853,0.0,0.0,0.0,-13.962234497070312,-1.1473034620285034,6.583541393280029,2527.192138671875,0
495.5580000000009,0.0034460052847862244,-0.02351105585694313,0.00015872209041845053,0.0,0.0,0.0,0.0,0.0006063494365662336,-0.0018348005833104253,0.0021731513552367687,1.0024670362472534,0.0,0.0,0.0,-13.953886985778809,-1.1684423685073853,6.583552360534668,2525.681396484375,0
505.4790000000012,0.0033897687681019306,-0.02342744544148445,0.00018366461154073477,0.0,0.0,0.0,0.0,0.0005348771228455007,-0.004877390805631876,0.004841666668653488,1.0014832019805908,0.0,0.0,0.0,-13.961944580078125,-1.1537081003189087,6.577432632446289,2527.139892578125,0
515.3810000000012,0.003433376783505082,-0.023460671305656433,0.00019555375911295414,0.0,0.0,0.0,0.0,0.00020718028827104717,-0.001963315298780799,-0.000957320153247565,1.001965880393982,0.0,0.0,0.0,-13.953547477722168,-1.1615116596221924,6.597992420196533,2525.61962890625,0
525.3070000000007,0.003343138610944152,-0.02342490665614605,0.0002477728412486613,0.0,0.0,0.0,0.0,0.002191573614254594,-0.002197708934545517,0.004216918256133795,0.9996047616004944,0.0,0.0,0.0,-13.960039138793945,-1.1553038358688354,6.587229251861572,2526.794677734375,0
535.2070000000003,0.003421783447265625,-0.023470688611268997,0.0002775205939542502,0.0,0.0,0.0,0.0,-0.0002654558920767158,0.00014856972848065197,0.00020702759502455592,0.9984636902809143,0.0,0.0,0.0,-13.953104972839355,-1.1611328125,6.609101295471191,2525.53955078125,0
545.1270000000004,0.003388515440747142,-0.023386139422655106,0.0002914348151534796,0.0,0.0,0.0,0.0,-0.0016045247903093696,-0.0010254798689857125,-0.0014736551092937589,0.9995115995407104,0.0,0.0,0.0,-13.960010528564453,-1.1470199823379517,6.601603984832764,2526.78955078125,0
555.0290000000005,0.003440532833337784,-0.023538289591670036,0.00026431039441376925,0.0,0.0,0.0,0.0,-0.001652189763262868,0.0029047266580164433,0.000964171311352402,0.9976382851600647,0.0,0.0,0.0,-13.953818321228027,-1.175066590309143,6.619115352630615,2525.668701171875,0
564.9530000000013,0.0034102103672921658,-0.023447256535291672,0.0002755030000116676,0.0,0.0,0.0,0.0,0.0004740120202768594,-0.00030317105120047927,-0.0017334134317934513,1.0006464719772339,0.0,0.0,0.0,-13.962039947509766,-1.1552704572677612,6.6072678565979,2527.15673828125,0
574.853000000001,0.0034357120748609304,-0.02354580909013748,0.0002563335874583572,0.0,0.0,0.0,0.0,-0.0012975434074178338,0.0008906735456548631,-9.437627886654809e-05,1.0004812479019165,0.0,0.0,0.0,-13.958660125732422,-1.1653006076812744,6.614836692810059,2526.545166015625,0
584.7750000000015,0.00341488397680223,-0.02342398464679718,0.00026286853244528174,0.0,0.0,0.0,0.0,0.0005730522680096328,-0.000993941561318934,-0.004191557411104441,1.0002706050872803,0.0,0.0,0.0,-13.961079597473145,-1.1496952772140503,6.599124908447266,2526.98291015625,0
594.6720000000005,0.003438021056354046,-0.023480625823140144,0.00025766913313418627,0.0,0.0,0.0,0.0,-0.0021920250728726387,-0.0017910298192873597,0.002525690710172057,0.9989940524101257,0.0,0.0,0.0,-13.958965301513672,-1.1562061309814453,6.608037948608398,2526.6005859375,0
604.594000000001,0.003448108211159706,-0.02333713322877884,0.0002345640677958727,0.0,0.0,0.0,0.0,0.0026744683273136616,0.0007919414201751351,-0.007349565625190735,0.9990193843841553,0.0,0.0,0.0,-13.970479011535645,-1.1302372217178345,6.600601673126221,2528.6845703125,0
614.4940000000006,0.0034767938777804375,-0.02347557432949543,0.0001883521326817572,0.0,0.0,0.0,0.0,0.002034486271440983,-0.0023234409745782614,0.0022956039756536484,1.001670241355896,0.0,0.0,0.0,-13.964975357055664,-1.1558855772018433,6.607619762420654,2527.688232421875,0
624.4150000000009,0.0034252868499606848,-0.023361504077911377,0.00022231844195630401,0.0,0.0,0.0,0.0,0.0018543516052886844,0.004928093869239092,0.003282014047726989,0.9993936419487,0.0,0.0,0.0,-13.971759796142578,-1.1385576725006104,6.605445384979248,2528.916259765625,0
634.3230000000003,0.003466545371338725,-0.023474032059311867,0.0001924591197166592,0.0,0.0,0.0,0.0,-0.0007178570376709104,-0.0018143417546525598,0.0008856090134941041,1.0002849102020264,0.0,0.0,0.0,-13.966500282287598,-1.1653300523757935,6.61718225479126,2527.96435546875,0
644.241,0.0034232749603688717,-0.02336432784795761,0.00021759858645964414,0.0,0.0,0.0,0.0,0.0023002426605671644,-0.0004222568531986326,-2.661884718690999e-05,1.0000863075256348,0.0,0.0,0.0,-13.97402572631836,-1.1471978425979614,6.602966785430908,2529.326416015625,0
654.139000000001,0.003484501037746668,-0.023459630087018013,0.00020089084864594042,0.0,0.0,0.0,0.0,-0.002069234848022461,0.001809851499274373,0.0007302038138732314,1.0021146535873413,0.0,0.0,0.0,-13.965911865234375,-1.1548322439193726,6.618385314941406,2527.857666015625,0
664.0640000000003,0.003427023533731699,-0.023392120376229286,0.00023024405527394265,0.0,0.0,0.0,0.0,0.0020297809969633818,0.0001728442293824628,-0.0005814253818243742,1.0028176307678223,0.0,0.0,0.0,-13.972743034362793,-1.148496389389038,6.610587120056152,2529.093994140625,0
673.960000000001,0.003475853940472007,-0.02353413961827755,0.00019359536236152053,0.0,0.0,0.0,0.0,-0.0006210774881765246,0.0006185595411807299,0.003460162552073598,1.0015865564346313,0.0,0.0,0.0,-13.968993186950684,-1.1799105405807495,6.614849090576172,2528.415283203125,0
683.8820000000014,0.0034900822211056948,-0.023369822651147842,0.00018044133321382105,0.0,0.0,0.0,0.0,0.0047922744415700436,0.002162245335057378,0.0027981000021100044,0.9990183115005493,0.0,0.0,0.0,-13.975646018981934,-1.1533821821212769,6.609138011932373,2529.61962890625,0
693.7930000000015,0.003504191990941763,-0.023509493097662926,0.00012963572225999087,0.0,0.0,0.0,0.0,0.0024144542403519154,0.00032186717726290226,-0.0010319401044398546,1.0005313158035278,0.0,0.0,0.0,-13.971243858337402,-1.1814535856246948,6.620839595794678,2528.82275390625,0
703.7049999999999,0.0034909674432128668,-0.023368719965219498,0.00013504925300367177,0.0,0.0,0.0,0.0,4.0428796637570485e-05,0.001545729348435998,0.001097379601560533,1.0009227991104126,0.0,0.0,0.0,-13.978778839111328,-1.1703077554702759,6.605629920959473,2530.186767578125,0
713.6090000000004,0.0035157171078026295,-0.0234307199716568,0.00011588269262574613,0.0,0.0,0.0,0.0,-0.00013337237760424614,0.0011134952073916793,0.0034942813217639923,0.9981195330619812,0.0,0.0,0.0,-13.972311973571777,-1.1839802265167236,6.602688789367676,2529.016357421875,0
723.523000000001,0.003472117939963937,-0.023339588195085526,0.00013618501543533057,0.0,0.0,0.0,0.0,-0.0019900905899703503,-0.000661036348901689,0.0032746035140007734,0.9994502067565918,0.0,0.0,0.0,-13.97884750366211,-1.1711827516555786,6.5864176750183105,2530.19921875,0
733.4280000000017,0.003493312979117036,-0.023372365161776543,0.00012833179789595306,0.0,0.0,0.0,0.0,-0.0024326355196535587,0.0021011638455092907,-0.0004467576800379902,0.9996298551559448,0.0,0.0,0.0,-13.97069263458252,-1.1764074563980103,6.593469619750977,2528.72314453125,0
743.3460000000014,0.0033952018711715937,-0.023359911516308784,0.00017818377818912268,0.0,0.0,0.0,0.0,0.0005123477894812822,0.003015615977346897,0.00100868777371943,1.000241756439209,0.0,0.0,0.0,-13.976056098937988,-1.177695870399475,6.5814900398254395,2529.694091796875,0
753.2530000000006,0.0034410005901008844,-0.023431608453392982,0.00016972700541373342,0.0,0.0,0.0,0.0,0.003011284163221717,0.0018164985813200474,0.001597101567313075,1.0012469291687012,0.0,0.0,0.0,-13.97140884399414,-1.1897789239883423,6.58880615234375,2528.8525390625,0
763.1700000000001,0.0033662174828350544,-0.023383479565382004,0.00020457002392504364,0.0,0.0,0.0,0.0,-0.0028428048826754093,0.00041335495188832283,0.00358003843575716,0.999512791633606,0.0,0.0,0.0,-13.976910591125488,-1.1913400888442993,6.566135406494141,2529.8486328125,0
773.0720000000001,0.003445415524765849,-0.02343132160604,0.00022327098122332245,0.0,0.0,0.0,0.0,-0.00048274017171934247,0.0014984429581090808,-0.003278885968029499,0.9993609189987183,0.0,0.0,0.0,-13.968988418579102,-1.198537826538086,6.579837799072266,2528.41455078125,0
782.991,0.0033994182012975216,-0.023328859359025955,0.00025071200798265636,0.0,0.0,0.0,0.0,0.0004102612438146025,-0.0006348657188937068,0.001815121271647513,1.0001829862594604,0.0,0.0,0.0,-13.97637939453125,-1.1796197891235352,6.567060470581055,2529.75244140625,0
792.8940000000002,0.0034578312188386917,-0.02348439395427704,0.00021866000315640122,0.0,0.0,0.0,0.0,0.00032032578019425273,-0.002384462859481573,-0.0031335295643657446,0.99882572889328,0.0,0.0,0.0,-13.970688819885254,-1.203458309173584,6.5801615715026855,2528.722412109375,0
802.8130000000001,0.003415078390389681,-0.02336726523935795,0.00024573219707235694,0.0,0.0,0.0,0.0,-0.0023182875011116266,0.00044349164818413556,-0.0007551942835561931,1.0005615949630737,0.0,0.0,0.0,-13.978520393371582,-1.1850453615188599,6.568406581878662,2530.14013671875,0
812.719000000001,0.0034258279483765364,-0.02338474616408348,0.0002588529896456748,0.0,0.0,0.0,0.0,0.0043966080993413925,-0.0003538596211001277,-0.0012013919185847044,1.0005816221237183,0.0,0.0,0.0,-13.958182334899902,-1.1899508237838745,6.574649810791016,2526.45849609375,0
822.6290000000008,0.0034110024571418762,-0.023354025557637215,0.0002750624262262136,0.0,0.0,0.0,0.0,0.00023749636602587998,0.0027476074174046516,-0.0016642628470435739,0.9997621774673462,0.0,0.0,0.0,-13.976235389709473,-1.1811022758483887,6.5722270011901855,2529.726318359375,0
832.5480000000007,0.0034367628395557404,-0.023493347689509392,0.00024460209533572197,0.0,0.0,0.0,0.0,-0.000678262731526047,0.0018263872480019927,-0.0020670711528509855,0.9979110956192017,0.0,0.0,0.0,-13.959592819213867,-1.2074878215789795,6.588577747344971,2526.7138671875,0
842.4580000000005,0.003443599445745349,-0.023391280323266983,0.0002623292675707489,0.0,0.0,0.0,0.0,0.005109336227178574,0.001605415833182633,-0.0014635854167863727,0.9993831515312195,0.0,0.0,0.0,-13.980542182922363,-1.1854784488677979,6.58563756942749,2530.506103515625,0
852.3610000000008,0.0034654801711440086,-0.02348872646689415,0.00023824135132599622,0.0,0.0,0.0,0.0,0.0009523761691525578,-0.002872075419872999,0.0015051746740937233,0.9994450807571411,0.0,0.0,0.0,-13.977984428405762,-1.2073328495025635,6.594074726104736,2530.04296875,0
862.2780000000002,0.003381214337423444,-0.023413358256220818,0.0002947721804957837,0.0,0.0,0.0,0.0,-0.0009276596247218549,0.002710979664698243,-0.0023092071060091257,0.9990450143814087,0.0,0.0,0.0,-13.983138084411621,-1.1986517906188965,6.575820446014404,2530.97607421875,0
872.1880000000001,0.0034989984706044197,-0.023509517312049866,0.0003084189957007766,0.0,0.0,0.0,0.0,0.0015672491863369942,0.0003773053176701069,-0.0004726806073449552,0.998035728931427,0.0,0.0,0.0,-13.96825122833252,-1.202154278755188,6.566181659698486,2528.28125,0
882.0970000000016,0.0034296009689569473,-0.023429811000823975,0.00035535095958039165,0.0,0.0,0.0,0.0,0.0003193053707946092,0.002864785958081484,-0.0031213839538395405,0.9965649247169495,0.0,0.0,0.0,-13.97584342956543,-1.1914578676223755,6.544284343719482,2529.6552734375,0
892.0100000000002,0.003462484572082758,-0.023528404533863068,0.0003347054880578071,0.0,0.0,0.0,0.0,0.0007412955746985972,0.00208813464269042,0.002258720574900508,1.0000556707382202,0.0,0.0,0.0,-13.968435287475586,-1.2182985544204712,6.545050144195557,2528.314453125,0
901.9170000000013,0.003431360935792327,-0.02344025857746601,0.0003393187071196735,0.0,0.0,0.0,0.0,0.000584850728046149,0.0033414934296160936,0.00016793535905890167,0.9986702799797058,0.0,0.0,0.0,-13.975404739379883,-1.2049444913864136,6.531867980957031,2529.576171875,0
911.8290000000015,0.003459371393546462,-0.02358401007950306,0.0002945095766335726,0.0,0.0,0.0,0.0,-0.0005339736235328019,-0.00033882615389302373,-0.00024328456493094563,0.9993041157722473,0.0,0.0,0.0,-13.97083854675293,-1.2302258014678955,6.556537628173828,2528.749267578125,0
921.7400000000016,0.003450063755735755,-0.023458780720829964,0.000284357724012807,0.0,0.0,0.0,0.0,-0.0028385831974446774,-0.0021752433385699987,0.002017643768340349,0.9983179569244385,0.0,0.0,0.0,-13.97848129272461,-1.2051124572753906,6.5407538414001465,2530.133056640625,0
931.6540000000005,0.0034767789766192436,-0.023508111014962196,0.00027324329130351543,0.0,0.0,0.0,0.0,-0.00043768275645561516,0.0002217522996943444,-0.0023106983862817287,1.0001119375228882,0.0,0.0,0.0,-13.972344398498535,-1.2144438028335571,6.545744895935059,2529.02197265625,0
941.5660000000007,0.0034339146222919226,-0.023417329415678978,0.00028309784829616547,0.0,0.0,0.0,0.0,-0.004188922233879566,0.004411456640809774,-4.688231638283469e-05,0.9990253448486328,0.0,0.0,0.0,-13.974983215332031,-1.1934709548950195,6.5329155921936035,2529.49951171875,0
951.4740000000002,0.003460631240159273,-0.02346004545688629,0.000274595309747383,0.0,0.0,0.0,0.0,-0.0006121022743172944,-0.000979698495939374,0.003140541724860668,0.9985005855560303,0.0,0.0,0.0,-13.96733570098877,-1.2062631845474243,6.537604331970215,2528.115478515625,0
961.3860000000004,0.00342656672000885,-0.023347405716776848,0.000279863306786865,0.0,0.0,0.0,0.0,-0.0001491955335950479,-0.002030635252594948,0.0008909773896448314,0.9997071027755737,0.0,0.0,0.0,-13.972841262817383,-1.1789884567260742,6.531203746795654,2529.112060546875,0
971.3020000000015,0.003444276750087738,-0.02343911863863468,0.00024711681180633605,0.0,0.0,0.0,0.0,-0.0006133746937848628,0.0020794293377548456,0.0004512963932938874,0.9990363121032715,0.0,0.0,0.0,-13.965643882751465,-1.1943739652633667,6.543349266052246,2527.809326171875,0
981.2090000000007,0.0033915643580257893,-0.023336995393037796,0.00026659417198970914,0.0,0.0,0.0,0.0,0.0017378318589180708,-0.0015251646982505918,0.0022030069958418608,0.9998117089271545,0.0,0.0,0.0,-13.970983505249023,-1.1773757934570312,6.525466442108154,2528.775634765625,0
991.1230000000014,0.0033938970882445574,-0.023427311331033707,0.00022544949024450034,0.0,0.0,0.0,0.0,0.00106769148260355,0.000920815858989954,-0.0016675301594659686,0.9985872507095337,0.0,0.0,0.0,-13.964349746704102,-1.2025909423828125,6.534095287322998,2527.574951171875,0
1001.0310000000009,0.003363710828125477,-0.023306945338845253,0.0002210439124610275,0.0,0.0,0.0,0.0,0.0010778959840536118,0.002304582390934229,-0.0023539375979453325,0.9999097585678101,0.0,0.0,0.0,-13.972708702087402,-1.1818134784698486,6.527926445007324,2529.087890625,0
1010.9410000000007,0.0034405020996928215,-0.023413777351379395,0.00019984939717687666,0.0,0.0,0.0,0.0,0.000768263649661094,-0.0014692344702780247,0.00025307360920123756,0.9981491565704346,0.0,0.0,0.0,-13.964102745056152,-1.20872962474823,6.5558929443359375,2527.530517578125,0
1020.857,0.0033596253488212824,-0.02337314561009407,0.00022442295448854566,0.0,0.0,0.0,0.0,-0.003912901505827904,-0.0022954230662435293,-0.00350135937333107,0.999333918094635,0.0,0.0,0.0,-13.972437858581543,-1.2054775953292847,6.540829181671143,2529.0390625,0
1030.7670000000016,0.0034522050991654396,-0.023446984589099884,0.00022464487119577825,0.0,0.0,0.0,0.0,-0.00039324190584011376,-0.0018538058502599597,0.00399420689791441,0.9985182285308838,0.0,0.0,0.0,-13.957793235778809,-1.2014282941818237,6.542312145233154,2526.388427734375,0
1040.675000000001,0.0034373679663985968,-0.023322023451328278,0.00020821377984248102,0.0,0.0,0.0,0.0,0.0017390473512932658,-0.001041025505401194,0.001006469246931374,0.9986879825592041,0.0,0.0,0.0,-13.96681022644043,-1.1743707656860352,6.541198253631592,2528.020263671875,0
1050.5930000000008,0.003489959519356489,-0.023434577509760857,0.00017168311751447618,0.0,0.0,0.0,0.0,0.0015612958231940866,0.0009442555019631982,0.0017899805679917336,0.9990034103393555,0.0,0.0,0.0,-13.951208114624023,-1.1751961708068848,6.536653995513916,2525.1962890625,0
1060.5040000000008,0.0034185086842626333,-0.02334676682949066,0.0002008304581977427,0.0,0.0,0.0,0.0,0.00029265854391269386,0.0017537238309159875,-0.00016654236242175102,0.9991466999053955,0.0,0.0,0.0,-13.959227561950684,-1.16347336769104,6.524322032928467,2526.647705078125,0
1070.407000000001,0.0034703935962170362,-0.02347376197576523,0.00016108628187794238,0.0,0.0,0.0,0.0,0.0027438353281468153,-4.420306140673347e-05,-0.003978084772825241,1.0007747411727905,0.0,0.0,0.0,-13.953950881958008,-1.1907985210418701,6.541881561279297,2525.692626953125,0
1080.3200000000015,0.003406293923035264,-0.0233960822224617,0.0001776116987457499,0.0,0.0,0.0,0.0,0.00034850946394726634,-0.0010996712371706963,-0.00377103709615767,1.0008137226104736,0.0,0.0,0.0,-13.960442543029785,-1.1745048761367798,6.5255818367004395,2526.86767578125,0
1090.2290000000012,0.003472497221082449,-0.023543566465377808,0.00013687096361536533,0.0,0.0,0.0,0.0,-0.0009698265930637717,0.002174889901652932,0.003350550774484873,1.000920295715332,0.0,0.0,0.0,-13.955738067626953,-1.2036129236221313,6.550617694854736,2526.01611328125,0
1100.1410000000014,0.003459215397015214,-0.023396654054522514,0.00012337112275417894,0.0,0.0,0.0,0.0,-0.001478097285144031,0.0002902322739828378,0.0011181787122040987,0.998444139957428,0.0,0.0,0.0,-13.966218948364258,-1.170171856880188,6.541920185089111,2527.913330078125,0
1110.0530000000017,0.0034869734663516283,-0.023524392396211624,7.202511187642813e-05,0.0,0.0,0.0,0.0,-0.0030547138303518295,0.0023533646017313004,0.0002156618720619008,1.0008106231689453,0.0,0.0,0.0,-13.957916259765625,-1.1921472549438477,6.549169063568115,2526.41064453125,0
1119.964,0.0034071742556989193,-0.02344190701842308,0.00010566900164121762,0.0,0.0,0.0,0.0,0.001586602651514113,-0.00296933320350945,-0.0038237529806792736,1.0006227493286133,0.0,0.0,0.0,-13.962450981140137,-1.1777160167694092,6.536001682281494,2527.231201171875,0
1129.875,0.0034636289346963167,-0.023494074121117592,9.863325249170884e-05,0.0,0.0,0.0,0.0,0.0007979833171702921,-0.00149785284884274,0.0035628825426101685,1.0001237392425537,0.0,0.0,0.0,-13.948253631591797,-1.1781693696975708,6.5207037925720215,2524.66162109375,0
1139.795,0.003395628649741411,-0.02340972237288952,0.00012623700604308397,0.0,0.0,0.0,0.0,0.000785422045737505,-0.0024637654423713684,0.0007079536444507539,0.9970554709434509,0.0,0.0,0.0,-13.953892707824707,-1.1677402257919312,6.505793571472168,2525.68212890625,0
1149.7020000000011,0.003419317537918687,-0.023435764014720917,0.00011022884427802637,0.0,0.0,0.0,0.0,0.0013081562938168645,0.0007346980273723602,-0.0012817871756851673,1.0012081861495972,0.0,0.0,0.0,-13.924176216125488,-1.1719127893447876,6.509039402008057,2520.3037109375,0
1159.6170000000002,0.003429796313866973,-0.023345455527305603,0.00012003313167952001,0.0,0.0,0.0,0.0,0.004136175382882357,0.0035787730012089014,0.0024327661376446486,0.9993109703063965,0.0,0.0,0.0,-13.94591999053955,-1.1513972282409668,6.507315635681152,2524.2392578125,0
1169.5190000000002,0.0034525615628808737,-0.02346206270158291,5.969360063318163e-05,0.0,0.0,0.0,0.0,0.001197931356728077,0.0005628960207104683,-0.001589450752362609,0.9997117519378662,0.0,0.0,0.0,-13.926093101501465,-1.1841652393341064,6.513869762420654,2520.650634765625,0
1179.4400000000005,0.003404629649594426,-0.02342907339334488,0.00011543169966898859,0.0,0.0,0.0,0.0,0.0013161710230633616,-0.0014754888834431767,-0.0009557660669088364,0.9991996884346008,0.0,0.0,0.0,-13.946192741394043,-1.1755528450012207,6.505553245544434,2524.288818359375,0
1189.344000000001,0.003485518041998148,-0.023513957858085632,0.00010069835116155446,0.0,0.0,0.0,0.0,0.0045517380349338055,0.002536241663619876,-0.0009347082814201713,0.9991894960403442,0.0,0.0,0.0,-13.926945686340332,-1.2064980268478394,6.531332969665527,2520.804931640625,0
1199.2600000000002,0.0034460939932614565,-0.023465031757950783,0.0001527151180198416,0.0,0.0,0.0,0.0,0.001613907516002655,0.0007342580938711762,-0.0015905317850410938,0.9971867203712463,0.0,0.0,0.0,-13.944961547851562,-1.1951674222946167,6.523473262786865,2524.065673828125,0
1209.1680000000015,0.0034471829421818256,-0.02353888936340809,0.00012124280328862369,0.0,0.0,0.0,0.0,-0.002983344718813896,-0.004677800927311182,-0.0017695927526801825,0.9999575018882751,0.0,0.0,0.0,-13.939382553100586,-1.217323660850525,6.520392417907715,2523.055908203125,0
1219.0900000000001,0.0033947026822715998,-0.023410767316818237,0.00014459573139902204,0.0,0.0,0.0,0.0,0.0008880828972905874,0.005373839288949966,0.00021586939692497253,0.9996927380561829,0.0,0.0,0.0,-13.947979927062988,-1.1980087757110596,6.505615234375,2524.6123046875,0
1228.9900000000016,0.0034665216226130724,-0.023541459813714027,0.0001164253189926967,0.0,0.0,0.0,0.0,-0.003324538469314575,0.0004867090901825577,0.002923151943832636,0.9994773268699646,0.0,0.0,0.0,-13.947615623474121,-1.2140308618545532,6.533609390258789,2524.546142578125,0
1238.9100000000017,0.003393462859094143,-0.023461245000362396,0.00014957021630834788,0.0,0.0,0.0,0.0,0.00037116275052540004,0.0030115845147520304,-0.0015827174065634608,0.9978250861167908,0.0,0.0,0.0,-13.952770233154297,-1.2021976709365845,6.520125865936279,2525.47900390625,0
1248.821,0.003425051225349307,-0.023496871814131737,0.0001493413874413818,0.0,0.0,0.0,0.0,0.0015407514292746782,0.0030637087766081095,0.0014526391169056296,0.9977092146873474,0.0,0.0,0.0,-13.948650360107422,-1.207142949104309,6.520771503448486,2524.7333984375,0
1258.7330000000002,0.0033695742022246122,-0.023391449823975563,0.00016785885964054614,0.0,0.0,0.0,0.0,0.002051869872957468,0.0006795559311285615,0.001864754012785852,0.9997811913490295,0.0,0.0,0.0,-13.95255184173584,-1.188744306564331,6.508913993835449,2525.439453125,0
1268.6460000000006,0.0034381893929094076,-0.02351580373942852,0.0001429372641723603,0.0,0.0,0.0,0.0,0.0002622003958094865,-0.004409388639032841,0.0016555001493543386,0.9994655847549438,0.0,0.0,0.0,-13.946402549743652,-1.2093040943145752,6.517800807952881,2524.32666015625,0
1278.554,0.0033798699732869864,-0.02338540367782116,0.0001718413841444999,0.0,0.0,0.0,0.0,0.0007778939325362444,0.001293081440962851,0.00010065243986900896,0.998578667640686,0.0,0.0,0.0,-13.95080852508545,-1.1950421333312988,6.5034871101379395,2525.1240234375,0
1288.4630000000016,0.003453250974416733,-0.023508219048380852,0.00014947462477721274,0.0,0.0,0.0,0.0,-0.0004010080883745104,0.004206210840493441,-0.00041724115726538,0.9985939264297485,0.0,0.0,0.0,-13.943621635437012,-1.215661644935608,6.534520149230957,2523.822998046875,0
1298.3730000000014,0.0033936817198991776,-0.023410113528370857,0.00016927863180171698,0.0,0.0,0.0,0.0,-0.0010800808668136597,0.0010349142830818892,-0.0035731547977775335,0.9995103478431702,0.0,0.0,0.0,-13.949042320251465,-1.2018812894821167,6.519676208496094,2524.804443359375,0
1308.2840000000015,0.0034496972803026438,-0.02351345494389534,0.00014653036487288773,0.0,0.0,0.0,0.0,-0.0004993982729502022,0.0012681750813499093,-0.007161734160035849,1.0009253025054932,0.0,0.0,0.0,-13.944619178771973,-1.2158232927322388,6.524950981140137,2524.003662109375,0
1318.196,0.0033940179273486137,-0.0234198197722435,0.0001603790879016742,0.0,0.0,0.0,0.0,-0.003022205550223589,-0.00042327388655394316,0.0013168167788535357,1.0011399984359741,0.0,0.0,0.0,-13.951221466064453,-1.1998043060302734,6.518170356750488,2525.19873046875,0
1328.1110000000008,0.0034390247892588377,-0.02352207712829113,0.00013469230907503515,0.0,0.0,0.0,0.0,-0.0004972005262970924,0.005572806112468243,-0.0009583398932591081,0.9999876618385315,0.0,0.0,0.0,-13.944808959960938,-1.2191931009292603,6.528883934020996,2524.038330078125,0
1338.014000000001,0.003379535162821412,-0.023431502282619476,0.00015440298011526465,0.0,0.0,0.0,0.0,-0.00048366878763772547,0.004447885323315859,-0.0002552024379838258,0.9998470544815063,0.0,0.0,0.0,-13.952032089233398,-1.2098273038864136,6.504782676696777,2525.345458984375,0
1347.9350000000013,0.0034396906848996878,-0.023511122912168503,0.00014671252574771643,0.0,0.0,0.0,0.0,0.0007481708307750523,0.0021652155555784702,-0.0021586490329355,0.9997326731681824,0.0,0.0,0.0,-13.947265625,-1.2264115810394287,6.505572319030762,2524.482666015625,0
1357.8400000000001,0.0033853172790259123,-0.02341109700500965,0.00016502683865837753,0.0,0.0,0.0,0.0,-0.000523758411873132,-2.3452608729712665e-05,-0.0003004469908773899,0.9986192584037781,0.0,0.0,0.0,-13.953640937805176,-1.215489149093628,6.496102333068848,2525.63671875,0
1367.7520000000004,0.003438852960243821,-0.02350553683936596,0.00014788408589083701,0.0,0.0,0.0,0.0,-0.000127471168525517,0.0039840880781412125,0.0045075383968651295,0.9976366758346558,0.0,0.0,0.0,-13.94737434387207,-1.238339900970459,6.5112504959106445,2524.502685546875,0
1377.661,0.0033798175863921642,-0.02341424487531185,0.0001680759305600077,0.0,0.0,0.0,0.0,0.00082546123303473,-0.0026733605191111565,-0.0070091672241687775,0.9989205002784729,0.0,0.0,0.0,-13.952427864074707,-1.218849778175354,6.501809120178223,2525.4169921875,0
1387.5860000000011,0.0034388485364615917,-0.023499900475144386,0.0001553206384414807,0.0,0.0,0.0,0.0,0.0006192564032971859,-0.0001499960635555908,-0.004205319564789534,1.0009019374847412,0.0,0.0,0.0,-13.949410438537598,-1.237646460533142,6.511196136474609,2524.87109375,0
1397.4850000000006,0.0033420813269913197,-0.023420777171850204,0.00021129267406649888,0.0,0.0,0.0,0.0,0.0020445724949240685,-0.0014285498764365911,0.0037581035867333412,0.9993307590484619,0.0,0.0,0.0,-13.959342956542969,-1.2249767780303955,6.505565643310547,2526.6689453125,0
1407.3940000000002,0.0034223643597215414,-0.02353021129965782,0.00020049196609761566,0.0,0.0,0.0,0.0,0.002621788764372468,0.0008741594501771033,-0.0003752356569748372,0.9997887015342712,0.0,0.0,0.0,-13.950865745544434,-1.245079517364502,6.523788928985596,2525.13427734375,0
1417.3010000000013,0.003339722054079175,-0.023446299135684967,0.00024706916883587837,0.0,0.0,0.0,0.0,0.001632335246540606,0.0025242329575121403,3.7367055483628064e-05,0.9994702935218811,0.0,0.0,0.0,-13.959957122802734,-1.2374389171600342,6.51719856262207,2526.77978515625,0
1427.2240000000002,0.003420497989282012,-0.02355145290493965,0.00024168785603251308,0.0,0.0,0.0,0.0,0.001369585283100605,-0.0005750869167968631,0.0002334291348233819,1.0009915828704834,0.0,0.0,0.0,-13.957833290100098,-1.2530373334884644,6.5459136962890625,2526.395751953125,0
1437.1320000000014,0.0033917324617505074,-0.023439515382051468,0.000241790316067636,0.0,0.0,0.0,0.0,-0.0006647788104601204,-0.006376261822879314,0.0026242323219776154,1.0020570755004883,0.0,0.0,0.0,-13.966241836547852,-1.2380716800689697,6.5281596183776855,2527.91748046875,0
1447.041000000001,0.0034353674855083227,-0.02354046143591404,0.00022302074648905545,0.0,0.0,0.0,0.0,-0.00010470722190802917,-0.0021301608067005873,0.0020024359691888094,0.9984833598136902,0.0,0.0,0.0,-13.962416648864746,-1.254671335220337,6.550448417663574,2527.22509765625,0
1456.9520000000011,0.0034034927375614643,-0.023428885266184807,0.00022514272131957114,0.0,0.0,0.0,0.0,0.0004787612415384501,0.00273000611923635,0.0016871111001819372,0.9991654753684998,0.0,0.0,0.0,-13.971564292907715,-1.2365124225616455,6.555912494659424,2528.880859375,0
1466.866,0.0034325011074543,-0.02347547747194767,0.00022360427828971297,0.0,0.0,0.0,0.0,-0.004582169931381941,0.0011342013021931052,0.0018579211318865418,1.0015794038772583,0.0,0.0,0.0,-13.965546607971191,-1.24196457862854,6.559525966644287,2527.79150390625,0
1476.777,0.0033832171466201544,-0.02337520197033882,0.00023875199258327484,0.0,0.0,0.0,0.0,-0.0012931470992043614,0.003913589753210545,-0.004006062168627977,1.0014238357543945,0.0,0.0,0.0,-13.96793270111084,-1.2217694520950317,6.548007965087891,2528.223388671875,0
1486.6890000000003,0.00341788656078279,-0.023442791774868965,0.00023329234682023525,0.0,0.0,0.0,0.0,0.0012691095471382141,0.010937724262475967,0.0017743028001859784,0.9991494417190552,0.0,0.0,0.0,-13.96545696258545,-1.228999376296997,6.550765037536621,2527.775390625,0
1496.5970000000016,0.0033622351475059986,-0.02337467670440674,0.00024856760865077376,0.0,0.0,0.0,0.0,0.0016871397383511066,-0.0011187607888132334,-0.001198392710648477,1.0015275478363037,0.0,0.0,0.0,-13.975480079650879,-1.220123529434204,6.534441947937012,2529.589599609375,0
1506.514000000001,0.0033772801980376244,-0.023457739502191544,0.00022879779862705618,0.0,0.0,0.0,0.0,0.0017366172978654504,0.003136606654152274,0.002001088112592697,0.9993012547492981,0.0,0.0,0.0,-13.961479187011719,-1.2236378192901611,6.519169330596924,2527.055419921875,0
1516.4260000000013,0.0032908183056861162,-0.023428529500961304,0.0002624614571686834,0.0,0.0,0.0,0.0,-0.0015210214769467711,0.002307718386873603,-0.0014118138933554292,0.9992603063583374,0.0,0.0,0.0,-13.970213890075684,-1.2239619493484497,6.502326488494873,2528.63623046875,0
1526.335000000001,0.0034054063726216555,-0.023565005511045456,0.00026602906291373074,0.0,0.0,0.0,0.0,0.0012160470942035317,0.0030030380003154278,0.0019925094675272703,0.998408854007721,0.0,0.0,0.0,-13.965876579284668,-1.2470582723617554,6.52347993850708,2527.851318359375,0
1536.2530000000006,0.0033795656636357307,-0.023444753140211105,0.0002661582548171282,0.0,0.0,0.0,0.0,-0.0014951183693483472,-0.002172434702515602,-0.0021205656230449677,0.9984868168830872,0.0,0.0,0.0,-13.96835708618164,-1.2289446592330933,6.516171455383301,2528.30029296875,0
1546.1540000000005,0.003440178232267499,-0.023569975048303604,0.0002490518381819129,0.0,0.0,0.0,0.0,0.0009098415612243116,-0.002970711328089237,0.002406050218269229,1.000423789024353,0.0,0.0,0.0,-13.954790115356445,-1.2298877239227295,6.4978861808776855,2525.8447265625,0
1556.0750000000007,0.003392411395907402,-0.023445358499884605,0.0002617105783428997,0.0,0.0,0.0,0.0,0.0016869433457031846,0.004920528270304203,-0.002382358768954873,0.9980025291442871,0.0,0.0,0.0,-13.961174011230469,-1.2130531072616577,6.494154930114746,2527.000244140625,0
1565.9850000000006,0.0034184132236987352,-0.02351362258195877,0.0002478154201526195,0.0,0.0,0.0,0.0,-0.0003483585605863482,0.002267258707433939,-0.0012668342096731067,0.999050498008728,0.0,0.0,0.0,-13.948326110839844,-1.2100969552993774,6.479753017425537,2524.674560546875,0
1575.889000000001,0.003426947630941868,-0.023355193436145782,0.00022183488181326538,0.0,0.0,0.0,0.0,0.001683253445662558,-0.0037016572896391153,0.0019098343327641487,0.9988160133361816,0.0,0.0,0.0,-13.96009349822998,-1.181174874305725,6.466001987457275,2526.804443359375,0
1585.7960000000003,0.0034390585497021675,-0.023505209013819695,0.00016180923557840288,0.0,0.0,0.0,0.0,0.0015570914838463068,0.00047104532131925225,0.002349150599911809,0.9981197118759155,0.0,0.0,0.0,-13.955223083496094,-1.2118428945541382,6.475430488586426,2525.923095703125,0
1595.714,0.0034293625503778458,-0.023357460275292397,0.00014799204654991627,0.0,0.0,0.0,0.0,0.0008010673918761313,0.0011270723771303892,-0.0014127979520708323,0.9995564222335815,0.0,0.0,0.0,-13.963284492492676,-1.1864768266677856,6.466534614562988,2527.38232421875,0
1605.6290000000008,0.0034493813291192055,-0.023390498012304306,0.00013243827561382204,0.0,0.0,0.0,0.0,-0.0033490436617285013,0.000170171755598858,0.0019540758803486824,1.0000227689743042,0.0,0.0,0.0,-13.949649810791016,-1.187003493309021,6.460822105407715,2524.91455078125,0
1615.5380000000005,0.003423526417464018,-0.023258468136191368,0.00012648072151932865,0.0,0.0,0.0,0.0,0.0022508404217660427,-0.0018518208526074886,-0.00029202664154581726,0.9988616704940796,0.0,0.0,0.0,-13.951754570007324,-1.1613266468048096,6.449880599975586,2525.295166015625,0
1625.442000000001,0.0034584158565849066,-0.023395653814077377,7.262157305376604e-05,0.0,0.0,0.0,0.0,-0.0008697483572177589,0.0003570792905520648,0.0017413151217624545,0.9957178831100464,0.0,0.0,0.0,-13.946409225463867,-1.1924498081207275,6.463117599487305,2524.32763671875,0
1635.3550000000014,0.0034145854879170656,-0.023287374526262283,7.419174653477967e-05,0.0,0.0,0.0,0.0,-0.0033947001211345196,0.0014656971907243133,-0.002851976780220866,0.9995831251144409,0.0,0.0,0.0,-13.951201438903809,-1.1749911308288574,6.451572895050049,2525.1953125,0
1645.2580000000016,0.003469453426077962,-0.02337687276303768,4.310580698074773e-05,0.0,0.0,0.0,0.0,-0.0013725977623835206,-0.0020951596088707447,0.002927843714132905,0.9981147050857544,0.0,0.0,0.0,-13.94426441192627,-1.1899579763412476,6.469379425048828,2523.939453125,0
1655.183000000001,0.0033549091313034296,-0.023349978029727936,9.58999153226614e-05,0.0,0.0,0.0,0.0,-0.0011464759008958936,-0.0004568878503050655,0.00010981342347804457,1.001062273979187,0.0,0.0,0.0,-13.94911003112793,-1.1880232095718384,6.453846454620361,2524.81640625,0
1665.0900000000001,0.0034314608201384544,-0.023437978699803352,7.672715582884848e-05,0.0,0.0,0.0,0.0,0.0036577966529875994,0.0015497191343456507,-0.00082677899627015,0.999415934085846,0.0,0.0,0.0,-13.935063362121582,-1.18874990940094,6.448068141937256,2522.274169921875,0
1675.0,0.003336346708238125,-0.023376813158392906,0.00012066202179994434,0.0,0.0,0.0,0.0,-0.001960492692887783,-0.0012893653474748135,-0.002156580798327923,0.9983695149421692,0.0,0.0,0.0,-13.939008712768555,-1.1802340745925903,6.428823947906494,2522.98828125,0
1684.9040000000005,0.0033736766781657934,-0.023422906175255775,0.00011042047844966874,0.0,0.0,0.0,0.0,0.0014442018000409007,0.000425143341999501,0.007241999264806509,1.000019907951355,0.0,0.0,0.0,-13.933205604553223,-1.186883568763733,6.439868450164795,2521.937744140625,0
1694.8290000000015,0.0032635368406772614,-0.023366035893559456,0.00016786431660875678,0.0,0.0,0.0,0.0,0.00019266245362814516,0.0008987885667011142,0.002349449787288904,1.0010552406311035,0.0,0.0,0.0,-13.94042682647705,-1.1826940774917603,6.414920806884766,2523.244873046875,0
1704.7290000000012,0.0033649501856416464,-0.02348734810948372,0.0001564815902383998,0.0,0.0,0.0,0.0,0.0010723203886300325,0.0013174184132367373,0.0016450462862849236,1.0005030632019043,0.0,0.0,0.0,-13.935789108276367,-1.2065684795379639,6.4365410804748535,2522.405517578125,0
1714.6490000000013,0.0032691804226487875,-0.023435518145561218,0.00019983088714070618,0.0,0.0,0.0,0.0,-0.004047994036227465,0.0038738339208066463,-0.00274497177451849,1.000868320465088,0.0,0.0,0.0,-13.944040298461914,-1.2029553651809692,6.420542240142822,2523.899169921875,0
1724.5460000000003,0.0033572048414498568,-0.023540373891592026,0.0001971224119188264,0.0,0.0,0.0,0.0,0.001353702275082469,0.0032363240607082844,-0.0038268226198852062,1.000977873802185,0.0,0.0,0.0,-13.938486099243164,-1.2128887176513672,6.44484281539917,2522.8935546875,0
1734.4740000000002,0.003327547572553158,-0.02337135747075081,0.0002107999607687816,0.0,0.0,0.0,0.0,0.0003421426808927208,0.00016774407413322479,-0.0007118540233932436,0.9975156188011169,0.0,0.0,0.0,-13.945111274719238,-1.18630051612854,6.4349141120910645,2524.0927734375,0
1744.3690000000006,0.0033930777572095394,-0.023480413481593132,0.00019601931853685528,0.0,0.0,0.0,0.0,-0.0021543530747294426,0.00108955183532089,0.002241279697045684,0.9988983869552612,0.0,0.0,0.0,-13.941993713378906,-1.2059123516082764,6.45750093460083,2523.528564453125,0
1754.2900000000009,0.003346319543197751,-0.023371217772364616,0.0002052867494057864,0.0,0.0,0.0,0.0,-0.0013823927147313952,0.00019797626009676605,-0.00014572875807061791,0.9972912669181824,0.0,0.0,0.0,-13.947161674499512,-1.188746690750122,6.446413040161133,2524.4638671875,0
1764.1910000000007,0.003391793929040432,-0.023441361263394356,0.00019557555788196623,0.0,0.0,0.0,0.0,-0.001641169423237443,-0.002642862033098936,0.004120761062949896,0.9990925788879395,0.0,0.0,0.0,-13.944339752197266,-1.199642300605774,6.459681987762451,2523.953125,0
1774.1200000000008,0.0033261431381106377,-0.023343496024608612,0.00022102572256699204,0.0,0.0,0.0,0.0,0.0037966370582580566,0.0010413579875603318,-0.0002795446489471942,0.9990421533584595,0.0,0.0,0.0,-13.947751998901367,-1.1887038946151733,6.454543113708496,2524.57080078125,0
1784.0150000000012,0.0033731439616531134,-0.023424198850989342,0.00020522884733509272,0.0,0.0,0.0,0.0,0.0024664034135639668,0.00018456997349858284,0.00013184905401431024,1.0000379085540771,0.0,0.0,0.0,-13.942519187927246,-1.2067378759384155,6.470252990722656,2523.62353515625,0
1793.9310000000005,0.0033232623245567083,-0.023285802453756332,0.00022376724518835545,0.0,0.0,0.0,0.0,-0.00022046657977625728,0.0034681186079978943,-0.0005364075768738985,1.0003982782363892,0.0,0.0,0.0,-13.952249526977539,-1.1911382675170898,6.4521803855896,2525.384765625,0
1803.8360000000011,0.0034264763817191124,-0.02347554825246334,0.00018238771008327603,0.0,0.0,0.0,0.0,-0.0007637400995008647,-0.0029788922984153032,-0.001151983393356204,0.9983524680137634,0.0,0.0,0.0,-13.948797225952148,-1.2242450714111328,6.472888469696045,2524.760009765625,0
1813.759,0.0033549931831657887,-0.023389898240566254,0.0002081284037558362,0.0,0.0,0.0,0.0,0.0015708538703620434,0.0021046651527285576,-0.002088788663968444,0.998412549495697,0.0,0.0,0.0,-13.956254959106445,-1.2072218656539917,6.464391231536865,2526.10986328125,0
1823.6580000000013,0.003395223757252097,-0.02347877435386181,0.00018515221017878503,0.0,0.0,0.0,0.0,0.004529023077338934,0.006679563783109188,-0.0012234622845426202,0.9985334873199463,0.0,0.0,0.0,-13.953535079956055,-1.223978042602539,6.478676795959473,2525.617431640625,0
1833.5780000000013,0.0033375138882547617,-0.023365596309304237,0.00020166633476037532,0.0,0.0,0.0,0.0,-0.002956986427307129,-0.0005077114910818636,0.0004801059840247035,1.0013113021850586,0.0,0.0,0.0,-13.95868968963623,-1.2125418186187744,6.4564948081970215,2526.550537109375,0
1843.482,0.003424383932724595,-0.023442955687642097,0.0001994279446080327,0.0,0.0,0.0,0.0,0.001272020861506462,-0.011311173439025879,-6.218552880454808e-05,0.9986318349838257,0.0,0.0,0.0,-13.953288078308105,-1.2242779731750488,6.472123622894287,2525.57275390625,0
1853.4040000000005,0.003370700404047966,-0.023313140496611595,0.0002191658568335697,0.0,0.0,0.0,0.0,-0.005595719441771507,-0.0008481336990371346,0.0034936522133648396,0.997766375541687,0.0,0.0,0.0,-13.962069511413574,-1.2061216831207275,6.482728958129883,2527.162353515625,0
1863.304,0.0034338529221713543,-0.023407604545354843,0.00019813912513200194,0.0,0.0,0.0,0.0,0.001451315707527101,0.004153176676481962,-0.0016957576153799891,1.0002193450927734,0.0,0.0,0.0,-13.954521179199219,-1.2246859073638916,6.500788688659668,2525.7958984375,0
1873.2200000000012,0.003319296520203352,-0.023357732221484184,0.0002604559704195708,0.0,0.0,0.0,0.0,0.001295924768783152,0.0011243182234466076,0.007597065065056086,1.0014259815216064,0.0,0.0,0.0,-13.964681625366211,-1.2167162895202637,6.482208251953125,2527.635009765625,0
1883.1260000000002,0.003388195764273405,-0.02347567304968834,0.00023806212993804365,0.0,0.0,0.0,0.0,0.0020534531213343143,-0.0008394117467105389,-0.002475049579516053,1.0002715587615967,0.0,0.0,0.0,-13.960192680358887,-1.2354755401611328,6.49944543838501,2526.82275390625,0
1893.0530000000017,0.0032960912212729454,-0.023420190438628197,0.00027932951343245804,0.0,0.0,0.0,0.0,0.001959565794095397,0.007813769392669201,-0.002027920912951231,0.997993528842926,0.0,0.0,0.0,-13.963958740234375,-1.23201584815979,6.482730865478516,2527.504150390625,0
1902.973,0.0034010291565209627,-0.02339831367135048,0.00026228345814161,0.0,0.0,0.0,0.0,0.0027810309547930956,-0.0022866767831146717,0.0008659465820528567,0.9997920393943787,0.0,0.0,0.0,-13.980607986450195,-1.229385495185852,6.484012126922607,2530.517822265625,0
1912.8680000000004,0.0033528998028486967,-0.023349685594439507,0.0002603422326501459,0.0,0.0,0.0,0.0,0.0015015113167464733,-0.0014314689906314015,-0.0018181120976805687,0.9991631507873535,0.0,0.0,0.0,-13.965396881103516,-1.226120114326477,6.468951225280762,2527.7646484375,0
1922.786,0.0033921399153769016,-0.023427318781614304,0.00025498049217276275,0.0,0.0,0.0,0.0,0.0007833298877812922,0.002632798394188285,-0.0010850252583622932,0.998317301273346,0.0,0.0,0.0,-13.980417251586914,-1.2406821250915527,6.486286163330078,2530.483642578125,0
1932.6860000000015,0.0033438585232943296,-0.023379119113087654,0.0002514770603738725,0.0,0.0,0.0,0.0,-0.0006185980164445937,-0.0011489425087347627,0.0002648764057084918,0.9989094734191895,0.0,0.0,0.0,-13.965996742248535,-1.2327800989151,6.4739766120910645,2527.873046875,0
1942.5950000000012,0.0033618498127907515,-0.02346815913915634,0.0002982722071465105,0.0,0.0,0.0,0.0,0.002565606264397502,0.005215277895331383,-0.0020845050457865,1.0003019571304321,0.0,0.0,0.0,-13.982950210571289,-1.2433217763900757,6.483877182006836,2530.94189453125,0
1952.5070000000014,0.0033117253333330154,-0.023422949016094208,0.0002972767979372293,0.0,0.0,0.0,0.0,-0.004018378909677267,0.0014694955898448825,0.0015940108569338918,1.0009019374847412,0.0,0.0,0.0,-13.970048904418945,-1.2523140907287598,6.465606212615967,2528.6064453125,0
1962.4190000000017,0.0033907704055309296,-0.023426590487360954,0.00028598049539141357,0.0,0.0,0.0,0.0,0.0008194663096219301,0.00023964807041920722,0.0013697603717446327,1.00068199634552,0.0,0.0,0.0,-13.98437213897705,-1.2432961463928223,6.482276439666748,2531.19921875,0
1972.3280000000013,0.003342087147757411,-0.023382198065519333,0.0002852778707165271,0.0,0.0,0.0,0.0,0.0010590918827801943,0.0010798323201015592,-0.0009061105665750802,1.0004385709762573,0.0,0.0,0.0,-13.969996452331543,-1.2402877807617188,6.469420909881592,2528.59716796875,0
1982.246000000001,0.0033935639075934887,-0.02335248328745365,0.0002746033133007586,0.0,0.0,0.0,0.0,-0.0015136805595830083,0.007168489042669535,0.000885835790541023,0.9996123313903809,0.0,0.0,0.0,-13.982719421386719,-1.2267731428146362,6.473381042480469,2530.900146484375,0
1992.1540000000005,0.0033445723820477724,-0.023309994488954544,0.0002743054064922035,0.0,0.0,0.0,0.0,-1.0410266440885607e-05,0.0019234966021031141,-0.001051387982442975,0.9990699291229248,0.0,0.0,0.0,-13.968008995056152,-1.222503423690796,6.455413818359375,2528.237548828125,0
2002.0680000000011,0.0033834674395620823,-0.023359501734375954,0.00027064874302595854,0.0,0.0,0.0,0.0,0.004462213721126318,0.00050395168364048,-0.0001444998342776671,1.0005429983139038,0.0,0.0,0.0,-13.977886199951172,-1.221518635749817,6.460184097290039,2530.025390625,0
2011.973,0.003332507098093629,-0.023316645994782448,0.00026985659496858716,0.0,0.0,0.0,0.0,-0.0017479746602475643,0.003820630721747875,-0.0023948908783495426,0.997327983379364,0.0,0.0,0.0,-13.963885307312012,-1.2273811101913452,6.440903663635254,2527.49072265625,0
2021.889000000001,0.0033597820438444614,-0.023382918909192085,0.0002654714335221797,0.0,0.0,0.0,0.0,-0.0034303395077586174,-0.00042195504647679627,-0.0007120841182768345,0.9979217052459717,0.0,0.0,0.0,-13.978117942810059,-1.2431371212005615,6.461244106292725,2530.067138671875,0
2031.7970000000005,0.0033079683780670166,-0.02333834208548069,0.0002621955063659698,0.0,0.0,0.0,0.0,-0.0026745987124741077,0.003426267998293042,-0.001227010739967227,0.9982989430427551,0.0,0.0,0.0,-13.964223861694336,-1.2387657165527344,6.447136878967285,2527.55224609375,0
2041.7070000000003,0.0033650437835603952,-0.023374393582344055,0.00025822408497333527,0.0,0.0,0.0,0.0,-0.005991348996758461,0.0012777234660461545,0.0004956266493536532,1.0006420612335205,0.0,0.0,0.0,-13.978715896606445,-1.236620545387268,6.4639892578125,2530.175537109375,0
2051.617,0.0033139418810606003,-0.02333064377307892,0.00025222415570169687,0.0,0.0,0.0,0.0,0.0028709357138723135,0.002467772690579295,-0.004194405395537615,0.997707188129425,0.0,0.0,0.0,-13.964825630187988,-1.2307957410812378,6.449150562286377,2527.661376953125,0
2061.531000000001,0.0033843687269836664,-0.023365648463368416,0.0002506334858480841,0.0,0.0,0.0,0.0,0.001690934062935412,0.0008318708278238773,0.000808004813734442,0.9981603622436523,0.0,0.0,0.0,-13.979652404785156,-1.2364262342453003,6.464672565460205,2530.344970703125,0
2071.4410000000007,0.00333403586409986,-0.023322250694036484,0.00024362298427149653,0.0,0.0,0.0,0.0,-0.002142136450856924,0.0010466697858646512,0.00026048041763715446,0.9996945858001709,0.0,0.0,0.0,-13.965563774108887,-1.2378462553024292,6.440143585205078,2527.794921875,0
2081.349,0.0034396739210933447,-0.023350529372692108,0.0001905964018078521,0.0,0.0,0.0,0.0,-0.0018474108073860407,-0.007293186616152525,0.0007056041504256427,1.0004721879959106,0.0,0.0,0.0,-13.979236602783203,-1.2366024255752563,6.46863317489624,2530.269775390625,0
2091.2660000000014,0.00339000322856009,-0.02330606058239937,0.00017832020239438862,0.0,0.0,0.0,0.0,0.0007707568001933396,-0.00033629449899308383,0.0011925622820854187,0.9996141195297241,0.0,0.0,0.0,-13.96550464630127,-1.2351235151290894,6.466794013977051,2527.783935546875,0
2101.1730000000007,0.003313887631520629,-0.0232537891715765,0.00019527120457496494,0.0,0.0,0.0,0.0,-0.0019598479848355055,0.002260486362501979,-0.0027826677542179823,0.9983083009719849,0.0,0.0,0.0,-13.969082832336426,-1.2287706136703491,6.453816890716553,2528.431640625,0
2111.09,0.003258064389228821,-0.02320760488510132,0.00018565710342954844,0.0,0.0,0.0,0.0,-0.0022699034307152033,-0.0005015550996176898,0.001570576336234808,0.9999510049819946,0.0,0.0,0.0,-13.957419395446777,-1.224326729774475,6.445827960968018,2526.32080078125,0
2120.996000000001,0.003196767531335354,-0.023166455328464508,0.00017649171059019864,0.0,0.0,0.0,0.0,-0.0004772733664140105,-0.003222861560061574,-4.471017746254802e-05,0.9995514750480652,0.0,0.0,0.0,-13.964394569396973,-1.2187062501907349,6.440719127655029,2527.5830078125,0
2130.9080000000013,0.0031356518156826496,-0.023118579760193825,0.00016589320148341358,0.0,0.0,0.0,0.0,-0.003209787653759122,0.001907523488625884,0.00027931336080655456,1.0000563859939575,0.0,0.0,0.0,-13.95078182220459,-1.2156331539154053,6.421127796173096,2525.119140625,0
2140.8250000000007,0.00308701628819108,-0.023090148344635963,0.00013341537851374596,0.0,0.0,0.0,0.0,0.0022536797914654016,0.00013389799278229475,0.003963322378695011,0.9988260865211487,0.0,0.0,0.0,-13.958661079406738,-1.2152568101882935,6.423867225646973,2526.545166015625,0
2150.7390000000014,0.003025264944881201,-0.023039240390062332,0.0001207783498102799,0.0,0.0,0.0,0.0,0.00391529081389308,0.0046346187591552734,0.0007389288512058556,0.9996868371963501,0.0,0.0,0.0,-13.944829940795898,-1.2189816236495972,6.408261299133301,2524.041748046875,0
