timestamp,stateEstimate.x,stateEstimate.y,stateEstimate.z,controller.cmd_thrust,controller.cmd_roll,controller.cmd_pitch,controller.cmd_yaw,controller.r_roll,controller.r_pitch,controller.r_yaw,controller.accelz,controller.actuatorThrust,controller.roll,controller.pitch,controller.yaw,controller.rollRate,controller.pitchRate,controller.yawRate,controller.ctr_yaw
0.0,-9.37839358812198e-05,-4.593584162648767e-05,-7.94122606748715e-05,0.0,0.0,0.0,0.0,0.0033013555221259594,-0.00036911977804265916,-0.0004389241512399167,1.0013716220855713,0.0,0.0,0.0,0.18196767568588257,-2.5509679317474365,4.9763264656066895,-32.93650817871094,0
9.905000000000655,-0.000100128905614838,-1.3752847735304385e-05,-4.873949001193978e-05,0.0,0.0,0.0,0.0,-0.0032062658574432135,0.0019261551788076758,-0.0008621132001280785,1.002119541168213,0.0,0.0,0.0,0.19220858812332153,-2.55680513381958,4.980725288391113,-34.790138244628906,0
19.826999999999316,-0.0001203581559821032,9.672257874626666e-06,-6.663897511316463e-05,0.0,0.0,0.0,0.0,-0.0004891627468168736,0.006611935794353485,0.001689839526079595,1.0024183988571167,0.0,0.0,0.0,0.18243862688541412,-2.5518863201141357,4.972643852233887,-33.02175521850586,0
29.73199999999997,-4.936654295306653e-05,-2.48531923716655e-05,-2.99042985716369e-05,0.0,0.0,0.0,0.0,-0.0027358117513358593,-0.004437365103513002,-0.0003054667904507369,1.000110149383545,0.0,0.0,0.0,0.1895045042037964,-2.549685001373291,4.971557140350342,-34.30069351196289,0
39.64500000000044,-3.542271952028386e-05,2.4333565306733362e-05,-7.712969090789557e-05,0.0,0.0,0.0,0.0,-0.000642382656224072,-0.0014393702149391174,-0.0011331781279295683,1.0013015270233154,0.0,0.0,0.0,0.18032078444957733,-2.5487804412841797,4.971620559692383,-32.638423919677734,0
49.548000000000684,-8.545955643057823e-05,4.079883365193382e-05,-7.173157791839913e-05,0.0,0.0,0.0,0.0,0.00030075208633206785,-0.003034100169315934,0.0016357061685994267,0.9997424483299255,0.0,0.0,0.0,0.18667088449001312,-2.5463430881500244,4.965023040771484,-33.787803649902344,0
59.472999999999956,-7.33619017410092e-05,9.266831330023706e-05,-0.00012329022865742445,0.0,0.0,0.0,0.0,0.0005209867958910763,-0.00030027044704183936,-0.00015878859267104417,1.0004502534866333,0.0,0.0,0.0,0.18617717921733856,-2.5458691120147705,4.963946342468262,-33.69844055175781,0
69.37299999999959,-8.022728434298187e-05,7.422842463711277e-05,-0.0001189364556921646,0.0,0.0,0.0,0.0,-0.0026501230895519257,-0.0006134349387139082,3.782488056458533e-05,1.0003902912139893,0.0,0.0,0.0,0.19535309076309204,-2.5465171337127686,4.96574068069458,-35.35929870605469,0
79.29099999999926,-9.839384438237175e-05,6.028198913554661e-05,-0.0001659335393924266,0.0,0.0,0.0,0.0,0.0011995142558589578,-0.003985780291259289,0.006747799925506115,1.0025310516357422,0.0,0.0,0.0,0.19496352970600128,-2.539250612258911,4.9608964920043945,-35.28878402709961,0
89.1939999999995,-9.273695468436927e-05,5.546601096284576e-05,-0.00015246137627400458,0.0,0.0,0.0,0.0,0.0010060693603008986,0.0031101228669285774,4.539464498520829e-05,1.0020045042037964,0.0,0.0,0.0,0.20643943548202515,-2.5438387393951416,4.959207057952881,-37.36594772338867,0
99.11399999999958,-0.00011604797327890992,3.6067867767997086e-05,-0.00019386905478313565,0.0,0.0,0.0,0.0,0.0013280503917485476,0.00117751385550946,0.0020018969662487507,0.9999650120735168,0.0,0.0,0.0,0.20547395944595337,-2.550050973892212,4.946509838104248,-37.191200256347656,0
109.02100000000064,-0.00010458200995344669,-5.3238754844642244e-06,-0.00019441473705228418,0.0,0.0,0.0,0.0,0.0010638254461809993,-0.0004573131154756993,-0.0003237108758185059,0.9997622966766357,0.0,0.0,0.0,0.20565994083881378,-2.5459492206573486,4.945001602172852,-37.224857330322266,0
118.94200000000092,-9.448663331568241e-05,6.0066726291552186e-05,-0.00024419435067102313,0.0,0.0,0.0,0.0,0.001126689836382866,0.001408502459526062,0.00015698846254963428,0.9974820017814636,0.0,0.0,0.0,0.20567557215690613,-2.5483789443969727,4.940694332122803,-37.227691650390625,0
128.84200000000055,-0.00016031466657295823,0.00012259666982572526,-0.00023791048442944884,0.0,0.0,0.0,0.0,-0.0022415684070438147,0.005104733631014824,-0.003531085094437003,0.9995591640472412,0.0,0.0,0.0,0.2134045958518982,-2.5400407314300537,4.929020404815674,-38.62665557861328,0
138.76000000000022,-0.00019053481810260564,0.00011432624887675047,-0.00027735717594623566,0.0,0.0,0.0,0.0,-0.00021614796423818916,0.002709332387894392,-0.00040237148641608655,1.0031665563583374,0.0,0.0,0.0,0.2075820416212082,-2.545058488845825,4.924587726593018,-37.57276153564453,0
148.66799999999967,-0.00016259575204458088,9.029809734784067e-05,-0.000271208758931607,0.0,0.0,0.0,0.0,-0.0012928841169923544,-0.004445136524736881,-0.0016875265864655375,1.0026581287384033,0.0,0.0,0.0,0.21427284181118011,-2.5433318614959717,4.928321361541748,-38.783809661865234,0
158.59200000000055,-0.00018856326641980559,9.416521788807586e-05,-0.0003102997725363821,0.0,0.0,0.0,0.0,0.0018939749570563436,0.004330043215304613,0.0011065775761380792,1.0013649463653564,0.0,0.0,0.0,0.20424336194992065,-2.5404274463653564,4.939161777496338,-36.96845245361328,0
168.4979999999996,-0.00010496310278540477,7.685775926802307e-05,-0.00027315341867506504,0.0,0.0,0.0,0.0,0.0013495163293555379,0.003076747991144657,-0.0010229144245386124,1.000551462173462,0.0,0.0,0.0,0.21431930363178253,-2.5473408699035645,4.941037654876709,-38.79221725463867,0
178.40300000000025,-0.00017902239051181823,6.357376696541905e-05,-0.00025281254784204066,0.0,0.0,0.0,0.0,0.0024579858873039484,0.0064144316129386425,-0.0013861480401828885,1.000491738319397,0.0,0.0,0.0,0.20685212314128876,-2.544931650161743,4.926180839538574,-37.440643310546875,0
188.3189999999995,-6.653014861512929e-05,5.319578849594109e-05,-0.00019082819926552474,0.0,0.0,0.0,0.0,-0.003244203282520175,0.0005494761862792075,0.0008162176236510277,1.0010223388671875,0.0,0.0,0.0,0.21744905412197113,-2.5495193004608154,4.930421352386475,-39.35871505737305,0
198.23400000000038,-0.00014538639516104013,7.246092991408659e-06,-0.00017136451788246632,0.0,0.0,0.0,0.0,0.0012610751437023282,-0.002268510404974222,0.0008661724859848619,1.0040234327316284,0.0,0.0,0.0,0.2167576551437378,-2.5501723289489746,4.924746036529541,-39.23356628417969,0
208.13999999999942,-6.348569149849936e-05,-2.3575028535560705e-05,-0.00012235679605510086,0.0,0.0,0.0,0.0,-0.0009797440143302083,0.0007885303348302841,-0.002467541955411434,1.0024863481521606,0.0,0.0,0.0,0.2240978330373764,-2.55383563041687,4.940064907073975,-40.56214904785156,0
218.04999999999927,-0.00010451691196067259,-1.4686677786812652e-05,-0.00011589883069973439,0.0,0.0,0.0,0.0,-0.003406777046620846,-0.0018142376793548465,0.00044248049380257726,1.0018235445022583,0.0,0.0,0.0,0.21528102457523346,-2.5446598529815674,4.933067321777344,-38.9662971496582,0
227.95800000000054,-4.017729588667862e-05,-9.149422839982435e-05,-8.893712947610766e-05,0.0,0.0,0.0,0.0,-0.0002982309088110924,0.00040743849240243435,0.00010054336598841473,1.0013405084609985,0.0,0.0,0.0,0.2152354121208191,-2.5433428287506104,4.92730188369751,-38.958038330078125,0
237.8760000000002,-0.00010436028242111206,-8.750628330744803e-05,-6.557675806107e-05,0.0,0.0,0.0,0.0,0.0014038600493222475,0.00013814226258546114,-0.000470265542389825,0.9999485611915588,0.0,0.0,0.0,0.21570657193660736,-2.5371458530426025,4.930541515350342,-39.04331588745117,0
247.79299999999967,-5.57067287445534e-05,-8.792642620392144e-05,-6.926689820829779e-06,0.0,0.0,0.0,0.0,0.0013838674640282989,-0.0017102273413911462,0.0017175510292872787,1.0002796649932861,0.0,0.0,0.0,0.22248883545398712,-2.5370490550994873,4.938490867614746,-40.27092361450195,0
257.6830000000009,-8.253727719420567e-05,-4.6838937123538926e-05,-2.953005605377257e-06,0.0,0.0,0.0,0.0,0.0017000020015984774,0.006576561834663153,0.002866614842787385,1.0015753507614136,0.0,0.0,0.0,0.21453742682933807,-2.5334813594818115,4.935240745544434,-38.83169937133789,0
267.6080000000002,-8.162070298567414e-05,-9.100310853682458e-05,1.5554869605693966e-05,0.0,0.0,0.0,0.0,0.0028846790082752705,0.004953005816787481,-0.002096849028021097,1.0020431280136108,0.0,0.0,0.0,0.22304460406303406,-2.5404655933380127,4.928853988647461,-40.371517181396484,0
277.5110000000004,-5.684597272193059e-05,-2.558041160227731e-05,-3.771045521716587e-05,0.0,0.0,0.0,0.0,0.0012061323504894972,0.0022895345464348793,-0.00142394017893821,0.9991823434829712,0.0,0.0,0.0,0.21235497295856476,-2.5309500694274902,4.926758766174316,-38.43667221069336,0
287.4300000000003,-5.244429121376015e-05,-4.6412682422669604e-05,-1.3260290870675817e-05,0.0,0.0,0.0,0.0,-0.003637459594756365,-0.0036846520379185677,0.0006349569885060191,0.9983906745910645,0.0,0.0,0.0,0.22084099054336548,-2.5385940074920654,4.927055358886719,-39.972660064697266,0
297.3269999999993,-3.375867527211085e-05,3.077437577303499e-05,-6.273045437410474e-05,0.0,0.0,0.0,0.0,0.0011842513922601938,-0.0023812875151634216,-0.00011871830793097615,0.9995404481887817,0.0,0.0,0.0,0.2217235416173935,-2.527784824371338,4.932216644287109,-40.13240051269531,0
307.2459999999992,-3.567218664102256e-05,-4.264597373548895e-05,-7.698799890931696e-05,0.0,0.0,0.0,0.0,-0.0015168159734457731,0.00035693481913767755,-0.002003344940021634,0.9993454217910767,0.0,0.0,0.0,0.2216600626707077,-2.5226855278015137,4.940920352935791,-40.12091064453125,0
317.15600000000086,-3.816459866357036e-05,2.208359001087956e-05,-0.00011399707000236958,0.0,0.0,0.0,0.0,-0.00020874777692370117,0.0005969394696876407,-0.0007733490201644599,1.0013456344604492,0.0,0.0,0.0,0.2203584611415863,-2.5191032886505127,4.927931785583496,-39.88532257080078,0
327.0730000000003,-7.916965842014179e-05,3.933321568183601e-05,-0.00010733676026575267,0.0,0.0,0.0,0.0,-0.0019507522229105234,0.001602285192348063,0.0013833872508257627,1.001641869544983,0.0,0.0,0.0,0.22005364298820496,-2.518374443054199,4.9256486892700195,-39.830142974853516,0
336.97199999999975,-9.041379962582141e-05,8.657559374114498e-05,-0.00014509850007016212,0.0,0.0,0.0,0.0,0.000808433280326426,-0.002190890721976757,-0.0008143757586367428,1.0015991926193237,0.0,0.0,0.0,0.21984221041202545,-2.515486478805542,4.915669918060303,-39.791873931884766,0
346.8909999999996,-8.453601913060993e-05,4.6949629904702306e-05,-0.00015141241601668298,0.0,0.0,0.0,0.0,0.0010665816953405738,-0.0019653195049613714,0.002761007286608219,1.0030268430709839,0.0,0.0,0.0,0.21959912776947021,-2.511249542236328,4.919126510620117,-39.74787902832031,0
356.8019999999997,-9.324101847596467e-05,0.00012128035450587049,-0.00018590575200505555,0.0,0.0,0.0,0.0,-0.0004101321683265269,-0.0016853275010362267,0.0004619950195774436,1.0008213520050049,0.0,0.0,0.0,0.21433556079864502,-2.4998977184295654,4.9237823486328125,-38.795162200927734,0
366.72899999999936,-8.80083825904876e-05,9.913426038110629e-05,-0.0001837705058278516,0.0,0.0,0.0,0.0,-0.0019426915096119046,-0.0017940930556505919,0.00038894356111995876,0.9996105432510376,0.0,0.0,0.0,0.220954030752182,-2.5089595317840576,4.929976940155029,-39.99312210083008,0
376.6170000000002,-0.0001289180072490126,0.00010471460700500757,-0.00020788902475032955,0.0,0.0,0.0,0.0,-0.00019533198792487383,-0.002482046140357852,-0.002100801095366478,1.0015978813171387,0.0,0.0,0.0,0.21381865441799164,-2.5081658363342285,4.935226917266846,-38.701602935791016,0
386.5400000000009,-9.919532749336213e-05,9.512402175460011e-05,-0.00019096228061243892,0.0,0.0,0.0,0.0,-0.0007848659297451377,-0.002634427510201931,0.0019279038533568382,1.001689076423645,0.0,0.0,0.0,0.22056959569454193,-2.507087469100952,4.941066741943359,-39.92353439331055,0
396.4410000000007,-0.0001833489804994315,6.858428241685033e-05,-0.00017404196842107922,0.0,0.0,0.0,0.0,-0.0018810939509421587,0.0009262975072488189,0.0011711412807926536,1.0001003742218018,0.0,0.0,0.0,0.2201301008462906,-2.4989089965820312,4.944930553436279,-39.84398651123047,0
406.366,-0.00013464174116961658,2.2710963094141334e-05,-0.00016426124784629792,0.0,0.0,0.0,0.0,0.003912866115570068,-0.0005023853154852986,-0.0008501890697516501,0.9986029863357544,0.0,0.0,0.0,0.2198614925146103,-2.4936165809631348,4.929260730743408,-39.79536437988281,0
416.2620000000006,-0.00020057850633747876,2.5177532734232955e-05,-0.00015614231233485043,0.0,0.0,0.0,0.0,-0.0010545034892857075,0.0011909683234989643,-0.0004252426151651889,1.0006787776947021,0.0,0.0,0.0,0.2205931544303894,-2.4911868572235107,4.923675537109375,-39.927799224853516,0
426.1849999999995,-0.00013537410995922983,-5.3393370762933046e-05,-0.00015671721484977752,0.0,0.0,0.0,0.0,-0.0021792110055685043,-0.001427417271770537,0.0013102637603878975,0.9990297555923462,0.0,0.0,0.0,0.21969595551490784,-2.4854378700256348,4.9199700355529785,-39.765403747558594,0
436.08599999999933,-0.00021954663679935038,-3.760235631489195e-05,-0.00012134385178796947,0.0,0.0,0.0,0.0,-0.0009301027748733759,-0.0010483923833817244,0.0031768602784723043,0.9987103939056396,0.0,0.0,0.0,0.21933196485042572,-2.475102663040161,4.925173282623291,-39.699520111083984,0
446.01300000000083,-9.283830877393484e-05,-9.261438390240073e-05,-7.876039308030158e-05,0.0,0.0,0.0,0.0,-0.0013221066910773516,0.004712618887424469,-0.0032626420725136995,0.9982700943946838,0.0,0.0,0.0,0.21986877918243408,-2.471625804901123,4.921004295349121,-39.796688079833984,0
455.90699999999924,-0.000175663924892433,-0.0001130101882154122,-5.412234895629808e-05,0.0,0.0,0.0,0.0,-0.001589649822562933,0.0040109786204993725,-0.003518051467835903,0.9975757002830505,0.0,0.0,0.0,0.21882443130016327,-2.466918468475342,4.912231922149658,-39.60765838623047,0
465.8259999999991,-0.00013747595949098468,-0.00010012384882429615,-1.542828613310121e-05,0.0,0.0,0.0,0.0,-0.0012865852331742644,-0.0026791917625814676,-0.002638221485540271,0.9976280927658081,0.0,0.0,0.0,0.2190239429473877,-2.464124917984009,4.8949432373046875,-39.643768310546875,0
475.72899999999936,-0.00014203728642314672,-2.4125001800712198e-05,-4.93538063892629e-05,0.0,0.0,0.0,0.0,0.0003304099082015455,0.002384752966463566,0.0011177563574165106,1.0009559392929077,0.0,0.0,0.0,0.20926550030708313,-2.4541327953338623,4.902369022369385,-37.877471923828125,0
485.65500000000065,-0.0001175568177131936,-2.4560964448028244e-05,-2.9276088753249496e-05,0.0,0.0,0.0,0.0,-0.0004689261259045452,-0.00322677637450397,0.000654689793009311,1.0019947290420532,0.0,0.0,0.0,0.21889369189739227,-2.4534106254577637,4.911740303039551,-39.62019348144531,0
495.5550000000003,-0.00010338789434172213,2.688972745090723e-05,-9.658680210122839e-05,0.0,0.0,0.0,0.0,0.0025360691361129284,0.0009941684547811747,0.000291708653094247,1.000282883644104,0.0,0.0,0.0,0.21876077353954315,-2.4483981132507324,4.911464691162109,-39.596134185791016,0
505.47199999999975,-7.000510231591761e-05,-1.7830579963629134e-05,-9.803594730328768e-05,0.0,0.0,0.0,0.0,-1.5181683465925744e-06,0.0010359040461480618,-0.0005388305871747434,1.0012582540512085,0.0,0.0,0.0,0.2284225970506668,-2.456679582595825,4.923845291137695,-41.344947814941406,0
515.3729999999996,-4.4252024963498116e-05,9.22843100852333e-05,-0.00015844410518184304,0.0,0.0,0.0,0.0,0.0008026676368899643,0.0015869346680119634,-0.0009643502999097109,1.0014821290969849,0.0,0.0,0.0,0.22031088173389435,-2.445225477218628,4.9278998374938965,-39.876708984375,0
525.2960000000003,-5.5335935030598193e-05,0.00010346391354687512,-0.00015723543765489012,0.0,0.0,0.0,0.0,0.0030105006881058216,-0.0005597698618657887,0.0017170916544273496,1.0018717050552368,0.0,0.0,0.0,0.2265702784061432,-2.44940447807312,4.920604705810547,-41.00967025756836,0
535.1959999999999,-0.00014146706962492317,7.439707405865192e-05,-0.00013597987708635628,0.0,0.0,0.0,0.0,0.0013308146735653281,0.0036668607499450445,0.002632975112646818,1.002373456954956,0.0,0.0,0.0,0.21745924651622772,-2.458510160446167,4.91483736038208,-39.360557556152344,0
545.1149999999998,-8.970632188720629e-05,6.575031147804111e-05,-0.00010735969408415258,0.0,0.0,0.0,0.0,0.0010401682229712605,0.0007380397873930633,0.004374781623482704,1.002794861793518,0.0,0.0,0.0,0.22523406147956848,-2.4641740322113037,4.926154136657715,-40.76781463623047,0
555.018,-0.00015188043471425772,7.022792124189436e-05,-9.489859075983986e-05,0.0,0.0,0.0,0.0,-0.0008061291300691664,0.002061489736661315,-0.0015355425421148539,1.0024397373199463,0.0,0.0,0.0,0.21439093351364136,-2.4639787673950195,4.914949417114258,-38.8051872253418,0
564.9410000000007,-0.00012595695443451405,4.1552983020665124e-05,-7.988411380210891e-05,0.0,0.0,0.0,0.0,-0.001498768455348909,0.006613216362893581,0.00178900349419564,1.0023994445800781,0.0,0.0,0.0,0.22717730700969696,-2.4731998443603516,4.923579692840576,-41.119544982910156,0
574.8400000000001,-0.00019289205374661833,1.8657105101738125e-05,-7.210351759567857e-05,0.0,0.0,0.0,0.0,-0.0031801003497093916,-0.004193410277366638,0.00133201340213418,0.9991816878318787,0.0,0.0,0.0,0.22650881111621857,-2.4592559337615967,4.915378093719482,-40.99855041503906,0
584.7579999999998,-0.00015129307575989515,6.36862387182191e-06,-3.610997737268917e-05,0.0,0.0,0.0,0.0,0.001123956055380404,0.002151935128495097,0.0007830833201296628,1.0008165836334229,0.0,0.0,0.0,0.2362241894006729,-2.4637391567230225,4.920342922210693,-42.757049560546875,0
594.6659999999993,-8.031674951780587e-05,-3.348513200762682e-05,-3.154624573653564e-05,0.0,0.0,0.0,0.0,0.0008706205990165472,-0.0018262378871440887,0.0005525348824448884,0.9977982640266418,0.0,0.0,0.0,0.23556073009967804,-2.46506667137146,4.918200969696045,-42.636962890625,0
604.5830000000005,-0.0001299198338529095,-1.142937435361091e-05,-1.502341910963878e-05,0.0,0.0,0.0,0.0,-0.002682411577552557,-0.0024718758650124073,0.0005728330579586327,1.0010567903518677,0.0,0.0,0.0,0.23546771705150604,-2.4661967754364014,4.915536403656006,-42.62012481689453,0
614.4940000000006,-0.0001563066034577787,2.91099331661826e-05,-3.095911961281672e-05,0.0,0.0,0.0,0.0,-0.002486936515197158,0.004031226970255375,-0.0007100972579792142,1.0012534856796265,0.0,0.0,0.0,0.22444915771484375,-2.4532570838928223,4.929049968719482,-40.6257438659668,0
624.4040000000005,-0.00012972611875738949,3.1223880796460435e-06,-1.0215917427558452e-05,0.0,0.0,0.0,0.0,-0.0006649292772635818,0.0021096505224704742,0.00042329091229476035,1.0012859106063843,0.0,0.0,0.0,0.23077063262462616,-2.4583144187927246,4.9314866065979,-41.76994323730469,0
634.3080000000009,-7.732278027106076e-05,-1.3234824109531473e-05,-9.917727766151074e-06,0.0,0.0,0.0,0.0,0.0010704727610573173,-0.001060117152519524,0.002529445104300976,1.0009121894836426,0.0,0.0,0.0,0.22558078169822693,-2.456634998321533,4.938974857330322,-40.830570220947266,0
644.2289999999994,-0.00012636135215871036,9.899072210828308e-06,6.10998449701583e-06,0.0,0.0,0.0,0.0,-0.0010037347674369812,0.00033066316973418,0.0010980741353705525,0.9994750022888184,0.0,0.0,0.0,0.22560110688209534,-2.4540483951568604,4.9354681968688965,-40.83424758911133,0
654.1319999999996,-7.697015098528937e-05,-3.1547024264000356e-05,9.271966519008856e-06,0.0,0.0,0.0,0.0,0.004330435302108526,0.007195981219410896,-0.0014268154045566916,0.9993495941162109,0.0,0.0,0.0,0.2326888144016266,-2.459362745285034,4.945313453674316,-42.11713790893555,0
664.0519999999997,-0.0001260517310583964,-8.467164661851712e-06,2.4666671379236504e-05,0.0,0.0,0.0,0.0,0.00303310202434659,0.0007180455722846091,0.00031557498732581735,1.001704216003418,0.0,0.0,0.0,0.23326194286346436,-2.4618241786956787,4.930839538574219,-42.22087478637695,0
673.9570000000003,-3.602011929615401e-05,-5.833957766299136e-05,4.033844743389636e-05,0.0,0.0,0.0,0.0,0.0034152374137192965,0.0014650141820311546,-0.00042196622234769166,1.0014289617538452,0.0,0.0,0.0,0.23226182162761688,-2.466998815536499,4.9205546379089355,-42.039852142333984,0
683.8680000000004,-8.231293759308755e-05,-3.616520552895963e-05,5.718729516956955e-05,0.0,0.0,0.0,0.0,0.002568415831774473,0.004480291157960892,-0.0025223938282579184,1.0020403861999512,0.0,0.0,0.0,0.23303702473640442,-2.4642679691314697,4.9151387214660645,-42.18016815185547,0
693.7759999999998,1.9679033357533626e-05,-1.4931933947082143e-05,-1.9424947822699323e-05,0.0,0.0,0.0,0.0,0.000359909055987373,-0.0027882265858352184,0.002765497425571084,1.0018459558486938,0.0,0.0,0.0,0.2406425178050995,-2.4827358722686768,4.919702053070068,-43.5567741394043,0
703.6869999999999,-2.035402758338023e-05,8.625213922641706e-06,-6.4357918745372444e-06,0.0,0.0,0.0,0.0,-0.0001356268476229161,0.001004280406050384,0.0005629339721053839,1.00019371509552,0.0,0.0,0.0,0.2406274378299713,-2.4847326278686523,4.913378715515137,-43.55404281616211,0
713.6049999999996,-2.60855995293241e-05,-1.79490634764079e-05,-6.458551797550172e-05,0.0,0.0,0.0,0.0,-0.0009637800976634026,0.0054795765317976475,-0.004798249341547489,1.0008375644683838,0.0,0.0,0.0,0.23131947219371796,-2.4787728786468506,4.913569927215576,-41.86928176879883,0
723.5149999999994,-6.57634373055771e-05,4.372272087493911e-06,-5.506146408151835e-05,0.0,0.0,0.0,0.0,-0.001100237132050097,-0.000670667621307075,0.0005915401270613074,0.9996197819709778,0.0,0.0,0.0,0.23033122718334198,-2.4731905460357666,4.895556449890137,-41.69041442871094,0
733.4200000000001,-7.440324407070875e-05,-1.2280954251764342e-05,-3.97094881918747e-05,0.0,0.0,0.0,0.0,-0.002614907454699278,-0.0027269748970866203,0.003048359416425228,1.0001599788665771,0.0,0.0,0.0,0.22968052327632904,-2.470252513885498,4.893183708190918,-41.572628021240234,0
743.3410000000003,-0.00011557876860024408,8.458287993562408e-06,-2.909369140979834e-05,0.0,0.0,0.0,0.0,-0.0016229678876698017,0.0013508254196494818,-0.0006518089794553816,1.001115083694458,0.0,0.0,0.0,0.23046782612800598,-2.466449022293091,4.899341583251953,-41.71513748168945,0
753.2479999999996,-8.453642658423632e-05,-2.7189689717488363e-05,-3.343879507156089e-05,0.0,0.0,0.0,0.0,-0.0008429065928794444,0.0005412980099208653,0.002463296055793762,1.0000879764556885,0.0,0.0,0.0,0.22983849048614502,-2.459962844848633,4.898322105407715,-41.601226806640625,0
763.1599999999999,-0.0001257139228982851,-4.3224772525718436e-06,-2.3325505026150495e-05,0.0,0.0,0.0,0.0,-0.001517031341791153,-0.0035531523171812296,-0.0035203821025788784,0.9985712766647339,0.0,0.0,0.0,0.22888831794261932,-2.455716371536255,4.890516757965088,-41.42924118041992,0
773.0660000000007,-3.144478250760585e-05,-3.7055804568808526e-05,-3.869122519972734e-05,0.0,0.0,0.0,0.0,-0.0007998174405656755,3.124525028397329e-05,-0.00022270849149208516,1.0000866651535034,0.0,0.0,0.0,0.21708594262599945,-2.4472808837890625,4.889702320098877,-39.292991638183594,0
782.9799999999996,-7.192985503934324e-05,-1.4174922398524359e-05,-3.158657273161225e-05,0.0,0.0,0.0,0.0,0.0012102676555514336,0.0012879521818831563,-0.0003374521038495004,1.0022046566009521,0.0,0.0,0.0,0.2166207879781723,-2.4368369579315186,4.891108512878418,-39.20879364013672,0
792.8889999999992,-6.60721561871469e-05,-4.5625864004250616e-05,-4.972638635081239e-05,0.0,0.0,0.0,0.0,-0.002839647699147463,0.003693329868838191,-0.0025248778983950615,1.001268982887268,0.0,0.0,0.0,0.2079407274723053,-2.4336159229278564,4.8935699462890625,-37.6376838684082,0
802.8109999999997,-0.00010587269207462668,-2.1750322048319504e-05,-4.2602350731613114e-05,0.0,0.0,0.0,0.0,0.0042445966973900795,0.0014217267744243145,-0.0028495003934949636,1.0010149478912354,0.0,0.0,0.0,0.2074897289276123,-2.4324347972869873,4.8779497146606445,-37.556053161621094,0
812.7170000000006,-7.54201682866551e-05,-1.9160734154866077e-05,-4.88659024995286e-05,0.0,0.0,0.0,0.0,0.0018022045260295272,0.0029385420493781567,-0.002014442812651396,1.0008150339126587,0.0,0.0,0.0,0.20997396111488342,-2.441239833831787,4.876543998718262,-38.005706787109375,0
822.6389999999992,-0.0001085929834516719,-2.105358726112172e-05,-6.35979522485286e-05,0.0,0.0,0.0,0.0,0.0013842431362718344,0.004268909804522991,0.002281628316268325,0.999987781047821,0.0,0.0,0.0,0.20864981412887573,-2.4433937072753906,4.861853122711182,-37.76603317260742,0
832.5360000000001,-7.926135731395334e-05,-4.0378385165240616e-05,-5.526745007955469e-05,0.0,0.0,0.0,0.0,0.0035863807424902916,-0.0013735268730670214,0.0013644242426380515,1.0006780624389648,0.0,0.0,0.0,0.21844305098056793,-2.4570095539093018,4.86165189743042,-39.53862762451172,0
842.4549999999999,-7.358330913120881e-05,-9.331472028861754e-06,-0.00010797559662023559,0.0,0.0,0.0,0.0,0.00607716990634799,0.0020093675702810287,0.007019199896603823,1.0010161399841309,0.0,0.0,0.0,0.21811360120773315,-2.4595601558685303,4.8607177734375,-39.4789924621582,0
852.3529999999992,-1.707386581983883e-05,-7.103551615728065e-05,-0.0001110450757551007,0.0,0.0,0.0,0.0,-0.0019647167064249516,0.001692444202490151,-0.0013080484932288527,1.0007295608520508,0.0,0.0,0.0,0.21809056401252747,-2.4651501178741455,4.849491119384766,-39.47482681274414,0
862.2729999999992,1.4480407344308333e-06,1.238473578268895e-05,-0.00015544785128440708,0.0,0.0,0.0,0.0,-0.0021441644057631493,-0.004970083478838205,0.007115738466382027,1.0021072626113892,0.0,0.0,0.0,0.21741163730621338,-2.4595179557800293,4.838715553283691,-39.35193634033203,0
872.1849999999995,-3.505656059132889e-05,1.2124287422921043e-05,-0.00017020225641317666,0.0,0.0,0.0,0.0,-0.0005794049357064068,0.005011610686779022,0.003816105891019106,0.9999602437019348,0.0,0.0,0.0,0.21813900768756866,-2.457606315612793,4.84380578994751,-39.48359298706055,0
882.1029999999992,-5.289370619721012e-06,8.449700544588268e-05,-0.00023777736350893974,0.0,0.0,0.0,0.0,0.0035292194224894047,0.0008942281128838658,0.0016970029100775719,0.9999164342880249,0.0,0.0,0.0,0.21818885207176208,-2.4480974674224854,4.829836368560791,-39.49261474609375,0
891.9979999999996,4.278028791304678e-05,2.9966009606141597e-05,-0.0002472839842084795,0.0,0.0,0.0,0.0,-0.0004537169588729739,0.006854979321360588,-0.004142036195844412,0.9998365640640259,0.0,0.0,0.0,0.21758981049060822,-2.4570202827453613,4.817878246307373,-39.384185791015625,0
901.9220000000005,-5.465357389766723e-05,-1.6128202332765795e-05,-0.0002131286746589467,0.0,0.0,0.0,0.0,-0.0014200666919350624,0.006728394888341427,-0.0008168063941411674,1.0003602504730225,0.0,0.0,0.0,0.21753188967704773,-2.4481914043426514,4.801583290100098,-39.37370300292969,0
911.8320000000003,-6.243052484933287e-05,2.3742295525153168e-05,-0.00020116163068450987,0.0,0.0,0.0,0.0,0.002638413105159998,-0.0023020259104669094,0.004261750262230635,0.9996784925460815,0.0,0.0,0.0,0.2228519469499588,-2.44694185256958,4.792534351348877,-40.336647033691406,0
921.7459999999992,-0.00013625528663396835,-1.3766383517577196e-06,-0.00018708605784922838,0.0,0.0,0.0,0.0,-0.0007525967084802687,-0.004498847294598818,0.0006532963016070426,1.000746488571167,0.0,0.0,0.0,0.22387011349201202,-2.4476873874664307,4.783048152923584,-40.52093505859375,0
931.643,-9.247256457456388e-06,-5.8710225857794285e-05,-0.00015960038581397384,0.0,0.0,0.0,0.0,-0.00011943612480536103,-0.0008906663279049098,-0.0007894348818808794,1.0009431838989258,0.0,0.0,0.0,0.2243032455444336,-2.44219708442688,4.78419828414917,-40.599334716796875,0
941.5650000000005,-0.00010562886745901778,-6.877213309053332e-05,-0.00010904658847721294,0.0,0.0,0.0,0.0,0.0022911098785698414,8.325494491145946e-06,0.0015948910731822252,0.9998608231544495,0.0,0.0,0.0,0.22443252801895142,-2.4422805309295654,4.781747341156006,-40.62273406982422,0
951.4750000000004,-2.1436497263493948e-05,-7.075124449329451e-05,-6.479775038314983e-05,0.0,0.0,0.0,0.0,0.0004132695612497628,0.00404592277482152,-0.003545955754816532,0.9988517761230469,0.0,0.0,0.0,0.22429051995277405,-2.441984176635742,4.775189399719238,-40.59703063964844,0
961.3880000000008,-5.287945896270685e-05,-4.54318433185108e-05,-7.253626245073974e-05,0.0,0.0,0.0,0.0,0.0013773493701592088,-0.003654995933175087,-0.0001235582458321005,0.9990174770355225,0.0,0.0,0.0,0.22402995824813843,-2.438338279724121,4.7677483558654785,-40.549869537353516,0
971.2929999999997,-5.645110650220886e-05,-5.8188397815683857e-05,-6.678098725387827e-05,0.0,0.0,0.0,0.0,0.001188402296975255,0.002592579461634159,-0.0012322751572355628,1.000917911529541,0.0,0.0,0.0,0.2241308093070984,-2.4331767559051514,4.77114725112915,-40.56812286376953,0
981.2180000000008,-5.455237624119036e-05,-2.6101473849848844e-05,-0.00011846269626403227,0.0,0.0,0.0,0.0,-0.0003174439480062574,-0.0014146207831799984,0.0031427708454430103,1.0012449026107788,0.0,0.0,0.0,0.2226203978061676,-2.4306111335754395,4.7592997550964355,-40.29473876953125,0
991.1090000000004,-4.3382551666582e-05,-3.993770224042237e-05,-0.00011227880168007687,0.0,0.0,0.0,0.0,-0.0013490552082657814,-0.005403516348451376,0.0006603693473152816,0.9998065829277039,0.0,0.0,0.0,0.22324903309345245,-2.424098253250122,4.755646705627441,-40.40851593017578,0
1001.0310000000009,-2.8711556296912022e-05,4.282096415408887e-05,-0.00016326282639056444,0.0,0.0,0.0,0.0,-0.0013011994305998087,0.0029745977371931076,0.0016451958799734712,1.0004074573516846,0.0,0.0,0.0,0.22345826029777527,-2.4188826084136963,4.766222953796387,-40.446388244628906,0
1010.9339999999993,-7.325147453229874e-05,7.507059490308166e-05,-0.0001628248137421906,0.0,0.0,0.0,0.0,-9.916906128637493e-05,-0.0004707230837084353,0.0004596179351210594,1.0005793571472168,0.0,0.0,0.0,0.22300219535827637,-2.4171814918518066,4.7646403312683105,-40.36384201049805,0
1020.8549999999996,-8.723984501557425e-05,0.00010966211266350001,-0.00019649382738862187,0.0,0.0,0.0,0.0,0.00013469409896060824,0.0006336590158753097,0.0025735911913216114,0.9992165565490723,0.0,0.0,0.0,0.2238892912864685,-2.412461280822754,4.764845371246338,-40.5244026184082,0
1030.7549999999992,-2.3340713596553542e-05,6.871542427688837e-05,-0.00017649585788603872,0.0,0.0,0.0,0.0,-0.0003794489603023976,-0.0015879031270742416,0.004390066489577293,0.9981036186218262,0.0,0.0,0.0,0.23051604628562927,-2.427560567855835,4.787247657775879,-41.72386169433594,0
1040.6749999999993,-5.755207530455664e-05,7.869108230806887e-05,-0.00020479009253904223,0.0,0.0,0.0,0.0,0.0007667517056688666,-0.0023992988280951977,0.002400251105427742,0.9994363784790039,0.0,0.0,0.0,0.2215196192264557,-2.4284393787384033,4.781178951263428,-40.095489501953125,0
1050.5810000000001,-4.263920709490776e-05,5.789711940451525e-05,-0.0002071719354717061,0.0,0.0,0.0,0.0,-0.0019502113573253155,0.0008598079439252615,-0.0023763386998325586,1.00063157081604,0.0,0.0,0.0,0.22979386150836945,-2.4388749599456787,4.79071569442749,-41.59314727783203,0
1060.4989999999998,-0.00012999204045627266,1.8214977899333462e-05,-0.0001960572844836861,0.0,0.0,0.0,0.0,0.002704969374462962,0.0031240584794431925,5.8663499657996e-05,1.000412106513977,0.0,0.0,0.0,0.22899243235588074,-2.4321069717407227,4.792512893676758,-41.44808578491211,0
1070.3989999999994,-3.3677410101518035e-05,-1.1396317859180272e-05,-0.0001664893643464893,0.0,0.0,0.0,0.0,-0.000658907403703779,1.6100910215754993e-05,0.001656500855460763,1.001636266708374,0.0,0.0,0.0,0.22985053062438965,-2.4288246631622314,4.779860496520996,-41.60340881347656,0
1080.3179999999993,-0.00011852085299324244,-3.8485395634779707e-05,-0.0001462950895074755,0.0,0.0,0.0,0.0,-0.0031113377772271633,0.0019805212505161762,0.002604851732030511,1.0000580549240112,0.0,0.0,0.0,0.23003113269805908,-2.422834873199463,4.773211479187012,-41.6360969543457,0
1090.2219999999998,-9.842412691796198e-05,-4.8121539293788373e-05,-0.00013299666170496494,0.0,0.0,0.0,0.0,6.590157863683999e-05,0.0002888285380322486,-8.347342372871935e-05,0.9987369179725647,0.0,0.0,0.0,0.22993817925453186,-2.4169089794158936,4.7651753425598145,-41.619266510009766,0
1100.1470000000008,-0.0001390103716403246,-9.519190825812984e-06,-0.00013832811964675784,0.0,0.0,0.0,0.0,-0.003587314859032631,-0.0018830148037523031,0.0028667128644883633,0.9991713166236877,0.0,0.0,0.0,0.21884967386722565,-2.4126179218292236,4.756199359893799,-39.61222839355469,0
1110.0419999999995,-5.009845699532889e-05,-3.984177237725817e-05,-0.00011209782678633928,0.0,0.0,0.0,0.0,0.003198352875187993,0.001576616195961833,0.001134743564762175,1.0001057386398315,0.0,0.0,0.0,0.21946051716804504,-2.407658576965332,4.758209228515625,-39.72279357910156,0
1119.9599999999991,-9.008607594296336e-05,-5.305307695380179e-06,-0.00011942612036364153,0.0,0.0,0.0,0.0,-0.0008075391524471343,-0.000909553375095129,-0.0006759396637789905,1.0004969835281372,0.0,0.0,0.0,0.21141594648361206,-2.4053571224212646,4.75435209274292,-38.26670837402344,0
1129.8649999999998,-6.334024510579184e-05,1.3961422155261971e-05,-9.46161599131301e-05,0.0,0.0,0.0,0.0,0.0024894161615520716,0.0004546447307802737,-0.002560506807640195,1.0006693601608276,0.0,0.0,0.0,0.21864087879657745,-2.407135009765625,4.761927127838135,-39.574432373046875,0
1139.7890000000007,-0.00012802224955521524,4.45422017492092e-07,-9.297484939452261e-05,0.0,0.0,0.0,0.0,-0.0005278728203848004,-0.0034444245975464582,0.00222557270899415,1.0012954473495483,0.0,0.0,0.0,0.2178218811750412,-2.4122323989868164,4.749783039093018,-39.42619323730469,0
1149.687,-4.9185917305294424e-05,-2.5456984076299705e-05,-6.482422759290785e-05,0.0,0.0,0.0,0.0,-0.0002940775011666119,0.0004669020709116012,0.0014439185615628958,1.00147545337677,0.0,0.0,0.0,0.21908675134181976,-2.41015625,4.7471723556518555,-39.6551399230957,0
1159.6139999999996,-9.543211490381509e-05,-7.234256713672949e-07,-6.779703835491091e-05,0.0,0.0,0.0,0.0,-0.00023520251852460206,0.003218052675947547,-0.0033179926685988903,1.0001879930496216,0.0,0.0,0.0,0.20865513384342194,-2.4096293449401855,4.748398303985596,-37.766990661621094,0
1169.5130000000008,-3.813336661551148e-05,-3.204456879757345e-05,-4.6700413804501295e-05,0.0,0.0,0.0,0.0,-0.00015637798060197383,0.0018063475145027041,-0.00030720463837496936,0.9985038042068481,0.0,0.0,0.0,0.2076122760772705,-2.4099202156066895,4.739867687225342,-37.5782356262207,0
1179.4310000000005,-9.776533261174336e-05,-4.2651197873055935e-05,-4.5596243580803275e-05,0.0,0.0,0.0,0.0,-0.0011960327392444015,-0.006336321588605642,0.003380823414772749,1.0013431310653687,0.0,0.0,0.0,0.2068282514810562,-2.407728672027588,4.719551086425781,-37.43632507324219,0
1189.339,-5.804036482004449e-05,-8.876924403011799e-05,-3.626203033491038e-05,0.0,0.0,0.0,0.0,-0.002852994715794921,0.0002444347774144262,0.0021671403665095568,1.0021213293075562,0.0,0.0,0.0,0.21503762900829315,-2.413506269454956,4.744692802429199,-38.922237396240234,0
1199.2559999999994,-9.752951154951006e-05,-5.859508746652864e-05,-4.575533966999501e-05,0.0,0.0,0.0,0.0,0.0034791361540555954,0.0040456559509038925,-0.005121637601405382,1.0017063617706299,0.0,0.0,0.0,0.2156001478433609,-2.411276340484619,4.732530117034912,-39.0240592956543,0
1209.1599999999999,-7.525787077611312e-05,-9.147688979282975e-05,-3.478466533124447e-05,0.0,0.0,0.0,0.0,0.0026717649307101965,-0.0045226640067994595,0.0015936142299324274,0.9990414381027222,0.0,0.0,0.0,0.21456465125083923,-2.4138498306274414,4.722293853759766,-38.83662414550781,0
1219.0830000000005,-4.6098793973214924e-05,1.5102054021554068e-05,-9.708842844702303e-05,0.0,0.0,0.0,0.0,-0.001414404483512044,0.0036319601349532604,-0.001493998453952372,1.0013525485992432,0.0,0.0,0.0,0.21527397632598877,-2.405933380126953,4.712822914123535,-38.96501922607422,0
1228.9789999999994,8.625930604466703e-06,-1.7787930119084194e-05,-7.90476260590367e-05,0.0,0.0,0.0,0.0,0.002389779081568122,0.0010761654702946544,0.001440677559003234,1.0007524490356445,0.0,0.0,0.0,0.22263161838054657,-2.4209859371185303,4.719110488891602,-40.2967643737793,0
1238.8950000000004,-5.151468576514162e-05,-2.055003642453812e-05,-8.147423795890063e-05,0.0,0.0,0.0,0.0,-0.0018286093836650252,-0.0031912093982100487,-0.00033666339004412293,1.0019433498382568,0.0,0.0,0.0,0.22220923006534576,-2.4219133853912354,4.713450908660889,-40.220314025878906,0
1248.8060000000005,3.5660100365930703e-06,-4.52378808404319e-05,-5.5047625210136175e-05,0.0,0.0,0.0,0.0,-0.0015842869179323316,0.0019648196175694466,-0.0036480859853327274,1.0021268129348755,0.0,0.0,0.0,0.22257700562477112,-2.4202916622161865,4.717229843139648,-40.28688049316406,0
1258.7250000000004,-4.317877392168157e-05,-1.554568370920606e-06,-5.1237457228126004e-05,0.0,0.0,0.0,0.0,0.0021744605619460344,0.0027583888731896877,-0.004809175152331591,1.002137541770935,0.0,0.0,0.0,0.21153317391872406,-2.4150502681732178,4.711165428161621,-38.287925720214844,0
1268.625,-7.23277116776444e-05,-1.9309109120513313e-05,-5.4965217714197934e-05,0.0,0.0,0.0,0.0,-0.0036052262876182795,0.00447082007303834,0.00026504709967412055,1.0016742944717407,0.0,0.0,0.0,0.21074217557907104,-2.411407947540283,4.686712741851807,-38.144752502441406,0
1278.5460000000003,-0.00013826609938405454,-5.517493627849035e-05,-5.744444570154883e-05,0.0,0.0,0.0,0.0,0.003136132378131151,0.0008837525965645909,0.00028203995316289365,0.9993412494659424,0.0,0.0,0.0,0.19787058234214783,-2.4150757789611816,4.6715168952941895,-35.814971923828125,0
1288.4529999999995,-4.808658923138864e-05,-0.00011291984264971688,-2.5067081878660247e-05,0.0,0.0,0.0,0.0,0.0009355517104268074,0.0022723155561834574,-0.0013209659373387694,1.0004361867904663,0.0,0.0,0.0,0.19661256670951843,-2.423382043838501,4.659139156341553,-35.5872688293457,0
1298.3690000000006,-8.830913429846987e-05,-8.138669363688678e-05,-3.007314990099985e-05,0.0,0.0,0.0,0.0,-0.0013520591892302036,0.0025930663105100393,-3.687469143187627e-05,0.9987372756004333,0.0,0.0,0.0,0.1973249763250351,-2.4233083724975586,4.647043704986572,-35.716209411621094,0
1308.2669999999998,-7.763888424960896e-05,-0.00010204655700363219,-1.6862766642589122e-05,0.0,0.0,0.0,0.0,0.0024780689273029566,-0.003755571087822318,0.001188232796266675,1.0001137256622314,0.0,0.0,0.0,0.19652090966701508,-2.419621467590332,4.637906551361084,-35.5706787109375,0
1318.1890000000003,-8.961244748206809e-05,-2.3407998014590703e-05,-3.93464979424607e-05,0.0,0.0,0.0,0.0,0.0006514021079055965,0.005988265387713909,-0.0022544064559042454,1.0014679431915283,0.0,0.0,0.0,0.187067911028862,-2.4098563194274902,4.641586780548096,-33.85966110229492,0
1328.0959999999995,-2.053174284810666e-05,-8.604114555055276e-05,-2.576666338427458e-05,0.0,0.0,0.0,0.0,-0.001414465717971325,-0.002666083164513111,-0.0015190491685643792,0.9998764395713806,0.0,0.0,0.0,0.18807707726955414,-2.412625551223755,4.633834362030029,-34.042327880859375,0
1338.0139999999992,-5.7644057960715145e-05,-5.887156294193119e-05,-3.9546801417600363e-05,0.0,0.0,0.0,0.0,0.00032937858486548066,0.004910566844046116,-0.0006273352191783488,0.9986389875411987,0.0,0.0,0.0,0.18741834163665771,-2.409670352935791,4.627556324005127,-33.923091888427734,0
1347.9150000000009,-1.0724226740421727e-05,-6.609382398892194e-05,-9.78440948529169e-06,0.0,0.0,0.0,0.0,0.0030726203694939613,-0.00033249036641791463,-0.0025349240750074387,1.0007857084274292,0.0,0.0,0.0,0.1938120275735855,-2.4215898513793945,4.626314640045166,-35.08036422729492,0
1357.8379999999997,-1.412865640304517e-05,-2.273211612191517e-05,-6.069396113161929e-05,0.0,0.0,0.0,0.0,0.001400968641974032,0.0017028232105076313,0.005516478791832924,0.999900221824646,0.0,0.0,0.0,0.19249007105827332,-2.418569564819336,4.616621971130371,-34.841087341308594,0
1367.7330000000002,-1.0769902473839466e-05,-7.727523188805208e-05,-7.363426266238093e-05,0.0,0.0,0.0,0.0,0.0006351329502649605,1.2962480468559079e-05,-0.0012023620074614882,0.9995281100273132,0.0,0.0,0.0,0.19311608374118805,-2.418220281600952,4.6150641441345215,-34.95439147949219,0
1377.6550000000007,-7.935627763799857e-06,5.359783244784921e-06,-0.0001244505838258192,0.0,0.0,0.0,0.0,0.002168396022170782,-0.004995040129870176,0.003907333593815565,0.9983223676681519,0.0,0.0,0.0,0.18677918612957,-2.402040481567383,4.624124526977539,-33.807403564453125,0
1387.5560000000005,-2.796352418954484e-05,2.6547268134891056e-05,-0.0001176976875285618,0.0,0.0,0.0,0.0,0.0005563375307247043,0.00046910447417758405,0.0004943880485370755,1.0009430646896362,0.0,0.0,0.0,0.18765318393707275,-2.399909734725952,4.628926753997803,-33.96559524536133,0
1397.4789999999994,-0.00010660241241566837,1.338398942607455e-05,-0.00012107168004149571,0.0,0.0,0.0,0.0,0.0005402066744863987,-0.006102269049733877,-0.0009906023042276502,1.001662254333496,0.0,0.0,0.0,0.18875069916248322,-2.4023027420043945,4.618200778961182,-34.164249420166016,0
1407.3790000000008,-4.682493090513162e-05,-3.5800026125798468e-06,-0.00010026865493273363,0.0,0.0,0.0,0.0,-0.0014730930561199784,0.000264481408521533,0.002477956237271428,1.000593662261963,0.0,0.0,0.0,0.18826442956924438,-2.403430461883545,4.6280059814453125,-34.076236724853516,0
1417.3050000000003,-0.00012456963304430246,-1.3832769582222681e-05,-0.00010095988545799628,0.0,0.0,0.0,0.0,0.00014598938287235796,0.005295491311699152,-0.0007524871034547687,0.9999334216117859,0.0,0.0,0.0,0.18864555656909943,-2.398418426513672,4.636629104614258,-34.14522171020508,0
1427.2000000000007,-8.136621909216046e-05,-2.8160345664218767e-06,-6.860694702481851e-05,0.0,0.0,0.0,0.0,-0.002747224410995841,0.0026209261268377304,-0.0029702805913984776,1.000933051109314,0.0,0.0,0.0,0.19680671393871307,-2.405686378479004,4.651841640472412,-35.622406005859375,0
1437.1299999999992,-0.00014926385483704507,-3.2541742257308215e-05,-8.597061241744086e-05,0.0,0.0,0.0,0.0,0.0006078945589251816,0.0019110488938167691,0.002365933731198311,1.0030238628387451,0.0,0.0,0.0,0.19570140540599823,-2.403050661087036,4.644433498382568,-35.42234802246094,0
1447.0259999999998,-4.828677265322767e-05,-9.501352906227112e-05,-5.8910194638883695e-05,0.0,0.0,0.0,0.0,0.0030112776439636946,-0.0008578374981880188,0.0010504748206585646,1.001245141029358,0.0,0.0,0.0,0.19469967484474182,-2.4002015590667725,4.633858680725098,-35.24102783203125,0
1456.946,-9.465620678383857e-05,-6.681134254904464e-05,-7.309998909477144e-05,0.0,0.0,0.0,0.0,-0.002069690963253379,-0.0004140008531976491,-0.001326840603724122,1.0005488395690918,0.0,0.0,0.0,0.19483715295791626,-2.403348207473755,4.631165504455566,-35.26591110229492,0
1466.848,-8.462231198791414e-05,-4.841612826567143e-05,-4.25586877099704e-05,0.0,0.0,0.0,0.0,-0.003235910087823868,0.0028428134974092245,0.0027654317673295736,0.9998233318328857,0.0,0.0,0.0,0.20190584659576416,-2.408987522125244,4.6288018226623535,-36.54536056518555,0
1476.7690000000002,-0.00012748848530463874,-2.8820799343520775e-05,-6.726020365022123e-05,0.0,0.0,0.0,0.0,0.0009974119020625949,-0.0007589223678223789,-0.0005850751185789704,0.9983983635902405,0.0,0.0,0.0,0.20264242589473724,-2.4019148349761963,4.616554260253906,-36.678680419921875,0
1486.6669999999995,-9.4315801106859e-05,-2.699784454307519e-05,-3.364623989909887e-05,0.0,0.0,0.0,0.0,0.0016378173604607582,-0.0008832149324007332,-0.0013318929122760892,1.0006346702575684,0.0,0.0,0.0,0.20884348452091217,-2.4077084064483643,4.619219779968262,-37.801082611083984,0
1496.5949999999993,-0.0001355801650788635,2.010790558415465e-05,-5.1747912948485464e-05,0.0,0.0,0.0,0.0,0.0005658511654473841,0.001705477712675929,-0.002332617761567235,0.9991102814674377,0.0,0.0,0.0,0.2032613903284073,-2.4007561206817627,4.62074613571167,-36.79071807861328,0
1506.4920000000002,-3.983008355135098e-05,-3.91225257772021e-05,-2.297669561812654e-05,0.0,0.0,0.0,0.0,-0.0015558265149593353,0.002137033501639962,-0.002444184385240078,1.0000042915344238,0.0,0.0,0.0,0.20949120819568634,-2.425739288330078,4.649946212768555,-37.9183235168457,0
1516.4169999999995,-4.9992573622148484e-05,1.0231350643152837e-05,-7.342332537518814e-05,0.0,0.0,0.0,0.0,-0.0007662817952223122,0.0011560303391888738,0.000597411475609988,1.0016900300979614,0.0,0.0,0.0,0.19896921515464783,-2.4140214920043945,4.649448394775391,-36.013824462890625,0
1526.3150000000005,1.9816729945887346e-06,-7.38925882615149e-05,-7.85741867730394e-05,0.0,0.0,0.0,0.0,-0.0010942405788227916,0.0055885836482048035,0.002482837066054344,0.998054027557373,0.0,0.0,0.0,0.1979297697544098,-2.4106128215789795,4.649533748626709,-35.82568359375,0
1536.2360000000008,3.1735069114802172e-06,3.081736576859839e-05,-0.00012455627438612282,0.0,0.0,0.0,0.0,0.00023210437211673707,0.0006822334253229201,0.004206078127026558,0.9985986351966858,0.0,0.0,0.0,0.18747633695602417,-2.387972593307495,4.643074035644531,-33.933589935302734,0
1546.1350000000002,2.970740752061829e-05,-4.9454436521045864e-05,-0.00014487255248241127,0.0,0.0,0.0,0.0,0.0012795382644981146,-6.344624125631526e-05,0.0009631909197196364,1.0013644695281982,0.0,0.0,0.0,0.18759585916996002,-2.3919687271118164,4.627922058105469,-33.955223083496094,0
1556.0550000000003,-4.457046452444047e-05,-2.6483381589059718e-05,-0.00013825228961650282,0.0,0.0,0.0,0.0,0.0014267686055973172,0.003773941658437252,-0.00048218341544270515,0.9997736811637878,0.0,0.0,0.0,0.1819717288017273,-2.380682945251465,4.629706382751465,-32.9372444152832,0
1565.9590000000007,-1.3921520803705789e-05,-6.507923535536975e-05,-0.00013504846720024943,0.0,0.0,0.0,0.0,-0.0018900894792750478,0.003505211090669036,0.0014189708745107055,1.0011954307556152,0.0,0.0,0.0,0.1818048506975174,-2.3821403980255127,4.618875026702881,-32.907039642333984,0
1575.8780000000006,-7.408811507048085e-05,-2.3351125491899438e-05,-0.00013611112080980092,0.0,0.0,0.0,0.0,0.0010431966511532664,0.004364360589534044,0.0013761777663603425,1.0011746883392334,0.0,0.0,0.0,0.17286521196365356,-2.3752236366271973,4.60671329498291,-31.2889461517334,0
1585.7810000000009,-5.533820512937382e-05,5.020524895371636e-06,-0.00010793211549753323,0.0,0.0,0.0,0.0,-0.003607475431635976,0.0009687492856755853,-0.002491721184924245,1.0013066530227661,0.0,0.0,0.0,0.17356333136558533,-2.377837896347046,4.5926361083984375,-31.415307998657227,0
1595.6990000000005,-0.00012499638251028955,1.3559551007347181e-05,-0.00010877677414100617,0.0,0.0,0.0,0.0,-0.00012150080146966502,0.0004118498181924224,-0.0019432922126725316,1.0020182132720947,0.0,0.0,0.0,0.16394034028053284,-2.3706798553466797,4.590612411499023,-29.67352867126465,0
1605.6049999999996,-6.521365139633417e-05,3.3917422115337104e-06,-7.865391671657562e-05,0.0,0.0,0.0,0.0,-0.002011348260566592,-0.0036951086949557066,0.0023109670728445053,1.0016535520553589,0.0,0.0,0.0,0.17600376904010773,-2.375858783721924,4.5948805809021,-31.857032775878906,0
1615.5229999999992,-0.00010939455387415364,4.042809450766072e-05,-9.340499673271552e-05,0.0,0.0,0.0,0.0,0.0029340230394154787,-0.002601686865091324,-0.0015263725072145462,1.000425100326538,0.0,0.0,0.0,0.17082476615905762,-2.369028091430664,4.595005512237549,-30.919620513916016,0
1625.4230000000007,-6.810423656133935e-05,2.6199395506409928e-05,-6.773787026759237e-05,0.0,0.0,0.0,0.0,0.002830562414601445,-0.005094057414680719,-0.0005938168033026159,1.0008295774459839,0.0,0.0,0.0,0.1785738468170166,-2.380622386932373,4.615644454956055,-32.32222366333008,0
1635.3510000000006,-0.00012130534742027521,4.2073705117218196e-05,-7.690855272812769e-05,0.0,0.0,0.0,0.0,-0.0016048421384766698,-0.0006010912475176156,0.0005451414035633206,0.9986655116081238,0.0,0.0,0.0,0.1709165722131729,-2.3856778144836426,4.623147010803223,-30.93623924255371,0
1645.2459999999992,-0.0001404834765708074,1.850983244366944e-05,-7.906813698355108e-05,0.0,0.0,0.0,0.0,0.00014196618576534092,-0.0008697966113686562,-0.001879783347249031,0.9971780776977539,0.0,0.0,0.0,0.17759980261325836,-2.3967878818511963,4.6189446449279785,-32.14591598510742,0
1655.17,-0.0001750723458826542,6.415128882508725e-05,-0.00010426013614051044,0.0,0.0,0.0,0.0,0.00015626491222064942,0.003666326403617859,-0.0007516517653129995,1.0006219148635864,0.0,0.0,0.0,0.1689605414867401,-2.3920037746429443,4.621776580810547,-30.582195281982422,0
1665.0689999999995,-0.00010372718679718673,-2.2524682208313607e-05,-0.00010159907833440229,0.0,0.0,0.0,0.0,-0.0006440748693421483,7.86887394497171e-05,-0.0025375569239258766,0.998371958732605,0.0,0.0,0.0,0.1687273383140564,-2.390763759613037,4.609410762786865,-30.539981842041016,0
1675.0,-0.00016046846576500684,-1.5807718227733858e-05,-0.00011829841969301924,0.0,0.0,0.0,0.0,-0.003932843450456858,-0.006425958592444658,0.0005255199503153563,0.9996988773345947,0.0,0.0,0.0,0.16827529668807983,-2.3924434185028076,4.595890522003174,-30.458160400390625,0
1684.8960000000006,-8.055452781263739e-05,-6.51693408144638e-05,-9.935405978467315e-05,0.0,0.0,0.0,0.0,-0.0007128524011932313,0.0005187717033550143,-0.0007611393230035901,1.001194715499878,0.0,0.0,0.0,0.16922779381275177,-2.391813278198242,4.592442035675049,-30.63056755065918,0
1694.8150000000005,-0.0001177717640530318,-1.2281716408324428e-05,-0.00011962889402639121,0.0,0.0,0.0,0.0,-0.00019943328516092151,-0.003607627237215638,0.003411222016438842,0.9999340176582336,0.0,0.0,0.0,0.16147594153881073,-2.3783750534057617,4.602099418640137,-29.227466583251953,0
1704.7170000000006,-7.641621778020635e-05,-8.012179023353383e-05,-0.00012438808334991336,0.0,0.0,0.0,0.0,-0.0010942891240119934,-0.003159049665555358,0.0014403493842110038,1.0001344680786133,0.0,0.0,0.0,0.16077247262001038,-2.3761305809020996,4.605846881866455,-29.100135803222656,0
1714.634,-0.00011994664237136021,-3.8376543670892715e-05,-0.00014109877520240843,0.0,0.0,0.0,0.0,0.00011658473522402346,-0.0007648291066288948,-0.0001673925289651379,1.000028371810913,0.0,0.0,0.0,0.1611023247241974,-2.3736066818237305,4.609358310699463,-29.159839630126953,0
1724.536,-9.224614768754691e-05,-2.2169224394019693e-05,-0.00011715852451743558,0.0,0.0,0.0,0.0,0.0016886728117242455,0.00015689627616666257,0.0012357354862615466,1.0005890130996704,0.0,0.0,0.0,0.17104472219944,-2.3644003868103027,4.61668586730957,-30.95943260192871,0
1734.4590000000007,-0.00013540565851144493,2.022719127126038e-05,-0.00013305812899488956,0.0,0.0,0.0,0.0,-0.0007324820617213845,0.0032267486676573753,0.001338833593763411,1.0004714727401733,0.0,0.0,0.0,0.16415242850780487,-2.361607789993286,4.619778633117676,-29.711915969848633,0
1744.3580000000002,-7.236222154460847e-05,-2.2643249394604936e-05,-0.00012154012074461207,0.0,0.0,0.0,0.0,0.00015865736349951476,0.0042289067059755325,0.0008838933426886797,0.9994707703590393,0.0,0.0,0.0,0.16550251841545105,-2.3556718826293945,4.613832473754883,-29.956287384033203,0
1754.2780000000002,-9.468385542277247e-05,1.6360731024178676e-05,-0.00016257926472462714,0.0,0.0,0.0,0.0,0.001374353189021349,0.0008974943193607032,0.0008318528416566551,1.002421259880066,0.0,0.0,0.0,0.16533704102039337,-2.3548061847686768,4.612072467803955,-29.926332473754883,0
1764.1900000000005,-9.178595792036504e-05,1.881321077235043e-05,-0.00015583010099362582,0.0,0.0,0.0,0.0,-0.00017877992650028318,0.0025802883319556713,-0.0039671193808317184,1.0027446746826172,0.0,0.0,0.0,0.17335785925388336,-2.3629062175750732,4.60533332824707,-31.37811851501465,0
1774.1049999999996,-0.00011348112457199022,6.173507426865399e-05,-0.00020026013953611255,0.0,0.0,0.0,0.0,-0.003323460929095745,-0.005310867913067341,-0.0021166258957237005,1.0001912117004395,0.0,0.0,0.0,0.16658762097358704,-2.356123924255371,4.610126495361328,-30.152690887451172,0
1784.0059999999994,-9.287343709729612e-05,6.143316568341106e-05,-0.0001773363328538835,0.0,0.0,0.0,0.0,0.00141973199788481,0.004633020609617233,-0.001883241580799222,0.9983277320861816,0.0,0.0,0.0,0.16553395986557007,-2.3430910110473633,4.594479560852051,-29.961977005004883,0
1793.9249999999993,-0.00011621088196989149,4.145675848121755e-05,-0.00016463990323245525,0.0,0.0,0.0,0.0,0.0017168772174045444,0.002384775783866644,0.0009287319262512028,0.9980772137641907,0.0,0.0,0.0,0.15779836475849152,-2.3448870182037354,4.5920939445495605,-28.561817169189453,0
1803.8250000000007,-0.00012271494779270142,7.699203706579283e-05,-0.0001327291247434914,0.0,0.0,0.0,0.0,-0.0020784400403499603,-0.003267503110691905,-0.0003326881560496986,0.9995169639587402,0.0,0.0,0.0,0.16611048579216003,-2.35589861869812,4.587283611297607,-30.066326141357422,0
1813.7469999999994,-0.0001356149441562593,4.837388405576348e-05,-0.0001344849879387766,0.0,0.0,0.0,0.0,0.0022405965719372034,0.005629638209939003,-0.0002347539848415181,1.0005724430084229,0.0,0.0,0.0,0.15738773345947266,-2.3592166900634766,4.586880207061768,-28.48749351501465,0
1823.6460000000006,-7.017900497885421e-05,2.595908154034987e-05,-0.00010961428051814437,0.0,0.0,0.0,0.0,-0.0029948758892714977,-0.0031356841791421175,0.000345761509379372,0.9990907907485962,0.0,0.0,0.0,0.1698487550020218,-2.361100912094116,4.60863733291626,-30.742961883544922,0
1833.5660000000007,-0.00012664590030908585,5.120880450704135e-05,-0.00012049154611304402,0.0,0.0,0.0,0.0,-0.0012458653654903173,-0.0014882410177960992,0.0021184124052524567,0.9990151524543762,0.0,0.0,0.0,0.15942570567131042,-2.3605430126190186,4.600484848022461,-28.85637092590332,0
1843.4750000000004,-6.672348536085337e-05,3.391856807866134e-05,-9.488318028161302e-05,0.0,0.0,0.0,0.0,-0.0019261558772996068,-0.001353918807581067,-0.0018685072427615523,1.0002601146697998,0.0,0.0,0.0,0.1704552173614502,-2.36295485496521,4.6086506843566895,-30.85273551940918,0
1853.3899999999994,-0.00014899605594109744,1.0111898518516682e-05,-9.823728032642975e-05,0.0,0.0,0.0,0.0,0.0034471319522708654,0.003837950760498643,0.0007327257771976292,1.0011292695999146,0.0,0.0,0.0,0.1716996133327484,-2.362736940383911,4.614612102508545,-31.077970504760742,0
1863.2999999999993,-7.098374044289812e-05,-4.9130099796457216e-05,-7.933144661365077e-05,0.0,0.0,0.0,0.0,0.00018254129099659622,-0.0025530755519866943,0.001665838877670467,1.0007399320602417,0.0,0.0,0.0,0.1709716022014618,-2.3655312061309814,4.611712455749512,-30.946197509765625,0
1873.2099999999991,-0.00012691743904724717,-3.2741161703597754e-05,-9.556859004078433e-05,0.0,0.0,0.0,0.0,-0.0023393393494188786,0.0009827150497585535,-0.0026315038558095694,1.0002285242080688,0.0,0.0,0.0,0.1704084724187851,-2.3721885681152344,4.601123809814453,-30.84427261352539,0
1883.1139999999996,-4.896910468232818e-05,-9.802837303141132e-05,-7.9402765550185e-05,0.0,0.0,0.0,0.0,0.00017731734260451049,0.005758344195783138,-0.001242174650542438,1.0018258094787598,0.0,0.0,0.0,0.17074726521968842,-2.368259906768799,4.596602439880371,-30.905593872070312,0
1893.0319999999992,-8.553138468414545e-05,-3.343765638419427e-05,-9.616530587663874e-05,0.0,0.0,0.0,0.0,0.00043939423630945385,0.0026315643917769194,-0.0016383712645620108,1.002148985862732,0.0,0.0,0.0,0.16462987661361694,-2.3590996265411377,4.592972755432129,-29.798336029052734,0
1902.937,-8.744498336454853e-05,-1.2173467439424712e-05,-7.506124529754743e-05,0.0,0.0,0.0,0.0,0.003167802933603525,0.002058314625173807,-0.004597065970301628,1.0004938840866089,0.0,0.0,0.0,0.17139016091823578,-2.355625629425049,4.588056564331055,-31.021961212158203,0
1912.8520000000008,-9.070736996363848e-05,5.012595283915289e-05,-0.00013128547288943082,0.0,0.0,0.0,0.0,-0.00018340627138968557,0.0007901986828073859,0.0017872719326987863,1.0005725622177124,0.0,0.0,0.0,0.1653030663728714,-2.3469810485839844,4.595801830291748,-29.920183181762695,0
1922.759,6.882518391648773e-06,-6.422093065339141e-06,-0.00010460901830811054,0.0,0.0,0.0,0.0,-7.124688272597268e-05,0.002130872569978237,-0.00024523152387700975,1.001476764678955,0.0,0.0,0.0,0.1726093739271164,-2.3688063621520996,4.5992913246154785,-31.242639541625977,0
1932.6720000000005,-6.72694732202217e-05,-4.476062713365536e-06,-9.921928722178563e-05,0.0,0.0,0.0,0.0,0.0003141163906548172,-0.0009267854620702565,-0.0027617746964097023,1.0014231204986572,0.0,0.0,0.0,0.17277218401432037,-2.3596417903900146,4.599966049194336,-31.27210807800293,0
1942.5930000000008,4.941962833981961e-05,-8.894263010006398e-05,-7.581907993881032e-05,0.0,0.0,0.0,0.0,0.0008752990979701281,0.005225625820457935,0.0036783148534595966,1.0026161670684814,0.0,0.0,0.0,0.17962436378002167,-2.3784475326538086,4.616775035858154,-32.512367248535156,0
1952.4950000000008,-1.672863982093986e-05,-7.52950509195216e-05,-6.597636820515618e-05,0.0,0.0,0.0,0.0,-0.001869364408776164,0.0003913277178071439,0.002813882427290082,1.000801920890808,0.0,0.0,0.0,0.17954453825950623,-2.378025531768799,4.612242698669434,-32.49791717529297,0
1962.4030000000002,7.1809372457209975e-06,-6.954456330277026e-05,-3.5738194128498435e-05,0.0,0.0,0.0,0.0,0.0003746424044948071,0.0015871780924499035,-0.00407802639529109,0.9990782141685486,0.0,0.0,0.0,0.1871601790189743,-2.3829987049102783,4.603574275970459,-33.876365661621094,0
1972.3179999999993,-4.573030673782341e-05,-5.2806011808570474e-05,-3.8711095839971676e-05,0.0,0.0,0.0,0.0,0.0012482901802286506,-0.004543733317404985,-0.004015483893454075,1.0003948211669922,0.0,0.0,0.0,0.18680307269096375,-2.3802170753479004,4.596978664398193,-33.811729431152344,0
1982.2260000000006,-1.3162665709387511e-05,-6.66844061925076e-05,-1.2623096154129598e-05,0.0,0.0,0.0,0.0,0.003056515473872423,-0.0027427966706454754,-0.002144123427569866,0.9997490644454956,0.0,0.0,0.0,0.1926228255033493,-2.3884072303771973,4.605835437774658,-34.865116119384766,0
1992.1389999999992,3.6077517506782897e-06,2.9856899345759302e-05,-6.665130058536306e-05,0.0,0.0,0.0,0.0,0.0008388673304580152,-0.003167199669405818,0.001940159942023456,0.9993769526481628,0.0,0.0,0.0,0.19127586483955383,-2.3853228092193604,4.615658283233643,-34.62131118774414,0
2002.049000000001,-5.4816158808534965e-05,6.601524364668876e-05,-5.7456061767879874e-05,0.0,0.0,0.0,0.0,0.0009568515815772116,0.0013128675054758787,-0.002523534931242466,0.9997221231460571,0.0,0.0,0.0,0.19081875681877136,-2.382309913635254,4.605659008026123,-34.53857421875,0
2011.9650000000001,-6.106978980824351e-05,0.0001103896283893846,-0.00010584086703602225,0.0,0.0,0.0,0.0,0.0028467655647546053,-0.00023397743643727154,0.001611019717529416,1.0011471509933472,0.0,0.0,0.0,0.18986715376377106,-2.3790030479431152,4.604640483856201,-34.3663330078125,0
2021.8760000000002,-0.00012230448191985488,0.00014965383161325008,-0.00010171033500228077,0.0,0.0,0.0,0.0,-0.001474708435125649,0.0010471980785951018,0.0034359367564320564,1.0004591941833496,0.0,0.0,0.0,0.19029277563095093,-2.3752031326293945,4.596033096313477,-34.44337463378906,0
2031.786,-0.00014863815158605576,0.00013949476124253124,-0.00015258064377121627,0.0,0.0,0.0,0.0,-0.00010502630902919918,-0.0019315382232889533,0.0002990823704749346,0.998751163482666,0.0,0.0,0.0,0.17940844595432281,-2.395805597305298,4.613661766052246,-32.47328567504883,0
2041.6980000000003,-0.00021248491248115897,0.00017742985801305622,-0.0001516864576842636,0.0,0.0,0.0,0.0,0.0010014513973146677,0.0005084599833935499,0.0002687860687728971,0.9998679757118225,0.0,0.0,0.0,0.17891396582126617,-2.3904080390930176,4.6124587059021,-32.383785247802734,0
2051.6039999999994,-0.00023186577891465276,0.00014411669690161943,-0.0002195074048358947,0.0,0.0,0.0,0.0,-0.0008946153684519231,0.0012905668700113893,-0.001862984267063439,1.000988245010376,0.0,0.0,0.0,0.17915481328964233,-2.3923885822296143,4.609445095062256,-32.42737579345703,0
2061.522000000001,-0.00029682792956009507,0.00017788930563256145,-0.00022454760619439185,0.0,0.0,0.0,0.0,-0.0036306935362517834,0.003329836530610919,-0.0014666764764115214,1.0002222061157227,0.0,0.0,0.0,0.17866219580173492,-2.3899714946746826,4.608893871307373,-32.33821487426758,0
2071.4259999999995,-0.00029781804187223315,0.00019694237562362105,-0.00029391623684205115,0.0,0.0,0.0,0.0,-0.001292386674322188,-0.004227118566632271,-0.002307293238118291,1.0007224082946777,0.0,0.0,0.0,0.17776301503181458,-2.3850502967834473,4.637918949127197,-32.17545700073242,0
2081.3549999999996,-0.00036019482649862766,0.00023313607380259782,-0.00030301333754323423,0.0,0.0,0.0,0.0,0.00023490747844334692,0.005559086799621582,-0.0013654095819219947,1.0004137754440308,0.0,0.0,0.0,0.17645329236984253,-2.3783979415893555,4.631864070892334,-31.938396453857422,0
2091.2479999999996,-0.0004097260534763336,0.00022592350433114916,-0.0003386155585758388,0.0,0.0,0.0,0.0,-0.003151774173602462,-0.0017277589067816734,0.000631883624009788,1.0010967254638672,0.0,0.0,0.0,0.1665612757205963,-2.3896520137786865,4.63131046295166,-30.147920608520508,0
2101.169,-0.00047528179129585624,0.00025979673955589533,-0.00034860498271882534,0.0,0.0,0.0,0.0,0.003086736658588052,0.004564680624753237,-0.0013518065679818392,0.9996442794799805,0.0,0.0,0.0,0.1666058599948883,-2.3915512561798096,4.623373985290527,-30.15599250793457,0
