timestamp,stateEstimate.x,stateEstimate.y,stateEstimate.z,controller.cmd_thrust,controller.cmd_roll,controller.cmd_pitch,controller.cmd_yaw,controller.r_roll,controller.r_pitch,controller.r_yaw,controller.accelz,controller.actuatorThrust,controller.roll,controller.pitch,controller.yaw,controller.rollRate,controller.pitchRate,controller.yawRate,controller.ctr_yaw
0.0,0.010489835403859615,0.006313145626336336,0.00039498083060607314,0.0,0.0,0.0,0.0,-1.4805398677708581e-05,0.00047268677735701203,0.00013339352153707296,0.9979169368743896,0.0,0.0,0.0,1.9675767421722412,6.072464942932129,-1.0808844566345215,-356.1352844238281,0
9.889999999999418,0.010485809296369553,0.006284472998231649,0.0003869856591336429,0.0,0.0,0.0,0.0,-0.0018465564353391528,-0.0003892478416673839,-0.001656603068113327,1.0001235008239746,0.0,0.0,0.0,1.9664278030395508,6.0642266273498535,-1.0827698707580566,-355.9273376464844,0
19.77100000000064,0.010480634868144989,0.006254903506487608,0.00037841207813471556,0.0,0.0,0.0,0.0,0.001494266209192574,0.006020598579198122,-0.00015455261745955795,0.9988800883293152,0.0,0.0,0.0,1.964512586593628,6.063565731048584,-1.0771112442016602,-355.5806884765625,0
29.659999999999854,0.010472079738974571,0.006314335390925407,0.0004599199746735394,0.0,0.0,0.0,0.0,0.0001959091314347461,0.0004784307675436139,0.0006296574138104916,0.9988425374031067,0.0,0.0,0.0,1.9796875715255737,6.084411144256592,-1.0827562808990479,-358.327392578125,0
39.54900000000089,0.010468925349414349,0.006286803632974625,0.00045539988786913455,0.0,0.0,0.0,0.0,-0.002746016951277852,0.0029361210763454437,0.0008214678382501006,0.9993752837181091,0.0,0.0,0.0,1.9778681993484497,6.075520992279053,-1.084388017654419,-357.99810791015625,0
49.4330000000009,0.010467561893165112,0.006258033681660891,0.00045005136053077877,0.0,0.0,0.0,0.0,0.0026384261436760426,0.0009872483788058162,0.004146466497331858,0.9977241158485413,0.0,0.0,0.0,1.976519227027893,6.074717998504639,-1.082685947418213,-357.75390625,0
59.31700000000092,0.01049027405679226,0.006307748146355152,0.0005651603569276631,0.0,0.0,0.0,0.0,-0.0009030208457261324,-0.003692982718348503,0.00038805344956927,1.0001143217086792,0.0,0.0,0.0,1.9693470001220703,6.09049129486084,-1.0744364261627197,-356.4557189941406,0
69.20700000000033,0.010597479529678822,0.006442610174417496,0.0004253509105183184,0.0,0.0,0.0,0.0,-0.0018184828804805875,-0.0022884325589984655,-0.0004846808151341975,1.0002951622009277,0.0,0.0,0.0,1.97843337059021,6.126314640045166,-1.043835997581482,-358.1003723144531,0
79.09900000000016,0.010495641268789768,0.006473030429333448,0.0004072439332958311,0.0,0.0,0.0,0.0,0.0005318226176314056,-0.001035853405483067,0.004095498006790876,0.9972080588340759,0.0,0.0,0.0,1.96623694896698,6.133637428283691,-1.0563713312149048,-355.8927917480469,0
88.97800000000097,0.01049734652042389,0.006457717623561621,0.00039679702604189515,0.0,0.0,0.0,0.0,-0.00023251223319675773,0.003806368913501501,0.0008129897760227323,1.0002764463424683,0.0,0.0,0.0,1.9653105735778809,6.127281665802002,-1.0556764602661133,-355.7251281738281,0
98.86399999999958,0.01049996167421341,0.006442483980208635,0.000385749590350315,0.0,0.0,0.0,0.0,0.0044557335786521435,0.0005836447235196829,0.0009770472534000874,1.002071738243103,0.0,0.0,0.0,1.9632869958877563,6.12413215637207,-1.0678483247756958,-355.3588562011719,0
108.7510000000002,0.010503596626222134,0.00642614159733057,0.0003760905528906733,0.0,0.0,0.0,0.0,-0.0017324078362435102,0.0033516082912683487,-0.002309070900082588,1.000532865524292,0.0,0.0,0.0,1.96232008934021,6.107428550720215,-1.0739097595214844,-355.183837890625,0
118.63899999999921,0.010507534258067608,0.006408018991351128,0.000367714004823938,0.0,0.0,0.0,0.0,-0.002217160305008292,4.489305501920171e-05,0.0005016234354116023,1.001312494277954,0.0,0.0,0.0,1.9602904319763184,6.100452899932861,-1.0768437385559082,-354.8164367675781,0
128.52299999999923,0.010511662811040878,0.006388209760189056,0.00036017829552292824,0.0,0.0,0.0,0.0,0.003242218866944313,0.0015227851690724492,-0.0019243694841861725,0.9986922144889832,0.0,0.0,0.0,1.9584065675735474,6.096900939941406,-1.0803706645965576,-354.4754638671875,0
138.41200000000026,0.010515913367271423,0.006366901099681854,0.0003526902582962066,0.0,0.0,0.0,0.0,-0.0008566391770727932,-0.002341854851692915,0.002013210440054536,0.9997269511222839,0.0,0.0,0.0,1.9564111232757568,6.083855628967285,-1.085011601448059,-354.1142883300781,0
148.29600000000028,0.010524565353989601,0.00637784693390131,0.00036488508339971304,0.0,0.0,0.0,0.0,0.0007198223611339927,0.0014627983327955008,0.0002409443841315806,0.9998067617416382,0.0,0.0,0.0,1.9635992050170898,6.089781284332275,-1.085598349571228,-355.4153747558594,0
158.1890000000003,0.010531158186495304,0.006352746393531561,0.0003585087542887777,0.0,0.0,0.0,0.0,0.0033460829872637987,0.008917572908103466,0.0029155139345675707,0.9998131394386292,0.0,0.0,0.0,1.961657166481018,6.084904193878174,-1.0902539491653442,-355.0638732910156,0
168.0689999999995,0.010539611801505089,0.006325141992419958,0.00035207875771448016,0.0,0.0,0.0,0.0,-0.0010222082491964102,-0.0011054680217057467,-0.0025163183454424143,0.9997555613517761,0.0,0.0,0.0,1.9609754085540771,6.079348087310791,-1.1116995811462402,-354.9404602050781,0
177.97600000000057,0.010549903847277164,0.006296362727880478,0.0003453384852036834,0.0,0.0,0.0,0.0,-0.0008723497739993036,0.0023569243494421244,0.0009920874144881964,0.9995622038841248,0.0,0.0,0.0,1.9587119817733765,6.072193145751953,-1.1051933765411377,-354.5307312011719,0
187.84799999999996,0.010560276918113232,0.006266119424253702,0.0003381354617886245,0.0,0.0,0.0,0.0,-0.0011819632491096854,-0.002358123892918229,0.0008213935070671141,0.9992673397064209,0.0,0.0,0.0,1.957282543182373,6.066111087799072,-1.1188641786575317,-354.2720031738281,0
197.7440000000006,0.010568655095994473,0.006234092637896538,0.0003305226855445653,0.0,0.0,0.0,0.0,-0.0001489508867962286,-0.0011931105982512236,0.00011347398685757071,0.9990209937095642,0.0,0.0,0.0,1.956176996231079,6.0615105628967285,-1.1148031949996948,-354.0719299316406,0
207.61599999999999,0.010567089542746544,0.0063536642119288445,0.0004810394602827728,0.0,0.0,0.0,0.0,0.000831662502605468,-0.003704966977238655,-0.0018901071744039655,1.0011045932769775,0.0,0.0,0.0,1.9660862684249878,6.098973274230957,-1.1188528537750244,-355.8655090332031,0
217.51000000000022,0.010573117062449455,0.0063285622745752335,0.0004820647300221026,0.0,0.0,0.0,0.0,-0.0016699404222890735,-0.002931744558736682,-0.0007836940931156278,1.0011392831802368,0.0,0.0,0.0,1.964074969291687,6.094685077667236,-1.122277855873108,-355.5014953613281,0
227.3889999999992,0.010541705414652824,0.006345644593238831,0.0006238207570277154,0.0,0.0,0.0,0.0,0.0030782974790781736,-0.006628844887018204,0.0022489551920443773,1.0000215768814087,0.0,0.0,0.0,1.9705301523208618,6.100275993347168,-1.1233700513839722,-356.66986083984375,0
355.9290000000001,0.01064995490014553,0.006397949997335672,0.0006159888580441475,0.0,0.0,0.0,0.0,-0.0006432931404560804,0.0035258724819868803,0.00022591282322537154,1.0016251802444458,0.0,0.0,0.0,1.9568595886230469,6.1212873458862305,-1.1245559453964233,-354.1954650878906,0
365.8080000000009,0.010672877542674541,0.006430150009691715,0.0006212451844476163,0.0,0.0,0.0,0.0,-0.0017540554981678724,-0.0018557931762188673,0.0012709232978522778,1.0010972023010254,0.0,0.0,0.0,1.954895257949829,6.117979526519775,-1.1255595684051514,-353.8399353027344,0
375.6949999999997,0.010681440122425556,0.0063994769006967545,0.0006314247148111463,0.0,0.0,0.0,0.0,-0.0001851195702329278,0.002564262365922332,0.005972020793706179,1.000478744506836,0.0,0.0,0.0,1.9531328678131104,6.118303298950195,-1.112924575805664,-353.5209655761719,0
385.5799999999999,0.01069805771112442,0.006401981692761183,0.0006462075980380177,0.0,0.0,0.0,0.0,-0.0005879483069293201,-0.0043868119828403,0.00042818309157155454,1.0000779628753662,0.0,0.0,0.0,1.965699553489685,6.123435020446777,-1.1070666313171387,-355.7955322265625,0
395.46900000000096,0.010461688973009586,0.006471987348049879,0.0005227806977927685,0.0,0.0,0.0,0.0,-0.0017857287311926484,-0.0013608570443466306,0.00022075754532124847,0.9985871911048889,0.0,0.0,0.0,1.9569728374481201,6.140768527984619,-1.149649739265442,-354.21600341796875,0
405.35699999999997,0.01047333050519228,0.006502392701804638,0.0005427146097645164,0.0,0.0,0.0,0.0,-0.001065551768988371,-0.004352277610450983,-0.00044641870772466063,0.9990746974945068,0.0,0.0,0.0,1.9627137184143066,6.148352146148682,-1.15440034866333,-355.2550964355469,0
415.2469999999994,0.010421122424304485,0.006492828484624624,0.0005405975971370935,0.0,0.0,0.0,0.0,0.0008811376173980534,-0.0024776505306363106,-0.0006834700470790267,0.9998592138290405,0.0,0.0,0.0,1.9604054689407349,6.148505687713623,-1.1559463739395142,-354.8372802734375,0
425.1299999999992,0.010420827195048332,0.00646533677354455,0.0005448671872727573,0.0,0.0,0.0,0.0,0.0017503240378573537,-0.00337745388969779,0.0014645066112279892,1.0004565715789795,0.0,0.0,0.0,1.957537055015564,6.143826484680176,-1.155185341835022,-354.3180847167969,0
435.0149999999994,0.01042091567069292,0.006435138639062643,0.0005493451608344913,0.0,0.0,0.0,0.0,-0.002538153436034918,-0.0016872759442776442,0.0021436153911054134,0.9997146725654602,0.0,0.0,0.0,1.955541729927063,6.133610248565674,-1.1452349424362183,-353.9569396972656,0
444.90500000000065,0.010440661571919918,0.006477863993495703,0.0005661352770403028,0.0,0.0,0.0,0.0,0.0007293223752640188,-0.005999530199915171,0.0018544268095865846,0.9987111687660217,0.0,0.0,0.0,1.9538284540176392,6.130817413330078,-1.1390427350997925,-353.6468200683594,0
454.78800000000047,0.010438954457640648,0.006445523351430893,0.0005709523102268577,0.0,0.0,0.0,0.0,0.0005809263093397021,-7.68770114518702e-05,0.0016821055905893445,0.9980801343917847,0.0,0.0,0.0,1.9526609182357788,6.122445583343506,-1.1186548471450806,-353.4355163574219,0
464.6749999999993,0.010475894436240196,0.006490824744105339,0.0005443667760118842,0.0,0.0,0.0,0.0,-0.0005607983330264688,-0.006199058145284653,0.003340182825922966,0.9999479055404663,0.0,0.0,0.0,1.9602512121200562,6.129554748535156,-1.1091474294662476,-354.8093566894531,0
474.5650000000005,0.010477339848876,0.006457229144871235,0.0005457126535475254,0.0,0.0,0.0,0.0,0.0004624358261935413,0.003682858543470502,0.0033409197349101305,1.000555396080017,0.0,0.0,0.0,1.9590742588043213,6.12773323059082,-1.0993112325668335,-354.5963439941406,0
484.4480000000003,0.010480018332600594,0.006420441437512636,0.0005475278594531119,0.0,0.0,0.0,0.0,0.00038935718475840986,0.007933241315186024,-0.0003365411248523742,0.9989643692970276,0.0,0.0,0.0,1.95708429813385,6.120797634124756,-1.1099156141281128,-354.23614501953125,0
494.33500000000095,0.010483097285032272,0.006380748935043812,0.0005494399811141193,0.0,0.0,0.0,0.0,-0.0011049893219023943,-0.0030757738277316093,0.00023336535377893597,1.0004901885986328,0.0,0.0,0.0,1.9563860893249512,6.113729000091553,-1.120980978012085,-354.1097717285156,0
504.22299999999996,0.010485581122338772,0.006338858045637608,0.00055185571545735,0.0,0.0,0.0,0.0,-0.0018811619374901056,-0.005380844231694937,0.0022529622074216604,1.002823829650879,0.0,0.0,0.0,1.9538309574127197,6.110036373138428,-1.117747187614441,-353.64727783203125,0
514.1180000000004,0.01050980668514967,0.006303998176008463,0.0005927047459408641,0.0,0.0,0.0,0.0,-0.0021730128210037947,-0.0010744316969066858,0.003110641846433282,1.0006816387176514,0.0,0.0,0.0,1.9430444240570068,6.110278606414795,-1.095711350440979,-351.69488525390625,0
523.9979999999996,0.01060224324464798,0.00643196702003479,0.0005262382910586894,0.0,0.0,0.0,0.0,-0.0028822661843150854,-0.0067711095325648785,0.0012578144669532776,1.0003137588500977,0.0,0.0,0.0,1.9468592405319214,6.1491875648498535,-1.070726752281189,-352.3854064941406,0
533.8829999999998,0.01060616783797741,0.0063940249383449554,0.0005304664373397827,0.0,0.0,0.0,0.0,0.0026510513853281736,-0.0027436306700110435,-0.001093017403036356,0.9999573826789856,0.0,0.0,0.0,1.945574402809143,6.146317958831787,-1.0583912134170532,-352.15283203125,0
543.7700000000004,0.01061820238828659,0.006399728823453188,0.0005411184974946082,0.0,0.0,0.0,0.0,-0.0022296945098787546,-0.004986950661987066,-0.0012551769614219666,1.001221776008606,0.0,0.0,0.0,1.952979326248169,6.148662567138672,-1.0571895837783813,-353.4931335449219,0
553.6550000000007,0.010619156062602997,0.006361349020153284,0.0005469992756843567,0.0,0.0,0.0,0.0,-0.0001501758088124916,-0.0012009908678010106,-0.0012006680481135845,1.0013887882232666,0.0,0.0,0.0,1.9498679637908936,6.1424479484558105,-1.0561670064926147,-352.92999267578125,0
563.5429999999997,0.010621245950460434,0.006321256514638662,0.0005538108525797725,0.0,0.0,0.0,0.0,0.000504226132761687,-0.003038500901311636,0.0020359361078590155,0.9988009333610535,0.0,0.0,0.0,1.947782278060913,6.143800258636475,-1.0556610822677612,-352.552490234375,0
573.4349999999995,0.010625164955854416,0.00627910578623414,0.0005605660262517631,0.0,0.0,0.0,0.0,-0.0004194869543425739,0.001954729203134775,0.005194890312850475,0.9986112713813782,0.0,0.0,0.0,1.9461045265197754,6.139436721801758,-1.05258309841156,-352.2488098144531,0
583.3209999999999,0.010670311748981476,0.006387787871062756,0.0005606067716144025,0.0,0.0,0.0,0.0,0.0003733318008016795,0.008060552179813385,-0.0017782265786081553,1.0004284381866455,0.0,0.0,0.0,1.9492485523223877,6.176480293273926,-1.0371123552322388,-352.81787109375,0
593.210000000001,0.010679543018341064,0.006353847682476044,0.000565390451811254,0.0,0.0,0.0,0.0,-8.622618770459667e-05,-0.0052209594286978245,0.001060673501342535,1.0024319887161255,0.0,0.0,0.0,1.9476311206817627,6.163528919219971,-1.054551601409912,-352.5251159667969,0
603.1020000000008,0.010711888782680035,0.006441676523536444,0.0005981528083793819,0.0,0.0,0.0,0.0,-0.0023069535382092,-9.885168401524425e-05,-0.0008879562374204397,0.9990559816360474,0.0,0.0,0.0,1.9563931226730347,6.190312385559082,-1.0369380712509155,-354.1110534667969,0
612.9770000000008,0.010721868835389614,0.0064148311503231525,0.0006064090994186699,0.0,0.0,0.0,0.0,-0.001203934894874692,0.0048605711199343204,-0.001773707801476121,0.9987441301345825,0.0,0.0,0.0,1.9546822309494019,6.187381267547607,-1.0379211902618408,-353.8013610839844,0
622.8649999999998,0.010738993994891644,0.006435913033783436,0.000630773778539151,0.0,0.0,0.0,0.0,-0.002613101387396455,0.0003639340866357088,-0.001444170600734651,1.0002195835113525,0.0,0.0,0.0,1.952284336090088,6.180314064025879,-1.0493022203445435,-353.36737060546875,0
632.7540000000008,0.010749343782663345,0.006410133559256792,0.000638724013697356,0.0,0.0,0.0,0.0,-0.00105854996945709,-0.0018691883888095617,0.0015268981223925948,1.000116229057312,0.0,0.0,0.0,1.950542688369751,6.177911758422852,-1.048232913017273,-353.0520935058594,0
642.6370000000006,0.01076112873852253,0.006382895167917013,0.0006468762876465917,0.0,0.0,0.0,0.0,-0.001020540832541883,0.007213675882667303,-0.0024252934381365776,0.999458372592926,0.0,0.0,0.0,1.9492285251617432,6.173880100250244,-1.0470147132873535,-352.8142395019531,0
652.5249999999996,0.01077431533485651,0.0063538015820086,0.0006548193050548434,0.0,0.0,0.0,0.0,-0.0004122100945096463,-0.00613999692723155,0.001187853398732841,1.0001673698425293,0.0,0.0,0.0,1.9468907117843628,6.171442985534668,-1.0537259578704834,-352.3910827636719,0
662.4069999999992,0.010810068808495998,0.006415934301912785,0.0006846484611742198,0.0,0.0,0.0,0.0,-0.0013456540182232857,0.00042320857755839825,0.0032030490692704916,1.0014457702636719,0.0,0.0,0.0,1.9586964845657349,6.194941997528076,-1.0297006368637085,-354.5279541015625,0
672.3060000000005,0.010826733894646168,0.006390866357833147,0.0006944710621610284,0.0,0.0,0.0,0.0,0.004250528756529093,0.002869935939088464,-0.0018410609336569905,0.9994024634361267,0.0,0.0,0.0,1.9580930471420288,6.190733432769775,-1.0354150533676147,-354.4187316894531,0
682.1800000000003,0.010852636769413948,0.006399919744580984,0.0007146419957280159,0.0,0.0,0.0,0.0,0.000438281858805567,-0.00040864438051357865,0.0029452659655362368,0.9989446401596069,0.0,0.0,0.0,1.9635591506958008,6.187280178070068,-1.0362157821655273,-355.4081115722656,0
692.0720000000001,0.01087184902280569,0.006375347729772329,0.0007243887521326542,0.0,0.0,0.0,0.0,0.0025369480717927217,-0.0016679742839187384,0.0009182295762002468,0.9979135990142822,0.0,0.0,0.0,1.9625924825668335,6.176319122314453,-1.0403963327407837,-355.233154296875,0
701.9549999999999,0.010880416259169579,0.006389591842889786,0.0007897343602962792,0.0,0.0,0.0,0.0,-0.0005444118287414312,0.001960678957402706,-1.0970145922328811e-05,0.9990924000740051,0.0,0.0,0.0,1.9682226181030273,6.176875114440918,-1.0368307828903198,-356.252197265625,0
711.844000000001,0.01089766900986433,0.006362752988934517,0.0008007533033378422,0.0,0.0,0.0,0.0,-0.0012971354881301522,0.006665232591331005,-0.0017698336159810424,1.0016783475875854,0.0,0.0,0.0,1.965962290763855,6.170668601989746,-1.0425220727920532,-355.84307861328125,0
721.732,0.010900798253715038,0.006376114673912525,0.0008775813039392233,0.0,0.0,0.0,0.0,0.00010389136150479317,0.0013985434779897332,-0.0035409098491072655,1.001107931137085,0.0,0.0,0.0,1.9732744693756104,6.176351547241211,-1.0640512704849243,-357.1666259765625,0
731.6200000000008,0.01055980660021305,0.006433532107621431,0.0006144517683424056,0.0,0.0,0.0,0.0,0.0002788853307720274,0.0024943796452134848,-0.0005908718449063599,1.000549554824829,0.0,0.0,0.0,1.9639595746994019,6.18942403793335,-1.130161166191101,-355.4805908203125,0
741.5,0.010555841960012913,0.0064206672832369804,0.0006384236621670425,0.0,0.0,0.0,0.0,0.00256409402936697,0.0055371737107634544,0.001678910804912448,0.9984707236289978,0.0,0.0,0.0,1.9627983570098877,6.176817893981934,-1.1436642408370972,-355.2704162597656,0
751.3919999999998,0.010553406551480293,0.0063882851973176,0.0006458715652115643,0.0,0.0,0.0,0.0,0.0002214091073255986,0.004617788828909397,0.001776240416802466,0.9983335733413696,0.0,0.0,0.0,1.9610153436660767,6.167879581451416,-1.1532491445541382,-354.94769287109375,0
761.2749999999996,0.01055050641298294,0.006354655139148235,0.0006518223672173917,0.0,0.0,0.0,0.0,-0.0009117130539380014,0.0017885634442791343,-0.002464781980961561,0.9957118630409241,0.0,0.0,0.0,1.9602123498916626,6.160714149475098,-1.1614435911178589,-354.80230712890625,0
771.1620000000003,0.010547772981226444,0.006319886073470116,0.0006549670360982418,0.0,0.0,0.0,0.0,0.0010912991128861904,0.0029459812212735415,-0.00025181903038173914,0.9974496960639954,0.0,0.0,0.0,1.9569932222366333,6.154128551483154,-1.165142297744751,-354.21966552734375,0
781.0499999999993,0.010593312792479992,0.006381978280842304,0.000606394954957068,0.0,0.0,0.0,0.0,-0.0036212613340467215,0.0065765720792114735,-0.0027906151954084635,1.000619649887085,0.0,0.0,0.0,1.963289737701416,6.165609836578369,-1.1618120670318604,-355.3593444824219,0
790.9400000000005,0.010594530962407589,0.006346953101456165,0.000603052438236773,0.0,0.0,0.0,0.0,-0.0021717813797295094,-0.0004694080853369087,0.0018737732898443937,1.0019086599349976,0.0,0.0,0.0,1.9612268209457397,6.1675214767456055,-1.1724313497543335,-354.9859619140625,0
800.8260000000009,0.010647494345903397,0.006432218011468649,0.0005442742258310318,0.0,0.0,0.0,0.0,0.0001529565779492259,0.0005874091875739396,0.0026272672694176435,1.0001237392425537,0.0,0.0,0.0,1.9664924144744873,6.196460723876953,-1.1649729013442993,-355.93902587890625,0
810.7109999999993,0.01065121404826641,0.0064021325670182705,0.0005389623111113906,0.0,0.0,0.0,0.0,-0.0026304491329938173,-0.007321368902921677,0.000891622097697109,0.999041736125946,0.0,0.0,0.0,1.9647763967514038,6.190316677093506,-1.1693413257598877,-355.6284484863281,0
820.594000000001,0.010672700591385365,0.006473010405898094,0.0005492937052622437,0.0,0.0,0.0,0.0,-0.001996440812945366,0.004762354306876659,0.0021644490770995617,0.9994298219680786,0.0,0.0,0.0,1.9713871479034424,6.212201118469238,-1.1486024856567383,-356.8249816894531,0
830.482,0.01067704614251852,0.006445006001740694,0.00054347631521523,0.0,0.0,0.0,0.0,0.00012585851072799414,-0.0006072913529351354,0.001251179724931717,0.9991155862808228,0.0,0.0,0.0,1.9698266983032227,6.21242094039917,-1.1594343185424805,-356.5425720214844,0
840.3729999999996,0.010694200173020363,0.006502481643110514,0.0005596397095359862,0.0,0.0,0.0,0.0,0.0025902327615767717,0.001213717507198453,0.003504199208691716,1.000019907951355,0.0,0.0,0.0,1.974744439125061,6.232518672943115,-1.1448811292648315,-357.43267822265625,0
850.2659999999996,0.010697032324969769,0.006474815309047699,0.0005542806466110051,0.0,0.0,0.0,0.0,0.0010478469775989652,0.0023014408070594072,0.000518673041369766,0.9990584850311279,0.0,0.0,0.0,1.9736833572387695,6.22406005859375,-1.1497386693954468,-357.2406005859375,0
860.1470000000008,0.0106961103156209,0.00646562734618783,0.0005659977905452251,0.0,0.0,0.0,0.0,-0.0009258794598281384,0.0005225576460361481,0.003205621149390936,0.9991374015808105,0.0,0.0,0.0,1.9716428518295288,6.217619895935059,-1.1499992609024048,-356.87127685546875,0
870.0280000000002,0.01069340668618679,0.006435857620090246,0.0005611544474959373,0.0,0.0,0.0,0.0,0.00019976736803073436,-0.00021231961727607995,0.0004305664333514869,0.9999212026596069,0.0,0.0,0.0,1.9702798128128052,6.213003635406494,-1.149258017539978,-356.62457275390625,0
879.9279999999999,0.010695943608880043,0.006439582444727421,0.0005697847809642553,0.0,0.0,0.0,0.0,0.0009502945467829704,-0.0010488471016287804,-0.0006385541055351496,1.0016599893569946,0.0,0.0,0.0,1.9769988059997559,6.216104030609131,-1.1401169300079346,-357.8407287597656,0
889.7999999999993,0.010693680495023727,0.006408767309039831,0.0005665390053763986,0.0,0.0,0.0,0.0,-0.0005216942518018186,0.00012568123929668218,-0.0017617113189771771,1.001004695892334,0.0,0.0,0.0,1.9750083684921265,6.207625865936279,-1.1359678506851196,-357.48040771484375,0
899.6869999999999,0.010723437182605267,0.006458697374910116,0.0005389873404055834,0.0,0.0,0.0,0.0,0.00018497924611438066,0.0004817524750251323,0.0004025812668260187,1.000304937362671,0.0,0.0,0.0,1.9722846746444702,6.201484203338623,-1.1338695287704468,-356.9874267578125,0
909.5760000000009,0.010724788531661034,0.006433878093957901,0.0005355940666049719,0.0,0.0,0.0,0.0,0.002804598305374384,0.007865804247558117,0.001361836795695126,1.0014253854751587,0.0,0.0,0.0,1.9700663089752197,6.194877624511719,-1.129354476928711,-356.5859069824219,0
919.4590000000007,0.010724934749305248,0.006430830340832472,0.0005576516268774867,0.0,0.0,0.0,0.0,-0.0017390421126037836,0.0014945021830499172,0.0010072727454826236,1.00068199634552,0.0,0.0,0.0,1.9757572412490845,6.1855082511901855,-1.1530256271362305,-357.6159973144531,0
929.3469999999998,0.010726647451519966,0.006408050190657377,0.000558089988771826,0.0,0.0,0.0,0.0,-0.0011746800737455487,0.00026720139430835843,0.000342281797202304,0.9994220733642578,0.0,0.0,0.0,1.9750428199768066,6.178302764892578,-1.1510295867919922,-357.4866638183594,0
939.2430000000004,0.0107161495834589,0.00642418721690774,0.0006273358012549579,0.0,0.0,0.0,0.0,-0.0021654649171978235,-0.0004442172939889133,-0.0003001988516189158,1.0009169578552246,0.0,0.0,0.0,1.985899806022644,6.1834540367126465,-1.157407283782959,-359.4518127441406,0
949.1200000000008,0.010714654810726643,0.00640120729804039,0.0006332605262286961,0.0,0.0,0.0,0.0,-0.00224241497926414,0.00455545075237751,-7.279557758010924e-05,1.0032649040222168,0.0,0.0,0.0,1.9841622114181519,6.179556369781494,-1.160645842552185,-359.1372985839844,0
959.0059999999994,0.01071042288094759,0.0064290426671504974,0.0006939736194908619,0.0,0.0,0.0,0.0,-0.001030855579301715,0.0013604364357888699,0.0012212041765451431,1.002066969871521,0.0,0.0,0.0,1.98341703414917,6.170479774475098,-1.1695317029953003,-359.00244140625,0
968.8940000000002,0.010708929039537907,0.006408220622688532,0.0007080852519720793,0.0,0.0,0.0,0.0,-0.0008793618180789053,-0.002897583646699786,-0.002687754575163126,1.0018500089645386,0.0,0.0,0.0,1.9814043045043945,6.1664652824401855,-1.1689021587371826,-358.63812255859375,0
978.7759999999998,0.010698378086090088,0.006385583430528641,0.0007431635167449713,0.0,0.0,0.0,0.0,-0.003978182096034288,0.0009900687728077173,0.0014298200840130448,1.0000962018966675,0.0,0.0,0.0,1.989098072052002,6.158571720123291,-1.1662005186080933,-360.0307312011719,0
988.6749999999993,0.010693985968828201,0.006364676170051098,0.0007614920614287257,0.0,0.0,0.0,0.0,5.240711470833048e-05,-0.00148105900734663,-0.0027906412724405527,0.9982808828353882,0.0,0.0,0.0,1.9872688055038452,6.157771587371826,-1.1738075017929077,-359.6995849609375,0
998.5699999999997,0.010691804811358452,0.006360676139593124,0.0007909764535725117,0.0,0.0,0.0,0.0,-0.0006780832773074508,-0.002112679649144411,-0.00011611051013460383,0.9987035393714905,0.0,0.0,0.0,1.9845173358917236,6.148005485534668,-1.1798477172851562,-359.2015686035156,0
1008.4439999999995,0.010687670670449734,0.006338786333799362,0.0008080670377239585,0.0,0.0,0.0,0.0,0.003115021390840411,0.0017079412937164307,0.0027830693870782852,1.0032929182052612,0.0,0.0,0.0,1.9825800657272339,6.145773410797119,-1.1672921180725098,-358.8509216308594,0
1018.3240000000005,0.010684440843760967,0.006315941922366619,0.0008264885400421917,0.0,0.0,0.0,0.0,-0.00042113824747502804,0.002078152261674404,0.0001930476282723248,1.001459002494812,0.0,0.0,0.0,1.9820129871368408,6.1347503662109375,-1.175905466079712,-358.7483215332031,0
1028.2129999999997,0.01068087201565504,0.006289995275437832,0.0008469310705550015,0.0,0.0,0.0,0.0,0.0009801894193515182,0.000648710411041975,0.00016264877922367305,0.9973401427268982,0.0,0.0,0.0,1.9805201292037964,6.131909370422363,-1.1810450553894043,-358.47808837890625,0
1038.0959999999995,0.010713194496929646,0.006359712220728397,0.0008745217346586287,0.0,0.0,0.0,0.0,0.003197645302861929,-6.9962106863386e-07,0.000647957029286772,0.9989796876907349,0.0,0.0,0.0,1.9790595769882202,6.124788284301758,-1.175673484802246,-358.2137145996094,0
1047.987000000001,0.010467661544680595,0.006425063591450453,0.0007279851124621928,0.0,0.0,0.0,0.0,-0.0002288812684128061,0.009792277589440346,-0.0014489907771348953,1.001061201095581,0.0,0.0,0.0,1.977260947227478,6.1182541847229,-1.1735972166061401,-357.88818359375,0
1057.875,0.010558286681771278,0.006546230521053076,0.0006139499018900096,0.0,0.0,0.0,0.0,0.0010709872003644705,0.0006069453083910048,-0.0009381501004099846,0.999996542930603,0.0,0.0,0.0,1.9751602411270142,6.116146087646484,-1.1932919025421143,-357.5079040527344,0
1067.7690000000002,0.010549929924309254,0.006529383827000856,0.0006186934770084918,0.0,0.0,0.0,0.0,-0.002146374434232712,-0.0024419173132628202,0.0018518319120630622,0.9985575079917908,0.0,0.0,0.0,1.9724522829055786,6.110355377197266,-1.1957836151123047,-357.01776123046875,0
1077.6509999999998,0.010542280972003937,0.006509767379611731,0.00062305893516168,0.0,0.0,0.0,0.0,-0.0005846147541888058,0.004116344265639782,-0.0012559329625219107,1.0017277002334595,0.0,0.0,0.0,1.97065007686615,6.109549522399902,-1.1869298219680786,-356.69158935546875,0
1087.5380000000005,0.010534807108342648,0.006487540900707245,0.0006277743959799409,0.0,0.0,0.0,0.0,-0.00047201235429383814,-0.0010620012180879712,0.002168006030842662,0.9990074634552002,0.0,0.0,0.0,1.968736171722412,6.1078691482543945,-1.1886687278747559,-356.34515380859375,0
1097.4179999999997,0.010525659658014774,0.006463040132075548,0.0006331796175800264,0.0,0.0,0.0,0.0,9.690789738669991e-05,0.0012472651433199644,-0.0015474415849894285,1.0013046264648438,0.0,0.0,0.0,1.9671099185943604,6.102662563323975,-1.1810081005096436,-356.05084228515625,0
1107.3060000000005,0.010514278896152973,0.006436306517571211,0.0006388025940395892,0.0,0.0,0.0,0.0,-0.00037108795368112624,-0.001666720025241375,0.0009522788459435105,0.9977032542228699,0.0,0.0,0.0,1.964991569519043,6.09529972076416,-1.1790531873703003,-355.6673889160156,0
1117.1970000000001,0.01057821698486805,0.006567911244928837,0.0005451574106700718,0.0,0.0,0.0,0.0,-0.0010096580954268575,-0.0035724479239434004,0.0017412886954843998,1.0001839399337769,0.0,0.0,0.0,1.9616481065750122,6.125310897827148,-1.1480671167373657,-355.062255859375,0
1127.0910000000003,0.010571186430752277,0.006546601187437773,0.00054225540952757,0.0,0.0,0.0,0.0,9.538319318380672e-06,-0.0005914350040256977,-0.002480893163010478,0.9984870553016663,0.0,0.0,0.0,1.9604086875915527,6.119643688201904,-1.1475785970687866,-354.8378601074219,0
1136.9650000000001,0.010599282570183277,0.006580416578799486,0.0004753429093398154,0.0,0.0,0.0,0.0,0.0003087218792643398,-0.004542334470897913,0.0014006519922986627,0.9989054203033447,0.0,0.0,0.0,1.9651609659194946,6.127950668334961,-1.1316817998886108,-355.6980285644531,0
1146.8559999999998,0.01059290487319231,0.006557502783834934,0.0004666719469241798,0.0,0.0,0.0,0.0,-0.0013380881864577532,-0.0002599058498162776,-0.003334514331072569,1.0012720823287964,0.0,0.0,0.0,1.9635432958602905,6.124568939208984,-1.1134382486343384,-355.4052429199219,0
1156.7489999999998,0.010592185892164707,0.00659344345331192,0.0004894930170848966,0.0,0.0,0.0,0.0,0.002338246675208211,-0.00101833778899163,0.001104877796024084,0.999403178691864,0.0,0.0,0.0,1.970280408859253,6.140872955322266,-1.1091394424438477,-356.6246643066406,0
1166.6319999999996,0.010584967210888863,0.006569568067789078,0.00048317050095647573,0.0,0.0,0.0,0.0,0.002878704108297825,0.0010840377071872354,-0.0001665572344791144,1.0012390613555908,0.0,0.0,0.0,1.9685933589935303,6.131202220916748,-1.1055749654769897,-356.3193054199219,0
1176.5169999999998,0.010572814382612705,0.006557056680321693,0.0005094213993288577,0.0,0.0,0.0,0.0,0.0009663788368925452,0.0014614026295021176,-0.001471304683946073,0.9990931153297424,0.0,0.0,0.0,1.967056393623352,6.12490701675415,-1.0978732109069824,-356.0411071777344,0
1186.3989999999994,0.010567011311650276,0.0065290373750030994,0.0005058064707554877,0.0,0.0,0.0,0.0,0.0013880494516342878,0.0013536761980503798,-0.0004580240638460964,0.9994392395019531,0.0,0.0,0.0,1.9648979902267456,6.116654872894287,-1.0912033319473267,-355.6504821777344,0
1196.2849999999999,0.010561781004071236,0.006498309317976236,0.0005019251257181168,0.0,0.0,0.0,0.0,0.0024580596946179867,0.004197448026388884,0.004417894873768091,0.9997357726097107,0.0,0.0,0.0,1.9623066186904907,6.108780384063721,-1.0941392183303833,-355.181396484375,0
1206.1730000000007,0.01055674534291029,0.0064659733325243,0.000498206471092999,0.0,0.0,0.0,0.0,-0.0007715528481639922,0.0048200893215835094,0.0010578443761914968,0.9997328519821167,0.0,0.0,0.0,1.9614460468292236,6.095532417297363,-1.0956634283065796,-355.025634765625,0
1216.0650000000005,0.0105398278683424,0.006480458192527294,0.000577909464482218,0.0,0.0,0.0,0.0,-0.0010576201602816582,0.001949117286130786,-0.003826667321845889,0.9996957778930664,0.0,0.0,0.0,1.9596580266952515,6.091001033782959,-1.1057074069976807,-354.70196533203125,0
1225.9490000000005,0.010533749125897884,0.006446288898587227,0.0005796108162030578,0.0,0.0,0.0,0.0,-0.000364352366887033,0.0011491896584630013,-0.004185893107205629,0.9999911189079285,0.0,0.0,0.0,1.9561951160430908,6.084445476531982,-1.1181927919387817,-354.0752258300781,0
1235.8320000000003,0.010529212653636932,0.006462595425546169,0.0006285015260800719,0.0,0.0,0.0,0.0,-0.004989553242921829,6.463103636633605e-05,0.002804426709190011,0.9995055794715881,0.0,0.0,0.0,1.953028917312622,6.0737786293029785,-1.1209760904312134,-353.5021057128906,0
1245.7180000000008,0.010524393990635872,0.006427174434065819,0.0006332414341159165,0.0,0.0,0.0,0.0,-0.001214512623846531,0.00396001385524869,0.004065889399498701,1.000006079673767,0.0,0.0,0.0,1.9524476528167725,6.075771808624268,-1.117607831954956,-353.39691162109375,0
1255.6129999999994,0.010521394200623035,0.006406171713024378,0.0006573984283022583,0.0,0.0,0.0,0.0,0.0028073794674128294,0.0008023459813557565,0.0016383478650823236,0.9991671442985535,0.0,0.0,0.0,1.9653277397155762,6.077944755554199,-1.1245861053466797,-355.7282409667969,0
1265.491,0.010520663112401962,0.0063661206513643265,0.0006633030716329813,0.0,0.0,0.0,0.0,-0.001232505775988102,-0.00282628508284688,-0.0009001319413073361,1.0007634162902832,0.0,0.0,0.0,1.9636083841323853,6.070186138153076,-1.130406141281128,-355.4170227050781,0
1275.3899999999994,0.010521716438233852,0.00632392056286335,0.0006696005584672093,0.0,0.0,0.0,0.0,-0.0007600465323776007,-0.005481734871864319,0.0033631124533712864,1.0006967782974243,0.0,0.0,0.0,1.9615046977996826,6.070204257965088,-1.1188809871673584,-355.0362854003906,0
1285.2700000000004,0.010523184202611446,0.006280218251049519,0.0006768666207790375,0.0,0.0,0.0,0.0,-0.0012843675212934613,-0.0025380770675837994,0.0003483380423858762,1.0002530813217163,0.0,0.0,0.0,1.9594752788543701,6.066592693328857,-1.1082496643066406,-354.6689453125,0
1295.152,0.010524540208280087,0.0062356973066926,0.0006846837350167334,0.0,0.0,0.0,0.0,-0.0022672873456031084,0.0030084240715950727,-0.00405195401981473,1.0012954473495483,0.0,0.0,0.0,1.9580271244049072,6.061790466308594,-1.104204535484314,-354.40679931640625,0
1305.0509999999995,0.010525745339691639,0.006190627813339233,0.0006931968382559717,0.0,0.0,0.0,0.0,0.0002546012110542506,0.007839369587600231,-0.0018828511238098145,1.0010658502578735,0.0,0.0,0.0,1.9546282291412354,6.056225299835205,-1.1119928359985352,-353.7916259765625,0
1314.924000000001,0.010617958381772041,0.006310302298516035,0.0006390963098965585,0.0,0.0,0.0,0.0,0.0032181611750274897,-0.0022598919458687305,-0.0034884093329310417,1.0009148120880127,0.0,0.0,0.0,1.9624446630477905,6.10020637512207,-1.091336965560913,-355.2063903808594,0
1324.8140000000003,0.010625411756336689,0.006275634281337261,0.0006438412237912416,0.0,0.0,0.0,0.0,0.0014409554423764348,0.00645054504275322,0.0006887867348268628,0.9988767504692078,0.0,0.0,0.0,1.9594321250915527,6.092284202575684,-1.0914546251296997,-354.6611022949219,0
1334.7070000000003,0.01070901658385992,0.0063812872394919395,0.0006096858414821327,0.0,0.0,0.0,0.0,-0.00038541745743714273,-0.0030659164767712355,0.0025180974043905735,0.9995815753936768,0.0,0.0,0.0,1.966253638267517,6.123534679412842,-1.0816935300827026,-355.89581298828125,0
1344.594000000001,0.010723182000219822,0.006353938020765781,0.0006101528415456414,0.0,0.0,0.0,0.0,0.0012837605318054557,-0.0008054681238718331,-0.0003524535277392715,1.0005117654800415,0.0,0.0,0.0,1.9642382860183716,6.123163223266602,-1.076568603515625,-355.5310363769531,0
1354.4719999999998,0.010738537646830082,0.006324407644569874,0.000611150055192411,0.0,0.0,0.0,0.0,0.001404235721565783,0.00785348005592823,-0.0007247143075801432,0.998896598815918,0.0,0.0,0.0,1.9609081745147705,6.118420124053955,-1.0726910829544067,-354.92828369140625,0
1364.3600000000006,0.010813293047249317,0.006421374157071114,0.0006051146192476153,0.0,0.0,0.0,0.0,0.0009010490030050278,0.00034383602906018496,0.0016096694162115455,0.9993544220924377,0.0,0.0,0.0,1.9607832431793213,6.1514177322387695,-1.0629632472991943,-354.90570068359375,0
1374.2459999999992,0.010833118110895157,0.006396652664989233,0.0006034662947058678,0.0,0.0,0.0,0.0,0.004028916824609041,0.007588524371385574,0.001251006731763482,0.9989200830459595,0.0,0.0,0.0,1.9590102434158325,6.144687652587891,-1.0654677152633667,-354.5847473144531,0
1384.143,0.01085356529802084,0.00637010158970952,0.000601123203523457,0.0,0.0,0.0,0.0,-0.0031682781409472227,-0.001480774604715407,-0.00031783536542207,0.9994171261787415,0.0,0.0,0.0,1.95737624168396,6.130915641784668,-1.0829808712005615,-354.2889709472656,0
1394.0229999999992,0.010873286053538322,0.006341709289699793,0.0005984094459563494,0.0,0.0,0.0,0.0,0.001115047954954207,-0.004230715334415436,0.001996989594772458,1.0014441013336182,0.0,0.0,0.0,1.9551790952682495,6.1344404220581055,-1.078898549079895,-353.89129638671875,0
1403.9069999999992,0.010891980491578579,0.0063124168664216995,0.0005966593744233251,0.0,0.0,0.0,0.0,0.0011249925009906292,9.245317778550088e-05,-0.0065022301860153675,1.000603199005127,0.0,0.0,0.0,1.9540752172470093,6.127282619476318,-1.0757511854171753,-353.6914978027344,0
1413.7919999999995,0.010909933596849442,0.006282696034759283,0.0005959691479802132,0.0,0.0,0.0,0.0,0.0010622707195580006,0.004243665374815464,0.0024277600459754467,0.9984810948371887,0.0,0.0,0.0,1.9507403373718262,6.123213768005371,-1.0809884071350098,-353.087890625,0
1423.6890000000003,0.010917902924120426,0.006331156939268112,0.0006683053215965629,0.0,0.0,0.0,0.0,-0.0004994722548872232,0.00033723097294569016,-0.0042390599846839905,0.9979232549667358,0.0,0.0,0.0,1.9497053623199463,6.114688873291016,-1.0923100709915161,-352.90057373046875,0
1433.5720000000001,0.010933599434792995,0.006303334608674049,0.0006697395001538098,0.0,0.0,0.0,0.0,-0.001631914870813489,-0.000838521693367511,0.0016032441053539515,0.9989667534828186,0.0,0.0,0.0,1.9475409984588623,6.110300540924072,-1.096895456314087,-352.5087890625,0
1443.455,0.010902520269155502,0.0062980069778859615,0.0007545423577539623,0.0,0.0,0.0,0.0,-0.0018377131782472134,-0.005572205409407616,0.0020442609675228596,0.998677134513855,0.0,0.0,0.0,1.9583625793457031,6.106860160827637,-1.1014742851257324,-354.4674987792969,0
1453.339,0.010914040729403496,0.0062683443538844585,0.0007595191709697247,0.0,0.0,0.0,0.0,0.0005967011093162,0.003852871945127845,0.0007301741279661655,0.9985643029212952,0.0,0.0,0.0,1.9564087390899658,6.099401473999023,-1.084663987159729,-354.1138916015625,0
1463.2260000000006,0.010897732339799404,0.006261664908379316,0.000817239168100059,0.0,0.0,0.0,0.0,-0.00044834412983618677,-0.004822846502065659,-0.0011709503596648574,0.9987087845802307,0.0,0.0,0.0,1.9721521139144897,6.096132278442383,-1.0944032669067383,-356.96343994140625,0
1473.1149999999998,0.01090957596898079,0.00623204093426466,0.0008232910186052322,0.0,0.0,0.0,0.0,-0.004573408979922533,-0.003087403252720833,-0.004662895109504461,0.9991617798805237,0.0,0.0,0.0,1.9708701372146606,6.090506553649902,-1.0864046812057495,-356.7314147949219,0
1482.9959999999992,0.010916388593614101,0.006244541611522436,0.0008654655539430678,0.0,0.0,0.0,0.0,-0.0007196988444775343,-0.002502501243725419,-0.0011561919236555696,1.0014891624450684,0.0,0.0,0.0,1.9731941223144531,6.107995510101318,-1.0837435722351074,-357.15203857421875,0
1492.8919999999998,0.01093086414039135,0.006212987005710602,0.0008737265015952289,0.0,0.0,0.0,0.0,-0.0011601176811382174,0.0016160495579242706,0.0027731049340218306,1.0000308752059937,0.0,0.0,0.0,1.9705482721328735,6.105072975158691,-1.0784028768539429,-356.6731872558594,0
1502.777,0.010986758396029472,0.006249716971069574,0.0008854109910316765,0.0,0.0,0.0,0.0,0.00010340253356844187,0.0012174228904768825,-0.0006755528156645596,1.002221703529358,0.0,0.0,0.0,1.979267954826355,6.125025749206543,-1.0706322193145752,-358.2514343261719,0
1512.6589999999997,0.011000697501003742,0.006217661313712597,0.0008947344031184912,0.0,0.0,0.0,0.0,-0.0037377579137682915,-0.005404110066592693,0.0029043685644865036,1.0016435384750366,0.0,0.0,0.0,1.9770917892456055,6.114591598510742,-1.0767205953598022,-357.8575439453125,0
1522.545,0.011014183983206749,0.00618313392624259,0.00090598757378757,0.0,0.0,0.0,0.0,1.3364358437684132e-06,-0.0058613973669707775,0.0020427636336535215,0.9994502067565918,0.0,0.0,0.0,1.975466251373291,6.11192512512207,-1.0676482915878296,-357.56329345703125,0
1532.4400000000005,0.011028609238564968,0.0061462330631911755,0.0009178806212730706,0.0,0.0,0.0,0.0,0.0007085112738423049,-0.0009000104037113488,-0.00046693201875314116,0.9997058510780334,0.0,0.0,0.0,1.9738329648971558,6.104510307312012,-1.0513384342193604,-357.2676696777344,0
1542.3099999999995,0.011103595606982708,0.006244399584829807,0.0009494083351455629,0.0,0.0,0.0,0.0,-0.0009300127276219428,-0.0016071146819740534,0.0012617810862138867,0.9992820024490356,0.0,0.0,0.0,1.9778478145599365,6.139168739318848,-1.0261350870132446,-357.9944152832031,0
1552.2090000000007,0.011120778508484364,0.00621280400082469,0.0009597294847480953,0.0,0.0,0.0,0.0,0.00014390930300578475,0.006186864338815212,-0.0006730292225256562,1.0009335279464722,0.0,0.0,0.0,1.9765162467956543,6.135721683502197,-1.0218751430511475,-357.7533874511719,0
1562.0910000000003,0.011138835921883583,0.006180053111165762,0.0009705748525448143,0.0,0.0,0.0,0.0,0.0016332558589056134,-0.0020812370348721743,-0.00039366629789583385,1.0013822317123413,0.0,0.0,0.0,1.974647879600525,6.126026153564453,-1.0333000421524048,-357.4151916503906,0
1571.978000000001,0.011158712208271027,0.006144823040813208,0.0009828207548707724,0.0,0.0,0.0,0.0,0.0012497470015659928,0.005542596336454153,0.0024485026951879263,0.9999790787696838,0.0,0.0,0.0,1.9710123538970947,6.120485782623291,-1.0315499305725098,-356.75714111328125,0
1581.866,0.01117882039397955,0.006106475368142128,0.0009958220180124044,0.0,0.0,0.0,0.0,0.0013432316482067108,0.003794522490352392,0.0008323303773067892,0.9988957643508911,0.0,0.0,0.0,1.9697208404541016,6.111850261688232,-1.0426357984542847,-356.52337646484375,0
1591.7510000000002,0.011198352091014385,0.006066629197448492,0.0010084527311846614,0.0,0.0,0.0,0.0,0.0008313230937346816,0.004662956111133099,0.0038956080097705126,0.9994764924049377,0.0,0.0,0.0,1.9675620794296265,6.103616714477539,-1.0544357299804688,-356.13262939453125,0
1601.6470000000008,0.011217872612178326,0.006025786977261305,0.0010207234881818295,0.0,0.0,0.0,0.0,0.0005405628471635282,-0.007470401469618082,-0.00038619484985247254,1.0009171962738037,0.0,0.0,0.0,1.9667699337005615,6.095881938934326,-1.065756916999817,-355.9892883300781,0
1611.5349999999999,0.011237546801567078,0.005982592236250639,0.0010334112448617816,0.0,0.0,0.0,0.0,0.004443253856152296,0.0031851644162088633,0.0007078074850142002,1.0026172399520874,0.0,0.0,0.0,1.9645687341690063,6.090268135070801,-1.0473014116287231,-355.5908508300781,0
1621.402,0.011257096193730831,0.005936634726822376,0.0010479307966306806,0.0,0.0,0.0,0.0,-0.0017104054568335414,-0.0009435865795239806,-0.002709232736378908,1.000832438468933,0.0,0.0,0.0,1.9622564315795898,6.080390453338623,-1.0543854236602783,-355.1723327636719,0
1631.2960000000003,0.011276139877736568,0.0058884574100375175,0.001064299140125513,0.0,0.0,0.0,0.0,0.0001825575454859063,-0.001934730214998126,0.002975598443299532,1.0005297660827637,0.0,0.0,0.0,1.9591914415359497,6.081364631652832,-1.0525089502334595,-354.6175537109375,0
1641.179,0.011294770054519176,0.005837592761963606,0.0010816192952916026,0.0,0.0,0.0,0.0,0.0009885055478662252,0.00341853778809309,0.0038680164143443108,1.0007870197296143,0.0,0.0,0.0,1.9578864574432373,6.075165748596191,-1.0481846332550049,-354.3813171386719,0
1651.0789999999997,0.011312524788081646,0.00578354811295867,0.001099444692954421,0.0,0.0,0.0,0.0,0.0011329753324389458,0.006225078832358122,-0.0003862652229145169,0.9977443814277649,0.0,0.0,0.0,1.9569765329360962,6.0674543380737305,-1.0586354732513428,-354.2166442871094,0
1660.9660000000003,0.011329534463584423,0.0057261353358626366,0.0011163352755829692,0.0,0.0,0.0,0.0,-9.5993687864393e-05,0.002904420020058751,0.0007142082322388887,0.9975584745407104,0.0,0.0,0.0,1.9541919231414795,6.056982040405273,-1.0825799703598022,-353.7126159667969,0
1670.8469999999998,0.011346661485731602,0.005666378419846296,0.0011312481947243214,0.0,0.0,0.0,0.0,-0.001520148478448391,-0.004476888105273247,0.002337477868422866,0.9983968138694763,0.0,0.0,0.0,1.9525281190872192,6.048260688781738,-1.0928810834884644,-353.4114990234375,0
1680.7240000000002,0.011363768950104713,0.005605388432741165,0.0011447316501289606,0.0,0.0,0.0,0.0,0.00023841553775127977,0.002190617611631751,6.933271652087569e-05,1.0001976490020752,0.0,0.0,0.0,1.9514845609664917,6.041058540344238,-1.0760031938552856,-353.22259521484375,0
1690.6170000000002,0.011380917392671108,0.0055420249700546265,0.0011581056751310825,0.0,0.0,0.0,0.0,-0.0021408244501799345,0.0021468685008585453,0.0018837490351870656,1.0006003379821777,0.0,0.0,0.0,1.9501458406448364,6.032182693481445,-1.0806769132614136,-352.98028564453125,0
1700.4950000000008,0.011397705413401127,0.005476298741996288,0.0011718574678525329,0.0,0.0,0.0,0.0,-0.0016890766564756632,-0.005318360403180122,0.0025107853580266237,0.9986944794654846,0.0,0.0,0.0,1.948275089263916,6.028047561645508,-1.0846636295318604,-352.64166259765625,0
1710.3940000000002,0.011413880623877048,0.005409121513366699,0.0011853354517370462,0.0,0.0,0.0,0.0,-0.0030547527130693197,-0.0004034388402942568,0.002463490469381213,0.9989239573478699,0.0,0.0,0.0,1.9466524124145508,6.02720832824707,-1.0722765922546387,-352.34796142578125,0
1720.2710000000006,0.011431940831243992,0.005333780311048031,0.0011991076171398163,0.0,0.0,0.0,0.0,-0.0014902749098837376,0.004904606845229864,0.001531309331767261,1.000106692314148,0.0,0.0,0.0,1.9457461833953857,6.0252461433410645,-1.06803297996521,-352.1839294433594,0
1730.1630000000005,0.011448833160102367,0.005264159757643938,0.0012109244707971811,0.0,0.0,0.0,0.0,0.001196503173559904,0.0033574490807950497,-0.0018260461511090398,0.9991697669029236,0.0,0.0,0.0,1.9438800811767578,6.019861221313477,-1.0746870040893555,-351.84613037109375,0
1740.0419999999995,0.011468336917459965,0.005186169408261776,0.0012235636822879314,0.0,0.0,0.0,0.0,0.0032197635155171156,-0.0001298558636335656,0.00368321780115366,0.9995006322860718,0.0,0.0,0.0,1.9416747093200684,6.014511585235596,-1.081457257270813,-351.44696044921875,0
1749.9500000000007,0.01148928701877594,0.005106094293296337,0.0012360196560621262,0.0,0.0,0.0,0.0,-6.300822860794142e-05,0.001622369629330933,-0.0016162623651325703,1.0017249584197998,0.0,0.0,0.0,1.9408152103424072,6.008439064025879,-1.0839848518371582,-351.2914123535156,0
1759.8279999999995,0.011510014533996582,0.005031104199588299,0.0012488942593336105,0.0,0.0,0.0,0.0,-0.0013183362316340208,0.0015505579067394137,0.0014589085476472974,1.0017262697219849,0.0,0.0,0.0,1.938442349433899,6.00666618347168,-1.0759222507476807,-350.8619079589844,0
1769.7160000000003,0.01153184100985527,0.0049545662477612495,0.0012633907608687878,0.0,0.0,0.0,0.0,-0.0008137052645906806,0.001853962428867817,-0.0007710324716754258,0.9984915256500244,0.0,0.0,0.0,1.9366810321807861,5.9984869956970215,-1.0910640954971313,-350.5431213378906,0
1779.5920000000006,0.011553112417459488,0.0048768483102321625,0.0012774544302374125,0.0,0.0,0.0,0.0,-0.003062756499275565,-0.0037507815286517143,0.0032825018279254436,0.9992899894714355,0.0,0.0,0.0,1.935028314590454,5.992547035217285,-1.0968483686447144,-350.2439880371094,0
1789.4860000000008,0.011553112417459488,0.0048768483102321625,0.0012774544302374125,0.0,0.0,0.0,0.0,0.00030631801928393543,0.0037893049884587526,-0.002737258095294237,1.002564787864685,0.0,0.0,0.0,1.935028314590454,5.992547035217285,-1.0968483686447144,-350.2439880371094,0
1799.362000000001,0.011821181513369083,0.005887115374207497,0.001580935437232256,0.0,0.0,0.0,0.0,-0.0017718063900247216,0.0019094165181741118,2.4673401640029624e-05,1.0014313459396362,0.0,0.0,0.0,1.953644037246704,6.172000885009766,-1.0528491735458374,-353.61346435546875,0
1809.2600000000002,0.011857355013489723,0.005851421505212784,0.0016064601950347424,0.0,0.0,0.0,0.0,-0.002607241738587618,-0.0016444454668089747,0.001179085811600089,1.000301480293274,0.0,0.0,0.0,1.9512301683425903,6.165816307067871,-1.0507771968841553,-353.1765441894531,0
1819.1360000000004,0.011934594251215458,0.005972609389573336,0.0016237954841926694,0.0,0.0,0.0,0.0,-0.0008813866879791021,-0.0035970774479210377,0.0025455127470195293,0.9984428882598877,0.0,0.0,0.0,1.9512301683425903,6.165816307067871,-1.0507771968841553,-353.1765441894531,0
1829.0370000000003,0.010486139915883541,0.006458773743361235,0.0005221972241997719,0.0,0.0,0.0,0.0,-0.0023188400082290173,-0.0013476990861818194,0.004453524015843868,0.9983732104301453,0.0,0.0,0.0,1.9326727390289307,6.198726654052734,-1.1302460432052612,-349.817626953125,0
1838.911,0.010493089444935322,0.0064352829940617085,0.0005483612767420709,0.0,0.0,0.0,0.0,-0.0013058343902230263,-0.00013070770364720374,-0.001695737591944635,0.9979313015937805,0.0,0.0,0.0,1.9517016410827637,6.202715873718262,-1.1348620653152466,-353.2618713378906,0
1848.812,0.01050376333296299,0.006409164983779192,0.0005519023980014026,0.0,0.0,0.0,0.0,0.002325518289580941,0.006539310794323683,-0.002911183051764965,0.9989920854568481,0.0,0.0,0.0,1.9503283500671387,6.198386192321777,-1.1363765001296997,-353.0133056640625,0
1858.683000000001,0.010514387860894203,0.006382015533745289,0.0005540436250157654,0.0,0.0,0.0,0.0,0.00011028598964912817,0.0011337428586557508,-0.00048443887499161065,0.9996355772018433,0.0,0.0,0.0,1.9476786851882935,6.1868181228637695,-1.1502145528793335,-352.5337219238281,0
1868.5920000000006,0.010525197722017765,0.0063539594411849976,0.0005550418281927705,0.0,0.0,0.0,0.0,-0.0028866571374237537,0.00026167219039052725,-0.0012946923961862922,1.0011837482452393,0.0,0.0,0.0,1.9454123973846436,6.179982662200928,-1.1554652452468872,-352.1235046386719,0
1878.4580000000005,0.010559961199760437,0.006365407723933458,0.000520681613124907,0.0,0.0,0.0,0.0,-0.002301174448803067,-0.0038279620930552483,0.0036063315346837044,1.0014948844909668,0.0,0.0,0.0,1.9532952308654785,6.186676502227783,-1.1497704982757568,-353.5503234863281,0
1888.353000000001,0.010571415536105633,0.006338043604046106,0.0005201305611990392,0.0,0.0,0.0,0.0,-0.0011988981859758496,0.0004719039425253868,-0.001181035186164081,0.9994324445724487,0.0,0.0,0.0,1.953135371208191,6.1861114501953125,-1.1472198963165283,-353.5213928222656,0
1898.2309999999998,0.010583455674350262,0.006308979354798794,0.0005206885398365557,0.0,0.0,0.0,0.0,-0.0003696489438880235,0.004547324031591415,1.4287150406744331e-05,0.9991640448570251,0.0,0.0,0.0,1.9504718780517578,6.182446002960205,-1.1441150903701782,-353.0392761230469,0
1908.1290000000008,0.010595900937914848,0.006278191227465868,0.0005211315583437681,0.0,0.0,0.0,0.0,-0.001697266474366188,0.0005585912731476128,0.004683538340032101,0.9986888766288757,0.0,0.0,0.0,1.9488153457641602,6.17501974105835,-1.1552996635437012,-352.7394714355469,0
1918.0059999999994,0.010607680305838585,0.006246909964829683,0.0005206531495787203,0.0,0.0,0.0,0.0,0.0004245795716997236,-0.0050790682435035706,-0.00491339759901166,0.9989538192749023,0.0,0.0,0.0,1.9480599164962769,6.172306537628174,-1.1598596572875977,-352.60272216796875,0
1927.9030000000002,0.010618988424539566,0.006215565837919712,0.00051923468708992,0.0,0.0,0.0,0.0,0.001909770886413753,-0.0011459511006250978,-0.0002360402577323839,1.001060962677002,0.0,0.0,0.0,1.945817470550537,6.166009902954102,-1.1515454053878784,-352.19683837890625,0
1937.7790000000005,0.010630827397108078,0.006183473858982325,0.0005176732083782554,0.0,0.0,0.0,0.0,0.0011566131142899394,0.006438936106860638,-0.00583156431093812,1.0009098052978516,0.0,0.0,0.0,1.944324254989624,6.161787986755371,-1.1477177143096924,-351.92657470703125,0
1947.6710000000003,0.010642175562679768,0.006150462199002504,0.000517003471031785,0.0,0.0,0.0,0.0,0.00047662018914707005,0.0023361651692539454,0.0011321898782625794,0.9979881048202515,0.0,0.0,0.0,1.940204381942749,6.157445907592773,-1.1591081619262695,-351.1808776855469,0
1957.5499999999993,0.010651416145265102,0.00611597066745162,0.0005165854236111045,0.0,0.0,0.0,0.0,-0.001306183752603829,0.004885692149400711,-0.0018440698040649295,0.9991331100463867,0.0,0.0,0.0,1.938502550125122,6.147476673126221,-1.1713610887527466,-350.872802734375,0
1967.4439999999995,0.010658885352313519,0.006078497041016817,0.0005151043296791613,0.0,0.0,0.0,0.0,0.0034294375218451023,0.003684256225824356,0.0005890934262424707,0.9993694424629211,0.0,0.0,0.0,1.9369397163391113,6.14545202255249,-1.1705031394958496,-350.5899353027344,0
1977.3220000000001,0.01066626701503992,0.006037346087396145,0.0005125075113028288,0.0,0.0,0.0,0.0,-0.0026336985174566507,0.0027610037941485643,-0.0022296584211289883,0.9996646046638489,0.0,0.0,0.0,1.9355731010437012,6.134223461151123,-1.1851880550384521,-350.34259033203125,0
1987.223,0.01067362166941166,0.005993576254695654,0.0005095091764815152,0.0,0.0,0.0,0.0,0.0006636150064878166,0.0009397727553732693,0.005387146025896072,0.9979674816131592,0.0,0.0,0.0,1.9322900772094727,6.132051944732666,-1.1934949159622192,-349.7483825683594,0
1997.0959999999995,0.010679974220693111,0.005948895588517189,0.0005060454714111984,0.0,0.0,0.0,0.0,-0.001274890499189496,-0.006819884292781353,0.0037324971053749323,0.9982243776321411,0.0,0.0,0.0,1.9321188926696777,6.1237688064575195,-1.1883810758590698,-349.7173767089844,0
2006.9930000000004,0.010685977526009083,0.0059039234183728695,0.0005010340246371925,0.0,0.0,0.0,0.0,-0.0009651112486608326,-0.0013650273904204369,-0.00037140821223147213,0.9987443089485168,0.0,0.0,0.0,1.9300788640975952,6.120145797729492,-1.1833209991455078,-349.34808349609375,0
2016.8700000000008,0.010691790841519833,0.005858325865119696,0.0004945822292938828,0.0,0.0,0.0,0.0,-0.0001843044301494956,-0.004491070751100779,-0.0039156172424554825,0.9990242719650269,0.0,0.0,0.0,1.9282817840576172,6.114980220794678,-1.1616941690444946,-349.0228576660156,0
2026.7639999999992,0.01069630216807127,0.0058117336593568325,0.00048747804248705506,0.0,0.0,0.0,0.0,-0.0021934451069682837,-0.0037185391411185265,0.0017869134899228811,1.001230001449585,0.0,0.0,0.0,1.9258716106414795,6.108046054840088,-1.1591196060180664,-348.5865783691406,0
2036.643,0.010699148289859295,0.005763962399214506,0.00048001474351622164,0.0,0.0,0.0,0.0,-0.0009707705467008054,0.0029442314989864826,0.003426379757001996,1.0005496740341187,0.0,0.0,0.0,1.925864577293396,6.111457824707031,-1.1462962627410889,-348.5852966308594,0
2046.5519999999997,0.010701215825974941,0.005715111270546913,0.00047316341078840196,0.0,0.0,0.0,0.0,-0.0029890011064708233,0.004151569679379463,0.004465656820684671,0.998708963394165,0.0,0.0,0.0,1.9247032403945923,6.105796813964844,-1.1391223669052124,-348.3750915527344,0
2056.419,0.01070350781083107,0.005665105767548084,0.0004669994523283094,0.0,0.0,0.0,0.0,0.0012292086612433195,-0.0032548217568546534,-0.00038961772224865854,0.9978480935096741,0.0,0.0,0.0,1.9220595359802246,6.107480525970459,-1.1481105089187622,-347.8966064453125,0
2066.3099999999995,0.010705613531172276,0.0056134182959795,0.0004599358362611383,0.0,0.0,0.0,0.0,0.001386708696372807,0.00492656696587801,-0.0012832325883209705,0.9981509447097778,0.0,0.0,0.0,1.9196027517318726,6.098196983337402,-1.1443231105804443,-347.451904296875,0
2076.1939999999995,0.010706272907555103,0.005560755729675293,0.0004511915612965822,0.0,0.0,0.0,0.0,-0.001406803959980607,-0.0036087806802242994,0.0009158924804069102,0.9984920620918274,0.0,0.0,0.0,1.9179428815841675,6.0843377113342285,-1.148337483406067,-347.1514892578125,0
2086.0840000000007,0.010705477558076382,0.005507968831807375,0.00044090874143876135,0.0,0.0,0.0,0.0,-0.0010161614045500755,-0.001946299453265965,-0.00016072203288786113,0.9992969036102295,0.0,0.0,0.0,1.916204571723938,6.079888343811035,-1.1350483894348145,-346.83685302734375,0
2095.9629999999997,0.01070456113666296,0.005454347003251314,0.00042927131289616227,0.0,0.0,0.0,0.0,-0.002761475509032607,0.0008627635543234646,-0.001325956080108881,1.0007084608078003,0.0,0.0,0.0,1.914057731628418,6.076583385467529,-1.1310943365097046,-346.4482421875,0
2105.861000000001,0.010704081505537033,0.005398655775934458,0.000417207193095237,0.0,0.0,0.0,0.0,0.0007544005638919771,0.0006001930451020598,-0.00041310462984256446,1.0005619525909424,0.0,0.0,0.0,1.9126147031784058,6.069276332855225,-1.1310288906097412,-346.1870422363281,0
2115.733,0.01070326380431652,0.005340192932635546,0.00040585888200439513,0.0,0.0,0.0,0.0,-0.004182465840131044,0.0025335922837257385,-0.0005787450936622918,0.9991205334663391,0.0,0.0,0.0,1.911361575126648,6.066815376281738,-1.1347662210464478,-345.9602355957031,0
2125.6360000000004,0.010701335035264492,0.005279208533465862,0.00039490897324867547,0.0,0.0,0.0,0.0,0.0009017675183713436,-0.00028522740467451513,-0.00011021862883353606,1.002230167388916,0.0,0.0,0.0,1.9084320068359375,6.06114387512207,-1.1431376934051514,-345.42999267578125,0
2135.5069999999996,0.010698704980313778,0.005216972902417183,0.00038469102582894266,0.0,0.0,0.0,0.0,0.0006675234180875123,-0.0018205658998340368,-0.0023317597806453705,1.0002663135528564,0.0,0.0,0.0,1.906276822090149,6.057892322540283,-1.144282341003418,-345.0398864746094,0
2145.411,0.010695400647819042,0.005154350306838751,0.0003757494851015508,0.0,0.0,0.0,0.0,0.0005147822084836662,0.007727727293968201,0.0016704002628102899,0.9994103908538818,0.0,0.0,0.0,1.904011845588684,6.0470194816589355,-1.155838966369629,-344.62994384765625,0
2155.2819999999992,0.010253161191940308,0.005982822738587856,0.001053146319463849,0.0,0.0,0.0,0.0,-0.003405527910217643,-0.0010446197120472789,-0.0015598918544128537,0.9989554286003113,0.0,0.0,0.0,1.897925853729248,6.175488471984863,-1.2290441989898682,-343.5283203125,0
2165.1810000000005,0.010231988504529,0.005949411541223526,0.0010682180291041732,0.0,0.0,0.0,0.0,0.0020481173414736986,-0.0009594100411050022,0.0029764266218990088,0.9996410608291626,0.0,0.0,0.0,1.8965667486190796,6.173439025878906,-1.226468801498413,-343.2823486328125,0
2175.0650000000005,0.010211838409304619,0.005913961213082075,0.0010828027734532952,0.0,0.0,0.0,0.0,-0.0016684255097061396,0.000448797334684059,-0.0011152729857712984,0.9994400143623352,0.0,0.0,0.0,1.8947993516921997,6.167212009429932,-1.226296305656433,-342.96246337890625,0
2184.9500000000007,0.010191814042627811,0.005878867115825415,0.0010972719173878431,0.0,0.0,0.0,0.0,0.0007739291759207845,0.002660909900441766,0.001272869179956615,1.0006977319717407,0.0,0.0,0.0,1.892317295074463,6.165238857269287,-1.2265498638153076,-342.5132141113281,0
2194.8269999999993,0.010170906782150269,0.00584328081458807,0.0011117425747215748,0.0,0.0,0.0,0.0,0.001163712004199624,0.00035020822542719543,0.0007342952885665,1.0016294717788696,0.0,0.0,0.0,1.891614556312561,6.160628318786621,-1.2212097644805908,-342.3860168457031,0
2204.724,0.010149195790290833,0.005805999040603638,0.0011273683048784733,0.0,0.0,0.0,0.0,-0.00011977462418144569,0.0016951003344729543,-0.0026732017286121845,1.0006914138793945,0.0,0.0,0.0,1.889565348625183,6.153325080871582,-1.221448302268982,-342.0151062011719,0
2214.6000000000004,0.010126746259629726,0.0057676550932228565,0.00114448182284832,0.0,0.0,0.0,0.0,0.0015602012863382697,-0.002910444512963295,-4.936150799039751e-05,1.0002779960632324,0.0,0.0,0.0,1.8872041702270508,6.144706726074219,-1.22119140625,-341.58770751953125,0
2224.4940000000006,0.010104072280228138,0.00572872394695878,0.0011623178143054247,0.0,0.0,0.0,0.0,0.0013480476336553693,0.001438594306819141,8.124729356495664e-05,1.0020554065704346,0.0,0.0,0.0,1.8849472999572754,6.1324872970581055,-1.2197505235671997,-341.1792297363281,0
2234.3729999999996,0.010081200860440731,0.005689115263521671,0.001181240426376462,0.0,0.0,0.0,0.0,-0.00017842974921222776,0.006296464242041111,0.0012529997620731592,0.9987806677818298,0.0,0.0,0.0,1.8828233480453491,6.125921249389648,-1.2329179048538208,-340.79473876953125,0
2244.2700000000004,0.01005770917981863,0.005648419260978699,0.0012009983183816075,0.0,0.0,0.0,0.0,-0.0009852494113147259,-0.004451144486665726,0.00262684584595263,0.9974067807197571,0.0,0.0,0.0,1.8809541463851929,6.1157684326171875,-1.2463374137878418,-340.4564514160156,0
2254.1499999999996,0.010032945312559605,0.0056066615507006645,0.001219762023538351,0.0,0.0,0.0,0.0,0.0029590690974146128,0.0024398488458245993,-0.0015798533568158746,0.9980413317680359,0.0,0.0,0.0,1.8803539276123047,6.11265754699707,-1.2357275485992432,-340.3478088378906,0
2264.0419999999995,0.010006270371377468,0.005563888233155012,0.001236448297277093,0.0,0.0,0.0,0.0,-0.0014478843659162521,-0.003880674485117197,-0.0012108656810596585,0.9998464584350586,0.0,0.0,0.0,1.8778581619262695,6.1050028800964355,-1.2368168830871582,-339.89605712890625,0
2273.9210000000003,0.009978401474654675,0.00552020501345396,0.0012520495802164078,0.0,0.0,0.0,0.0,-0.0030595227144658566,-0.0038068857975304127,-0.0019168194849044085,0.9995473623275757,0.0,0.0,0.0,1.8754228353500366,6.101265907287598,-1.2250477075576782,-339.45526123046875,0
