timestamp,stateEstimate.x,stateEstimate.y,stateEstimate.z,controller.cmd_thrust,controller.cmd_roll,controller.cmd_pitch,controller.cmd_yaw,controller.r_roll,controller.r_pitch,controller.r_yaw,controller.accelz,controller.actuatorThrust,controller.roll,controller.pitch,controller.yaw,controller.rollRate,controller.pitchRate,controller.yawRate,controller.ctr_yaw
0.0,0.002904044697061181,0.01291191391646862,0.00045918134856037796,0.0,0.0,0.0,0.0,0.0014498106902465224,0.0038959805388003588,0.001090227160602808,0.9981984496116638,0.0,0.0,0.0,0.2117414027452469,7.160061359405518,-0.40745556354522705,-38.32561492919922,0
9.899999999999636,0.00292744068428874,0.0128974299877882,0.0005060546100139618,0.0,0.0,0.0,0.0,0.0020849034190177917,-0.002358840312808752,-0.0008170225773938,0.9972477555274963,0.0,0.0,0.0,0.21713340282440186,7.159209728240967,-0.4011307954788208,-39.301578521728516,0
19.77599999999984,0.0030556407291442156,0.013019087724387646,0.0002848736185114831,0.0,0.0,0.0,0.0,0.0008471943438053131,-0.007524631451815367,5.787788177258335e-05,0.9982025027275085,0.0,0.0,0.0,0.23026636242866516,7.195785045623779,-0.38548779487609863,-41.678672790527344,0
29.670000000000073,0.003037397749722004,0.013026849366724491,0.00031661713728681207,0.0,0.0,0.0,0.0,-0.0007744982722215354,0.0033879312686622143,-0.0024704376701265574,1.0017825365066528,0.0,0.0,0.0,0.21777011454105377,7.200384140014648,-0.37923139333724976,-39.41682434082031,0
39.556000000000495,0.0030889485497027636,0.013037041760981083,0.00025593460304662585,0.0,0.0,0.0,0.0,-0.0024936937261372805,0.0020571721252053976,-0.0015103586483746767,0.998867928981781,0.0,0.0,0.0,0.2176542580127716,7.192814350128174,-0.3716117739677429,-39.39585494995117,0
49.44800000000032,0.0030405386351048946,0.013064313679933548,0.00028150490834377706,0.0,0.0,0.0,0.0,-0.0008454038179479539,0.0015201285714283586,0.0003058513393625617,0.9972342848777771,0.0,0.0,0.0,0.2057981938123703,7.197246074676514,-0.38790538907051086,-37.24988555908203,0
59.32899999999972,0.003035361412912607,0.013004416599869728,0.000288056064164266,0.0,0.0,0.0,0.0,-0.0025992137379944324,-0.005409229546785355,-0.00017130898777395487,0.9987983703613281,0.0,0.0,0.0,0.2183498740196228,7.184208393096924,-0.38916870951652527,-39.52176284790039,0
69.21999999999935,0.0029802368953824043,0.013051719404757023,0.0003279136144556105,0.0,0.0,0.0,0.0,0.00016332326049450785,-0.0011852323077619076,0.004972785245627165,0.9991243481636047,0.0,0.0,0.0,0.20558148622512817,7.197048187255859,-0.39066874980926514,-37.21065902709961,0
79.10499999999956,0.002984501887112856,0.013016270473599434,0.00032918481156229973,0.0,0.0,0.0,0.0,-0.00041495219920761883,0.004905262496322393,-0.0032478482462465763,0.9995304346084595,0.0,0.0,0.0,0.20672501623630524,7.193092346191406,-0.3864958882331848,-37.41763687133789,0
88.99099999999999,0.0029690247029066086,0.013042420148849487,0.0003690947196446359,0.0,0.0,0.0,0.0,0.00021123242913745344,0.0006473882822319865,0.0001935498003149405,1.0012750625610352,0.0,0.0,0.0,0.18936723470687866,7.205892086029053,-0.3877969980239868,-34.275848388671875,0
98.8819999999996,0.002974734641611576,0.013005765154957771,0.0003737634397111833,0.0,0.0,0.0,0.0,0.00038066558772698045,0.0008319271728396416,-0.002908142050728202,1.0006828308105469,0.0,0.0,0.0,0.18916839361190796,7.200334072113037,-0.39847424626350403,-34.23985290527344,0
108.76900000000023,0.002980079734697938,0.01296698022633791,0.00037970091216266155,0.0,0.0,0.0,0.0,0.0026560749392956495,-4.890380296274088e-05,-0.00023994022922124714,0.9992291927337646,0.0,0.0,0.0,0.18912389874458313,7.197113037109375,-0.3887898921966553,-34.2318000793457,0
118.65500000000065,0.002986117033287883,0.012925084680318832,0.00038662576116621494,0.0,0.0,0.0,0.0,0.0004217767564114183,0.0013927258551120758,0.0004944026586599648,1.0004546642303467,0.0,0.0,0.0,0.18863080441951752,7.188068866729736,-0.40176641941070557,-34.14255142211914,0
128.54199999999946,0.0029939927626401186,0.012939512729644775,0.00044101805542595685,0.0,0.0,0.0,0.0,0.0051937950775027275,-0.0010766014456748962,-0.0011525590671226382,0.9994871020317078,0.0,0.0,0.0,0.1784002035856247,7.195093154907227,-0.4127865135669708,-32.290794372558594,0
138.4300000000003,0.0030024086590856314,0.012898256070911884,0.00045239253086037934,0.0,0.0,0.0,0.0,0.0008086598827503622,0.006512817461043596,0.0026886577252298594,0.9999570250511169,0.0,0.0,0.0,0.17753592133522034,7.188032627105713,-0.40601256489753723,-32.13435363769531,0
148.3169999999991,0.002970413537696004,0.012893267907202244,0.0004928089329041541,0.0,0.0,0.0,0.0,0.0017856433987617493,0.0001713979581836611,3.0008677640580572e-05,1.0016820430755615,0.0,0.0,0.0,0.18479320406913757,7.194965362548828,-0.4211893379688263,-33.447940826416016,0
158.20499999999993,0.0030180183239281178,0.012912184000015259,0.0004406803345773369,0.0,0.0,0.0,0.0,-0.0031882398761808872,0.0003640198556240648,-0.0009471779922023416,1.0003052949905396,0.0,0.0,0.0,0.19627314805984497,7.20156717300415,-0.42411932349205017,-35.52582931518555,0
168.10800000000017,0.0029700661543756723,0.012905102223157883,0.000459292292362079,0.0,0.0,0.0,0.0,0.00177068414632231,0.0009495107806287706,0.0013785056071355939,0.9961471557617188,0.0,0.0,0.0,0.19495664536952972,7.19708776473999,-0.422816663980484,-35.28753662109375,0
177.98099999999977,0.0029729106463491917,0.01286430936306715,0.0004717987321782857,0.0,0.0,0.0,0.0,0.003219364443793893,0.0007719544810242951,-0.0016832811525091529,0.9986419081687927,0.0,0.0,0.0,0.19550183415412903,7.190552234649658,-0.4099728763103485,-35.3862190246582,0
187.8680000000004,0.0029469365254044533,0.012881110422313213,0.0005255072028376162,0.0,0.0,0.0,0.0,0.001990298740565777,0.004136029165238142,0.003817254211753607,1.0015984773635864,0.0,0.0,0.0,0.1855458766222,7.1984333992004395,-0.4126676619052887,-33.584171295166016,0
197.75900000000001,0.0029500366654247046,0.012839005328714848,0.0005380471120588481,0.0,0.0,0.0,0.0,0.002999137621372938,-0.0008383597596548498,0.00096092838793993,1.001648187637329,0.0,0.0,0.0,0.18518638610839844,7.186160564422607,-0.4077581763267517,-33.51910400390625,0
207.64400000000023,0.0029730151873081923,0.012821811251342297,0.0005787206464447081,0.0,0.0,0.0,0.0,0.002475672634318471,0.003247632645070553,0.0020956597290933132,1.0004695653915405,0.0,0.0,0.0,0.17627741396427155,7.186304092407227,-0.42386582493782043,-31.90656280517578,0
217.53999999999905,0.003064374905079603,0.01287082675844431,0.0004467710678000003,0.0,0.0,0.0,0.0,0.0009186919196508825,-0.005203071050345898,0.0031072432175278664,1.000052809715271,0.0,0.0,0.0,0.18392407894134521,7.195099830627441,-0.4110582768917084,-33.29062271118164,0
227.41699999999946,0.0030410902108997107,0.012862322852015495,0.00047528071445412934,0.0,0.0,0.0,0.0,-0.0024528701324015856,-0.003310544416308403,-0.002213128609582782,1.0015639066696167,0.0,0.0,0.0,0.17300736904144287,7.194045066833496,-0.40930449962615967,-31.31467628479004,0
355.9539999999997,0.0030544139444828033,0.012992284260690212,0.0003318004310131073,0.0,0.0,0.0,0.0,-0.000459570117527619,-0.0006032983073964715,0.004517533350735903,1.0012164115905762,0.0,0.0,0.0,0.17087171971797943,7.2199554443359375,-0.4068180024623871,-30.928119659423828,0
365.84300000000076,0.0030014149378985167,0.013010089285671711,0.0003551076806616038,0.0,0.0,0.0,0.0,0.002583668101578951,-0.0006136623560450971,-0.0022630244493484497,1.002364993095398,0.0,0.0,0.0,0.17734357714653015,7.217441558837891,-0.40407052636146545,-32.09954071044922,0
375.73699999999917,0.0030061989091336727,0.012966541573405266,0.000362288294127211,0.0,0.0,0.0,0.0,0.003363124094903469,0.005219948943704367,-0.0017023907275870442,1.0016083717346191,0.0,0.0,0.0,0.17811504006385803,7.208073616027832,-0.39582282304763794,-32.23917770385742,0
385.6170000000002,0.0030131659004837275,0.012923470698297024,0.00037512421840801835,0.0,0.0,0.0,0.0,0.0006213496089912951,-0.003593799890950322,0.0012132476549595594,1.0003066062927246,0.0,0.0,0.0,0.1692269742488861,7.199252605438232,-0.4064410924911499,-30.630416870117188,0
395.5049999999992,0.003081395523622632,0.012965090572834015,0.0003269706212449819,0.0,0.0,0.0,0.0,0.0014927341835573316,0.0009336951188743114,-0.0007874839939177036,0.9997248649597168,0.0,0.0,0.0,0.17980891466140747,7.213960647583008,-0.39351600408554077,-32.54576873779297,0
405.39500000000044,0.003080560127273202,0.012941008433699608,0.0003508428344503045,0.0,0.0,0.0,0.0,0.00036751586594618857,-0.005467894487082958,-0.0003275990893598646,1.0019346475601196,0.0,0.0,0.0,0.17097711563110352,7.212935447692871,-0.3822818398475647,-30.94719886779785,0
415.28000000000065,0.003090781858190894,0.01289515569806099,0.0003609611885622144,0.0,0.0,0.0,0.0,-0.001628194353543222,-0.0018011864740401506,0.002448383718729019,1.0008432865142822,0.0,0.0,0.0,0.1700509935617447,7.207770347595215,-0.3753214180469513,-30.779565811157227,0
425.16699999999946,0.0029973983764648438,0.012915823608636856,0.00039857710362412035,0.0,0.0,0.0,0.0,0.0008368823328055441,0.0005026287981308997,0.00010600670066196471,1.0006704330444336,0.0,0.0,0.0,0.160285085439682,7.226105213165283,-0.38165146112442017,-29.011919021606445,0
435.0550000000003,0.0030073579400777817,0.012870575301349163,0.00041186201269738376,0.0,0.0,0.0,0.0,0.0009717509965412319,0.00878225639462471,0.0018982957117259502,1.000633716583252,0.0,0.0,0.0,0.17919835448265076,7.224175930023193,-0.3794793486595154,-32.43526077270508,0
444.9429999999993,0.0029393599834293127,0.012923668138682842,0.0004643097927328199,0.0,0.0,0.0,0.0,0.0029288851656019688,0.0005461652181111276,0.0010786756174638867,0.9985141158103943,0.0,0.0,0.0,0.1850912868976593,7.22829008102417,-0.39268895983695984,-33.501888275146484,0
454.8299999999999,0.0029412307776510715,0.012878885492682457,0.00048432816402055323,0.0,0.0,0.0,0.0,-0.0002463421260472387,0.0019818716682493687,-0.0002464704739395529,1.0001400709152222,0.0,0.0,0.0,0.18495218455791473,7.222256183624268,-0.4024147689342499,-33.476715087890625,0
464.72500000000036,0.002928639529272914,0.012890040874481201,0.0005397243076004088,0.0,0.0,0.0,0.0,-0.0001313846732955426,-0.0059508103877305984,0.0021086614578962326,0.998618483543396,0.0,0.0,0.0,0.17691701650619507,7.228000640869141,-0.41600301861763,-32.02233123779297,0
474.60599999999977,0.002930385060608387,0.012844699434936047,0.0005621039308607578,0.0,0.0,0.0,0.0,0.0012290512677282095,0.0030183116905391216,0.0008913283236324787,0.9996580481529236,0.0,0.0,0.0,0.17735826969146729,7.217332363128662,-0.4125479459762573,-32.10219955444336,0
484.4930000000004,0.00290895183570683,0.01285189762711525,0.0006171855493448675,0.0,0.0,0.0,0.0,-0.001089409226551652,-0.00634253304451704,-0.0016091834986582398,1.0016636848449707,0.0,0.0,0.0,0.17163822054862976,7.228985786437988,-0.40773218870162964,-31.06686019897461,0
494.3809999999994,0.002910685259848833,0.012807922437787056,0.0006413139053620398,0.0,0.0,0.0,0.0,0.003808283247053623,-0.003905774559825659,0.0028756826650351286,1.0022331476211548,0.0,0.0,0.0,0.17252697050571442,7.219322681427002,-0.4088592529296875,-31.227725982666016,0
504.27399999999943,0.0028948804829269648,0.012791561894118786,0.0006869551143608987,0.0,0.0,0.0,0.0,0.0005406580166891217,0.005062306299805641,-0.000920395425055176,1.0006955862045288,0.0,0.0,0.0,0.18050751090049744,7.224056720733643,-0.3964983820915222,-32.67222213745117,0
514.1630000000005,0.0030727151315659285,0.012954390607774258,0.00040749312029220164,0.0,0.0,0.0,0.0,-0.004325109533965588,0.0008725154330022633,-4.638919108401751e-06,1.0007990598678589,0.0,0.0,0.0,0.1898646205663681,7.259864330291748,-0.37439030408859253,-34.365875244140625,0
524.0429999999997,0.003014973131939769,0.012976372614502907,0.00044089832226745784,0.0,0.0,0.0,0.0,0.0010774126276373863,0.004505989141762257,-0.0019305271562188864,0.9998349547386169,0.0,0.0,0.0,0.1830011010169983,7.272219181060791,-0.3834565281867981,-33.123565673828125,0
533.9300000000003,0.0030947343911975622,0.013011091388761997,0.0003557058225851506,0.0,0.0,0.0,0.0,-0.004341394640505314,0.006036169361323118,0.00013619958190247416,0.9988953471183777,0.0,0.0,0.0,0.19387739896774292,7.282354354858398,-0.37683039903640747,-35.09219741821289,0
543.8179999999993,0.0030230835545808077,0.013020986691117287,0.0003632293955888599,0.0,0.0,0.0,0.0,0.00015170445840340108,-0.0018581777112558484,-0.0018907010089606047,0.9982421398162842,0.0,0.0,0.0,0.1999557912349701,7.282109260559082,-0.389859676361084,-36.1923942565918,0
553.7099999999991,0.0030262325890362263,0.01298612542450428,0.0003693719918373972,0.0,0.0,0.0,0.0,-0.0031899099703878164,0.0017219019355252385,0.002641606843098998,0.9971655607223511,0.0,0.0,0.0,0.19968625903129578,7.28299617767334,-0.38856932520866394,-36.14360809326172,0
563.5939999999991,0.003066743491217494,0.012965788133442402,0.0003915872366633266,0.0,0.0,0.0,0.0,0.0005414212355390191,-0.0033907205797731876,0.0026756885927170515,1.0002398490905762,0.0,0.0,0.0,0.19221164286136627,7.273524284362793,-0.37408575415611267,-34.79069137573242,0
573.4869999999992,0.003085300326347351,0.012935154139995575,0.0003747039590962231,0.0,0.0,0.0,0.0,-6.922275497345254e-05,0.004651869647204876,0.0016638614470139146,1.0010387897491455,0.0,0.0,0.0,0.20184282958507538,7.274531841278076,-0.36904340982437134,-36.53395462036133,0
583.3690000000006,0.0030252328142523766,0.01296321488916874,0.0004013697907794267,0.0,0.0,0.0,0.0,0.0021046102046966553,-0.0024708015844225883,-0.0006430154899135232,0.9996613264083862,0.0,0.0,0.0,0.19118140637874603,7.2810540199279785,-0.3839976191520691,-34.60421371459961,0
593.2559999999994,0.0030272819567471743,0.012930477038025856,0.00040693950722925365,0.0,0.0,0.0,0.0,-0.00038107033469714224,-0.0017665945924818516,0.0010412526316940784,0.9994726181030273,0.0,0.0,0.0,0.1901913732290268,7.266704559326172,-0.38203340768814087,-34.425018310546875,0
603.1440000000002,0.0030403269920498133,0.0129198944196105,0.00042990807560272515,0.0,0.0,0.0,0.0,0.0007267664768733084,0.0022869284730404615,-0.0007799102459102869,0.9982662796974182,0.0,0.0,0.0,0.18157245218753815,7.265187740325928,-0.3645913302898407,-32.86497497558594,0
613.0319999999992,0.0030861280392855406,0.012926758266985416,0.0003879650612361729,0.0,0.0,0.0,0.0,0.0014655498089268804,0.005803078878670931,0.0013454825384542346,1.0023729801177979,0.0,0.0,0.0,0.197714701294899,7.264964580535889,-0.3500213027000427,-35.7867546081543,0
622.9189999999999,0.0030161384493112564,0.012950219213962555,0.0004076005716342479,0.0,0.0,0.0,0.0,-0.0004627282323781401,0.002993131522089243,-0.00034539843909442425,1.0011588335037231,0.0,0.0,0.0,0.18689972162246704,7.269364356994629,-0.3707094192504883,-33.8292236328125,0
632.8070000000007,0.0030187955126166344,0.01291733980178833,0.00041348146623931825,0.0,0.0,0.0,0.0,-0.001664849929511547,-0.00030154813430272043,-0.0032883952371776104,1.0001018047332764,0.0,0.0,0.0,0.186293363571167,7.264720916748047,-0.38143908977508545,-33.7194709777832,0
642.6939999999995,0.0029610376805067062,0.012933952733874321,0.00044427375541999936,0.0,0.0,0.0,0.0,0.0010951220756396651,-0.0007775233243592083,-5.1154409447917715e-05,1.0005173683166504,0.0,0.0,0.0,0.1783558577299118,7.2693352699279785,-0.38504883646965027,-32.28276824951172,0
652.5820000000003,0.0029599855188280344,0.012900039553642273,0.0004544809926301241,0.0,0.0,0.0,0.0,-0.0032976132351905107,0.001623069983907044,0.0004664015432354063,1.0004006624221802,0.0,0.0,0.0,0.17726030945777893,7.264426231384277,-0.3863587975502014,-32.084468841552734,0
662.4689999999991,0.0029290972743183374,0.012905617244541645,0.0004905005916953087,0.0,0.0,0.0,0.0,4.809920574189164e-05,0.0002276239392813295,0.003040750976651907,0.9979507923126221,0.0,0.0,0.0,0.17647862434387207,7.262344837188721,-0.38581278920173645,-31.942983627319336,0
672.3580000000002,0.0030595744028687477,0.013032189570367336,0.0003221574006602168,0.0,0.0,0.0,0.0,-0.002757685026153922,0.000303933717077598,-0.002100976649671793,1.0001462697982788,0.0,0.0,0.0,0.18975402414798737,7.292485237121582,-0.3687935173511505,-34.34585189819336,0
682.2459999999992,0.002935927826911211,0.013060887344181538,0.0003129800606984645,0.0,0.0,0.0,0.0,0.00011155602987855673,0.004009627271443605,-0.000811765668913722,1.0008349418640137,0.0,0.0,0.0,0.18861401081085205,7.287509441375732,-0.3659410774707794,-34.13951110839844,0
692.1350000000002,0.002989751286804676,0.01305207796394825,0.00023808740661479533,0.0,0.0,0.0,0.0,-0.002099181991070509,0.007043087389320135,-0.002319748979061842,0.9999737739562988,0.0,0.0,0.0,0.20251025259494781,7.2845072746276855,-0.3665156960487366,-36.65475845336914,0
702.021999999999,0.0029700463637709618,0.013102740049362183,0.0002804652904160321,0.0,0.0,0.0,0.0,-0.002781336195766926,-0.0032241048756986856,-0.00037193254684098065,0.998510479927063,0.0,0.0,0.0,0.1958928108215332,7.294946670532227,-0.37600380182266235,-35.456993103027344,0
711.9089999999997,0.002979573328047991,0.01307674776762724,0.000279364176094532,0.0,0.0,0.0,0.0,-0.0009920987067744136,0.0032271910458803177,-0.004381317645311356,0.9982876777648926,0.0,0.0,0.0,0.1951637864112854,7.295538425445557,-0.3852534890174866,-35.32503128051758,0
721.7970000000005,0.0029299024026840925,0.013086821883916855,0.0002921629638876766,0.0,0.0,0.0,0.0,-0.001788613386452198,0.006839338224381208,-0.001245230669155717,0.9995656609535217,0.0,0.0,0.0,0.18770669400691986,7.299897193908691,-0.40309372544288635,-33.97528076171875,0
731.6949999999997,0.002941969782114029,0.0130584966391325,0.0002902387350331992,0.0,0.0,0.0,0.0,-0.0010494755115360022,-0.006466123275458813,0.00024296005722135305,1.0006483793258667,0.0,0.0,0.0,0.18697266280651093,7.294875621795654,-0.40866219997406006,-33.84242630004883,0
741.5709999999999,0.0029526895377784967,0.013028309680521488,0.0002878989325836301,0.0,0.0,0.0,0.0,0.002310431096702814,0.002812705934047699,-0.0030680920463055372,1.001907467842102,0.0,0.0,0.0,0.18617896735668182,7.288485527038574,-0.41411107778549194,-33.69876480102539,0
751.4629999999997,0.0029616577085107565,0.012996207922697067,0.00028645904967561364,0.0,0.0,0.0,0.0,0.0017210319638252258,0.0009863553568720818,0.0025805251207202673,1.0000298023223877,0.0,0.0,0.0,0.18655747175216675,7.2795305252075195,-0.4123172163963318,-33.767276763916016,0
761.3459999999995,0.0029709243681281805,0.012961150147020817,0.0002865397254936397,0.0,0.0,0.0,0.0,-0.0010037292959168553,-0.0026672976091504097,0.0010440179612487555,0.9990703463554382,0.0,0.0,0.0,0.18651127815246582,7.271766185760498,-0.4159459173679352,-33.758914947509766,0
771.2330000000002,0.002981771482154727,0.012922221794724464,0.0002873573685064912,0.0,0.0,0.0,0.0,0.0014711269177496433,-0.0032053920440375805,0.0007889083353802562,0.9984880685806274,0.0,0.0,0.0,0.1865997463464737,7.261135578155518,-0.4207984209060669,-33.774925231933594,0
781.125,0.0029645850881934166,0.012843221426010132,0.00032162386924028397,0.0,0.0,0.0,0.0,-0.0024954460095614195,-0.005541019141674042,-0.0009667528793215752,0.9987152814865112,0.0,0.0,0.0,0.20318515598773956,7.23604679107666,-0.41707339882850647,-36.776920318603516,0
791.009,0.0029714906122535467,0.01279637310653925,0.00032254058169201016,0.0,0.0,0.0,0.0,0.0014290042454376817,-0.0005421118112280965,0.0017275047721341252,0.9999343752861023,0.0,0.0,0.0,0.20382444560527802,7.230869770050049,-0.40201759338378906,-36.89262771606445,0
800.8979999999992,0.002977085066959262,0.012748484499752522,0.00032256206031888723,0.0,0.0,0.0,0.0,-0.00043398953857831657,-0.004512942396104336,0.002066153334453702,0.9993296265602112,0.0,0.0,0.0,0.20291686058044434,7.226261615753174,-0.38836216926574707,-36.728355407714844,0
810.7870000000003,0.002982530277222395,0.012700261548161507,0.00032229063799604774,0.0,0.0,0.0,0.0,0.0006079549202695489,0.000169818100403063,-0.0016857670852914453,0.9990092515945435,0.0,0.0,0.0,0.20216304063796997,7.22391939163208,-0.3812972605228424,-36.59191131591797,0
820.6820000000007,0.0030205792281776667,0.012764687649905682,0.00034453877015039325,0.0,0.0,0.0,0.0,0.001971046207472682,-0.004317530896514654,-0.0009702213574200869,1.0001322031021118,0.0,0.0,0.0,0.2182025909423828,7.25949764251709,-0.35927659273147583,-39.49510192871094,0
830.5660000000007,0.0030287548433989286,0.012719963677227497,0.00034549477277323604,0.0,0.0,0.0,0.0,-0.0016773267416283488,0.0018015558598563075,-0.0020258997101336718,1.001415729522705,0.0,0.0,0.0,0.2180156707763672,7.248514175415039,-0.36612841486930847,-39.46126937866211,0
840.4459999999999,0.0030377781949937344,0.012672238983213902,0.0003470868105068803,0.0,0.0,0.0,0.0,-0.00020063130068592727,0.0010229445761069655,0.002076637465506792,0.9976173043251038,0.0,0.0,0.0,0.2173963189125061,7.247727394104004,-0.36461302638053894,-39.34916687011719,0
850.3369999999995,0.0030461365822702646,0.01262191217392683,0.00034934369614347816,0.0,0.0,0.0,0.0,-0.003310999134555459,-0.0018601439660415053,0.0016554915346205235,0.9979904890060425,0.0,0.0,0.0,0.2174997627735138,7.248690605163574,-0.3654104471206665,-39.36789321899414,0
860.2209999999995,0.0030525533948093653,0.012569144368171692,0.0003506959183141589,0.0,0.0,0.0,0.0,0.003199332393705845,-0.0002658595913089812,0.0011466331779956818,0.999983549118042,0.0,0.0,0.0,0.21711571514606476,7.243746757507324,-0.3700353503227234,-39.298377990722656,0
870.1090000000004,0.003057619323953986,0.012514409609138966,0.0003504386404529214,0.0,0.0,0.0,0.0,0.0014449518639594316,0.0033636484295129776,0.0007043728255666792,1.0014700889587402,0.0,0.0,0.0,0.21630333364009857,7.23732852935791,-0.36191892623901367,-39.15133285522461,0
879.9969999999994,0.003062392119318247,0.012457889504730701,0.0003503786865621805,0.0,0.0,0.0,0.0,0.0010651665506884456,0.004118436947464943,0.004360387101769447,1.0006043910980225,0.0,0.0,0.0,0.2163713127374649,7.229890823364258,-0.3617006838321686,-39.163639068603516,0
889.884,0.0030673728324472904,0.012399260886013508,0.0003518356243148446,0.0,0.0,0.0,0.0,0.0033770501613616943,0.0027529874350875616,0.002997226547449827,0.9990260601043701,0.0,0.0,0.0,0.21641826629638672,7.220334053039551,-0.36767449975013733,-39.17213821411133,0
899.771999999999,0.003072930732741952,0.012337860651314259,0.00035384163493290544,0.0,0.0,0.0,0.0,-0.00239075580611825,0.0037720506079494953,-0.0037024952471256256,0.9983046054840088,0.0,0.0,0.0,0.21663980185985565,7.207559585571289,-0.3823971152305603,-39.21223449707031,0
909.6599999999999,0.003078789683058858,0.01227270532399416,0.00035538646625354886,0.0,0.0,0.0,0.0,-0.0032622634898871183,-0.009312002919614315,0.0006500743911601603,0.9983811974525452,0.0,0.0,0.0,0.2162548452615738,7.198034286499023,-0.3952391445636749,-39.142555236816406,0
919.5489999999991,0.0033672922290861607,0.01260648388415575,0.0003247155109420419,0.0,0.0,0.0,0.0,0.0036227998789399862,0.0010124529944732785,0.002177000278607011,0.9996014833450317,0.0,0.0,0.0,0.2235557585954666,7.308229923248291,-0.30659082531929016,-40.46403503417969,0
929.4390000000003,0.0033911296632140875,0.012561186216771603,0.00031988081173039973,0.0,0.0,0.0,0.0,0.0013844437198713422,-0.0007928883424028754,0.0004403308848850429,0.9996657371520996,0.0,0.0,0.0,0.22287824749946594,7.301032543182373,-0.3056453764438629,-40.34140396118164,0
939.3340000000007,0.0034157023765146732,0.012514987029135227,0.0003147722745779902,0.0,0.0,0.0,0.0,-0.0021589442621916533,-0.0026010973379015923,-0.003966932650655508,1.0005383491516113,0.0,0.0,0.0,0.22280579805374146,7.284560203552246,-0.3140723705291748,-40.32829284667969,0
949.2099999999991,0.0034405095502734184,0.012467713095247746,0.00030978090944699943,0.0,0.0,0.0,0.0,-0.0015129154780879617,-0.002446626080200076,0.0016677628736943007,0.9996936917304993,0.0,0.0,0.0,0.2224171906709671,7.291024684906006,-0.3181227445602417,-40.25795364379883,0
959.1000000000004,0.0034658631775528193,0.012418695725500584,0.00030526830232702196,0.0,0.0,0.0,0.0,-5.2391751523828134e-05,-0.0008163532475009561,0.0014632054371759295,1.0010017156600952,0.0,0.0,0.0,0.2226334810256958,7.281515121459961,-0.3137938678264618,-40.29710388183594,0
968.9860000000008,0.0034920822363346815,0.012367620132863522,0.00030140086892060935,0.0,0.0,0.0,0.0,-0.0015412875218316913,-0.002179007511585951,-0.0012281567323952913,0.9998120665550232,0.0,0.0,0.0,0.22313445806503296,7.276005744934082,-0.2974056601524353,-40.387779235839844,0
978.8729999999996,0.0029622470028698444,0.012895847670733929,0.0003811584028881043,0.0,0.0,0.0,0.0,0.0016276318347081542,0.0054312399588525295,-0.0009675869368948042,1.0010892152786255,0.0,0.0,0.0,0.2052982598543167,7.395848751068115,-0.4018133580684662,-37.159393310546875,0
988.7610000000004,0.002964654006063938,0.012869222089648247,0.0003859472635667771,0.0,0.0,0.0,0.0,0.0004215814115013927,-0.0030370759777724743,-0.00011895059287780896,1.0016655921936035,0.0,0.0,0.0,0.20484119653701782,7.390597343444824,-0.3994995355606079,-37.07666015625,0
998.6479999999992,0.002933686366304755,0.012940559536218643,0.0004871769924648106,0.0,0.0,0.0,0.0,0.0007409089594148099,0.0017471873434260488,0.0004056958423461765,1.0017422437667847,0.0,0.0,0.0,0.1918632686138153,7.409911155700684,-0.41712963581085205,-34.727638244628906,0
1008.5360000000001,0.002936091274023056,0.012916267849504948,0.0004997486248612404,0.0,0.0,0.0,0.0,0.0002253975544590503,-0.0006166015518829226,0.0003334036155138165,1.0001778602600098,0.0,0.0,0.0,0.1922958642244339,7.402033805847168,-0.4099346399307251,-34.80593490600586,0
1018.4230000000007,0.0029401537030935287,0.01293237879872322,0.0005564653547480702,0.0,0.0,0.0,0.0,-0.004181582015007734,-0.0054895877838134766,-0.003178013488650322,1.0004640817642212,0.0,0.0,0.0,0.18321090936660767,7.406164169311523,-0.4144887328147888,-33.16154098510742,0
1028.3109999999997,0.0029430650174617767,0.012910031713545322,0.0005742027424275875,0.0,0.0,0.0,0.0,-0.00132363336160779,-0.004009265918284655,-0.00015293397882487625,0.9999397397041321,0.0,0.0,0.0,0.18255800008773804,7.395273208618164,-0.41386908292770386,-33.04336166381836,0
1038.2099999999991,0.002931782975792885,0.012916388921439648,0.0006185058155097067,0.0,0.0,0.0,0.0,-0.0008067994494922459,-0.0005509733455255628,-0.0015016717370599508,1.0021405220031738,0.0,0.0,0.0,0.17158718407154083,7.40149450302124,-0.40009039640426636,-31.0576229095459,0
1048.0859999999993,0.002933832351118326,0.012893985025584698,0.0006383680738508701,0.0,0.0,0.0,0.0,-0.00010628798918332905,0.0012460057623684406,0.002874418394640088,1.0005850791931152,0.0,0.0,0.0,0.17131857573986053,7.395233631134033,-0.3961113691329956,-31.009004592895508,0
1057.9740000000002,0.002998446812853217,0.012852570042014122,0.0006447784253396094,0.0,0.0,0.0,0.0,-0.001457613194361329,-0.0007029983098618686,-0.0002142776793334633,1.0011643171310425,0.0,0.0,0.0,0.17114244401454926,7.387043476104736,-0.3920139968395233,-30.977123260498047,0
1067.8670000000002,0.0030059448909014463,0.01282621081918478,0.0006667946581728756,0.0,0.0,0.0,0.0,-0.000633063493296504,0.001950916601344943,-0.0023282011970877647,1.0017465353012085,0.0,0.0,0.0,0.17063020169734955,7.3810577392578125,-0.3889060616493225,-30.8844051361084,0
1077.7489999999998,0.0029659043066203594,0.012808878906071186,0.0006913284887559712,0.0,0.0,0.0,0.0,0.0017105978913605213,0.0019301746506243944,-0.0023333881981670856,0.9985209703445435,0.0,0.0,0.0,0.18004116415977478,7.379883289337158,-0.4156761169433594,-32.587806701660156,0
1087.6370000000006,0.002973445923998952,0.01278059370815754,0.0007157506770454347,0.0,0.0,0.0,0.0,-0.0006036859122104943,-0.0032605540473014116,0.00442873639985919,0.9980794191360474,0.0,0.0,0.0,0.17973338067531586,7.3698883056640625,-0.4190940856933594,-32.53209686279297,0
1097.530999999999,0.0029705867636948824,0.012771965004503727,0.0007551622693426907,0.0,0.0,0.0,0.0,-0.0019271939527243376,0.0014482038095593452,-0.0014041818212717772,0.996856689453125,0.0,0.0,0.0,0.17880859971046448,7.363007545471191,-0.41510555148124695,-32.364715576171875,0
1107.4130000000005,0.002979259006679058,0.012740769423544407,0.0007789774681441486,0.0,0.0,0.0,0.0,-0.0016947290860116482,-0.0012643845984712243,0.0006353372591547668,0.9988821744918823,0.0,0.0,0.0,0.1790139377117157,7.359103202819824,-0.4080166518688202,-32.40188217163086,0
1117.3029999999999,0.0029380167834460735,0.012743913568556309,0.0008139809942804277,0.0,0.0,0.0,0.0,0.001200734288431704,0.0028945275116711855,-0.00014514723443426192,1.001031517982483,0.0,0.0,0.0,0.17184075713157654,7.372653961181641,-0.4337003827095032,-31.103517532348633,0
1127.1929999999993,0.0029425888787955046,0.012711895629763603,0.0008356394246220589,0.0,0.0,0.0,0.0,-0.0003024309116881341,-0.0009250841103494167,0.003741264110431075,0.9986826181411743,0.0,0.0,0.0,0.17101269960403442,7.362369060516357,-0.4386325776576996,-30.953638076782227,0
1137.0830000000005,0.0029137032106518745,0.012692957185208797,0.0008519408875145018,0.0,0.0,0.0,0.0,-0.002135521499440074,0.004948820918798447,0.0010625588474795222,0.9978213310241699,0.0,0.0,0.0,0.17836271226406097,7.36436128616333,-0.4576627016067505,-32.28400802612305,0
1146.9619999999995,0.002912858035415411,0.012657680548727512,0.0008727731183171272,0.0,0.0,0.0,0.0,-0.0002227291843155399,-0.0034960717894136906,-0.003205066779628396,1.0004833936691284,0.0,0.0,0.0,0.1770174354314804,7.3543806076049805,-0.4578864276409149,-32.04050827026367,0
1156.8539999999994,0.0028679915703833103,0.012674710713326931,0.0009134961874224246,0.0,0.0,0.0,0.0,-0.0016261691926047206,-0.0057543013244867325,-0.002361523685976863,1.0018088817596436,0.0,0.0,0.0,0.17732256650924683,7.34636926651001,-0.4707147777080536,-32.09573745727539,0
1166.7369999999992,0.0028314762748777866,0.012683125212788582,0.0009497578139416873,0.0,0.0,0.0,0.0,0.0009414705564267933,-0.003213628428056836,-0.0005942821153439581,1.0017759799957275,0.0,0.0,0.0,0.1760592758655548,7.337000370025635,-0.4562802016735077,-31.867080688476562,0
1176.625,0.002819030312821269,0.012651564553380013,0.0009744960116222501,0.0,0.0,0.0,0.0,-0.0018267815466970205,-0.0008099217084236443,0.0004212723288219422,1.00191330909729,0.0,0.0,0.0,0.17533379793167114,7.329444885253906,-0.4527413249015808,-31.73576545715332,0
1186.5169999999998,0.0027854193467646837,0.012660033069550991,0.0010164607083424926,0.0,0.0,0.0,0.0,0.0010622387053444982,0.002262021880596876,-0.00024514092365279794,1.0014934539794922,0.0,0.0,0.0,0.17523477971553802,7.320483684539795,-0.4481399357318878,-31.717844009399414,0
1196.3999999999996,0.002768588252365589,0.012627480551600456,0.0010469048283994198,0.0,0.0,0.0,0.0,0.0008022852707654238,0.009798656217753887,-0.0018875880632549524,1.000549554824829,0.0,0.0,0.0,0.17519201338291168,7.315830707550049,-0.4466269910335541,-31.710102081298828,0
1206.2880000000005,0.002753505250439048,0.012634490616619587,0.001096495776437223,0.0,0.0,0.0,0.0,-0.001377321663312614,0.0015203201910480857,0.002829571720212698,0.9998399019241333,0.0,0.0,0.0,0.16227446496486664,7.329369068145752,-0.4562755525112152,-29.371999740600586,0
1216.1749999999993,0.0027361325919628143,0.012598094530403614,0.0011319795157760382,0.0,0.0,0.0,0.0,0.0008823788375593722,0.004389103036373854,-0.00014413215103559196,1.0019768476486206,0.0,0.0,0.0,0.16140875220298767,7.320051670074463,-0.4679776132106781,-29.215303421020508,0
1226.062,0.0027328431606292725,0.01256351824849844,0.0011677175061777234,0.0,0.0,0.0,0.0,-0.0018719222862273455,-0.00020693521946668625,-1.6165548004209995e-05,1.0010509490966797,0.0,0.0,0.0,0.17064474523067474,7.317433834075928,-0.4574173092842102,-30.88703727722168,0
1235.9500000000007,0.0027167312800884247,0.01252060104161501,0.0012064209440723062,0.0,0.0,0.0,0.0,0.0008093420183286071,-0.004205144941806793,0.0019100019708275795,1.0013041496276855,0.0,0.0,0.0,0.1703208088874817,7.311062335968018,-0.46252959966659546,-30.828405380249023,0
1245.8379999999997,0.0027267970144748688,0.012497594580054283,0.0012591538252308965,0.0,0.0,0.0,0.0,0.0003299335949122906,0.001140420325100422,0.0010763393947854638,1.0016063451766968,0.0,0.0,0.0,0.1785712093114853,7.30784797668457,-0.4495701789855957,-32.321746826171875,0
1255.7260000000006,0.002985236467793584,0.012926779687404633,0.0005398146458901465,0.0,0.0,0.0,0.0,0.00025496090529486537,0.004109423141926527,-0.001869287807494402,1.0018634796142578,0.0,0.0,0.0,0.19315052032470703,7.360638618469238,-0.4172065854072571,-34.960628509521484,0
1265.6129999999994,0.002983124926686287,0.012896429747343063,0.0005614549736492336,0.0,0.0,0.0,0.0,0.0006263818359002471,-0.006588964723050594,-0.0007489976123906672,0.9999443888664246,0.0,0.0,0.0,0.19286184012889862,7.347559928894043,-0.4320099949836731,-34.90837478637695,0
1275.5049999999992,0.002979966579005122,0.012864314951002598,0.0005852502072229981,0.0,0.0,0.0,0.0,-0.001226662890985608,-0.00016070963465608656,-0.0031385563779622316,0.9977611303329468,0.0,0.0,0.0,0.19319725036621094,7.338146209716797,-0.43118399381637573,-34.969085693359375,0
1285.387999999999,0.0029758389573544264,0.012830586172640324,0.0006095847929827869,0.0,0.0,0.0,0.0,0.0010457918979227543,0.0034785522148013115,-0.0006040855660103261,1.0018359422683716,0.0,0.0,0.0,0.19138602912425995,7.333027362823486,-0.4213651716709137,-34.64125061035156,0
1295.2800000000007,0.0030493554659187794,0.012912862002849579,0.00046934091369621456,0.0,0.0,0.0,0.0,0.003060499671846628,0.007281606551259756,-0.0002688110980670899,0.9997625350952148,0.0,0.0,0.0,0.19779810309410095,7.351768493652344,-0.4078553020954132,-35.801849365234375,0
1305.1720000000005,0.003048806916922331,0.012878802604973316,0.0004866429080720991,0.0,0.0,0.0,0.0,0.0023575660306960344,-0.010382735170423985,-7.950713188620284e-05,1.0003392696380615,0.0,0.0,0.0,0.1972692310810089,7.343589782714844,-0.41918066143989563,-35.70612335205078,0
1315.0599999999995,0.00304894195869565,0.012842888943850994,0.0005045485449954867,0.0,0.0,0.0,0.0,-0.002774020191282034,-0.0006279442459344864,0.0016434761928394437,0.9981507062911987,0.0,0.0,0.0,0.19804134964942932,7.334308624267578,-0.423113614320755,-35.84587860107422,0
1324.938,0.0030498129781335592,0.01280538272112608,0.0005226981011219323,0.0,0.0,0.0,0.0,0.0014538620598614216,-0.0008302168571390212,8.377664198633283e-05,0.9999935626983643,0.0,0.0,0.0,0.1976158171892166,7.327829837799072,-0.4096720516681671,-35.76885986328125,0
1334.8359999999993,0.003119596280157566,0.012867028824985027,0.00038148765452206135,0.0,0.0,0.0,0.0,-0.0011211630189791322,0.0039300741627812386,-0.0005777667392976582,1.0015443563461304,0.0,0.0,0.0,0.2055598944425583,7.352806091308594,-0.3793071210384369,-37.20675277709961,0
1344.714,0.003125031478703022,0.012830980122089386,0.000388983404263854,0.0,0.0,0.0,0.0,0.0039850021712481976,0.00946881901472807,-0.0033620530739426613,0.9994142651557922,0.0,0.0,0.0,0.20493602752685547,7.343379497528076,-0.39617717266082764,-37.09383010864258,0
1354.6110000000008,0.0031302820425480604,0.012792597524821758,0.00039741984801366925,0.0,0.0,0.0,0.0,-0.00370086170732975,-0.003154710866510868,0.0007177882362157106,0.9992602467536926,0.0,0.0,0.0,0.2049749493598938,7.333540916442871,-0.3970516622066498,-37.10087203979492,0
1364.4889999999996,0.0031352543737739325,0.012752310372889042,0.00040600216016173363,0.0,0.0,0.0,0.0,0.001448222203180194,-0.0004828849923796952,-0.0011468905722722411,1.0007669925689697,0.0,0.0,0.0,0.20488004386425018,7.321366310119629,-0.4018186032772064,-37.08369064331055,0
1374.384,0.0031647386495023966,0.012778040952980518,0.00038610631600022316,0.0,0.0,0.0,0.0,0.00020037901413161308,-0.004734573885798454,0.0008605573093518615,1.000718593597412,0.0,0.0,0.0,0.21735575795173645,7.337796688079834,-0.3875681161880493,-39.34182357788086,0
1384.2639999999992,0.003167582442983985,0.012740575708448887,0.00039283488877117634,0.0,0.0,0.0,0.0,-0.0005778081831522286,-0.007753044832497835,0.001548966858536005,1.000769853591919,0.0,0.0,0.0,0.21726204454898834,7.329479694366455,-0.3820202350616455,-39.32486343383789,0
1394.161,0.0031673533376306295,0.012716729193925858,0.00042661078623495996,0.0,0.0,0.0,0.0,-1.8424192603561096e-05,0.0008517946698702872,0.0004011197597719729,1.0012423992156982,0.0,0.0,0.0,0.23382879793643951,7.3296356201171875,-0.3679898977279663,-42.32347869873047,0
1404.0390000000007,0.003170411102473736,0.01267810259014368,0.00043687658035196364,0.0,0.0,0.0,0.0,-0.00017563789151608944,-0.0005731886485591531,0.0005337411421351135,0.9981186389923096,0.0,0.0,0.0,0.2341870814561844,7.314670562744141,-0.3600298762321472,-42.388328552246094,0
1413.9449999999997,0.003172310534864664,0.012655419297516346,0.0004740942094940692,0.0,0.0,0.0,0.0,-0.00010490192653378472,-0.006418513599783182,0.0023667726200073957,0.9992402195930481,0.0,0.0,0.0,0.2474478930234909,7.313107013702393,-0.36384114623069763,-44.7885627746582,0
1423.8140000000003,0.0031761524733155966,0.01261431910097599,0.00048628830700181425,0.0,0.0,0.0,0.0,-0.000821185705717653,-0.0009712597238831222,-0.0015061465092003345,0.9989189505577087,0.0,0.0,0.0,0.24783489108085632,7.308877468109131,-0.356776624917984,-44.858612060546875,0
1433.7119999999995,0.00321148126386106,0.012624685652554035,0.0004617783706635237,0.0,0.0,0.0,0.0,-0.0011703026248142123,-0.0021026686299592257,-0.0001434239384252578,0.9989693760871887,0.0,0.0,0.0,0.2482910454273224,7.303323745727539,-0.3479347825050354,-44.9411735534668,0
1443.5910000000003,0.003217446617782116,0.012583492323756218,0.0004689562483690679,0.0,0.0,0.0,0.0,0.0012905348557978868,0.002399993361905217,0.00045098489499650896,0.999465823173523,0.0,0.0,0.0,0.24762265384197235,7.300757884979248,-0.34187763929367065,-44.820194244384766,0
1453.4989999999998,0.0032228578347712755,0.012541353702545166,0.0004755228292196989,0.0,0.0,0.0,0.0,0.0012596455635502934,-0.000385007617296651,0.0007171878824010491,1.0002259016036987,0.0,0.0,0.0,0.24836677312850952,7.296800136566162,-0.3330344557762146,-44.95487976074219,0
1463.3649999999998,0.0032285437919199467,0.012498220428824425,0.0004821339971385896,0.0,0.0,0.0,0.0,-0.0003629417915362865,-0.0026186041068285704,0.0026619138661772013,1.0007776021957397,0.0,0.0,0.0,0.2468389868736267,7.287439346313477,-0.3400780260562897,-44.6783447265625,0
1473.2610000000004,0.0032339952886104584,0.012453923933207989,0.0004894553567282856,0.0,0.0,0.0,0.0,-0.0006340305553749204,-0.004881185479462147,-0.0013515794416889548,0.9989615082740784,0.0,0.0,0.0,0.24694977700710297,7.285301208496094,-0.3270859122276306,-44.69839859008789,0
1483.143,0.0032385222148150206,0.012408610433340073,0.0004973172908648849,0.0,0.0,0.0,0.0,0.0013107539853081107,-9.859741840045899e-05,-0.0006848083576187491,0.999855637550354,0.0,0.0,0.0,0.24756865203380585,7.280593395233154,-0.3119485378265381,-44.81041717529297,0
1493.039999999999,0.0032426209654659033,0.01236178632825613,0.0005051399930380285,0.0,0.0,0.0,0.0,0.00027843721909448504,-0.0006192761939018965,-0.0007301245350390673,0.9982701539993286,0.0,0.0,0.0,0.2468806654214859,7.276439189910889,-0.31076276302337646,-44.68589401245117,0
1502.914999999999,0.0028773562517017126,0.012688308022916317,0.000576449150685221,0.0,0.0,0.0,0.0,-0.0006094821146689355,0.0025298127438873053,0.0037429395597428083,1.0001411437988281,0.0,0.0,0.0,0.2484230101108551,7.362697124481201,-0.38537007570266724,-44.96506118774414,0
1512.8109999999997,0.0028669466264545918,0.01265394501388073,0.0005926922312937677,0.0,0.0,0.0,0.0,-0.0011297225719317794,0.0005746064125560224,0.0011207035277038813,1.0004922151565552,0.0,0.0,0.0,0.24884314835071564,7.354378700256348,-0.37708768248558044,-45.04110336303711,0
1522.6929999999993,0.0028524769004434347,0.012692037038505077,0.0007055973401293159,0.0,0.0,0.0,0.0,0.001991342520341277,0.004176056012511253,-0.003832330461591482,1.0001353025436401,0.0,0.0,0.0,0.23316572606563568,7.366280555725098,-0.3903231620788574,-42.20345687866211,0
1532.5879999999997,0.0028422714676707983,0.012657706625759602,0.0007281835423782468,0.0,0.0,0.0,0.0,-0.0007880429620854557,0.004522283561527729,-0.0006457745330408216,0.997827410697937,0.0,0.0,0.0,0.23259583115577698,7.361858367919922,-0.3975434899330139,-42.100311279296875,0
1542.4660000000003,0.0028324115555733442,0.01262105442583561,0.0007506716065108776,0.0,0.0,0.0,0.0,8.82427702890709e-05,-0.0016788948560133576,-0.0009618858457542956,0.9983259439468384,0.0,0.0,0.0,0.2328147292137146,7.355477809906006,-0.4007889926433563,-42.13992691040039,0
1552.3700000000008,0.002813678700476885,0.012540292926132679,0.0007917063194327056,0.0,0.0,0.0,0.0,-0.00010477732575964183,0.000939079443924129,-0.0014754817821085453,0.9984608292579651,0.0,0.0,0.0,0.23115205764770508,7.33966588973999,-0.4076530337333679,-41.838985443115234,0
1562.241,0.002828020602464676,0.012596487998962402,0.0008614762919023633,0.0,0.0,0.0,0.0,0.0009273405303247273,-0.0027907106559723616,-0.00142745824996382,1.0014104843139648,0.0,0.0,0.0,0.23115205764770508,7.33966588973999,-0.4076530337333679,-41.838985443115234,0
1572.1419999999998,0.002811999758705497,0.012516546063125134,0.0009097816073335707,0.0,0.0,0.0,0.0,-0.001562268938869238,0.007951777428388596,0.0010829149978235364,1.0023300647735596,0.0,0.0,0.0,0.22950825095176697,7.318243026733398,-0.40690696239471436,-41.541446685791016,0
1582.0159999999996,0.002811999758705497,0.012516546063125134,0.0009097816073335707,0.0,0.0,0.0,0.0,0.0022067688405513763,0.005465855356305838,-0.00043396782712079585,1.0008063316345215,0.0,0.0,0.0,0.22950825095176697,7.318243026733398,-0.40690696239471436,-41.541446685791016,0
1591.9120000000003,0.002798058558255434,0.012432554736733437,0.0009644363890402019,0.0,0.0,0.0,0.0,-0.00015670103312004358,-0.003999757114797831,0.0005714017315767705,1.0020161867141724,0.0,0.0,0.0,0.22989094257354736,7.303452014923096,-0.4160393476486206,-41.6107177734375,0
1601.7909999999993,0.002775522181764245,0.012532206252217293,0.001067343051545322,0.0,0.0,0.0,0.0,0.0015578523743897676,0.00375524559058249,0.000852543453220278,1.000560998916626,0.0,0.0,0.0,0.21151316165924072,7.337240219116211,-0.4246320128440857,-38.2843017578125,0
1611.691999999999,0.002757836366072297,0.012454208917915821,0.001141684246249497,0.0,0.0,0.0,0.0,5.713539576390758e-05,-0.0051262108609080315,0.002262867521494627,1.0000975131988525,0.0,0.0,0.0,0.21167941391468048,7.325037002563477,-0.4214458763599396,-38.314395904541016,0
1621.5660000000007,0.002757836366072297,0.012454208917915821,0.001141684246249497,0.0,0.0,0.0,0.0,-0.0005012149340473115,-0.000411271583288908,-0.0029082477558404207,0.999967098236084,0.0,0.0,0.0,0.21167941391468048,7.325037002563477,-0.4214458763599396,-38.314395904541016,0
1631.4699999999993,0.0027361419051885605,0.012365860864520073,0.001218430232256651,0.0,0.0,0.0,0.0,-0.0005895078065805137,-0.0035625232849270105,0.0006453696405515075,0.9997832775115967,0.0,0.0,0.0,0.21083764731884003,7.311890125274658,-0.3917490839958191,-38.16203308105469,0
1641.3410000000003,0.0027361419051885605,0.012365860864520073,0.001218430232256651,0.0,0.0,0.0,0.0,-0.002563213463872671,-0.001579142757691443,0.0006203938974067569,0.9997475147247314,0.0,0.0,0.0,0.21083764731884003,7.311890125274658,-0.3917490839958191,-38.16203308105469,0
1651.2430000000004,0.0027098122518509626,0.012268535792827606,0.0012960530584678054,0.0,0.0,0.0,0.0,0.0009287224384024739,-0.00018457180703990161,0.003255310235545039,1.002015233039856,0.0,0.0,0.0,0.2103314995765686,7.309283256530762,-0.37000980973243713,-38.07041931152344,0
1661.125,0.0027098122518509626,0.012268535792827606,0.0012960530584678054,0.0,0.0,0.0,0.0,-0.0012409413466230035,0.008541520684957504,-0.0022582649253308773,0.9997327923774719,0.0,0.0,0.0,0.2103314995765686,7.309283256530762,-0.37000980973243713,-38.07041931152344,0
1671.0159999999996,0.002677610609680414,0.012165304273366928,0.0013774270191788673,0.0,0.0,0.0,0.0,0.0012105259811505675,-0.004124231170862913,-0.000543236848898232,0.9995096325874329,0.0,0.0,0.0,0.21140259504318237,7.296087265014648,-0.3889610171318054,-38.2642936706543,0
1680.8950000000004,0.002629932714626193,0.012317420914769173,0.0015057286946102977,0.0,0.0,0.0,0.0,0.001673647202551365,-0.0024934839457273483,-0.0016444360371679068,1.0000488758087158,0.0,0.0,0.0,0.18712787330150604,7.342741966247559,-0.4104377031326294,-33.87051773071289,0
1690.7919999999995,0.0025886669754981995,0.012223653495311737,0.0016055412124842405,0.0,0.0,0.0,0.0,-0.0023068622685968876,0.0010209922911599278,0.0020164488814771175,1.00056791305542,0.0,0.0,0.0,0.18843306601047516,7.323737621307373,-0.393522173166275,-34.10676193237305,0
1700.6669999999995,0.0026005469262599945,0.012243233621120453,0.001621782430447638,0.0,0.0,0.0,0.0,0.0028534741140902042,0.005410115700215101,0.0009660664945840836,0.999447226524353,0.0,0.0,0.0,0.19531726837158203,7.328977108001709,-0.38891080021858215,-35.352813720703125,0
1710.562,0.0029870017897337675,0.012914927676320076,0.0005462448461912572,0.0,0.0,0.0,0.0,-0.002362991916015744,-0.001208675792440772,-0.002277109771966934,1.0000239610671997,0.0,0.0,0.0,0.2091790735721588,7.450695991516113,-0.32617056369781494,-37.8618278503418,0
1720.4519999999993,0.0029309680685400963,0.01295575499534607,0.000570146250538528,0.0,0.0,0.0,0.0,-0.0024072614032775164,0.0027188071981072426,-0.0007867194944992661,1.0039105415344238,0.0,0.0,0.0,0.18986833095550537,7.461605072021484,-0.3314806818962097,-34.366546630859375,0
1730.3410000000003,0.003000076161697507,0.012980213388800621,0.000470278988359496,0.0,0.0,0.0,0.0,0.0005947370664216578,0.005029657855629921,0.000941949023399502,0.999423086643219,0.0,0.0,0.0,0.20397308468818665,7.458698272705078,-0.31955915689468384,-36.919532775878906,0
1740.2260000000006,0.002978905104100704,0.013002381660044193,0.000487027078634128,0.0,0.0,0.0,0.0,0.0023160784039646387,-0.00019128913118038327,0.000535216589923948,0.9988605976104736,0.0,0.0,0.0,0.18850378692150116,7.462501525878906,-0.320684552192688,-34.119564056396484,0
1750.1170000000002,0.0029951867181807756,0.0129731185734272,0.000492872903123498,0.0,0.0,0.0,0.0,-0.0030324673280119896,0.0010957940248772502,-0.002655347576364875,1.000357747077942,0.0,0.0,0.0,0.2029358297586441,7.439916133880615,-0.311331570148468,-36.73178482055664,0
1759.9940000000006,0.0029709741938859224,0.012990567833185196,0.0004970561130903661,0.0,0.0,0.0,0.0,0.00168841821141541,0.0015943306498229504,0.0012213090667501092,1.0020793676376343,0.0,0.0,0.0,0.20994603633880615,7.442017078399658,-0.3118036687374115,-38.00065231323242,0
1769.8919999999998,0.002976010786369443,0.012953768484294415,0.0005200051236897707,0.0,0.0,0.0,0.0,-0.0013665639562532306,0.00012210823479108512,-0.002071050927042961,0.9990872144699097,0.0,0.0,0.0,0.2091178297996521,7.434822082519531,-0.33405715227127075,-37.85074234008789,0
1779.7690000000002,0.002935160882771015,0.01299029029905796,0.0005367466947063804,0.0,0.0,0.0,0.0,0.0001352191175101325,0.0028419119771569967,-0.0020795604214072227,0.999362051486969,0.0,0.0,0.0,0.21540232002735138,7.440728664398193,-0.33630797266960144,-38.988250732421875,0
1789.6730000000007,0.00293862447142601,0.012952510267496109,0.0005647041834890842,0.0,0.0,0.0,0.0,0.0007396655273623765,-0.003289203392341733,0.002679456491023302,1.0004231929779053,0.0,0.0,0.0,0.21387776732444763,7.431960582733154,-0.34021785855293274,-38.712303161621094,0
1799.5470000000005,0.002938708756119013,0.012955342419445515,0.0005673136911354959,0.0,0.0,0.0,0.0,-0.002428569598123431,-0.0021813707426190376,-0.0006195693858899176,0.9992330074310303,0.0,0.0,0.0,0.21981216967105865,7.432524681091309,-0.33859872817993164,-39.786441802978516,0
1809.438,0.0029416559264063835,0.012932424433529377,0.0005828950670547783,0.0,0.0,0.0,0.0,-0.0015158674214035273,0.0013893331633880734,0.00103866180870682,0.99935382604599,0.0,0.0,0.0,0.21993887424468994,7.420524597167969,-0.32218924164772034,-39.80937194824219,0
1819.3189999999995,0.0029464727267622948,0.012914101593196392,0.0006016122060827911,0.0,0.0,0.0,0.0,0.0019596144556999207,-0.003363847965374589,-0.002929933136329055,1.0010007619857788,0.0,0.0,0.0,0.20347557961940765,7.421415328979492,-0.328950434923172,-36.82948303222656,0
1829.2209999999995,0.0029509728774428368,0.012889736331999302,0.0006157622556202114,0.0,0.0,0.0,0.0,-0.0007985712145455182,1.665040872467216e-05,-0.0005561739671975374,0.9999383687973022,0.0,0.0,0.0,0.2031317800283432,7.41219425201416,-0.3318396210670471,-36.76725769042969,0
1839.1039999999994,0.002940306207165122,0.012867957353591919,0.0006320618558675051,0.0,0.0,0.0,0.0,0.002859564032405615,0.008374554105103016,-0.0003087479854002595,1.0010581016540527,0.0,0.0,0.0,0.20237727463245392,7.400440692901611,-0.3157474994659424,-36.63068771362305,0
1848.9889999999996,0.0030904156155884266,0.013008026406168938,0.00036900938721373677,0.0,0.0,0.0,0.0,0.00020344177028164268,-0.0013100679498165846,-7.057208858896047e-05,1.0008827447891235,0.0,0.0,0.0,0.2074630707502365,7.422396659851074,-0.31152868270874023,-37.55122756958008,0
1858.8680000000004,0.003018938936293125,0.013041829690337181,0.00038235235842876136,0.0,0.0,0.0,0.0,-0.00037934089777991176,0.00023705241619609296,-0.0031860279850661755,0.9978885054588318,0.0,0.0,0.0,0.1969655305147171,7.4206976890563965,-0.33083707094192505,-35.65114974975586,0
1868.7780000000002,0.0030287224799394608,0.013022912666201591,0.00038294526166282594,0.0,0.0,0.0,0.0,0.0009724710253067315,0.004740629345178604,0.0013542923843488097,1.0017282962799072,0.0,0.0,0.0,0.19695831835269928,7.413725852966309,-0.3332054913043976,-35.64984893798828,0
1878.6450000000004,0.002996560651808977,0.013014771975576878,0.00038541550748050213,0.0,0.0,0.0,0.0,-0.002637642901390791,0.0062697590328752995,0.002358041238039732,1.0026557445526123,0.0,0.0,0.0,0.196297287940979,7.408236980438232,-0.33932390809059143,-35.53019714355469,0
1888.5439999999999,0.0030364913400262594,0.013027145527303219,0.0003479170554783195,0.0,0.0,0.0,0.0,0.0030300854705274105,0.003121719229966402,0.00037843469181098044,1.0004711151123047,0.0,0.0,0.0,0.2078125923871994,7.408967971801758,-0.3356637954711914,-37.6144905090332,0
1898.42,0.0030141398310661316,0.013026734814047813,0.00035320164170116186,0.0,0.0,0.0,0.0,0.0018171184929087758,-0.003471587086096406,0.0003949784440919757,0.998786449432373,0.0,0.0,0.0,0.21532827615737915,7.406088829040527,-0.35176563262939453,-38.97484588623047,0
1908.316999999999,0.0030400550458580256,0.01300188060849905,0.00033227744279429317,0.0,0.0,0.0,0.0,-0.003455378348007798,-0.0031906135845929384,-0.004532475024461746,0.9994637966156006,0.0,0.0,0.0,0.2247423529624939,7.398894309997559,-0.34508153796195984,-40.67881393432617,0
1918.1970000000001,0.0030016705859452486,0.013027592562139034,0.0003575615701265633,0.0,0.0,0.0,0.0,0.001257682335563004,-0.0021895940881222486,0.004383332096040249,1.0008001327514648,0.0,0.0,0.0,0.21154850721359253,7.405679225921631,-0.33513104915618896,-38.29069900512695,0
1928.0920000000006,0.0030292372684925795,0.012996403500437737,0.0003353536012582481,0.0,0.0,0.0,0.0,3.595847010728903e-05,0.0008994126110337675,-0.0008174186805263162,1.0020482540130615,0.0,0.0,0.0,0.22222872078418732,7.396871089935303,-0.3196909725666046,-40.223846435546875,0
1937.973,0.0029842471703886986,0.013029285706579685,0.0003643902309704572,0.0,0.0,0.0,0.0,0.0012451191432774067,0.007324846927076578,0.0022003299091011286,1.0020709037780762,0.0,0.0,0.0,0.2124674767255783,7.398777484893799,-0.32742077112197876,-38.45703125,0
1947.8729999999996,0.002998939948156476,0.01300150714814663,0.0003696415515150875,0.0,0.0,0.0,0.0,-0.00405378732830286,-0.005915661808103323,0.0007207607268355787,0.9989706873893738,0.0,0.0,0.0,0.21236412227153778,7.3885273933410645,-0.3362979292869568,-38.43832778930664,0
1957.7469999999994,0.002956223441287875,0.013016745448112488,0.0003950898826587945,0.0,0.0,0.0,0.0,0.0015662260120734572,-0.0042619179002940655,-0.00010864000796573237,0.9971694350242615,0.0,0.0,0.0,0.2123895138502121,7.390171051025391,-0.3325200080871582,-38.44292449951172,0
1967.6450000000004,0.002993381582200527,0.012989266775548458,0.0003674561157822609,0.0,0.0,0.0,0.0,0.0018767749425023794,0.004951988346874714,-0.0009377081878483295,0.9999828934669495,0.0,0.0,0.0,0.22145268321037292,7.380706310272217,-0.31445541977882385,-40.0833740234375,0
1977.521999999999,0.0029324369970709085,0.012992283329367638,0.00037091292324475944,0.0,0.0,0.0,0.0,-0.0031161089427769184,-0.00623986916616559,0.0031495471484959126,0.9983646869659424,0.0,0.0,0.0,0.21073825657367706,7.3808913230896,-0.3162163496017456,-38.14404296875,0
1987.4210000000003,0.0029457886703312397,0.012964339926838875,0.0003738501400221139,0.0,0.0,0.0,0.0,0.00015746400458738208,7.5145103437535e-06,-0.001947116805240512,1.0001587867736816,0.0,0.0,0.0,0.21082209050655365,7.373623371124268,-0.3209947943687439,-38.159217834472656,0
1997.2980000000007,0.002970594447106123,0.01297061238437891,0.00040348569746129215,0.0,0.0,0.0,0.0,-0.0011460117530077696,-0.003511984832584858,0.003744876477867365,0.9992383718490601,0.0,0.0,0.0,0.1995202898979187,7.373929977416992,-0.3081764876842499,-36.11357116699219,0
2007.188,0.00298601808026433,0.012944463640451431,0.0004081956285517663,0.0,0.0,0.0,0.0,-4.479452036321163e-05,0.004695258568972349,0.00039547475171275437,0.9988808631896973,0.0,0.0,0.0,0.19920873641967773,7.374729156494141,-0.2996664047241211,-36.05717468261719,0
2017.0730000000003,0.002966566476970911,0.012960299849510193,0.00044011499267071486,0.0,0.0,0.0,0.0,0.00034242449328303337,-0.006384324282407761,0.0015813704812899232,1.0011969804763794,0.0,0.0,0.0,0.18871143460273743,7.386040687561035,-0.2969987988471985,-34.157142639160156,0
2026.9699999999993,0.0030701416544616222,0.013024757616221905,0.00031228773877955973,0.0,0.0,0.0,0.0,0.0020219061989337206,-0.00014339837071020156,-0.0013851625844836235,1.0018614530563354,0.0,0.0,0.0,0.19682931900024414,7.396951198577881,-0.2859548330307007,-35.62649917602539,0
2036.8510000000006,0.0030004626605659723,0.013061219826340675,0.00032313421252183616,0.0,0.0,0.0,0.0,-0.0032855854369699955,0.004113467875868082,-0.0009462375310249627,1.0021002292633057,0.0,0.0,0.0,0.18984627723693848,7.409165859222412,-0.2872132658958435,-34.362552642822266,0
2046.7430000000004,0.003017175244167447,0.013041769154369831,0.00032474720501340926,0.0,0.0,0.0,0.0,0.0009702714160084724,0.0037618970964103937,-0.0007793043041601777,1.0000195503234863,0.0,0.0,0.0,0.1887263059616089,7.40742301940918,-0.2893480956554413,-34.15983963012695,0
2056.624,0.002988440217450261,0.013043592683970928,0.0003378695109859109,0.0,0.0,0.0,0.0,-0.0019377826247364283,0.0020699696615338326,0.0011703248601406813,0.9997280836105347,0.0,0.0,0.0,0.1875501275062561,7.399816989898682,-0.29918164014816284,-33.94694519042969,0
2066.5190000000002,0.0030043411534279585,0.013022729195654392,0.00034326582681387663,0.0,0.0,0.0,0.0,-0.002297860337421298,0.0012313409242779016,-0.0002468239690642804,0.9995071291923523,0.0,0.0,0.0,0.1879584789276123,7.3947248458862305,-0.2991807162761688,-34.02085876464844,0
2076.3989999999994,0.0029778056778013706,0.013049276545643806,0.00038182493881322443,0.0,0.0,0.0,0.0,0.0024608729872852564,-0.0015305010601878166,0.0026992694474756718,1.0010223388671875,0.0,0.0,0.0,0.1725255399942398,7.403265953063965,-0.30430784821510315,-31.22746467590332,0
2086.286,0.0030124562326818705,0.013033068738877773,0.0003601661301217973,0.0,0.0,0.0,0.0,-8.752848953008652e-05,0.0013408652739599347,-0.0006327286246232688,0.999590277671814,0.0,0.0,0.0,0.18536148965358734,7.401450157165527,-0.3053025007247925,-33.55079650878906,0
2096.173999999999,0.0030158041045069695,0.013051974587142467,0.0003965951327700168,0.0,0.0,0.0,0.0,-0.0013361977180466056,0.007189735770225525,-0.0005919239483773708,0.9995291829109192,0.0,0.0,0.0,0.1806095540523529,7.404677867889404,-0.3088212311267853,-32.69068908691406,0
2106.066999999999,0.003042531432583928,0.01301057729870081,0.000388556596590206,0.0,0.0,0.0,0.0,0.0020713915582746267,0.004089305177330971,0.0012891247170045972,0.9986337423324585,0.0,0.0,0.0,0.19174985587596893,7.391861915588379,-0.31574833393096924,-34.70710372924805,0
2115.9490000000005,0.0030681281350553036,0.012990336865186691,0.0004073750751558691,0.0,0.0,0.0,0.0,0.0007723115268163383,0.00350137148052454,0.0029142198618501425,0.9989774227142334,0.0,0.0,0.0,0.18477387726306915,7.383955955505371,-0.3224336802959442,-33.44443893432617,0
2125.8369999999995,0.003087162273004651,0.01296553947031498,0.00041539649828337133,0.0,0.0,0.0,0.0,0.0013937806943431497,-0.005193814169615507,-0.0012757406802847981,1.0015279054641724,0.0,0.0,0.0,0.18463648855686188,7.373599052429199,-0.32530540227890015,-33.41957092285156,0
2135.7270000000008,0.003081832779571414,0.012967291288077831,0.00043736709631048143,0.0,0.0,0.0,0.0,-0.0014677377184852958,0.005122712347656488,-0.0004359497979748994,1.0014861822128296,0.0,0.0,0.0,0.17737255990505219,7.3695855140686035,-0.3350540101528168,-32.10478591918945,0
2145.616,0.0031205415725708008,0.012950126081705093,0.00041825431981123984,0.0,0.0,0.0,0.0,0.0014613736420869827,-0.00036209943937137723,-0.0038882396183907986,0.9992197751998901,0.0,0.0,0.0,0.1879197657108307,7.362399578094482,-0.3273197412490845,-34.013851165771484,0
2155.5,0.0030777957290410995,0.012958085164427757,0.00043167907278984785,0.0,0.0,0.0,0.0,-0.0013608256122097373,-0.00024942096206359565,0.0005214936682023108,1.0004321336746216,0.0,0.0,0.0,0.18136969208717346,7.369785308837891,-0.3301890790462494,-32.82827377319336,0
2165.388999999999,0.0030948661733418703,0.012932703830301762,0.00044112629257142544,0.0,0.0,0.0,0.0,-0.003725619986653328,0.004258209839463234,0.0013389707310125232,1.0013904571533203,0.0,0.0,0.0,0.18050169944763184,7.359132766723633,-0.3261723518371582,-32.67116928100586,0
2175.271999999999,0.003021429292857647,0.01294397097080946,0.0004594202619045973,0.0,0.0,0.0,0.0,0.000519688765052706,0.0022057665046304464,-0.0011650194646790624,1.0022684335708618,0.0,0.0,0.0,0.18995416164398193,7.360926628112793,-0.35653531551361084,-34.382080078125,0
2185.1589999999997,0.003080402035266161,0.012950423173606396,0.00041861942736431956,0.0,0.0,0.0,0.0,-0.00010473286965861917,0.001951212645508349,0.0024918129201978445,0.9971232414245605,0.0,0.0,0.0,0.20360775291919708,7.356484413146973,-0.35179048776626587,-36.85340881347656,0
2195.0480000000007,0.0030034424271434546,0.0129847452044487,0.00043266810826025903,0.0,0.0,0.0,0.0,0.0012250272557139397,0.0032233321107923985,0.0011976597597822547,0.9976365566253662,0.0,0.0,0.0,0.20339082181453705,7.3510422706604,-0.35739731788635254,-36.814144134521484,0
2204.941999999999,0.003050299594178796,0.012965735048055649,0.00040467013604938984,0.0,0.0,0.0,0.0,-0.003974222112447023,-0.003737530205398798,0.001539893914014101,1.0012197494506836,0.0,0.0,0.0,0.21566271781921387,7.339170455932617,-0.350161612033844,-39.03538131713867,0
2214.8330000000005,0.0029826031532138586,0.013019955717027187,0.0004345880006439984,0.0,0.0,0.0,0.0,-0.0010309795616194606,-0.0016111248405650258,0.0027692532166838646,1.002569556236267,0.0,0.0,0.0,0.20299115777015686,7.352696895599365,-0.3654453754425049,-36.741798400878906,0
2224.714,0.003001426812261343,0.012996450997889042,0.0004415164585225284,0.0,0.0,0.0,0.0,-0.00018685816030483693,-0.0010826808866113424,0.00117302848957479,1.0003471374511719,0.0,0.0,0.0,0.2017526924610138,7.346312046051025,-0.36928436160087585,-36.517642974853516,0
2234.5969999999998,0.0029755851719528437,0.012986195273697376,0.0004535522311925888,0.0,0.0,0.0,0.0,0.0020406218245625496,0.00232922425493598,0.00203217682428658,0.9988471269607544,0.0,0.0,0.0,0.2027415782213211,7.339692115783691,-0.3769461512565613,-36.69662857055664,0
2244.49,0.0030379598028957844,0.012985463254153728,0.00040474458364769816,0.0,0.0,0.0,0.0,-0.0011592692462727427,-0.006667709443718195,0.0031074117869138718,0.9988659620285034,0.0,0.0,0.0,0.21293026208877563,7.336430072784424,-0.36337628960609436,-38.540802001953125,0
2254.3719999999994,0.00297038396820426,0.013043994084000587,0.00043792810174636543,0.0,0.0,0.0,0.0,-0.0006404712330549955,-0.0019480559276416898,0.003038488095626235,1.0007963180541992,0.0,0.0,0.0,0.20034539699554443,7.33824348449707,-0.37742313742637634,-36.26291275024414,0
