timestamp,stateEstimate.x,stateEstimate.y,stateEstimate.z,controller.cmd_thrust,controller.cmd_roll,controller.cmd_pitch,controller.cmd_yaw,controller.r_roll,controller.r_pitch,controller.r_yaw,controller.accelz,controller.actuatorThrust,controller.roll,controller.pitch,controller.yaw,controller.rollRate,controller.pitchRate,controller.yawRate,controller.ctr_yaw
0.0,0.01972818374633789,0.0038893315941095352,0.0008243715856224298,0.0,0.0,0.0,0.0,-0.0022585769183933735,-0.0011578616686165333,-0.0009455346735194325,1.0001729726791382,0.0,0.0,0.0,1.089795470237732,5.945512771606445,-1.0852124691009521,-197.25514221191406,0
9.913000000000466,0.01972194015979767,0.003911449108272791,0.0008029188611544669,0.0,0.0,0.0,0.0,4.53711036243476e-05,-0.003677884116768837,0.0001949812431121245,1.0017844438552856,0.0,0.0,0.0,1.1030040979385376,5.942363739013672,-1.0681049823760986,-199.64593505859375,0
19.774999999999636,0.01972194015979767,0.003911449108272791,0.0008029188611544669,0.0,0.0,0.0,0.0,-0.0006174422451294959,0.001312345382757485,-0.004144027829170227,1.0022835731506348,0.0,0.0,0.0,1.1030040979385376,5.942363739013672,-1.0681049823760986,-199.64593505859375,0
29.6820000000007,0.019702216610312462,0.003924697637557983,0.0008085817680694163,0.0,0.0,0.0,0.0,-0.0007528540445491672,0.0020365393720567226,0.0007763261673972011,1.000411033630371,0.0,0.0,0.0,1.1157184839248657,5.946105480194092,-1.0498521327972412,-201.94725036621094,0
39.54900000000089,0.01975780539214611,0.0038677342236042023,0.0008117667748592794,0.0,0.0,0.0,0.0,-0.002441634424030781,-0.0017755759181454778,-0.0015075902920216322,1.0011944770812988,0.0,0.0,0.0,1.0948055982589722,5.933565616607666,-1.039753794670105,-198.1619873046875,0
49.45399999999972,0.019775183871388435,0.003947143908590078,0.0008180084987543523,0.0,0.0,0.0,0.0,0.00026156698004342616,-0.0005589971551671624,0.0013520626816898584,1.0017601251602173,0.0,0.0,0.0,1.1006436347961426,5.937640190124512,-1.0131144523620605,-199.21868896484375,0
59.324000000000524,0.019775183871388435,0.003947143908590078,0.0008180084987543523,0.0,0.0,0.0,0.0,0.0016044932417571545,0.0006831421051174402,0.0021853868383914232,0.9993562698364258,0.0,0.0,0.0,1.1006436347961426,5.937640190124512,-1.0131144523620605,-199.21868896484375,0
69.22800000000097,0.019766679033637047,0.0040015121921896935,0.0008430113666690886,0.0,0.0,0.0,0.0,-0.0015342028345912695,-0.0024811315815895796,0.0005198349826969206,0.9994061589241028,0.0,0.0,0.0,1.1055995225906372,5.947166919708252,-0.9887885451316833,-200.11570739746094,0
79.09699999999975,0.019766679033637047,0.0040015121921896935,0.0008430113666690886,0.0,0.0,0.0,0.0,-0.0025545323733240366,0.004284831695258617,6.587061216123402e-05,0.9997140169143677,0.0,0.0,0.0,1.1055995225906372,5.947166919708252,-0.9887885451316833,-200.11570739746094,0
88.99200000000019,0.0197736918926239,0.004047520458698273,0.0008201631717383862,0.0,0.0,0.0,0.0,0.00242341379635036,-0.007245958317071199,0.0034783475566655397,1.0029462575912476,0.0,0.0,0.0,1.1136735677719116,5.954246997833252,-0.9606238603591919,-201.57711791992188,0
98.871000000001,0.0197736918926239,0.004047520458698273,0.0008201631717383862,0.0,0.0,0.0,0.0,0.003329520346596837,0.0043771034106612206,0.000888735638000071,1.000389575958252,0.0,0.0,0.0,1.1136735677719116,5.954246997833252,-0.9606238603591919,-201.57711791992188,0
108.78000000000065,0.019745435565710068,0.004034762270748615,0.0008438643999397755,0.0,0.0,0.0,0.0,-0.00209164060652256,0.0026553510688245296,0.0011431538732722402,1.0015736818313599,0.0,0.0,0.0,1.1179019212722778,5.935183525085449,-0.9673823118209839,-202.3424835205078,0
118.64500000000044,0.019817739725112915,0.0039100972935557365,0.0008027634466998279,0.0,0.0,0.0,0.0,-0.002315869089215994,0.003825405379757285,-0.0005579995922744274,1.0012975931167603,0.0,0.0,0.0,1.1023746728897095,5.910274505615234,-0.9525158405303955,-199.53199768066406,0
128.54000000000087,0.01979227550327778,0.003908676095306873,0.0008251863764598966,0.0,0.0,0.0,0.0,-0.0013721375726163387,-0.001311096246354282,0.003729842370375991,0.9997458457946777,0.0,0.0,0.0,1.1083643436431885,5.91213321685791,-0.9577109813690186,-200.61614990234375,0
138.42699999999968,0.01979227550327778,0.003908676095306873,0.0008251863764598966,0.0,0.0,0.0,0.0,0.0007726919720880687,0.005238066427409649,-0.0018328302539885044,0.9998249411582947,0.0,0.0,0.0,1.1083643436431885,5.91213321685791,-0.9577109813690186,-200.61614990234375,0
148.3150000000005,0.01974901184439659,0.003861105302348733,0.0008458197698928416,0.0,0.0,0.0,0.0,0.00017534455400891602,0.0028165020048618317,-0.0011125302407890558,0.9995995759963989,0.0,0.0,0.0,1.1061257123947144,5.908637523651123,-0.9632349014282227,-200.2109375,0
158.19300000000112,0.019756659865379333,0.003833170747384429,0.0008319658227264881,0.0,0.0,0.0,0.0,0.003777722828090191,-0.004206995014101267,0.0004384896019473672,1.0010926723480225,0.0,0.0,0.0,1.0927289724349976,5.902697563171387,-0.961830198764801,-197.78611755371094,0
168.09699999999975,0.01975296251475811,0.003843313781544566,0.0008193433750420809,0.0,0.0,0.0,0.0,-0.0005736295715905726,-0.0057516940869390965,0.005842938087880611,1.0015287399291992,0.0,0.0,0.0,1.0922218561172485,5.887545108795166,-0.9480955004692078,-197.69432067871094,0
177.96700000000055,0.01975296251475811,0.003843313781544566,0.0008193433750420809,0.0,0.0,0.0,0.0,-0.002884817775338888,-0.0036297226324677467,0.0006625921232625842,1.0012626647949219,0.0,0.0,0.0,1.0922218561172485,5.887545108795166,-0.9480955004692078,-197.69432067871094,0
187.862000000001,0.019733335822820663,0.0038424052763730288,0.0008194908732548356,0.0,0.0,0.0,0.0,0.00037011969834566116,0.0029171009082347155,-0.0017271445831283927,0.9998392462730408,0.0,0.0,0.0,1.090970516204834,5.876880645751953,-0.9332985281944275,-197.46783447265625,0
197.74099999999999,0.019733335822820663,0.0038424052763730288,0.0008194908732548356,0.0,0.0,0.0,0.0,-0.0027349551673978567,0.0005737391766160727,0.0012874276144430041,0.9996098279953003,0.0,0.0,0.0,1.090970516204834,5.876880645751953,-0.9332985281944275,-197.46783447265625,0
207.64400000000023,0.019737867638468742,0.003897458780556917,0.0007811359246261418,0.0,0.0,0.0,0.0,-2.9172644644859247e-05,0.0036416964139789343,-0.0013381412718445063,0.9992431998252869,0.0,0.0,0.0,1.0896469354629517,5.865736484527588,-0.951269268989563,-197.228271484375,0
217.52000000000044,0.019737867638468742,0.003897458780556917,0.0007811359246261418,0.0,0.0,0.0,0.0,0.00036257848842069507,0.002983741695061326,-0.002161349169909954,0.9990552067756653,0.0,0.0,0.0,1.0896469354629517,5.865736484527588,-0.951269268989563,-197.228271484375,0
227.41200000000026,0.019749121740460396,0.003946059383451939,0.0007411417900584638,0.0,0.0,0.0,0.0,-0.0005770440911874175,0.0016270896885544062,0.0027310147415846586,1.000573992729187,0.0,0.0,0.0,1.0875000953674316,5.865233898162842,-0.9708318710327148,-196.8396759033203,0
237.29100000000108,0.01973150111734867,0.0039135063998401165,0.0007408602978102863,0.0,0.0,0.0,0.0,0.0011108128819614649,-0.0038638408295810223,-0.0019804572220891714,0.9983224868774414,0.0,0.0,0.0,1.0875228643417358,5.859057903289795,-0.9741351008415222,-196.84381103515625,0
247.1859999999997,0.019726017490029335,0.0039600105956196785,0.0007581568788737059,0.0,0.0,0.0,0.0,-0.0013420336181297898,0.003807306755334139,-0.001524048624560237,0.9996703267097473,0.0,0.0,0.0,1.0867650508880615,5.853071212768555,-0.9790371656417847,-196.7066192626953,0
257.0640000000003,0.01971074752509594,0.003927283454686403,0.0007580713136121631,0.0,0.0,0.0,0.0,0.0013762307353317738,0.0038261094596236944,-0.0013257489772513509,1.0022327899932861,0.0,0.0,0.0,1.085740089416504,5.846169948577881,-0.974450945854187,-196.52110290527344,0
266.96299999999974,0.01970551908016205,0.0039205546490848064,0.0007570377201773226,0.0,0.0,0.0,0.0,0.0009205006062984467,0.007744560483843088,0.00022071953571867198,1.0017342567443848,0.0,0.0,0.0,1.0846879482269287,5.84011173248291,-0.9835376143455505,-196.33067321777344,0
276.84499999999935,0.019695593044161797,0.0038861881475895643,0.0007587478612549603,0.0,0.0,0.0,0.0,-0.0007777324062772095,-0.005034337285906076,-0.003345632925629616,0.9981649518013,0.0,0.0,0.0,1.082956075668335,5.837152004241943,-0.9991491436958313,-196.0172119140625,0
286.73199999999997,0.01970057561993599,0.0038906659465283155,0.0007526472909376025,0.0,0.0,0.0,0.0,-0.0005190822412259877,-0.0018889335915446281,0.0010185424471274018,0.9986851811408997,0.0,0.0,0.0,1.0828207731246948,5.82684850692749,-1.0132533311843872,-195.99270629882812,0
296.6129999999994,0.019690394401550293,0.0038540405221283436,0.0007538925274275243,0.0,0.0,0.0,0.0,-0.0009387856116518378,-0.0032240822911262512,-0.004835698753595352,0.9990528225898743,0.0,0.0,0.0,1.080520749092102,5.825807094573975,-1.0045859813690186,-195.576416015625,0
306.5069999999996,0.01969689503312111,0.0038693302776664495,0.0007581526297144592,0.0,0.0,0.0,0.0,-0.0015126196667551994,0.0018445616587996483,-0.002622310072183609,1.001592755317688,0.0,0.0,0.0,1.0875358581542969,5.843084812164307,-0.9913420081138611,-196.8461456298828,0
316.39899999999943,0.01968824863433838,0.0038311167154461145,0.0007574452902190387,0.0,0.0,0.0,0.0,0.000515355437528342,-0.000848014373332262,-0.002418497111648321,1.0005757808685303,0.0,0.0,0.0,1.0860589742660522,5.833927631378174,-0.9898630976676941,-196.57884216308594,0
326.29299999999967,0.019705230370163918,0.003854824462905526,0.0007508255075663328,0.0,0.0,0.0,0.0,0.0008165215258486569,0.0034571399446576834,-0.0008155760006047785,1.0011690855026245,0.0,0.0,0.0,1.0893205404281616,5.853859901428223,-0.9799274802207947,-197.16917419433594,0
336.16899999999987,0.019698303192853928,0.003821315709501505,0.0007509407005272806,0.0,0.0,0.0,0.0,0.00037310185143724084,-0.0010768909705802798,0.0002355711767449975,0.9997329711914062,0.0,0.0,0.0,1.0887537002563477,5.846916198730469,-0.9741377234458923,-197.06658935546875,0
346.0560000000005,0.019712835550308228,0.0038534493651241064,0.0007630521431565285,0.0,0.0,0.0,0.0,-0.0004934331518597901,0.005637018941342831,-0.002269464312121272,1.0001153945922852,0.0,0.0,0.0,1.099703073501587,5.868393898010254,-0.9657946228981018,-199.04844665527344,0
355.9349999999995,0.019707344472408295,0.003823675448074937,0.0007644850411452353,0.0,0.0,0.0,0.0,-0.0007524635293520987,-0.0023186795879155397,-0.003123608184978366,0.9987786412239075,0.0,0.0,0.0,1.0973740816116333,5.859936714172363,-0.9654331803321838,-198.62689208984375,0
365.83300000000054,0.01972576044499874,0.003858964890241623,0.0007744585745967925,0.0,0.0,0.0,0.0,-0.00038282436435110867,0.0018861556891351938,0.0015613799914717674,0.999204158782959,0.0,0.0,0.0,1.1071194410324097,5.878027439117432,-0.9597409963607788,-200.3908233642578,0
375.71000000000095,0.019721563905477524,0.003832897637039423,0.0007743603782728314,0.0,0.0,0.0,0.0,0.001445237547159195,0.0013876864686608315,-0.0021369943860918283,0.9987834095954895,0.0,0.0,0.0,1.1056143045425415,5.8749542236328125,-0.9527935981750488,-200.11839294433594,0
385.6080000000002,0.01971776783466339,0.0038060920778661966,0.0007738450658507645,0.0,0.0,0.0,0.0,-0.0005700351903215051,0.00038186536403372884,0.0036728321574628353,0.9989811182022095,0.0,0.0,0.0,1.1038578748703003,5.879192352294922,-0.9657512307167053,-199.80047607421875,0
395.4840000000004,0.019714465364813805,0.00377784576267004,0.0007732954109087586,0.0,0.0,0.0,0.0,-0.0001944737450685352,0.0017135405214503407,-0.00017443539400119334,0.9995197653770447,0.0,0.0,0.0,1.1023714542388916,5.870065689086914,-0.9641346335411072,-199.53143310546875,0
405.3790000000008,0.019751079380512238,0.003844361985102296,0.0007772869430482388,0.0,0.0,0.0,0.0,-0.0011746190721169114,-0.0014026965945959091,0.0017465862911194563,1.0018417835235596,0.0,0.0,0.0,1.117748737335205,5.897797584533691,-0.9468424916267395,-202.31475830078125,0
415.2659999999996,0.01973593607544899,0.003814307739958167,0.000754193402826786,0.0,0.0,0.0,0.0,-0.0023968147579580545,-0.004408275708556175,0.00021187105448916554,1.0029146671295166,0.0,0.0,0.0,1.1000757217407227,5.883714199066162,-0.9598341584205627,-199.1158905029297,0
425.16799999999967,0.019732365384697914,0.003789585782214999,0.0007519657956436276,0.0,0.0,0.0,0.0,0.0013546276604756713,0.00570902181789279,-0.003299225587397814,0.9988475441932678,0.0,0.0,0.0,1.0989789962768555,5.883867263793945,-0.9501897096633911,-198.91738891601562,0
435.03299999999945,0.01972774602472782,0.003763423999771476,0.0007517107296735048,0.0,0.0,0.0,0.0,-0.00036390198511071503,-0.005835592281073332,-9.561642218613997e-05,0.9990966320037842,0.0,0.0,0.0,1.0985435247421265,5.883804798126221,-0.953618586063385,-198.83856201171875,0
444.9259999999995,0.01975652202963829,0.0038296140264719725,0.0007443501963280141,0.0,0.0,0.0,0.0,0.0006564040086232126,0.005656324792653322,-0.0001894160668598488,1.000381588935852,0.0,0.0,0.0,1.1110897064208984,5.899209976196289,-0.941840410232544,-201.10943603515625,0
454.8150000000005,0.01975618675351143,0.00380555703304708,0.0007424895302392542,0.0,0.0,0.0,0.0,-0.0011623090831562877,0.001407706644386053,0.0029967541340738535,0.9994516968727112,0.0,0.0,0.0,1.1099343299865723,5.894781112670898,-0.9449658989906311,-200.90032958984375,0
464.70100000000093,0.019757743924856186,0.0037791894283145666,0.000740971474442631,0.0,0.0,0.0,0.0,0.0017424870748072863,0.0014659658772870898,-0.002280918648466468,0.997791588306427,0.0,0.0,0.0,1.1088299751281738,5.881446838378906,-0.9496750235557556,-200.700439453125,0
474.58899999999994,0.019760506227612495,0.0037493775598704815,0.0007395136635750532,0.0,0.0,0.0,0.0,0.0019795806147158146,0.0028748605400323868,-0.0013636925723403692,1.0004441738128662,0.0,0.0,0.0,1.1069045066833496,5.880593776702881,-0.9424130320549011,-200.35191345214844,0
484.47899999999936,0.019763661548495293,0.0037160073406994343,0.0007371383835561574,0.0,0.0,0.0,0.0,0.0018594951834529638,0.0036801230162382126,0.0027973877731710672,0.99991375207901,0.0,0.0,0.0,1.1061973571777344,5.874941349029541,-0.9468462467193604,-200.2239227294922,0
494.35399999999936,0.019766179844737053,0.0036805751733481884,0.0007347222999669611,0.0,0.0,0.0,0.0,9.040456643560901e-05,-0.0003930084640160203,-0.00020301932818256319,1.0002340078353882,0.0,0.0,0.0,1.1054733991622925,5.863156795501709,-0.9657650589942932,-200.0928955078125,0
504.2510000000002,0.019772782921791077,0.0037692920304834843,0.0008292526472359896,0.0,0.0,0.0,0.0,-0.00021461141295731068,-0.0017442762618884444,-0.0009884679457172751,1.0017703771591187,0.0,0.0,0.0,1.1106505393981934,5.888903617858887,-0.9784112572669983,-201.02996826171875,0
514.1280000000006,0.019775081425905228,0.0037373448722064495,0.0008337420877069235,0.0,0.0,0.0,0.0,0.0009165053488686681,0.0023490609601140022,3.064923657802865e-05,0.9989981651306152,0.0,0.0,0.0,1.1088898181915283,5.88643217086792,-0.9667856693267822,-200.7112579345703,0
524.0300000000007,0.019813142716884613,0.0038328373339027166,0.0008355947211384773,0.0,0.0,0.0,0.0,-0.0004948690766468644,0.0012477635173127055,0.0045959134586155415,1.0012794733047485,0.0,0.0,0.0,1.1107158660888672,5.922420501708984,-0.9548088908195496,-201.04177856445312,0
533.9110000000001,0.01972975768148899,0.003802444087341428,0.0007516400655731559,0.0,0.0,0.0,0.0,0.0005395142361521721,-0.001335814013145864,0.0015105170896276832,0.9979022741317749,0.0,0.0,0.0,1.0890486240386963,5.915384292602539,-0.9678605198860168,-197.11996459960938,0
543.7990000000009,0.01973038911819458,0.003771857125684619,0.0007519194041378796,0.0,0.0,0.0,0.0,-0.0008728332468308508,0.007419062778353691,-0.0007065681857056916,0.9986632466316223,0.0,0.0,0.0,1.0883222818374634,5.911546230316162,-0.9623064398765564,-196.98851013183594,0
553.6849999999995,0.01973293349146843,0.003739072009921074,0.0007510553114116192,0.0,0.0,0.0,0.0,-0.0023093153722584248,0.0015595841687172651,-0.001874745124951005,1.0012726783752441,0.0,0.0,0.0,1.0870685577392578,5.908359527587891,-0.9730772376060486,-196.76156616210938,0
563.585000000001,0.01973780058324337,0.0037049956154078245,0.0007493623998016119,0.0,0.0,0.0,0.0,-0.0011862828396260738,0.0005090509657748044,0.0011002912651747465,0.999676525592804,0.0,0.0,0.0,1.0856831073760986,5.896903991699219,-0.9847301840782166,-196.51080322265625,0
573.4510000000009,0.019778501242399216,0.003681114176288247,0.0007817475707270205,0.0,0.0,0.0,0.0,-0.001773006864823401,-0.0031903632916510105,0.004118979908525944,1.0011506080627441,0.0,0.0,0.0,1.0650190114974976,5.895732402801514,-0.9792189598083496,-192.77056884765625,0
583.3510000000006,0.019882163032889366,0.0038086308632045984,0.0006828997866250575,0.0,0.0,0.0,0.0,0.0004451863933354616,0.0020867479033768177,0.0018499642610549927,0.9994779229164124,0.0,0.0,0.0,1.0873100757598877,5.9320244789123535,-0.9707651734352112,-196.8052978515625,0
593.2250000000004,0.01985064521431923,0.0037863031029701233,0.0006768232560716569,0.0,0.0,0.0,0.0,-0.0001766731875250116,0.00013354848488233984,8.510682528140023e-05,0.9989898204803467,0.0,0.0,0.0,1.0655887126922607,5.934525012969971,-0.9644975662231445,-192.87368774414062,0
603.121000000001,0.019855692982673645,0.0037544809747487307,0.0006725066341459751,0.0,0.0,0.0,0.0,-0.0006000587018206716,-0.001352607854641974,0.00014699586608912796,1.000473141670227,0.0,0.0,0.0,1.0658906698226929,5.929347038269043,-0.97651606798172,-192.92832946777344,0
612.9989999999998,0.019860096275806427,0.0037219547666609287,0.0006675521144643426,0.0,0.0,0.0,0.0,0.002055386546999216,0.005039974581450224,-0.0011956429807469249,1.0023832321166992,0.0,0.0,0.0,1.0642786026000977,5.929851531982422,-0.9697703123092651,-192.63653564453125,0
622.902,0.019879724830389023,0.003759802086278796,0.0006797062233090401,0.0,0.0,0.0,0.0,-0.0003675025363918394,-0.0005870299064554274,-0.00010857180313905701,1.0008599758148193,0.0,0.0,0.0,1.0634307861328125,5.921985149383545,-0.9715308547019958,-192.48309326171875,0
632.7739999999994,0.019783902913331985,0.0037776289973407984,0.0006722590187564492,0.0,0.0,0.0,0.0,-0.0011360084172338247,0.0044816662557423115,0.0007284138700924814,0.9984085559844971,0.0,0.0,0.0,1.051105260848999,5.924905776977539,-0.9946807622909546,-190.25213623046875,0
642.6669999999995,0.019800137728452682,0.003802672028541565,0.000676604569889605,0.0,0.0,0.0,0.0,0.0009631453431211412,-0.002998783253133297,0.00019934508600272238,0.9992266297340393,0.0,0.0,0.0,1.0563158988952637,5.932209014892578,-0.9984865188598633,-191.19525146484375,0
652.5460000000003,0.019800428301095963,0.0037747619207948446,0.0006759925745427608,0.0,0.0,0.0,0.0,-5.8468576753512025e-05,0.0021959850564599037,0.0019236941589042544,0.9979634881019592,0.0,0.0,0.0,1.0562069416046143,5.931493282318115,-1.0000156164169312,-191.17555236816406,0
662.4420000000009,0.019800668582320213,0.0037461009342223406,0.0006741577526554465,0.0,0.0,0.0,0.0,-0.0019350413931533694,0.003078961046412587,-7.107353212632006e-06,0.998772144317627,0.0,0.0,0.0,1.055859923362732,5.918769359588623,-0.9953051209449768,-191.11273193359375,0
672.3199999999997,0.019800348207354546,0.0037143563386052847,0.0006709791487082839,0.0,0.0,0.0,0.0,0.0012648837873712182,-0.005965359974652529,0.0030697458423674107,0.9983163475990295,0.0,0.0,0.0,1.0540393590927124,5.916083812713623,-1.0010948181152344,-190.78321838378906,0
682.2219999999998,0.01979913003742695,0.003679747926071286,0.0006662337109446526,0.0,0.0,0.0,0.0,-7.294090028153732e-05,0.004623487591743469,0.0001845544611569494,0.9994263648986816,0.0,0.0,0.0,1.0528010129928589,5.908552646636963,-0.999104917049408,-190.55906677246094,0
692.094000000001,0.019797371700406075,0.0036438435781747103,0.0006601838977076113,0.0,0.0,0.0,0.0,-0.0005019687814638019,0.0024877560790628195,-0.0018544347258284688,0.9999701976776123,0.0,0.0,0.0,1.0512523651123047,5.903247833251953,-0.9996592402458191,-190.2787628173828,0
701.9889999999996,0.019822275266051292,0.0037445835769176483,0.0006873146048747003,0.0,0.0,0.0,0.0,-0.002352348994463682,-0.002044873544946313,-0.001525922678411007,1.0004090070724487,0.0,0.0,0.0,1.0617049932479858,5.941340923309326,-0.9972860217094421,-192.17071533203125,0
711.8680000000004,0.01982356607913971,0.0037152606528252363,0.000683582853525877,0.0,0.0,0.0,0.0,7.971291051944718e-05,-0.007228992413729429,-0.001116356928832829,1.000599980354309,0.0,0.0,0.0,1.061210036277771,5.930264949798584,-0.9891301989555359,-192.0811309814453,0
721.7649999999994,0.019825700670480728,0.0036851430777460337,0.0006802225252613425,0.0,0.0,0.0,0.0,-0.0005841500824317336,0.000631081813480705,0.0008308631367981434,0.9986241459846497,0.0,0.0,0.0,1.0597602128982544,5.924157619476318,-0.9690430164337158,-191.81871032714844,0
731.6440000000002,0.01965958997607231,0.0037930908147245646,0.0006891801604069769,0.0,0.0,0.0,0.0,0.0012091834796592593,0.00397475715726614,-8.802927186479792e-05,1.0017951726913452,0.0,0.0,0.0,1.0399364233016968,5.95836067199707,-1.019601821899414,-188.23056030273438,0
741.5410000000011,0.01971176639199257,0.003913842607289553,0.0006662047235295177,0.0,0.0,0.0,0.0,-0.0015011830255389214,-0.002636936027556658,-0.0023205382749438286,1.0001177787780762,0.0,0.0,0.0,1.0514816045761108,5.995189666748047,-1.0176169872283936,-190.3202667236328,0
751.4230000000007,0.01970771513879299,0.0038956808857619762,0.0006641506915912032,0.0,0.0,0.0,0.0,0.0019788870122283697,0.0049314070492982864,-0.001630318001843989,0.9991258978843689,0.0,0.0,0.0,1.0507004261016846,5.988693714141846,-1.0094739198684692,-190.17886352539062,0
761.3109999999997,0.019685959443449974,0.003927920944988728,0.0007383227348327637,0.0,0.0,0.0,0.0,0.001599439070560038,-0.008298875764012337,-1.3768360076937824e-05,1.0002787113189697,0.0,0.0,0.0,1.0656828880310059,5.9986371994018555,-1.013712763786316,-192.89073181152344,0
771.1910000000007,0.019679920747876167,0.003909150138497353,0.0007420565816573799,0.0,0.0,0.0,0.0,-0.0018889582715928555,-0.004170571453869343,0.0012501702876761556,0.9987030625343323,0.0,0.0,0.0,1.063852310180664,5.99106502532959,-1.0126659870147705,-192.55938720703125,0
781.0889999999999,0.01967356540262699,0.0038897916674613953,0.00074567407136783,0.0,0.0,0.0,0.0,0.002085840329527855,0.0018671025754883885,-0.0023565017618238926,1.000170111656189,0.0,0.0,0.0,1.0634609460830688,5.985718727111816,-0.9977321624755859,-192.48855590820312,0
790.9670000000006,0.01966678537428379,0.003869660897180438,0.0007487464463338256,0.0,0.0,0.0,0.0,-0.0014262135373428464,0.0006784395663999021,0.000428502302384004,1.0013619661331177,0.0,0.0,0.0,1.062986135482788,5.981384754180908,-0.9901084303855896,-192.40260314941406,0
800.8629999999994,0.0196590106934309,0.003848535008728504,0.0007518028141930699,0.0,0.0,0.0,0.0,-0.0033868076279759407,-0.0009334117639809847,0.002576487371698022,0.9992852807044983,0.0,0.0,0.0,1.0610120296478271,5.975504398345947,-0.987459123134613,-192.0452880859375,0
810.7430000000004,0.01965145394206047,0.003825655672699213,0.0007557680364698172,0.0,0.0,0.0,0.0,-0.0016947234980762005,-0.0012537232832983136,-0.0007475619786418974,0.999698281288147,0.0,0.0,0.0,1.060829758644104,5.97028923034668,-0.9953309297561646,-192.01229858398438,0
820.6460000000006,0.019643835723400116,0.0038003558292984962,0.0007599876262247562,0.0,0.0,0.0,0.0,-0.00018302783428225666,0.0035602960269898176,0.0016421814216300845,0.9991475343704224,0.0,0.0,0.0,1.0598715543746948,5.973385334014893,-0.9858109951019287,-191.83885192871094,0
830.5130000000008,0.019634820520877838,0.0037734899669885635,0.000764093769248575,0.0,0.0,0.0,0.0,-0.000940707279369235,0.001450051786378026,-0.0016095982864499092,0.999666154384613,0.0,0.0,0.0,1.058297038078308,5.962636947631836,-0.9838642477989197,-191.55386352539062,0
840.4130000000005,0.019624661654233932,0.0037455151323229074,0.0007683782023377717,0.0,0.0,0.0,0.0,-0.0006222024676389992,-0.0027532887179404497,-0.0010070331627503037,1.0006167888641357,0.0,0.0,0.0,1.0571056604385376,5.956064701080322,-0.9891253709793091,-191.33822631835938,0
850.2870000000003,0.01961504854261875,0.003716033883392811,0.0007728011696599424,0.0,0.0,0.0,0.0,-0.0008280458860099316,-0.001114546088501811,0.0016064720693975687,0.9993128776550293,0.0,0.0,0.0,1.0552093982696533,5.950082778930664,-0.9970067739486694,-190.9949951171875,0
860.1840000000011,0.019740847870707512,0.0039586774073541164,0.0006597635801881552,0.0,0.0,0.0,0.0,0.003205740824341774,0.0004791811225004494,0.002266058698296547,1.000794529914856,0.0,0.0,0.0,1.068272352218628,6.030681133270264,-0.9251860976219177,-193.35943603515625,0
870.0609999999997,0.019740350544452667,0.003942232578992844,0.0006563850911334157,0.0,0.0,0.0,0.0,-0.001228965469636023,0.0009637820185162127,-0.00283751729875803,0.9991537928581238,0.0,0.0,0.0,1.0667991638183594,6.02103328704834,-0.9221489429473877,-193.0927734375,0
879.9609999999993,0.019740434363484383,0.003923636395484209,0.0006534093990921974,0.0,0.0,0.0,0.0,-0.0012368489988148212,0.0031624494586139917,0.0009008639026433229,1.0000320672988892,0.0,0.0,0.0,1.0655161142349243,6.011370658874512,-0.9245479106903076,-192.8605499267578,0
889.835000000001,0.019741248339414597,0.0039021018892526627,0.0006506789941340685,0.0,0.0,0.0,0.0,-2.0675362975453027e-05,-0.0008026045397855341,0.0006103545310907066,1.0006377696990967,0.0,0.0,0.0,1.0649728775024414,6.007217884063721,-0.9210127592086792,-192.76220703125,0
899.7360000000008,0.019743099808692932,0.0038777256850153208,0.0006480856100097299,0.0,0.0,0.0,0.0,-0.0005333635490387678,-0.0012585122603923082,0.0026158366817981005,0.9991681575775146,0.0,0.0,0.0,1.063639760017395,5.998076438903809,-0.9212154150009155,-192.5209197998047,0
909.6149999999998,0.019745994359254837,0.003851038170978427,0.0006460839649662375,0.0,0.0,0.0,0.0,0.0005767988623119891,-0.0012704911641776562,0.0030733884777873755,0.9996113181114197,0.0,0.0,0.0,1.0628775358200073,5.985528945922852,-0.9099437594413757,-192.3829345703125,0
919.5069999999996,0.019749321043491364,0.003822857281193137,0.00064420560374856,0.0,0.0,0.0,0.0,0.0008803612436167896,-0.0009227031841874123,-0.003562507452443242,0.9994072318077087,0.0,0.0,0.0,1.062229037284851,5.980588436126709,-0.9131332039833069,-192.26556396484375,0
929.384,0.019753362983465195,0.0037937110755592585,0.0006420148420147598,0.0,0.0,0.0,0.0,0.0004419692559167743,-0.0028054092545062304,-0.00045298883924260736,0.9981765747070312,0.0,0.0,0.0,1.061334490776062,5.974026679992676,-0.8984578847885132,-192.10366821289062,0
939.2790000000005,0.019757352769374847,0.003763817483559251,0.0006388400215655565,0.0,0.0,0.0,0.0,0.0010160806123167276,0.001694943057373166,0.0020585572347044945,1.0001184940338135,0.0,0.0,0.0,1.0594505071640015,5.971438884735107,-0.8972958922386169,-191.7626495361328,0
949.1579999999994,0.01976044476032257,0.0037330863997340202,0.0006345437141135335,0.0,0.0,0.0,0.0,0.0009089256636798382,0.002303061308339238,-0.0005056403460912406,1.0011831521987915,0.0,0.0,0.0,1.0594360828399658,5.962874889373779,-0.8777220845222473,-191.76004028320312,0
959.0529999999999,0.019762566313147545,0.003700571833178401,0.0006304846610873938,0.0,0.0,0.0,0.0,0.00125631142873317,0.0025421027094125748,0.00012822161079384387,0.9994334578514099,0.0,0.0,0.0,1.0576295852661133,5.961848735809326,-0.8888450264930725,-191.4330596923828,0
968.9320000000007,0.019764479249715805,0.0036656507290899754,0.0006273972103372216,0.0,0.0,0.0,0.0,-0.0001792617404134944,0.0004326881025917828,-0.00042938091792166233,0.9988877773284912,0.0,0.0,0.0,1.0560086965560913,5.949402332305908,-0.8879201412200928,-191.13967895507812,0
978.8310000000001,0.019767165184020996,0.0036289338022470474,0.0006241416558623314,0.0,0.0,0.0,0.0,-0.0026608703192323446,-0.005223504267632961,-0.001348536228761077,1.0001602172851562,0.0,0.0,0.0,1.0550389289855957,5.940272331237793,-0.8874070048332214,-190.96412658691406,0
988.7060000000001,0.019770747050642967,0.0035903144162148237,0.0006204224773682654,0.0,0.0,0.0,0.0,0.002849070355296135,-0.0011800754582509398,-0.0002268708631163463,1.000707745552063,0.0,0.0,0.0,1.0540043115615845,5.940175533294678,-0.8813749551773071,-190.77687072753906,0
998.6020000000008,0.01977473497390747,0.003548773005604744,0.0006170853739604354,0.0,0.0,0.0,0.0,0.0007267759647220373,0.010573052801191807,-0.0013081964571028948,0.9996680617332458,0.0,0.0,0.0,1.0535808801651,5.940225124359131,-0.8755471110343933,-190.70022583007812,0
1008.4799999999996,0.019778460264205933,0.003504782682284713,0.0006143341888673604,0.0,0.0,0.0,0.0,-0.0015788823366165161,0.002676892327144742,0.004364380147308111,0.9995884299278259,0.0,0.0,0.0,1.0526628494262695,5.93265962600708,-0.8772133588790894,-190.53407287597656,0
1018.3760000000002,0.019781233742833138,0.0034591518342494965,0.0006118535529822111,0.0,0.0,0.0,0.0,0.00018695255857892334,-0.0028824089094996452,-0.0020164025481790304,1.000466227531433,0.0,0.0,0.0,1.0518710613250732,5.928539276123047,-0.8888877630233765,-190.39076232910156,0
1028.264000000001,0.01978251151740551,0.003412087680771947,0.0006090821698307991,0.0,0.0,0.0,0.0,0.0031109077390283346,0.0037039793096482754,-0.00016350809892173856,1.0007070302963257,0.0,0.0,0.0,1.0520398616790771,5.917038917541504,-0.8945887684822083,-190.4213104248047,0
1038.1550000000007,0.019782278686761856,0.0033629280515015125,0.0006068104412406683,0.0,0.0,0.0,0.0,0.0006613206351175904,0.008208360522985458,0.002340596867725253,1.0002541542053223,0.0,0.0,0.0,1.0506147146224976,5.910820007324219,-0.8960164785385132,-190.16336059570312,0
1048.0300000000007,0.01978127844631672,0.0033117339480668306,0.000605354318395257,0.0,0.0,0.0,0.0,-0.0019033595453947783,-0.00984673760831356,0.001526635722257197,1.0010114908218384,0.0,0.0,0.0,1.0504237413406372,5.899497985839844,-0.9092862010002136,-190.1287841796875,0
1057.9259999999995,0.019779758527874947,0.003259515156969428,0.0006041115266270936,0.0,0.0,0.0,0.0,-0.001986853312700987,-0.0007996668573468924,-0.002679230645298958,1.0022056102752686,0.0,0.0,0.0,1.0495374202728271,5.893068790435791,-0.911980926990509,-189.96836853027344,0
1067.8099999999995,0.01977815292775631,0.0032059280201792717,0.0006039798608981073,0.0,0.0,0.0,0.0,-0.002429981017485261,-0.0058405292220413685,0.0011758108157664537,0.99874347448349,0.0,0.0,0.0,1.048475980758667,5.889552593231201,-0.898837685585022,-189.7762451171875,0
1077.6980000000003,0.019776739180088043,0.003151150420308113,0.0006056362180970609,0.0,0.0,0.0,0.0,0.0009044719627127051,-0.002677199197933078,0.00266418419778347,0.9996820092201233,0.0,0.0,0.0,1.0472220182418823,5.888659954071045,-0.8962541222572327,-189.54925537109375,0
1087.5769999999993,0.019774969667196274,0.0030953090172261,0.0006075780256651342,0.0,0.0,0.0,0.0,0.004680824466049671,-0.002396069234237075,0.001421165419742465,0.9999557137489319,0.0,0.0,0.0,1.0467824935913086,5.889060974121094,-0.8752215504646301,-189.4697265625,0
1097.4830000000002,0.019772911444306374,0.003037538845092058,0.0006089276284910738,0.0,0.0,0.0,0.0,0.00034558839979581535,-0.0035065810661762953,-0.0012545600766316056,1.0012054443359375,0.0,0.0,0.0,1.0461028814315796,5.879817008972168,-0.8764286637306213,-189.3466796875,0
1107.3500000000004,0.019770869985222816,0.0029775374568998814,0.0006104429485276341,0.0,0.0,0.0,0.0,0.002046249806880951,-0.001994315767660737,-0.0021693615708500147,0.9996637105941772,0.0,0.0,0.0,1.0456833839416504,5.86741304397583,-0.8735397458076477,-189.27076721191406,0
1117.2450000000008,0.01976815052330494,0.0029156547971069813,0.0006126303924247622,0.0,0.0,0.0,0.0,0.0008292170823551714,0.0035977838560938835,0.0016546618426218629,1.0000193119049072,0.0,0.0,0.0,1.0447436571121216,5.860874652862549,-0.8675023317337036,-189.10069274902344,0
1127.1239999999998,0.019764762371778488,0.002851953962817788,0.0006149817490950227,0.0,0.0,0.0,0.0,0.0004821830661967397,0.007490373682230711,-0.0002544171002227813,1.0023338794708252,0.0,0.0,0.0,1.0427911281585693,5.851556301116943,-0.8623648881912231,-188.74728393554688,0
1137.0190000000002,0.01976223848760128,0.002786240540444851,0.0006175616872496903,0.0,0.0,0.0,0.0,-0.0014425399713218212,-0.0020671566016972065,0.001112275873310864,1.0009158849716187,0.0,0.0,0.0,1.0421785116195679,5.8375043869018555,-0.8784964084625244,-188.63638305664062,0
1146.8989999999994,0.019760169088840485,0.002718545263633132,0.0006217455957084894,0.0,0.0,0.0,0.0,0.0023760583717375994,-0.0017568805487826467,-0.00233738636597991,1.0015885829925537,0.0,0.0,0.0,1.0405367612838745,5.834742546081543,-0.8730192184448242,-188.3392333984375,0
1156.800000000001,0.019757093861699104,0.0026492809411138296,0.0006277698557823896,0.0,0.0,0.0,0.0,-0.002747156424447894,-0.0027621083427220583,0.0005460665561258793,0.9999255537986755,0.0,0.0,0.0,1.0397788286209106,5.823890686035156,-0.8726648092269897,-188.20204162597656,0
1166.6730000000007,0.019753560423851013,0.0025786601472646,0.0006350605981424451,0.0,0.0,0.0,0.0,0.0009837144752964377,-0.0009836420649662614,-0.0005282221827656031,0.9983231425285339,0.0,0.0,0.0,1.0379704236984253,5.818789482116699,-0.8617365956306458,-187.8747100830078,0
1176.5689999999995,0.019750265404582024,0.002506289631128311,0.0006426501786336303,0.0,0.0,0.0,0.0,0.0007425755611620843,0.0032449387945234776,-0.0014428814174607396,1.0001721382141113,0.0,0.0,0.0,1.0376685857772827,5.818022727966309,-0.8503527641296387,-187.82008361816406,0
1186.446,0.019747082144021988,0.0024321835953742266,0.0006494586705230176,0.0,0.0,0.0,0.0,0.0021651501301676035,0.0024258519988507032,0.002358265221118927,1.0010427236557007,0.0,0.0,0.0,1.0364230871200562,5.813272953033447,-0.8535761833190918,-187.5946502685547,0
1196.3449999999993,0.02000865712761879,0.0037654079496860504,0.0010919899214059114,0.0,0.0,0.0,0.0,-0.001993425190448761,-0.0010164401028305292,0.0006460261065512896,0.9996634721755981,0.0,0.0,0.0,1.055748462677002,5.983281135559082,-0.8210649490356445,-191.09255981445312,0
1206.2270000000008,0.020016023889183998,0.003734454745426774,0.0011104722507297993,0.0,0.0,0.0,0.0,0.0008812925079837441,-0.0005741763743571937,-0.00150770612526685,0.998518705368042,0.0,0.0,0.0,1.0552129745483398,5.975917816162109,-0.817898154258728,-190.99563598632812,0
1216.1219999999994,0.020023910328745842,0.003702133661136031,0.001128637115471065,0.0,0.0,0.0,0.0,0.001059917500242591,-0.0018402023706585169,0.004538486246019602,0.9993744492530823,0.0,0.0,0.0,1.0542222261428833,5.973079204559326,-0.8143905401229858,-190.81631469726562,0
1226.005000000001,0.020031727850437164,0.003668310586363077,0.0011460892856121063,0.0,0.0,0.0,0.0,0.0027643039356917143,0.0017396319890394807,-0.0007408966775983572,1.0006287097930908,0.0,0.0,0.0,1.0536035299301147,5.959928512573242,-0.82233065366745,-190.704345703125,0
1235.8960000000006,0.02003970555961132,0.0036324437242001295,0.0011634159600362182,0.0,0.0,0.0,0.0,-0.003875056514516473,-0.0014962126733735204,-0.0012355870567262173,1.0001720190048218,0.0,0.0,0.0,1.0532563924789429,5.954586029052734,-0.8189677000045776,-190.64149475097656,0
1245.7690000000002,0.02004758082330227,0.0035946392454206944,0.001180832041427493,0.0,0.0,0.0,0.0,0.0026633446104824543,-0.002393398666754365,-0.0017900976818054914,0.9987240433692932,0.0,0.0,0.0,1.051973819732666,5.947012901306152,-0.8161283731460571,-190.4093475341797,0
1255.6730000000007,0.020177066326141357,0.0037243086844682693,0.0011795612517744303,0.0,0.0,0.0,0.0,-4.2167761421296746e-05,0.0011870348826050758,-0.003658650442957878,0.9988606572151184,0.0,0.0,0.0,1.0661426782608032,5.983218669891357,-0.7972153425216675,-192.97393798828125,0
1265.5429999999997,0.02019028551876545,0.0036885621957480907,0.001193407690152526,0.0,0.0,0.0,0.0,0.0003985076618846506,-0.001162759610451758,0.0013987976126372814,1.0005549192428589,0.0,0.0,0.0,1.0648505687713623,5.971344947814941,-0.7951260805130005,-192.7400665283203,0
1275.4529999999995,0.020244425162672997,0.003705802373588085,0.0012059371219947934,0.0,0.0,0.0,0.0,-0.0006007482297718525,0.006148115731775761,-0.005028574261814356,0.9994545578956604,0.0,0.0,0.0,1.0713437795639038,5.978429317474365,-0.7840002775192261,-193.91534423828125,0
1285.317000000001,0.020258242264389992,0.0036720717325806618,0.0012182730715721846,0.0,0.0,0.0,0.0,-0.0007483477820642292,0.0018524075858294964,-0.0014532878994941711,0.9984778165817261,0.0,0.0,0.0,1.0694104433059692,5.97343111038208,-0.7806631326675415,-193.56541442871094,0
1295.2129999999997,0.020370298996567726,0.0037201291415840387,0.0012161005288362503,0.0,0.0,0.0,0.0,0.00016009526734706014,-0.0003319023526273668,0.0001809602399589494,0.998820960521698,0.0,0.0,0.0,1.0763349533081055,5.991329193115234,-0.7598075270652771,-194.8187713623047,0
1305.0910000000003,0.019770555198192596,0.0038907392881810665,0.0007456758758053184,0.0,0.0,0.0,0.0,0.0031748691108077765,0.002551508601754904,0.005937925074249506,0.999245285987854,0.0,0.0,0.0,1.0630199909210205,5.9999918937683105,-0.8119053840637207,-192.40870666503906,0
1314.987000000001,0.019774015992879868,0.0038640995044261217,0.0007409462705254555,0.0,0.0,0.0,0.0,-0.0020383885130286217,0.0036095394752919674,0.00014190454385243356,0.999460756778717,0.0,0.0,0.0,1.0622644424438477,5.988893985748291,-0.8164321184158325,-192.27197265625,0
1324.8649999999998,0.01980731636285782,0.0037963539361953735,0.0007197661907412112,0.0,0.0,0.0,0.0,0.0014264562632888556,-0.0010694507509469986,-0.0012180975172668695,0.9974167943000793,0.0,0.0,0.0,1.0424375534057617,5.97299337387085,-0.8151034712791443,-188.6832733154297,0
1334.764000000001,0.01988120563328266,0.00389100331813097,0.000665209605358541,0.0,0.0,0.0,0.0,0.0025161600206047297,0.003040820127353072,0.0007625362486578524,1.0015522241592407,0.0,0.0,0.0,1.0743154287338257,5.991113185882568,-0.8087018728256226,-194.4532470703125,0
1344.6409999999996,0.01987120322883129,0.0038339542225003242,0.0006344901630654931,0.0,0.0,0.0,0.0,0.0006814663065597415,-0.004682724829763174,-0.0026889555156230927,1.0000184774398804,0.0,0.0,0.0,1.0609261989593506,5.979557991027832,-0.813189685344696,-192.02975463867188,0
1354.5349999999999,0.01990419439971447,0.0038854770828038454,0.0006243245443329215,0.0,0.0,0.0,0.0,-0.00038564539863727987,0.005655532702803612,0.0019383188337087631,0.9976540803909302,0.0,0.0,0.0,1.087721586227417,5.983984470367432,-0.7953566908836365,-196.87979125976562,0
1364.4169999999995,0.019912293180823326,0.0038552647456526756,0.0006126696243882179,0.0,0.0,0.0,0.0,0.0029986798763275146,0.004638933576643467,0.004704563412815332,0.9999263286590576,0.0,0.0,0.0,1.085748314857483,5.980814456939697,-0.7893424034118652,-196.52261352539062,0
1374.312,0.019930170848965645,0.0039038860704749823,0.0006217594491317868,0.0,0.0,0.0,0.0,0.001946207252331078,-0.0024996770080178976,-8.013792830752209e-05,0.9987643957138062,0.0,0.0,0.0,1.1130708456039429,5.983250141143799,-0.795247495174408,-201.46803283691406,0
1384.187,0.019936896860599518,0.0038742367178201675,0.0006101231556385756,0.0,0.0,0.0,0.0,0.001677738968282938,-0.00016943624359555542,-0.00234580528922379,1.0019326210021973,0.0,0.0,0.0,1.1119645833969116,5.977978229522705,-0.8052494525909424,-201.26779174804688,0
1394.0949999999993,0.019942093640565872,0.0038438576739281416,0.0005986629985272884,0.0,0.0,0.0,0.0,0.0030009339097887278,-0.00033173910924233496,-0.0016154469922184944,0.9994016289710999,0.0,0.0,0.0,1.109539270401001,5.971641540527344,-0.7911092638969421,-200.8288116455078,0
1403.9709999999995,0.019947053864598274,0.0038122856058180332,0.000587975257076323,0.0,0.0,0.0,0.0,0.0009381207637488842,0.0029467095155268908,0.001239773933775723,0.9975980520248413,0.0,0.0,0.0,1.1076313257217407,5.954527854919434,-0.7922858595848083,-200.48345947265625,0
1413.8559999999998,0.019952265545725822,0.00377872446551919,0.0005770075367763638,0.0,0.0,0.0,0.0,0.0013721330324187875,-0.002754458226263523,-0.0008877027430571616,1.0009081363677979,0.0,0.0,0.0,1.1058083772659302,5.953613758087158,-0.7936468124389648,-200.15353393554688,0
1423.7450000000008,0.019957104697823524,0.0037431290838867426,0.0005651019746437669,0.0,0.0,0.0,0.0,0.0001632464409340173,-0.003946791868656874,-0.001087754382751882,0.9998376369476318,0.0,0.0,0.0,1.105970025062561,5.942560195922852,-0.7984970211982727,-200.18276977539062,0
1433.6309999999994,0.019945673644542694,0.0038447305560112,0.0006966147338971496,0.0,0.0,0.0,0.0,0.0015308053698390722,-0.006144833285361528,-0.00337225291877985,1.0007566213607788,0.0,0.0,0.0,1.1275314092636108,5.974672317504883,-0.7892511487007141,-204.08543395996094,0
1443.5110000000004,0.019949357956647873,0.0038153573404997587,0.0006964775966480374,0.0,0.0,0.0,0.0,0.0007663408759981394,0.006684033200144768,0.0018061459995806217,1.0001373291015625,0.0,0.0,0.0,1.1261184215545654,5.966324806213379,-0.774709939956665,-203.82969665527344,0
1453.4120000000003,0.019953973591327667,0.003785220440477133,0.0006967535009607673,0.0,0.0,0.0,0.0,-0.0032862897496670485,0.0014789047418162227,0.0010403041960671544,0.9985838532447815,0.0,0.0,0.0,1.1249326467514038,5.955629348754883,-0.7645161747932434,-203.6150360107422,0
1463.2829999999994,0.019730012863874435,0.003853641217574477,0.0005982199218124151,0.0,0.0,0.0,0.0,-0.001067240838892758,-0.0035699245054274797,-0.0013880730839446187,0.9991539716720581,0.0,0.0,0.0,1.1047852039337158,5.988101482391357,-0.8326566219329834,-199.96832275390625,0
1473.1810000000005,0.01972418650984764,0.003826705738902092,0.0005920739495195448,0.0,0.0,0.0,0.0,-0.000693314999807626,0.005412341095507145,0.0010107142152264714,1.001304030418396,0.0,0.0,0.0,1.104179859161377,5.974925518035889,-0.8368728160858154,-199.85874938964844,0
1483.059000000001,0.019719194620847702,0.003799904603511095,0.000585808651521802,0.0,0.0,0.0,0.0,-0.000476006738608703,0.0020652327220886946,0.0003545872459653765,0.999245285987854,0.0,0.0,0.0,1.1019947528839111,5.9716410636901855,-0.8292287588119507,-199.46324157714844,0
1492.9529999999995,0.019740892574191093,0.003906763158738613,0.0006317014922387898,0.0,0.0,0.0,0.0,0.00025874804123304784,-0.003918704576790333,-0.0031029540114104748,0.9982825517654419,0.0,0.0,0.0,1.1327054500579834,6.006021976470947,-0.828354001045227,-205.02194213867188,0
1502.8379999999997,0.0197076927870512,0.0039023037534207106,0.0006339303217828274,0.0,0.0,0.0,0.0,0.002123559359461069,0.003977709915488958,0.006146461237221956,0.9988095760345459,0.0,0.0,0.0,1.1109700202941895,6.000809192657471,-0.8322309851646423,-201.08778381347656,0
1512.7340000000004,0.01970669813454151,0.0038811841513961554,0.0006300426321104169,0.0,0.0,0.0,0.0,0.0005060224793851376,-0.004204595927149057,0.0003821052669081837,0.9999329447746277,0.0,0.0,0.0,1.1118301153182983,5.989070415496826,-0.8360559940338135,-201.24346923828125,0
1522.607,0.019706783816218376,0.0038582368288189173,0.0006255811313167214,0.0,0.0,0.0,0.0,-0.001191563904285431,0.0016241613775491714,-0.00015765400894451886,1.000789999961853,0.0,0.0,0.0,1.1110124588012695,5.984615802764893,-0.8267260789871216,-201.09547424316406,0
1532.509,0.01968221180140972,0.0038719545118510723,0.0007114881300367415,0.0,0.0,0.0,0.0,-0.0017471107421442866,-0.0056941756047308445,0.0018098513828590512,1.0015671253204346,0.0,0.0,0.0,1.127138614654541,5.986987113952637,-0.8318623304367065,-204.0143280029297,0
1542.3829999999998,0.019745949655771255,0.003827262669801712,0.0007437768508680165,0.0,0.0,0.0,0.0,0.002574681770056486,-0.0005675731808878481,-0.002079060534015298,0.9990478157997131,0.0,0.0,0.0,1.1036449670791626,5.974754810333252,-0.8178579807281494,-199.76193237304688,0
1552.2800000000007,0.01974659413099289,0.003800427308306098,0.0007491421420127153,0.0,0.0,0.0,0.0,-0.00295988074503839,-0.0004739609139505774,0.00013717285764869303,0.9990984797477722,0.0,0.0,0.0,1.1013902425765991,5.965799331665039,-0.8139269351959229,-199.3538055419922,0
1562.1550000000007,0.019749246537685394,0.0037716750521212816,0.0007542014354839921,0.0,0.0,0.0,0.0,0.00259620463475585,0.00029315860592760146,0.00022572507441509515,0.9989534616470337,0.0,0.0,0.0,1.1008120775222778,5.964071750640869,-0.8062710165977478,-199.24917602539062,0
1572.058000000001,0.01975405216217041,0.0037408985663205385,0.0007588144508190453,0.0,0.0,0.0,0.0,-0.0029564674478024244,-0.0068957991898059845,-0.002598254941403866,1.000072717666626,0.0,0.0,0.0,1.1000728607177734,5.9543681144714355,-0.7978575229644775,-199.1153564453125,0
1581.9279999999999,0.01978284679353237,0.003688597586005926,0.0007557892822660506,0.0,0.0,0.0,0.0,0.00022367258497979492,0.0006658465135842562,-0.0009582990314811468,1.0005531311035156,0.0,0.0,0.0,1.078940510749817,5.948225021362305,-0.7765392661094666,-195.29037475585938,0
1591.8269999999993,0.019857853651046753,0.0038103717379271984,0.0007152745383791625,0.0,0.0,0.0,0.0,0.0005855875788256526,-0.0012603329960256815,0.0016708067851141095,1.0008183717727661,0.0,0.0,0.0,1.088126301765442,5.977921485900879,-0.7623931169509888,-196.95303344726562,0
1601.7160000000003,0.019868062809109688,0.0037805906031280756,0.0007181895198300481,0.0,0.0,0.0,0.0,-0.0016076454194262624,-0.0035773543640971184,-0.0032386225648224354,1.0001662969589233,0.0,0.0,0.0,1.087670087814331,5.974463939666748,-0.7559570670127869,-196.87045288085938,0
1611.594000000001,0.01991918683052063,0.0038675679825246334,0.0006969890673644841,0.0,0.0,0.0,0.0,0.00284976908005774,-0.002101028338074684,-0.002235907129943371,1.0001630783081055,0.0,0.0,0.0,1.0953419208526611,5.99363899230957,-0.7393514513969421,-198.2590789794922,0
1621.482,0.01993235945701599,0.0038400806952267885,0.0006997399614192545,0.0,0.0,0.0,0.0,-0.0015647439286112785,-0.0009698650683276355,0.0013386328937485814,1.0005812644958496,0.0,0.0,0.0,1.0936479568481445,5.987529277801514,-0.7284957766532898,-197.95245361328125,0
1631.3690000000006,0.0199457798153162,0.003811511443927884,0.0007032598368823528,0.0,0.0,0.0,0.0,0.0021269910503178835,0.0013047235552221537,0.0011693192645907402,0.9981794357299805,0.0,0.0,0.0,1.0939337015151978,5.987251281738281,-0.7184816598892212,-198.004150390625,0
1641.2720000000008,0.019877774640917778,0.0037802427541464567,0.0006454117246903479,0.0,0.0,0.0,0.0,-0.00024510209914296865,-0.002175064291805029,0.0006609628326259553,1.0002671480178833,0.0,0.0,0.0,1.07831871509552,5.97806453704834,-0.7333559393882751,-195.1778106689453,0
1651.1440000000002,0.019882570952177048,0.003783624852076173,0.0006840239511802793,0.0,0.0,0.0,0.0,0.000570836360566318,0.00067109614610672,0.0020511143375188112,1.0018669366836548,0.0,0.0,0.0,1.0847604274749756,5.97532320022583,-0.7350800037384033,-196.3437957763672,0
1661.041000000001,0.01989753358066082,0.0037551166024059057,0.0006860307767055929,0.0,0.0,0.0,0.0,-0.0005519322003237903,0.0033032014034688473,-0.00172466691583395,0.9998839497566223,0.0,0.0,0.0,1.0840449333190918,5.968263626098633,-0.7393959760665894,-196.21429443359375,0
1670.9130000000005,0.019913993775844574,0.003725850023329258,0.0006891952943988144,0.0,0.0,0.0,0.0,0.002412800444290042,0.0018841904820874333,-0.0002914868528023362,0.9992800354957581,0.0,0.0,0.0,1.0830894708633423,5.960841655731201,-0.7387010455131531,-196.04135131835938,0
1680.8050000000003,0.01993243582546711,0.003696406027302146,0.0006924361223354936,0.0,0.0,0.0,0.0,-0.002291980665177107,0.0005726789822801948,0.0016176687786355615,0.9984224438667297,0.0,0.0,0.0,1.0816303491592407,5.951524257659912,-0.7424342632293701,-195.77723693847656,0
1690.6900000000005,0.019952133297920227,0.0037422876339405775,0.0007466241950169206,0.0,0.0,0.0,0.0,9.169035183731467e-05,-0.00012961468019057065,0.001390088233165443,1.0005788803100586,0.0,0.0,0.0,1.087304711341858,5.967919826507568,-0.7501379251480103,-196.80433654785156,0
1700.5789999999997,0.019973309710621834,0.00371716171503067,0.0007515106699429452,0.0,0.0,0.0,0.0,0.0031010983511805534,-0.0006666287663392723,0.0020187748596072197,0.9996053576469421,0.0,0.0,0.0,1.087824821472168,5.968987941741943,-0.7500418424606323,-196.89846801757812,0
1710.4699999999993,0.01996084488928318,0.0037403942551463842,0.000865811191033572,0.0,0.0,0.0,0.0,-0.0009123195195570588,-0.0008368663839064538,0.003159111365675926,0.9989233613014221,0.0,0.0,0.0,1.0874379873275757,5.9530415534973145,-0.7452604174613953,-196.82846069335938,0
1720.3539999999994,0.019713150337338448,0.0038191673811525106,0.0007584294071421027,0.0,0.0,0.0,0.0,-0.0021661247592419386,-0.0038146725855767727,-0.001795250573195517,1.001083493232727,0.0,0.0,0.0,1.0728141069412231,5.973934650421143,-0.7942189574241638,-194.18150329589844,0
1730.2340000000004,0.019716696813702583,0.0037977369502186775,0.0007632712367922068,0.0,0.0,0.0,0.0,-0.004161064978688955,0.0023196213878691196,-0.0016258347313851118,1.0018759965896606,0.0,0.0,0.0,1.0719412565231323,5.974618911743164,-0.79522305727005,-194.02349853515625,0
1740.130000000001,0.019662830978631973,0.003795310389250517,0.0007711842772550881,0.0,0.0,0.0,0.0,0.0027349877636879683,-0.0023499922826886177,-0.0004167475563008338,1.0002014636993408,0.0,0.0,0.0,1.0573899745941162,5.978389739990234,-0.8096376657485962,-191.3896942138672,0
1750.009,0.019733434543013573,0.0039117238484323025,0.0007368115475401282,0.0,0.0,0.0,0.0,0.002239809138700366,0.0005958167021162808,0.0016072200378403068,0.9982461929321289,0.0,0.0,0.0,1.0804989337921143,6.0006279945373535,-0.794682502746582,-195.5724639892578,0
1759.9060000000009,0.019725557416677475,0.0038469557184726,0.0007098233909346163,0.0,0.0,0.0,0.0,5.826278720633127e-05,0.004238867200911045,0.00041418903856538236,0.9999592304229736,0.0,0.0,0.0,1.0663502216339111,5.978034973144531,-0.7911512851715088,-193.0115203857422,0
1769.7810000000009,0.019750045612454414,0.003869600361213088,0.000703037774655968,0.0,0.0,0.0,0.0,-0.0025398102588951588,-0.0016410046955570579,-0.0031080497428774834,1.0011413097381592,0.0,0.0,0.0,1.0652027130126953,5.969155311584473,-0.8011946082115173,-192.80381774902344,0
1779.6810000000005,0.019783230498433113,0.0038485487457364798,0.0007210223120637238,0.0,0.0,0.0,0.0,-0.0017586880130693316,-0.002988358261063695,-0.0011346363462507725,0.9992607831954956,0.0,0.0,0.0,1.0494595766067505,5.9688029289245605,-0.8018094897270203,-189.9542694091797,0
1789.5560000000005,0.019851550459861755,0.003939049784094095,0.000684359110891819,0.0,0.0,0.0,0.0,-0.002340538427233696,-0.005753878504037857,-0.0015306766144931316,0.9996235966682434,0.0,0.0,0.0,1.0483282804489136,5.969825744628906,-0.7954744100570679,-189.74949645996094,0
1799.4500000000007,0.019857725128531456,0.003919308073818684,0.0006846110336482525,0.0,0.0,0.0,0.0,-0.0016681551933288574,-0.004292619414627552,0.0034941034391522408,0.999650239944458,0.0,0.0,0.0,1.0477968454360962,5.968323707580566,-0.776563823223114,-189.65330505371094,0
1809.3289999999997,0.019854970276355743,0.003952709026634693,0.0007271083886735141,0.0,0.0,0.0,0.0,0.0005683397175744176,0.003856000490486622,0.0009178243344649673,1.00069260597229,0.0,0.0,0.0,1.0541601181030273,5.977268218994141,-0.7700507640838623,-190.80506896972656,0
1819.2289999999994,0.019853737205266953,0.0038714997936040163,0.0006877528503537178,0.0,0.0,0.0,0.0,0.0009596754098311067,-0.004814027808606625,-0.00048719713231548667,0.9984560608863831,0.0,0.0,0.0,1.0397167205810547,5.966705799102783,-0.7763614654541016,-188.19078063964844,0
1829.103000000001,0.019861575216054916,0.003847878659144044,0.0006879020947962999,0.0,0.0,0.0,0.0,0.0019109308486804366,-0.000537792919203639,-0.00033197927405126393,0.9992688894271851,0.0,0.0,0.0,1.0387225151062012,5.95865535736084,-0.7721530199050903,-188.0108184814453,0
1839.009,0.019814064726233482,0.00382891739718616,0.0006800482515245676,0.0,0.0,0.0,0.0,-0.0016408072551712394,-0.002542347414419055,0.0009962822077795863,1.0008115768432617,0.0,0.0,0.0,1.0254887342453003,5.948953151702881,-0.7711947560310364,-185.61549377441406,0
1848.8770000000004,0.01982172578573227,0.003835144452750683,0.0006988447275944054,0.0,0.0,0.0,0.0,0.0010775398695841432,-0.0011730469996109605,-0.001208137022331357,0.9995636343955994,0.0,0.0,0.0,1.0525745153427124,5.950183868408203,-0.7668485045433044,-190.51808166503906,0
1858.7749999999996,0.019834237173199654,0.003782618325203657,0.0006880867294967175,0.0,0.0,0.0,0.0,0.0014399354113265872,0.003802891820669174,0.0027278277557343245,1.0001920461654663,0.0,0.0,0.0,1.0400129556655884,5.93861722946167,-0.7641510367393494,-188.24441528320312,0
1868.6620000000003,0.019845837727189064,0.003755745943635702,0.0006877745618112385,0.0,0.0,0.0,0.0,0.0033890195190906525,0.003976191859692335,0.00025970785645768046,1.0016286373138428,0.0,0.0,0.0,1.0406086444854736,5.92672872543335,-0.7722393870353699,-188.35223388671875,0
1878.5509999999995,0.019859343767166138,0.003727113828063011,0.0006882521556690335,0.0,0.0,0.0,0.0,0.0015428265323862433,0.0020000364165753126,-0.0018536837305873632,1.0012397766113281,0.0,0.0,0.0,1.039175271987915,5.909709453582764,-0.775768518447876,-188.0927734375,0
1888.433000000001,0.019875451922416687,0.003697274485602975,0.0006903447210788727,0.0,0.0,0.0,0.0,0.0036210063844919205,0.0028326164465397596,1.888914266601205e-05,1.0020653009414673,0.0,0.0,0.0,1.0377466678619385,5.909553527832031,-0.7760468125343323,-187.83421325683594,0
1898.3220000000001,0.01989341527223587,0.0036682793870568275,0.0006941714673303068,0.0,0.0,0.0,0.0,0.0030622119084000587,0.004124703351408243,0.0019347216002643108,1.0009639263153076,0.0,0.0,0.0,1.036567211151123,5.897277355194092,-0.779340386390686,-187.6207275390625,0
1908.1990000000005,0.019952261820435524,0.0038004035595804453,0.0007286827312782407,0.0,0.0,0.0,0.0,0.0019505077507346869,-0.004279786255210638,0.0013762973248958588,0.9995495080947876,0.0,0.0,0.0,1.0519415140151978,5.929990768432617,-0.784470796585083,-190.4034881591797,0
1918.1059999999998,0.019855167716741562,0.00382753973826766,0.000713440531399101,0.0,0.0,0.0,0.0,0.002342223422601819,-0.0018508125795051455,-0.001038804417476058,1.0008145570755005,0.0,0.0,0.0,1.0349922180175781,5.939822196960449,-0.8004938960075378,-187.33566284179688,0
1927.9750000000004,0.019876660779118538,0.0038749452214688063,0.0007520564249716699,0.0,0.0,0.0,0.0,0.0002655673888511956,0.0005541794234886765,0.00030892231734469533,1.0036059617996216,0.0,0.0,0.0,1.0471769571304321,5.94466495513916,-0.7917760610580444,-189.54110717773438,0
1937.8739999999998,0.019892796874046326,0.0038603884167969227,0.000763960531912744,0.0,0.0,0.0,0.0,0.00022616017668042332,-0.0020816053729504347,-0.0010777695570141077,1.001418113708496,0.0,0.0,0.0,1.0465247631072998,5.945650100708008,-0.7882491946220398,-189.4230499267578,0
1947.7469999999994,0.01987062580883503,0.0037393891252577305,0.0007985114934854209,0.0,0.0,0.0,0.0,0.0023514479398727417,0.0034968117251992226,0.0013488377444446087,0.9983382821083069,0.0,0.0,0.0,1.1656056642532349,5.916674613952637,-0.7774540781974792,-210.97694396972656,0
1957.6470000000008,0.01979493722319603,0.0037500697653740644,0.0007916579488664865,0.0,0.0,0.0,0.0,0.0014834424946457148,-0.0007803493062965572,0.0006089957314543426,0.9997547268867493,0.0,0.0,0.0,1.1481810808181763,5.917782783508301,-0.7989128828048706,-207.8230438232422,0
1967.523000000001,0.019807245582342148,0.0037260118406265974,0.000806127383839339,0.0,0.0,0.0,0.0,0.002205162076279521,0.0018009516643360257,0.0012322217226028442,1.0005412101745605,0.0,0.0,0.0,1.147516131401062,5.904343605041504,-0.8011459708213806,-207.7027130126953,0
1977.42,0.01981842704117298,0.003701669629663229,0.0008206472848542035,0.0,0.0,0.0,0.0,-0.001883675460703671,-0.004622999113053083,-0.0016353473765775561,1.000351071357727,0.0,0.0,0.0,1.14738130569458,5.8931121826171875,-0.8018413186073303,-207.6782989501953,0
1987.2960000000003,0.019871635362505913,0.0037610139697790146,0.0008109795744530857,0.0,0.0,0.0,0.0,-0.0005553332157433033,-0.0003476006677374244,-0.0008986483444459736,1.000327229499817,0.0,0.0,0.0,1.1275829076766968,5.9104413986206055,-0.7825664281845093,-204.09475708007812,0
1997.1970000000001,0.019777288660407066,0.0037624903488904238,0.0007893969886936247,0.0,0.0,0.0,0.0,0.0005141822039149702,-0.0023953195195645094,0.0018161925254389644,1.000035047531128,0.0,0.0,0.0,1.1114604473114014,5.905301094055176,-0.8011803030967712,-201.1765594482422,0
2007.071,0.019823318347334862,0.0038130460307002068,0.0007829558453522623,0.0,0.0,0.0,0.0,0.0015363957500085235,0.002809822792187333,-0.0003347640740685165,1.0018198490142822,0.0,0.0,0.0,1.110395908355713,5.899223804473877,-0.8028722405433655,-200.98387145996094,0
2016.9660000000003,0.019834287464618683,0.0037904412019997835,0.0007948284037411213,0.0,0.0,0.0,0.0,-0.003183098277077079,-0.006552884355187416,-0.0008311260608024895,1.0007882118225098,0.0,0.0,0.0,1.109544038772583,5.888787269592285,-0.8065088987350464,-200.82965087890625,0
2026.8430000000008,0.019853657111525536,0.003812188748270273,0.0008172700763680041,0.0,0.0,0.0,0.0,0.0003526918590068817,0.0028710574842989445,0.0020297816954553127,1.0002752542495728,0.0,0.0,0.0,1.108777642250061,5.884232521057129,-0.7944316267967224,-200.69094848632812,0
2036.7440000000006,0.019865211099386215,0.0037861806340515614,0.0008320626220665872,0.0,0.0,0.0,0.0,-0.00031706682057119906,-0.004144142847508192,-0.002132681431248784,0.9991748929023743,0.0,0.0,0.0,1.107103705406189,5.881001949310303,-0.7991319298744202,-200.38796997070312,0
2046.6180000000004,0.019898299127817154,0.003848845371976495,0.0008532083011232316,0.0,0.0,0.0,0.0,0.0032327279914170504,0.004129095934331417,-0.0008802954689599574,1.0017337799072266,0.0,0.0,0.0,1.1057014465332031,5.874283313751221,-0.7821086645126343,-200.13417053222656,0
2056.523000000001,0.01991288550198078,0.003823459381237626,0.0008686768705956638,0.0,0.0,0.0,0.0,-0.00296131893992424,-0.007764481008052826,-0.001930476282723248,0.9995328783988953,0.0,0.0,0.0,1.1044830083847046,5.862403869628906,-0.7864568829536438,-199.91360473632812,0
2066.3909999999996,0.019941039383411407,0.0038910270668566227,0.0009122039191424847,0.0,0.0,0.0,0.0,-0.0031773780938237906,-0.006720192730426788,0.00315529340878129,0.9990256428718567,0.0,0.0,0.0,1.1026324033737183,5.861381530761719,-0.7773717045783997,-199.5786590576172,0
2076.290000000001,0.01985672302544117,0.003823851700872183,0.0008056919323280454,0.0,0.0,0.0,0.0,0.0028618311043828726,-0.002389418426901102,0.0014736891025677323,1.0000519752502441,0.0,0.0,0.0,1.0867842435836792,5.8564372062683105,-0.7852621674537659,-196.71009826660156,0
2086.166000000001,0.019899660721421242,0.0039026860613375902,0.0008260194445028901,0.0,0.0,0.0,0.0,0.0007678762194700539,-0.004221759270876646,0.0017480551032349467,1.0024008750915527,0.0,0.0,0.0,1.0855193138122559,5.847286224365234,-0.7785674929618835,-196.4811553955078,0
2096.0599999999995,0.0198613703250885,0.0038221830036491156,0.0007762595196254551,0.0,0.0,0.0,0.0,0.004657689481973648,0.0038046122062951326,3.840468343696557e-05,1.0014406442642212,0.0,0.0,0.0,1.0720258951187134,5.82252836227417,-0.7880018353462219,-194.03883361816406,0
2105.9400000000005,0.019887346774339676,0.003833422437310219,0.0007878972101025283,0.0,0.0,0.0,0.0,-0.00034291634801775217,-0.007603246718645096,0.0013419901952147484,0.9993296265602112,0.0,0.0,0.0,1.0707451105117798,5.813221454620361,-0.7887088656425476,-193.80699157714844,0
2115.839,0.019903607666492462,0.0038084920961409807,0.0007977887871675193,0.0,0.0,0.0,0.0,-7.224452019727323e-06,-0.0010390793904662132,0.002850529970601201,0.9987577199935913,0.0,0.0,0.0,1.0699687004089355,5.810610771179199,-0.7756103277206421,-193.6664581298828,0
2125.714,0.019959907978773117,0.00387376151047647,0.0007850654656067491,0.0,0.0,0.0,0.0,-0.000648864486720413,-1.63052372954553e-05,0.001526595326140523,0.997006356716156,0.0,0.0,0.0,1.0696396827697754,5.799889087677002,-0.77499920129776,-193.60690307617188,0
2135.621000000001,0.019978569820523262,0.003850279375910759,0.0007913261651992798,0.0,0.0,0.0,0.0,0.001391585567034781,-0.003705959301441908,0.0029444992542266846,1.0003993511199951,0.0,0.0,0.0,1.0690693855285645,5.792145729064941,-0.7734986543655396,-193.50367736816406,0
2145.4879999999994,0.019990380853414536,0.0038935707416385412,0.0008441382087767124,0.0,0.0,0.0,0.0,0.0011048283195123076,0.00598516222089529,-0.003338936483487487,1.0004287958145142,0.0,0.0,0.0,1.0741442441940308,5.797746181488037,-0.7671996355056763,-194.4222412109375,0
