timestamp,stateEstimate.x,stateEstimate.y,stateEstimate.z,controller.cmd_thrust,controller.cmd_roll,controller.cmd_pitch,controller.cmd_yaw,controller.r_roll,controller.r_pitch,controller.r_yaw,controller.accelz,controller.actuatorThrust,controller.roll,controller.pitch,controller.yaw,controller.rollRate,controller.pitchRate,controller.yawRate,controller.ctr_yaw
0.0,-0.018575118854641914,-0.015547722578048706,-0.0004419041215442121,0.0,0.0,0.0,0.0,-0.001822495018132031,0.0013714538654312491,0.0036440188996493816,0.9988866448402405,0.0,0.0,0.0,1.5864875316619873,3.852510929107666,6.4674763679504395,-287.1573791503906,0
9.906999999999243,-0.01864646002650261,-0.015556853264570236,-0.000492812308948487,0.0,0.0,0.0,0.0,0.0008289414690807462,-2.578769635874778e-05,-0.003899697680026293,1.0006495714187622,0.0,0.0,0.0,1.5844271183013916,3.8487589359283447,6.461075782775879,-286.7844543457031,0
19.81999999999971,-0.018709205090999603,-0.015500013716518879,-0.0005419858498498797,0.0,0.0,0.0,0.0,0.00416082888841629,0.0010749208740890026,0.004703476093709469,0.9977418780326843,0.0,0.0,0.0,1.5809985399246216,3.8461155891418457,6.442635536193848,-286.16387939453125,0
29.73400000000038,-0.01878076046705246,-0.015505880117416382,-0.000594033976085484,0.0,0.0,0.0,0.0,0.002565633272752166,0.0016773237148299813,0.004741364624351263,0.9989243149757385,0.0,0.0,0.0,1.578993797302246,3.8353147506713867,6.4297051429748535,-285.801025390625,0
39.65099999999984,-0.018822064623236656,-0.015441806055605412,-0.0006687890272587538,0.0,0.0,0.0,0.0,-0.0019006617367267609,-0.004244314040988684,0.004160045180469751,0.9995926022529602,0.0,0.0,0.0,1.5840030908584595,3.862529754638672,6.43519401550293,-286.7077331542969,0
49.55899999999929,-0.018896490335464478,-0.015443956479430199,-0.0007257743855006993,0.0,0.0,0.0,0.0,0.0031767322216182947,0.0009970531100407243,6.933407712494954e-05,0.9988625049591064,0.0,0.0,0.0,1.5835304260253906,3.8507418632507324,6.430154323577881,-286.6221923828125,0
59.47400000000016,-0.01901331916451454,-0.015426096506416798,-0.0007500084466300905,0.0,0.0,0.0,0.0,-0.00016032654093578458,0.002481689676642418,-0.0003808237088378519,0.9992228150367737,0.0,0.0,0.0,1.581968069076538,3.849024772644043,6.433741092681885,-286.3393859863281,0
69.3799999999992,-0.01909281127154827,-0.015431242063641548,-0.0008045736467465758,0.0,0.0,0.0,0.0,0.0024136013817042112,-0.0024729075375944376,-0.0014062320115044713,0.9993709921836853,0.0,0.0,0.0,1.5803289413452148,3.8440167903900146,6.424205303192139,-286.0426940917969,0
79.29299999999967,-0.01920471154153347,-0.015395105816423893,-0.0008295634179376066,0.0,0.0,0.0,0.0,-0.0023014317266643047,-0.0007747086929157376,-0.0006257162312977016,1.0006312131881714,0.0,0.0,0.0,1.5909113883972168,3.849045753479004,6.412502765655518,-287.9580993652344,0
89.20700000000033,-0.019291885197162628,-0.01540288981050253,-0.0008820778457447886,0.0,0.0,0.0,0.0,0.002440698677673936,0.0013564296532422304,-0.00048780039651319385,1.0006359815597534,0.0,0.0,0.0,1.5901747941970825,3.843928337097168,6.4165449142456055,-287.8247985839844,0
99.1200000000008,-0.019382750615477562,-0.015412773936986923,-0.0009339352836832404,0.0,0.0,0.0,0.0,-0.0016616913489997387,-0.0028021358884871006,0.003662883071228862,0.9981852173805237,0.0,0.0,0.0,1.5885839462280273,3.8423385620117188,6.411378860473633,-287.5368347167969,0
109.02900000000045,-0.01947682350873947,-0.015424060635268688,-0.0009853099472820759,0.0,0.0,0.0,0.0,-0.00037690537283197045,0.0017944704741239548,0.00048693371354602277,0.9984387159347534,0.0,0.0,0.0,1.5869170427322388,3.838381290435791,6.4038238525390625,-287.23516845703125,0
118.9439999999995,-0.01953340508043766,-0.015396824106574059,-0.0010744333267211914,0.0,0.0,0.0,0.0,0.0021790664177387953,-0.004675693344324827,-0.003076056716963649,0.9996529221534729,0.0,0.0,0.0,1.5849205255508423,3.838529586791992,6.403536796569824,-286.8737487792969,0
128.85399999999936,-0.019631702452898026,-0.015407411381602287,-0.0011319477343931794,0.0,0.0,0.0,0.0,0.002425648272037506,0.0005224716733209789,0.0006751395994797349,0.9991012215614319,0.0,0.0,0.0,1.5841540098190308,3.8300530910491943,6.389127731323242,-286.7350158691406,0
138.76599999999962,-0.019704923033714294,-0.015318462625145912,-0.001199187827296555,0.0,0.0,0.0,0.0,-0.0008537720423191786,0.003438461571931839,0.00024333105830010027,0.9995425343513489,0.0,0.0,0.0,1.58681321144104,3.8652286529541016,6.402930736541748,-287.2163391113281,0
148.6820000000007,-0.019808292388916016,-0.015323744155466557,-0.0012591953855007887,0.0,0.0,0.0,0.0,0.0020609924104064703,0.0024097489658743143,-0.00115051562897861,1.0001970529556274,0.0,0.0,0.0,1.5839635133743286,3.860869884490967,6.396348476409912,-286.7005310058594,0
158.59799999999996,-0.01983972080051899,-0.015265644527971745,-0.0013675574446097016,0.0,0.0,0.0,0.0,0.0012694867327809334,0.0006765234866179526,0.00123130704741925,1.0008723735809326,0.0,0.0,0.0,1.583448052406311,3.862771511077881,6.3823771476745605,-286.6072692871094,0
168.51200000000063,-0.01995469443500042,-0.015267104841768742,-0.0014397015329450369,0.0,0.0,0.0,0.0,0.000991719658486545,0.0014220674056559801,-0.003900021081790328,0.9990993738174438,0.0,0.0,0.0,1.582411289215088,3.8539228439331055,6.370479583740234,-286.41961669921875,0
178.41799999999967,-0.020010875537991524,-0.015226921997964382,-0.00154385925270617,0.0,0.0,0.0,0.0,0.0021438223775476217,0.002890033181756735,-0.001513875788077712,0.9983522891998291,0.0,0.0,0.0,1.58060622215271,3.843334436416626,6.366384506225586,-286.0928955078125,0
188.33799999999974,-0.020115476101636887,-0.015227586962282658,-0.001613492495380342,0.0,0.0,0.0,0.0,0.0011184136383235455,-0.0005011938046664,0.0016432451084256172,1.000025987625122,0.0,0.0,0.0,1.5769579410552979,3.8365180492401123,6.356187343597412,-285.4325256347656,0
198.24099999999999,-0.02018721215426922,-0.01518553402274847,-0.0017120677512139082,0.0,0.0,0.0,0.0,0.0025933024007827044,0.0032138871029019356,-0.0031966790556907654,0.9998546838760376,0.0,0.0,0.0,1.5758435726165771,3.8200976848602295,6.345388412475586,-285.2308044433594,0
208.16799999999967,-0.020293723791837692,-0.015187072567641735,-0.0017857929924502969,0.0,0.0,0.0,0.0,-0.00037085491931065917,-4.355739656602964e-05,0.004263346549123526,1.001252293586731,0.0,0.0,0.0,1.5746361017227173,3.823143720626831,6.341390609741211,-285.0122375488281,0
218.0640000000003,-0.02039010263979435,-0.015140199102461338,-0.0018750831950455904,0.0,0.0,0.0,0.0,-0.0002476014487911016,0.0003299857780802995,-0.0024068388156592846,1.000098466873169,0.0,0.0,0.0,1.5727951526641846,3.815575122833252,6.328285217285156,-284.6790466308594,0
227.9920000000002,-0.020501606166362762,-0.015141588635742664,-0.001949327765032649,0.0,0.0,0.0,0.0,-0.00018080697918776423,0.0031988248229026794,0.0024148384109139442,0.9986096620559692,0.0,0.0,0.0,1.5712811946868896,3.801420211791992,6.334238529205322,-284.4049987792969,0
237.8889999999992,-0.02064851112663746,-0.015078151598572731,-0.0020220172591507435,0.0,0.0,0.0,0.0,0.002890763571485877,-0.0005155513645149767,0.001339371083304286,1.0011041164398193,0.0,0.0,0.0,1.570124864578247,3.7974164485931396,6.32009744644165,-284.1957092285156,0
247.8080000000009,-0.02076702006161213,-0.015079916454851627,-0.0020954578649252653,0.0,0.0,0.0,0.0,-0.0004892831784673035,0.0007250774651765823,-0.001909945858642459,1.0009417533874512,0.0,0.0,0.0,1.5689582824707031,3.794334650039673,6.321579933166504,-283.9845886230469,0
257.71299999999974,-0.020902976393699646,-0.015065552666783333,-0.0021861230488866568,0.0,0.0,0.0,0.0,0.000555142352823168,-0.0010516035836189985,0.0012480879668146372,1.0007920265197754,0.0,0.0,0.0,1.567594289779663,3.783330202102661,6.31882381439209,-283.7377014160156,0
267.6319999999996,-0.02102608233690262,-0.015070107765495777,-0.0022581457160413265,0.0,0.0,0.0,0.0,0.00021979356824886054,-0.00030027845059521496,0.0020931283943355083,0.9995607137680054,0.0,0.0,0.0,1.5657634735107422,3.7811529636383057,6.3145575523376465,-283.4063415527344,0
277.5400000000009,-0.021201521158218384,-0.015022501349449158,-0.002331234747543931,0.0,0.0,0.0,0.0,0.003254472743719816,0.0033146440982818604,-0.0014421826926991343,1.000207543373108,0.0,0.0,0.0,1.5643590688705444,3.7769699096679688,6.31036376953125,-283.1521301269531,0
287.46000000000095,-0.02132919244468212,-0.015027946792542934,-0.0024007661268115044,0.0,0.0,0.0,0.0,0.001020431867800653,0.005022939294576645,-0.002664878498762846,1.0001022815704346,0.0,0.0,0.0,1.5638518333435059,3.776219606399536,6.301120281219482,-283.060302734375,0
297.3690000000006,-0.021481001749634743,-0.014980027452111244,-0.002483157906681299,0.0,0.0,0.0,0.0,-0.0023686238564550877,0.0007231325726024806,-0.0006127838278189301,1.0006108283996582,0.0,0.0,0.0,1.5668951272964478,3.7893452644348145,6.281518936157227,-283.61114501953125,0
307.28800000000047,-0.021613504737615585,-0.014985461719334126,-0.0025523845106363297,0.0,0.0,0.0,0.0,0.0027900547720491886,-0.0014552657958120108,0.000876312842592597,1.0002131462097168,0.0,0.0,0.0,1.5646178722381592,3.787182092666626,6.26807975769043,-283.1989440917969,0
317.1859999999997,-0.021763278171420097,-0.01493229903280735,-0.0026358847972005606,0.0,0.0,0.0,0.0,9.917949500959367e-05,0.001626326353289187,-0.004771300591528416,0.9995781779289246,0.0,0.0,0.0,1.5703614950180054,3.8059208393096924,6.262966632843018,-284.23858642578125,0
327.1080000000002,-0.021900413557887077,-0.014937611296772957,-0.0027052327059209347,0.0,0.0,0.0,0.0,0.0005964243318885565,0.0016455206787213683,-0.0038713491521775723,0.999106228351593,0.0,0.0,0.0,1.5688577890396118,3.800569534301758,6.273782730102539,-283.96636962890625,0
337.0149999999994,-0.02198985032737255,-0.014869524165987968,-0.00279693934135139,0.0,0.0,0.0,0.0,-0.0015148852253332734,0.00282486155629158,-0.0007044539088383317,0.9984657168388367,0.0,0.0,0.0,1.5652000904083252,3.7951908111572266,6.264292240142822,-283.3043518066406,0
346.9359999999997,-0.02212878316640854,-0.014872504398226738,-0.0028706511948257685,0.0,0.0,0.0,0.0,0.001729408511891961,-0.0006491475505754352,0.006650115828961134,0.9977418184280396,0.0,0.0,0.0,1.5628467798233032,3.790611505508423,6.257137775421143,-282.87835693359375,0
356.83599999999933,-0.02221156656742096,-0.014807437546551228,-0.002970707369968295,0.0,0.0,0.0,0.0,0.002328811911866069,0.00011121062561869621,-3.7809259083587676e-05,0.9978958964347839,0.0,0.0,0.0,1.5624264478683472,3.7855470180511475,6.254138469696045,-282.80230712890625,0
366.7569999999996,-0.022353600710630417,-0.014809095300734043,-0.003051874926313758,0.0,0.0,0.0,0.0,-0.003659524256363511,0.00025777352857403457,-0.002004101872444153,0.9967896938323975,0.0,0.0,0.0,1.5613597631454468,3.7817482948303223,6.251076698303223,-282.6092224121094,0
376.65899999999965,-0.022447790950536728,-0.01473450381308794,-0.0031572477892041206,0.0,0.0,0.0,0.0,-0.0006462453748099506,0.0028633095789700747,0.006438369397073984,0.996548593044281,0.0,0.0,0.0,1.559266448020935,3.7771289348602295,6.248635768890381,-282.2303161621094,0
386.5799999999999,-0.02259308658540249,-0.014733636751770973,-0.00324694043956697,0.0,0.0,0.0,0.0,0.0009184754453599453,-0.0024461576249450445,-0.0004769646911881864,0.9996998310089111,0.0,0.0,0.0,1.5572665929794312,3.7837467193603516,6.239929676055908,-281.86834716796875,0
396.4889999999996,-0.022694725543260574,-0.014667773619294167,-0.003357974113896489,0.0,0.0,0.0,0.0,0.0021264853421598673,0.0043536885641515255,-0.005580424331128597,1.0006152391433716,0.0,0.0,0.0,1.5554866790771484,3.7833447456359863,6.2319746017456055,-281.5461730957031,0
406.39700000000084,-0.022841844707727432,-0.014665349386632442,-0.0034541995264589787,0.0,0.0,0.0,0.0,-0.00022132731101009995,-0.0006513114785775542,0.0013769821962341666,0.9977669715881348,0.0,0.0,0.0,1.55312979221344,3.7760186195373535,6.212005138397217,-281.1195983886719,0
416.3140000000003,-0.022954663261771202,-0.014641823247075081,-0.0035770575050264597,0.0,0.0,0.0,0.0,0.0014269292587414384,0.0004589211894199252,-0.004607040900737047,0.9965577721595764,0.0,0.0,0.0,1.5516374111175537,3.766803026199341,6.192305088043213,-280.8494567871094,0
426.228000000001,-0.023105259984731674,-0.014640114270150661,-0.0036779423244297504,0.0,0.0,0.0,0.0,-0.00016979954671114683,5.939483889960684e-05,-0.00010669164475984871,0.9995865821838379,0.0,0.0,0.0,1.5492570400238037,3.7647759914398193,6.186223030090332,-280.4186096191406,0
436.1399999999994,-0.02326013706624508,-0.014640593901276588,-0.003781007369980216,0.0,0.0,0.0,0.0,6.009173739585094e-05,0.005510082468390465,-0.002430018736049533,1.0001733303070068,0.0,0.0,0.0,1.5481387376785278,3.7625439167022705,6.1852569580078125,-280.2161560058594,0
446.0529999999999,-0.02346889115869999,-0.014569124206900597,-0.003914339002221823,0.0,0.0,0.0,0.0,0.0016936553874984384,0.0060521988198161125,0.002842499176040292,0.9989723563194275,0.0,0.0,0.0,1.545992136001587,3.759467363357544,6.173549652099609,-279.82763671875,0
455.96500000000015,-0.023631807416677475,-0.014570190571248531,-0.0040184990502893925,0.0,0.0,0.0,0.0,0.0015752570470795035,-0.0047163572162389755,0.0005378260975703597,0.9989845752716064,0.0,0.0,0.0,1.5431369543075562,3.752490758895874,6.151463985443115,-279.31085205078125,0
465.8719999999994,-0.023752529174089432,-0.014489680528640747,-0.004142732359468937,0.0,0.0,0.0,0.0,0.002766543999314308,-0.004772955551743507,0.0014624381437897682,0.9991656541824341,0.0,0.0,0.0,1.5425280332565308,3.7480785846710205,6.146408557891846,-279.20062255859375,0
475.78199999999924,-0.02392161823809147,-0.01448819786310196,-0.004251203499734402,0.0,0.0,0.0,0.0,0.0020636352710425854,0.0007960167713463306,0.002583538880571723,0.9973487257957458,0.0,0.0,0.0,1.5410200357437134,3.7452824115753174,6.137869358062744,-278.9277038574219,0
485.6980000000003,-0.024094808846712112,-0.014488576911389828,-0.0043603708036243916,0.0,0.0,0.0,0.0,0.0002050957700703293,-0.003011151682585478,-8.236122812377289e-05,0.9963239431381226,0.0,0.0,0.0,1.5400726795196533,3.741925001144409,6.1366963386535645,-278.7562255859375,0
495.6080000000002,-0.024289269000291824,-0.014491678215563297,-0.004482939839363098,0.0,0.0,0.0,0.0,0.002238994464278221,0.00200717244297266,0.003451491706073284,0.998142421245575,0.0,0.0,0.0,1.5408155918121338,3.730520486831665,6.117769718170166,-278.8907165527344,0
505.53299999999945,-0.024469740688800812,-0.014496929943561554,-0.0045976415276527405,0.0,0.0,0.0,0.0,0.0029246623162180185,-0.0039925770834088326,-0.001890632905997336,1.0004180669784546,0.0,0.0,0.0,1.5382412672042847,3.7317726612091064,6.122762680053711,-278.42474365234375,0
515.4320000000007,-0.0246540866792202,-0.01450413279235363,-0.004714064300060272,0.0,0.0,0.0,0.0,0.0001483772648498416,0.0010856183944270015,-0.003374469233676791,0.999161958694458,0.0,0.0,0.0,1.5364493131637573,3.72440242767334,6.112423419952393,-278.1003723144531,0
525.3520000000008,-0.024684039875864983,-0.014408479444682598,-0.004849228076636791,0.0,0.0,0.0,0.0,0.0002678880118764937,0.002922278828918934,0.0009336769580841064,0.999091386795044,0.0,0.0,0.0,1.5369644165039062,3.7573492527008057,6.138825416564941,-278.1936340332031,0
535.2559999999994,-0.024869123473763466,-0.014409716241061687,-0.004972371272742748,0.0,0.0,0.0,0.0,0.002287505893036723,0.007383396849036217,0.000697436451446265,0.9989961385726929,0.0,0.0,0.0,1.5357271432876587,3.7538487911224365,6.130772113800049,-277.96966552734375,0
545.1800000000003,-0.025057654827833176,-0.014412765391170979,-0.00509620551019907,0.0,0.0,0.0,0.0,-0.0005863229744136333,0.0010001638438552618,0.0026518148370087147,0.9976122975349426,0.0,0.0,0.0,1.5352200269699097,3.7494866847991943,6.1161065101623535,-277.8778991699219,0
555.0789999999997,-0.02524944767355919,-0.014417769387364388,-0.005220972001552582,0.0,0.0,0.0,0.0,-0.0004643416905310005,-0.0016909083351492882,-0.0023824311792850494,0.9994824528694153,0.0,0.0,0.0,1.5346341133117676,3.7409756183624268,6.105053901672363,-277.7718200683594,0
565.0040000000008,-0.0254448764026165,-0.014425466768443584,-0.0053469520062208176,0.0,0.0,0.0,0.0,0.001304576057009399,0.002981735160574317,-0.0008529651677235961,0.9984226822853088,0.0,0.0,0.0,1.5330679416656494,3.7387595176696777,6.1005353927612305,-277.4883117675781,0
574.9040000000005,-0.025645321235060692,-0.014436272904276848,-0.005473794881254435,0.0,0.0,0.0,0.0,0.003478136146441102,0.004935401491820812,-0.0030932275112718344,0.9996025562286377,0.0,0.0,0.0,1.5326400995254517,3.7290618419647217,6.087034702301025,-277.410888671875,0
584.8269999999993,-0.0256277397274971,-0.014198965393006802,-0.005616240669041872,0.0,0.0,0.0,0.0,-0.001231787377037108,-0.0032932565081864595,0.00248354603536427,0.998703122138977,0.0,0.0,0.0,1.5357791185379028,3.8070945739746094,6.124104976654053,-277.97906494140625,0
594.7289999999994,-0.025826334953308105,-0.014199613593518734,-0.005751945544034243,0.0,0.0,0.0,0.0,0.000679026881698519,-0.005804616492241621,0.0007678770925849676,1.0004253387451172,0.0,0.0,0.0,1.5345789194107056,3.797301769256592,6.122157096862793,-277.7618713378906,0
604.6509999999998,-0.025797830894589424,-0.014085471630096436,-0.005894453264772892,0.0,0.0,0.0,0.0,-0.001962278736755252,0.0022262444254010916,-1.543663711345289e-05,0.9990884065628052,0.0,0.0,0.0,1.540846586227417,3.8374693393707275,6.157532691955566,-278.89630126953125,0
614.5529999999999,-0.025994090363383293,-0.014083359390497208,-0.006038167513906956,0.0,0.0,0.0,0.0,0.00016198887897189707,0.0016461771447211504,0.0017221294110640883,0.9980654716491699,0.0,0.0,0.0,1.5392507314682007,3.8369786739349365,6.157405853271484,-278.6074523925781,0
624.4789999999994,-0.026194287464022636,-0.014082836918532848,-0.0061824084259569645,0.0,0.0,0.0,0.0,0.0024883472360670567,-0.0006490763043984771,-0.0015057018026709557,0.9992311000823975,0.0,0.0,0.0,1.5372425317764282,3.8337554931640625,6.146591663360596,-278.24395751953125,0
634.3770000000004,-0.026398852467536926,-0.014084255322813988,-0.006327634211629629,0.0,0.0,0.0,0.0,-0.0007630683830939233,0.005968014243990183,-0.0038097971118986607,1.0001893043518066,0.0,0.0,0.0,1.5353693962097168,3.8218092918395996,6.1335859298706055,-277.9049072265625,0
644.3019999999997,-0.02660750411450863,-0.014087805524468422,-0.006473417393863201,0.0,0.0,0.0,0.0,-0.0006731844041496515,-0.0025000518653541803,0.004441447556018829,0.9973987936973572,0.0,0.0,0.0,1.5347495079040527,3.8227760791778564,6.123181343078613,-277.792724609375,0
654.2090000000007,-0.026819821447134018,-0.014093481004238129,-0.006619641091674566,0.0,0.0,0.0,0.0,-0.0007222458953037858,0.0036346984561532736,0.0017609222559258342,0.9963240623474121,0.0,0.0,0.0,1.532450795173645,3.817204236984253,6.117157936096191,-277.3766174316406,0
664.1219999999994,-0.027035929262638092,-0.014101621694862843,-0.006767742335796356,0.0,0.0,0.0,0.0,0.0026861224323511124,0.0034532903227955103,9.963585762307048e-05,0.9989586472511292,0.0,0.0,0.0,1.5309754610061646,3.810655355453491,6.103438854217529,-277.1095886230469,0
674.0259999999998,-0.02725580334663391,-0.014112357050180435,-0.006918199826031923,0.0,0.0,0.0,0.0,0.0007320775766856968,-0.006371134426444769,-0.0001650541671551764,0.9991051554679871,0.0,0.0,0.0,1.5288844108581543,3.8023600578308105,6.092870235443115,-276.7311096191406,0
683.9549999999999,-0.027479222044348717,-0.01412520557641983,-0.007069756276905537,0.0,0.0,0.0,0.0,0.002066867658868432,0.0046234228648245335,-0.0009603683138266206,0.9992240071296692,0.0,0.0,0.0,1.5275366306304932,3.801630735397339,6.085661888122559,-276.4871520996094,0
693.8510000000006,-0.027706492692232132,-0.014139113016426563,-0.007221733685582876,0.0,0.0,0.0,0.0,-0.0008298773318529129,-0.0009625998209230602,0.0001761872845236212,1.000494360923767,0.0,0.0,0.0,1.5272176265716553,3.788191080093384,6.078554630279541,-276.4294128417969,0
703.7710000000006,-0.02793803997337818,-0.014153793454170227,-0.007373706437647343,0.0,0.0,0.0,0.0,0.002908342983573675,-0.0026327911764383316,-0.001127602648921311,0.9979075789451599,0.0,0.0,0.0,1.525073766708374,3.7859292030334473,6.063370227813721,-276.0414123535156,0
713.6749999999993,-0.028172899037599564,-0.014170270413160324,-0.007525691296905279,0.0,0.0,0.0,0.0,0.0011973116779699922,0.005404524505138397,-0.002051291288807988,0.999210000038147,0.0,0.0,0.0,1.523421049118042,3.781726837158203,6.064577102661133,-275.74224853515625,0
723.6039999999994,-0.028410110622644424,-0.014189503155648708,-0.007678596302866936,0.0,0.0,0.0,0.0,0.000693582056555897,-0.0009158283937722445,0.0013781919842585921,0.9994873404502869,0.0,0.0,0.0,1.521613359451294,3.7753875255584717,6.05910587310791,-275.4150390625,0
733.5010000000002,-0.028650356456637383,-0.014211410656571388,-0.007832162082195282,0.0,0.0,0.0,0.0,0.0010644810972735286,0.00041870048153214157,0.002319957595318556,0.998752772808075,0.0,0.0,0.0,1.5202516317367554,3.763962984085083,6.0450873374938965,-275.1686096191406,0
743.4249999999993,-0.028894051909446716,-0.014235694892704487,-0.00798578280955553,0.0,0.0,0.0,0.0,0.003516232594847679,0.0032653140369802713,0.00013257873069960624,0.9984886050224304,0.0,0.0,0.0,1.5188497304916382,3.7590529918670654,6.039094924926758,-274.9148254394531,0
753.3240000000005,-0.029140805825591087,-0.014262381009757519,-0.008140220306813717,0.0,0.0,0.0,0.0,-0.001519818790256977,-0.0035511048045009375,0.00188030069693923,1.000564694404602,0.0,0.0,0.0,1.5185787677764893,3.753923177719116,6.031092166900635,-274.8658142089844,0
763.2489999999998,-0.02939012460410595,-0.014290543273091316,-0.008295685052871704,0.0,0.0,0.0,0.0,0.0021839465480297804,0.0018136149737983942,0.00247043720446527,1.0017564296722412,0.0,0.0,0.0,1.516667127609253,3.74489164352417,6.02547550201416,-274.519775390625,0
773.1479999999992,-0.029641367495059967,-0.01431900355964899,-0.008450600318610668,0.0,0.0,0.0,0.0,0.00013033671712037176,0.0016102968947961926,0.002807159908115864,1.0011857748031616,0.0,0.0,0.0,1.5164400339126587,3.7383084297180176,6.017703056335449,-274.4786376953125,0
783.0689999999995,-0.02989468164741993,-0.01434743870049715,-0.008603897877037525,0.0,0.0,0.0,0.0,0.00200474401935935,0.0028017102740705013,-0.00274702743627131,0.9992740154266357,0.0,0.0,0.0,1.515717625617981,3.744328260421753,6.010909557342529,-274.3478698730469,0
792.973,-0.030150754377245903,-0.014377138577401638,-0.008755778893828392,0.0,0.0,0.0,0.0,0.0020922382827848196,-0.0022687178570777178,0.0007658670074306428,0.9996146559715271,0.0,0.0,0.0,1.5148296356201172,3.7364988327026367,6.004146575927734,-274.18719482421875,0
802.8970000000008,-0.030409865081310272,-0.014409741386771202,-0.008907229639589787,0.0,0.0,0.0,0.0,-0.0006837247055955231,0.00024618732277303934,-0.0014131241478025913,1.000047206878662,0.0,0.0,0.0,1.5133256912231445,3.730405807495117,5.991456031799316,-273.9149475097656,0
812.7970000000005,-0.030699143186211586,-0.014449001289904118,-0.009074258618056774,0.0,0.0,0.0,0.0,0.0029884069226682186,-0.003045042045414448,-0.00023266916105058044,1.0000871419906616,0.0,0.0,0.0,1.5124297142028809,3.7272748947143555,5.983792781829834,-273.7528076171875,0
822.7199999999993,-0.03096652217209339,-0.014487490057945251,-0.00922587513923645,0.0,0.0,0.0,0.0,0.0003471805830486119,-0.001257732743397355,0.0005009362357668579,0.9997264742851257,0.0,0.0,0.0,1.5112069845199585,3.7231242656707764,5.972117900848389,-273.5314636230469,0
832.6229999999996,-0.031237374991178513,-0.014528694562613964,-0.009377190843224525,0.0,0.0,0.0,0.0,-0.0015647426480427384,0.0039050732739269733,-0.0005838877405039966,0.9990480542182922,0.0,0.0,0.0,1.5103366374969482,3.714714765548706,5.971312999725342,-273.3739318847656,0
842.5460000000003,-0.03151034191250801,-0.014572528190910816,-0.00952880084514618,0.0,0.0,0.0,0.0,0.0030475070234388113,0.0001372997066937387,-0.00042936802492477,1.0017199516296387,0.0,0.0,0.0,1.5083931684494019,3.7087936401367188,5.95821475982666,-273.02215576171875,0
852.4470000000001,-0.03178538754582405,-0.014618969522416592,-0.00968058593571186,0.0,0.0,0.0,0.0,0.0002465316210873425,0.007224678993225098,-0.0008692127303220332,1.0006955862045288,0.0,0.0,0.0,1.5077389478683472,3.706383466720581,5.948072910308838,-272.9037780761719,0
862.3770000000004,-0.032063934952020645,-0.014667361974716187,-0.009831498377025127,0.0,0.0,0.0,0.0,-0.0003283100377302617,-0.00012129331298638135,-0.0035217611584812403,0.9992292523384094,0.0,0.0,0.0,1.5052990913391113,3.7022409439086914,5.935772895812988,-272.462158203125,0
872.2710000000006,-0.03234679996967316,-0.014717472717165947,-0.009981505572795868,0.0,0.0,0.0,0.0,-0.0007910734857432544,-0.0016572752501815557,0.0039033943321555853,0.9981657266616821,0.0,0.0,0.0,1.5027389526367188,3.6969716548919678,5.918354511260986,-271.99871826171875,0
882.2049999999999,-0.032633621245622635,-0.014769317582249641,-0.010132047347724438,0.0,0.0,0.0,0.0,-0.005284813232719898,-0.003710485529154539,0.0021109571680426598,0.9982376098632812,0.0,0.0,0.0,1.501574158668518,3.6860620975494385,5.9128947257995605,-271.78790283203125,0
892.0990000000002,-0.032924190163612366,-0.014822506345808506,-0.010283850133419037,0.0,0.0,0.0,0.0,-0.0002352469164179638,0.003191364463418722,0.0004560151428449899,0.9968575835227966,0.0,0.0,0.0,1.50047767162323,3.6885766983032227,5.915980815887451,-271.5894470214844,0
902.0149999999994,-0.03321945294737816,-0.014876971021294594,-0.010437523946166039,0.0,0.0,0.0,0.0,-0.000422774872276932,-0.0026497063226997852,0.002587687224149704,0.9958537220954895,0.0,0.0,0.0,1.4990034103393555,3.6889302730560303,5.906432151794434,-271.32257080078125,0
911.9279999999999,-0.033519428223371506,-0.014932881109416485,-0.010594049468636513,0.0,0.0,0.0,0.0,-0.0010305374162271619,-0.001204048516228795,0.0007080521318130195,0.9961274862289429,0.0,0.0,0.0,1.4982372522354126,3.683067798614502,5.894421100616455,-271.18389892578125,0
921.8449999999993,-0.03382301703095436,-0.014989943243563175,-0.010754181072115898,0.0,0.0,0.0,0.0,0.003001103876158595,0.001471133204177022,-0.0017294499557465315,0.9973466992378235,0.0,0.0,0.0,1.4958226680755615,3.6726198196411133,5.890259742736816,-270.74688720703125,0
931.7510000000002,-0.03412953019142151,-0.01504822913557291,-0.010917732492089272,0.0,0.0,0.0,0.0,-0.0048235934227705,0.0007619702955707908,0.00031202248646877706,0.9988130331039429,0.0,0.0,0.0,1.4931846857070923,3.667466402053833,5.879148960113525,-270.2693786621094,0
941.6800000000003,-0.03443922474980354,-0.015108581632375717,-0.011083351448178291,0.0,0.0,0.0,0.0,-0.0011800429783761501,-0.004148040432482958,0.002075640484690666,0.9997570514678955,0.0,0.0,0.0,1.4913564920425415,3.6642005443573,5.863502502441406,-269.9385070800781,0
951.5789999999997,-0.03475339338183403,-0.015170982107520103,-0.011250095441937447,0.0,0.0,0.0,0.0,-0.0025521162897348404,0.005034223664551973,-0.0036917335819453,0.9999386668205261,0.0,0.0,0.0,1.4905331134796143,3.663923501968384,5.86600399017334,-269.78948974609375,0
961.5010000000002,-0.03507228195667267,-0.015235033817589283,-0.011417060159146786,0.0,0.0,0.0,0.0,-0.0026641886215656996,-0.005294197704643011,0.002661916660144925,1.0016006231307983,0.0,0.0,0.0,1.487510085105896,3.6588432788848877,5.869622230529785,-269.24224853515625,0
971.393,-0.03539498150348663,-0.01530084852129221,-0.011583552695810795,0.0,0.0,0.0,0.0,0.0022067627869546413,-0.0027431645430624485,0.0016047290991991758,0.9999020099639893,0.0,0.0,0.0,1.486198902130127,3.6587870121002197,5.859985828399658,-269.0049743652344,0
981.3140000000003,-0.03572121262550354,-0.015369215048849583,-0.011749030090868473,0.0,0.0,0.0,0.0,-2.817425956891384e-05,6.793403736082837e-05,-0.0009692186722531915,0.9990772008895874,0.0,0.0,0.0,1.4856040477752686,3.6581125259399414,5.866574287414551,-268.89727783203125,0
991.2180000000008,-0.03605083376169205,-0.01544010266661644,-0.0119135407730937,0.0,0.0,0.0,0.0,0.002707997104153037,0.0014327504904940724,-0.0019809610676020384,0.9968660473823547,0.0,0.0,0.0,1.4844156503677368,3.6503946781158447,5.854137420654297,-268.6821594238281,0
1001.143,-0.03638337925076485,-0.01551273837685585,-0.012078927829861641,0.0,0.0,0.0,0.0,0.0013367064530029893,0.0036667941603809595,-0.0031919926404953003,0.9995272159576416,0.0,0.0,0.0,1.4836288690567017,3.6443004608154297,5.850302219390869,-268.5397644042969,0
1011.0429999999997,-0.03671872988343239,-0.01558761578053236,-0.01224625576287508,0.0,0.0,0.0,0.0,-0.0005893863853998482,-0.0018891518702730536,0.0015652627917006612,1.0008926391601562,0.0,0.0,0.0,1.4812960624694824,3.6392083168029785,5.841022491455078,-268.1175537109375,0
1020.9619999999995,-0.037057146430015564,-0.015665512531995773,-0.012414208613336086,0.0,0.0,0.0,0.0,-0.00020257866708561778,0.00015270573203451931,-0.0006075837300159037,0.9986637234687805,0.0,0.0,0.0,1.4800902605056763,3.6333601474761963,5.837472915649414,-267.8992919921875,0
1030.866,-0.03739955648779869,-0.015745630487799644,-0.012581738643348217,0.0,0.0,0.0,0.0,0.0033367134165018797,0.002086239168420434,0.0009002777514979243,0.9990949034690857,0.0,0.0,0.0,1.478645920753479,3.6327016353607178,5.837745666503906,-267.63787841796875,0
1040.7909999999993,-0.035217419266700745,-0.01210748590528965,-0.012788213789463043,0.0,0.0,0.0,0.0,-0.0004309200157877058,-0.002188955433666706,-0.0008293617866002023,0.997968852519989,0.0,0.0,0.0,1.4770835638046265,4.072173595428467,6.040463924407959,-267.35504150390625,0
1050.6910000000007,-0.035512153059244156,-0.012073630467057228,-0.01297688391059637,0.0,0.0,0.0,0.0,0.0007045360980555415,-0.002535367850214243,0.004833306651562452,0.9987797141075134,0.0,0.0,0.0,1.4750099182128906,4.063759803771973,6.02685022354126,-266.9797668457031,0
1060.6100000000006,-0.03587852045893669,-0.011860555037856102,-0.01322530210018158,0.0,0.0,0.0,0.0,-0.0016912516439333558,0.0020196549594402313,-0.0005758792976848781,0.9986475706100464,0.0,0.0,0.0,1.4801867008209229,4.075772762298584,6.032123565673828,-267.916748046875,0
1070.5190000000002,-0.03617869317531586,-0.01182362250983715,-0.013417573645710945,0.0,0.0,0.0,0.0,-0.0020642713643610477,0.0035801883786916733,0.003936946392059326,0.9998511075973511,0.0,0.0,0.0,1.479052186012268,4.069511890411377,6.0292463302612305,-267.7113952636719,0
1080.4439999999995,-0.03653290867805481,-0.011742798611521721,-0.013683526776731014,0.0,0.0,0.0,0.0,-0.0004548196739051491,-0.0028018660377711058,-0.0006197153707034886,0.999380886554718,0.0,0.0,0.0,1.495036244392395,4.077798843383789,6.023181438446045,-270.6045227050781,0
1090.344000000001,-0.03683553636074066,-0.011706269346177578,-0.013878485187888145,0.0,0.0,0.0,0.0,-0.0016531780129298568,0.0011438274523243308,0.0017094879876822233,1.0011184215545654,0.0,0.0,0.0,1.4938595294952393,4.074398994445801,6.007965564727783,-270.3915710449219,0
1100.2659999999996,-0.037099748849868774,-0.011627163738012314,-0.014081660658121109,0.0,0.0,0.0,0.0,0.0004733593959826976,-0.0012984207132831216,0.002246263436973095,1.0006400346755981,0.0,0.0,0.0,1.5064237117767334,4.085188865661621,6.027320861816406,-272.6656799316406,0
1110.1640000000007,-0.03740590065717697,-0.011588825844228268,-0.014277643524110317,0.0,0.0,0.0,0.0,-0.0019913692958652973,0.002088260604068637,0.0033360649831593037,1.000074863433838,0.0,0.0,0.0,1.5047485828399658,4.0808563232421875,6.026449203491211,-272.3625183105469,0
1120.085000000001,-0.037666674703359604,-0.011485583148896694,-0.01447221077978611,0.0,0.0,0.0,0.0,0.0006930530653335154,0.0015153300482779741,-0.0036822305992245674,1.0009477138519287,0.0,0.0,0.0,1.5044320821762085,4.077080249786377,6.021365642547607,-272.3052062988281,0
1129.9959999999992,-0.03797637298703194,-0.011444362811744213,-0.014669209718704224,0.0,0.0,0.0,0.0,0.0007675283122807741,-0.001767978654243052,0.005409558769315481,1.0000897645950317,0.0,0.0,0.0,1.5033248662948608,4.075462341308594,6.015366554260254,-272.1048278808594,0
1139.9079999999994,-0.03816966712474823,-0.011341038160026073,-0.014811093918979168,0.0,0.0,0.0,0.0,-0.0016765319742262363,-0.000900241662748158,-0.0016033361898735166,1.0000262260437012,0.0,0.0,0.0,1.5181217193603516,4.091790676116943,6.025468826293945,-274.7830505371094,0
1149.8330000000005,-0.038484808057546616,-0.011295982636511326,-0.015009060502052307,0.0,0.0,0.0,0.0,0.0017521206755191088,0.005380227230489254,-0.0015638662735000253,0.9996089935302734,0.0,0.0,0.0,1.5157179832458496,4.08936882019043,6.026552677154541,-274.34796142578125,0
1159.7289999999994,-0.03873066604137421,-0.011248123832046986,-0.015227186493575573,0.0,0.0,0.0,0.0,0.0014246940845623612,-0.0019070126581937075,0.0032330849207937717,0.9994004368782043,0.0,0.0,0.0,1.5209606885910034,4.09962272644043,6.0312395095825195,-275.2969055175781,0
1169.6470000000008,-0.0390496589243412,-0.011204701848328114,-0.015429537743330002,0.0,0.0,0.0,0.0,-0.0006187301478348672,-0.0020868054125458,-0.0028330592904239893,1.0001790523529053,0.0,0.0,0.0,1.5184202194213867,4.093680381774902,6.0215983390808105,-274.83709716796875,0
1179.5560000000005,-0.03924642130732536,-0.011158175766468048,-0.01560206338763237,0.0,0.0,0.0,0.0,-0.0005459213862195611,0.002727026818320155,0.00121873093303293,1.0002329349517822,0.0,0.0,0.0,1.528868317604065,4.103055000305176,6.034696102142334,-276.72821044921875,0
1189.482,-0.039571017026901245,-0.011114700697362423,-0.015807993710041046,0.0,0.0,0.0,0.0,-0.001767480280250311,0.0017078141681849957,0.0030016538221389055,0.9984444379806519,0.0,0.0,0.0,1.5269792079925537,4.09770393371582,6.017053127288818,-276.3862609863281,0
1199.375,-0.039772480726242065,-0.011031086556613445,-0.015988392755389214,0.0,0.0,0.0,0.0,0.0031803047750145197,0.003071588696911931,0.00027321174275130033,0.9993273019790649,0.0,0.0,0.0,1.5331544876098633,4.118546962738037,6.028008937835693,-277.5039978027344,0
1209.295,-0.04010113328695297,-0.010982492007315159,-0.016198495402932167,0.0,0.0,0.0,0.0,0.0002499822585377842,-0.002484471071511507,-0.0007013127324171364,1.0004065036773682,0.0,0.0,0.0,1.5296316146850586,4.10975980758667,6.011250972747803,-276.8663635253906,0
1219.2060000000001,-0.03989699110388756,-0.010936672799289227,-0.016180144622921944,0.0,0.0,0.0,0.0,-0.002505115233361721,0.0024620008189231157,-0.0018515867413952947,0.9987232685089111,0.0,0.0,0.0,1.5289024114608765,4.139452934265137,6.047691345214844,-276.7343444824219,0
1229.1190000000006,-0.04021997004747391,-0.010883159935474396,-0.01639791764318943,0.0,0.0,0.0,0.0,0.0018681411165744066,-0.0006486565689556301,0.0005015936912968755,1.0006771087646484,0.0,0.0,0.0,1.5277761220932007,4.1405768394470215,6.04059362411499,-276.530517578125,0
1239.0239999999994,-0.040535517036914825,-0.010822342708706856,-0.016634399071335793,0.0,0.0,0.0,0.0,0.0003113537677563727,0.002059947233647108,-0.0017095468938350677,1.0002715587615967,0.0,0.0,0.0,1.5429719686508179,4.140623092651367,6.03743839263916,-279.281005859375,0
1248.946,-0.04086633399128914,-0.010771585628390312,-0.01685347594320774,0.0,0.0,0.0,0.0,-0.0006915522390045226,-0.000759609101805836,-6.752508488716558e-05,0.9972482323646545,0.0,0.0,0.0,1.5406602621078491,4.131409645080566,6.040829181671143,-278.862548828125,0
1258.8520000000008,-0.04126707836985588,-0.010649334639310837,-0.017152074724435806,0.0,0.0,0.0,0.0,0.00017911053146235645,-0.0034368857741355896,0.00101509690284729,1.0006771087646484,0.0,0.0,0.0,1.5462814569473267,4.150023937225342,6.034631729125977,-279.8800048828125,0
1268.7710000000006,-0.04160569608211517,-0.010595721192657948,-0.017374634742736816,0.0,0.0,0.0,0.0,0.0005379769136197865,-0.006470376159995794,-0.002184506505727768,1.0005220174789429,0.0,0.0,0.0,1.54463529586792,4.145212173461914,6.038553714752197,-279.5820617675781,0
1278.674000000001,-0.041971176862716675,-0.010491816326975822,-0.017649466171860695,0.0,0.0,0.0,0.0,2.4039762138272636e-05,0.0029282663017511368,-0.00028754890081472695,1.0007177591323853,0.0,0.0,0.0,1.5428014993667603,4.143399715423584,6.03798246383667,-279.2501220703125,0
1288.6020000000008,-0.04231632500886917,-0.010434433817863464,-0.017873432487249374,0.0,0.0,0.0,0.0,0.0019817554857581854,0.0015984531491994858,0.0012064975453540683,1.0000602006912231,0.0,0.0,0.0,1.5421348810195923,4.14153528213501,6.039483070373535,-279.12945556640625,0
1298.4979999999996,-0.042665597051382065,-0.010376845486462116,-0.01815224625170231,0.0,0.0,0.0,0.0,0.0002025786234298721,-0.002087894594296813,0.0011585850734263659,0.9985664486885071,0.0,0.0,0.0,1.5413283109664917,4.134092330932617,6.0272932052612305,-278.9834899902344,0
1308.4179999999997,-0.04301881790161133,-0.01032042782753706,-0.01837853342294693,0.0,0.0,0.0,0.0,0.0015354208881035447,0.000548302661627531,0.0024939817376434803,0.996625542640686,0.0,0.0,0.0,1.5401287078857422,4.1244282722473145,6.014467716217041,-278.7663879394531,0
1318.3279999999995,-0.043273430317640305,-0.010231447406113148,-0.01858220435678959,0.0,0.0,0.0,0.0,-0.0005564790335483849,-0.0019534737803041935,-0.0052837785333395,0.9982215166091919,0.0,0.0,0.0,1.5383785963058472,4.120598316192627,6.018479347229004,-278.4496154785156,0
1328.2459999999992,-0.04363168403506279,-0.010171977803111076,-0.01881485991179943,0.0,0.0,0.0,0.0,0.0006826018798165023,-0.0027600773610174656,0.008390541188418865,1.0016100406646729,0.0,0.0,0.0,1.5351752042770386,4.114522457122803,6.013433456420898,-277.8697814941406,0
1338.1460000000006,-0.043953798711299896,-0.010118511505424976,-0.01907634362578392,0.0,0.0,0.0,0.0,0.0013033823342993855,0.000542310590390116,-0.0009739944362081587,0.9999983310699463,0.0,0.0,0.0,1.5352206230163574,4.1094183921813965,6.0145134925842285,-277.8780212402344,0
1348.0820000000003,-0.04431838169693947,-0.0100605059415102,-0.01931210793554783,0.0,0.0,0.0,0.0,0.0006421993020921946,-0.001742908963933587,-0.0009918883442878723,0.9975912570953369,0.0,0.0,0.0,1.533683180809021,4.10673189163208,6.0123820304870605,-277.5997009277344,0
1357.9699999999993,-0.04473345726728439,-0.009974981658160686,-0.019595829769968987,0.0,0.0,0.0,0.0,0.0009354331414215267,0.0012053382815793157,0.0014883805997669697,0.9995010495185852,0.0,0.0,0.0,1.5308917760849,4.1026530265808105,5.998005390167236,-277.0944519042969,0
1367.8999999999996,-0.04510493203997612,-0.00991767831146717,-0.0198341254144907,0.0,0.0,0.0,0.0,0.0012720481026917696,0.0036605489440262318,0.0018991603283211589,0.9998378753662109,0.0,0.0,0.0,1.5286827087402344,4.0995001792907715,5.993575572967529,-276.694580078125,0
1377.8050000000003,-0.04543895274400711,-0.009816222824156284,-0.020057111978530884,0.0,0.0,0.0,0.0,-0.00012961970060132444,0.00010441373160574585,0.002941353479400277,0.9983861446380615,0.0,0.0,0.0,1.542466402053833,4.1157426834106445,6.000807762145996,-279.1894836425781,0
1387.7240000000002,-0.04581652209162712,-0.00975752342492342,-0.020296892151236534,0.0,0.0,0.0,0.0,0.001627960242331028,0.004179317504167557,0.0030228146351873875,0.9979225993156433,0.0,0.0,0.0,1.5411709547042847,4.110578536987305,5.996791839599609,-278.95501708984375,0
1397.6200000000008,-0.045973245054483414,-0.009687698446214199,-0.02046525478363037,0.0,0.0,0.0,0.0,0.0030657495371997356,0.001889378298074007,-0.002500420669093728,0.9981873631477356,0.0,0.0,0.0,1.5407618284225464,4.106721878051758,5.994867324829102,-278.8809509277344,0
1407.5390000000007,-0.04635227844119072,-0.00962725281715393,-0.02071203663945198,0.0,0.0,0.0,0.0,0.002053947187960148,0.003299581352621317,-0.0028076348826289177,1.0001194477081299,0.0,0.0,0.0,1.5400354862213135,4.098327159881592,5.971002101898193,-278.7494812011719,0
1417.4429999999993,-0.04651440307497978,-0.009583433158695698,-0.020873231813311577,0.0,0.0,0.0,0.0,0.0015825525624677539,0.0022413807455450296,0.0020016394555568695,1.0017749071121216,0.0,0.0,0.0,1.548917293548584,4.10059118270874,5.97904109954834,-280.3571472167969,0
1427.366,-0.0468972846865654,-0.0095243314281106,-0.021124284714460373,0.0,0.0,0.0,0.0,0.0021996700670570135,-0.004318315535783768,-0.0009961187606677413,0.9984644651412964,0.0,0.0,0.0,1.546898603439331,4.094139575958252,5.9668755531311035,-279.9917297363281,0
1437.268,-0.04709183797240257,-0.009481038898229599,-0.021316789090633392,0.0,0.0,0.0,0.0,0.0016854488058015704,0.00018418979016132653,0.00021999856107868254,0.9992676973342896,0.0,0.0,0.0,1.5448096990585327,4.084934234619141,5.955968856811523,-279.6136169433594,0
1447.1929999999993,-0.04747547209262848,-0.009423759765923023,-0.02157067321240902,0.0,0.0,0.0,0.0,0.00223664753139019,0.0019978382624685764,-0.0014379812637344003,0.9989137649536133,0.0,0.0,0.0,1.5433669090270996,4.076189994812012,5.957900047302246,-279.35247802734375,0
1457.0949999999993,-0.04745025187730789,-0.009378726594150066,-0.021638810634613037,0.0,0.0,0.0,0.0,-0.0003132941201329231,-0.003848966909572482,0.0006190361455082893,0.9986966848373413,0.0,0.0,0.0,1.5496021509170532,4.091405868530273,5.981659412384033,-280.4810791015625,0
1467.0139999999992,-0.04783133789896965,-0.00931941345334053,-0.021898791193962097,0.0,0.0,0.0,0.0,-0.002012986922636628,0.0027642962522804737,-0.00042748841224238276,0.9994964599609375,0.0,0.0,0.0,1.5477489233016968,4.086459636688232,5.978797912597656,-280.1456298828125,0
1476.9220000000005,-0.04808398708701134,-0.009233270771801472,-0.022119669243693352,0.0,0.0,0.0,0.0,0.0017393029993399978,-0.0033788769505918026,0.0007737335981801152,0.9986254572868347,0.0,0.0,0.0,1.5461835861206055,4.082159042358398,5.97296142578125,-279.8622741699219,0
1486.8410000000003,-0.04850675165653229,-0.009166932664811611,-0.022410359233617783,0.0,0.0,0.0,0.0,-0.0027605167124420404,0.0022147551644593477,-3.523220220813528e-05,0.9984732270240784,0.0,0.0,0.0,1.5433896780014038,4.075926303863525,5.962782859802246,-279.3565979003906,0
1496.7440000000006,-0.049020156264305115,-0.009074090048670769,-0.022767990827560425,0.0,0.0,0.0,0.0,0.002686742227524519,-0.0027672802098095417,-0.004039497580379248,1.0003410577774048,0.0,0.0,0.0,1.5488855838775635,4.075292110443115,5.953415393829346,-280.35137939453125,0
1506.6630000000005,-0.049413051456213,-0.009016155265271664,-0.02303479239344597,0.0,0.0,0.0,0.0,0.0019330362556502223,0.001985957147553563,0.0030201333574950695,0.9998771548271179,0.0,0.0,0.0,1.5467619895935059,4.059213638305664,5.940722465515137,-279.9670104980469,0
1516.5740000000005,-0.04971141740679741,-0.008944075554609299,-0.023239940404891968,0.0,0.0,0.0,0.0,0.003480170853435993,0.0006848879274912179,0.003651541192084551,0.9981492757797241,0.0,0.0,0.0,1.557282567024231,4.065959930419922,5.946055889129639,-281.8712158203125,0
1526.4899999999998,-0.05011042207479477,-0.008884160779416561,-0.023506727069616318,0.0,0.0,0.0,0.0,0.0032868452835828066,0.005009625107049942,0.0022316041868180037,0.9993628263473511,0.0,0.0,0.0,1.5561189651489258,4.060999870300293,5.9406208992004395,-281.6606140136719,0
1536.3909999999996,-0.0504838228225708,-0.008802826516330242,-0.023769104853272438,0.0,0.0,0.0,0.0,-0.0005785796674899757,-0.0006074192933738232,0.0010774217080324888,0.9994063973426819,0.0,0.0,0.0,1.5607351064682007,4.06046724319458,5.930721282958984,-282.49615478515625,0
1546.3099999999995,-0.05088765546679497,-0.008742871694266796,-0.02403813600540161,0.0,0.0,0.0,0.0,-0.0023931849282234907,0.0033956712577492,-0.00030833331402391195,0.9975217580795288,0.0,0.0,0.0,1.559370994567871,4.059444427490234,5.916567802429199,-282.249267578125,0
1556.2150000000001,-0.05125400424003601,-0.00863544549793005,-0.024296170100569725,0.0,0.0,0.0,0.0,-0.004732207860797644,-0.00363533035852015,0.0012542027980089188,0.9976837635040283,0.0,0.0,0.0,1.5658148527145386,4.073855400085449,5.925729751586914,-283.4156188964844,0
1566.1409999999996,-0.05166387930512428,-0.008575495332479477,-0.024568729102611542,0.0,0.0,0.0,0.0,-0.0011523478897288442,-0.001421733875758946,0.0015704871620982885,0.9987989664077759,0.0,0.0,0.0,1.5644134283065796,4.078314781188965,5.91956901550293,-283.1619567871094,0
1576.0400000000009,-0.051601625978946686,-0.008576959371566772,-0.024593064561486244,0.0,0.0,0.0,0.0,9.373130887979642e-05,0.002232212806120515,0.0022951867431402206,0.9989790916442871,0.0,0.0,0.0,1.5736905336380005,4.092724323272705,5.947417259216309,-284.8410949707031,0
1585.9650000000001,-0.05201120674610138,-0.008520063944160938,-0.024871105328202248,0.0,0.0,0.0,0.0,-0.005823143757879734,0.0026099171955138445,0.0028250061441212893,0.9996333718299866,0.0,0.0,0.0,1.5727572441101074,4.086497783660889,5.936845302581787,-284.6722106933594,0
1595.8639999999996,-0.05227779597043991,-0.008454258553683758,-0.025075960904359818,0.0,0.0,0.0,0.0,-0.003627251135185361,0.001490217400714755,-0.00011479655950097367,1.000244140625,0.0,0.0,0.0,1.5710382461547852,4.0890703201293945,5.934086799621582,-284.3610534667969,0
1605.7890000000007,-0.05269193276762962,-0.008399145677685738,-0.025355583056807518,0.0,0.0,0.0,0.0,0.0017435691552236676,0.005659930873662233,8.887585863703862e-05,0.9998469948768616,0.0,0.0,0.0,1.5696738958358765,4.091768741607666,5.934168815612793,-284.11407470703125,0
1615.6890000000003,-0.05273384600877762,-0.008375932462513447,-0.0254505705088377,0.0,0.0,0.0,0.0,0.002365400781854987,-0.002494244137778878,0.00333179603330791,0.9995706081390381,0.0,0.0,0.0,1.5745126008987427,4.102858543395996,5.945559501647949,-284.98992919921875,0
1625.612000000001,-0.05314881354570389,-0.008321205154061317,-0.025733238086104393,0.0,0.0,0.0,0.0,-0.0002405810955679044,-0.0022658563684672117,-0.00047974538756534457,1.0001100301742554,0.0,0.0,0.0,1.573194980621338,4.099106788635254,5.938333034515381,-284.7514343261719,0
1635.5130000000008,-0.05300307273864746,-0.008293538354337215,-0.02574947662651539,0.0,0.0,0.0,0.0,0.002326898043975234,0.00042507756734266877,0.0020048252772539854,1.0001325607299805,0.0,0.0,0.0,1.5771358013153076,4.112154483795166,5.974747657775879,-285.4646911621094,0
1645.4320000000007,-0.053414229303598404,-0.008237415924668312,-0.026036372408270836,0.0,0.0,0.0,0.0,0.0027962317690253258,-0.0003052269748877734,0.0009463374735787511,0.9997219443321228,0.0,0.0,0.0,1.5762747526168823,4.110395908355713,5.9713287353515625,-285.308837890625,0
1655.3369999999995,-0.05343892425298691,-0.008187971077859402,-0.026165559887886047,0.0,0.0,0.0,0.0,-0.0038967079017311335,-0.005236099008470774,-0.0034434753470122814,0.9988592863082886,0.0,0.0,0.0,1.575067162513733,4.105472087860107,5.965466499328613,-285.0903015136719,0
1665.2579999999998,-0.05384957790374756,-0.008130483329296112,-0.02645730972290039,0.0,0.0,0.0,0.0,0.0018082057358697057,0.0025511602871119976,-0.002361168386414647,0.9989356398582458,0.0,0.0,0.0,1.5723484754562378,4.101150989532471,5.970413684844971,-284.5981750488281,0
1675.1650000000009,-0.05415068566799164,-0.0080333286896348,-0.026699814945459366,0.0,0.0,0.0,0.0,0.0008021100657060742,-0.0026998494286090136,-0.0024993426632136106,0.9985885620117188,0.0,0.0,0.0,1.5699633359909058,4.099362373352051,5.960562705993652,-284.1664733886719,0
1685.0840000000007,-0.054567545652389526,-0.00797194428741932,-0.02699454128742218,0.0,0.0,0.0,0.0,-0.0015076725976541638,-0.0024650814011693,-0.0019113958114758134,1.0007444620132446,0.0,0.0,0.0,1.5687915086746216,4.093927383422852,5.953680515289307,-283.9543762207031,0
1694.9860000000008,-0.05459744110703468,-0.00791752990335226,-0.027071520686149597,0.0,0.0,0.0,0.0,0.0009151751291938126,0.0017332397401332855,-0.001036040368489921,1.0005104541778564,0.0,0.0,0.0,1.5673755407333374,4.085063934326172,5.9553542137146,-283.6981201171875,0
1704.9050000000007,-0.0550154484808445,-0.007853884249925613,-0.027368199080228806,0.0,0.0,0.0,0.0,-0.001076721353456378,-0.004644115921109915,0.0024327554274350405,1.0001486539840698,0.0,0.0,0.0,1.565495491027832,4.088589191436768,5.955051422119141,-283.3577880859375,0
1714.8099999999995,-0.055355899035930634,-0.0077756415121257305,-0.027606841176748276,0.0,0.0,0.0,0.0,0.0014915450010448694,0.002534717321395874,-0.0021717259660363197,0.9980731010437012,0.0,0.0,0.0,1.564060091972351,4.08363676071167,5.953213214874268,-283.0980224609375,0
1724.7340000000004,-0.055781975388526917,-0.007712842896580696,-0.027902865782380104,0.0,0.0,0.0,0.0,0.0010329941287636757,3.453774479567073e-05,-0.0006843322771601379,0.999663770198822,0.0,0.0,0.0,1.5621246099472046,4.076179504394531,5.9600749015808105,-282.7476501464844,0
1734.6360000000004,-0.017297450453042984,-0.015881557017564774,0.0004167958104517311,0.0,0.0,0.0,0.0,0.00179854198358953,-0.0008055043872445822,-0.0011824845569208264,0.999191164970398,0.0,0.0,0.0,1.582802176475525,3.9223673343658447,6.468693733215332,-286.4903564453125,0
1744.5560000000005,-0.017384782433509827,-0.015898875892162323,0.0003552394628059119,0.0,0.0,0.0,0.0,-0.0026548909954726696,-0.0018300958909094334,0.0004869259428232908,0.9986203908920288,0.0,0.0,0.0,1.5809094905853271,3.9141769409179688,6.463412761688232,-286.14776611328125,0
1754.4590000000007,-0.017446497455239296,-0.015817923471331596,0.00030914077069610357,0.0,0.0,0.0,0.0,-0.0033636444713920355,0.004020026419311762,-0.0012483588652685285,0.9972305297851562,0.0,0.0,0.0,1.580283284187317,3.9050819873809814,6.460213661193848,-286.034423828125,0
1764.3799999999992,-0.01753629371523857,-0.015834352001547813,0.0002464510907884687,0.0,0.0,0.0,0.0,-0.0014186996268108487,-0.0025949080009013414,-0.0013234141515567899,0.9999275207519531,0.0,0.0,0.0,1.5772455930709839,3.9053215980529785,6.45858097076416,-285.48455810546875,0
1774.2839999999997,-0.017628485336899757,-0.01585288904607296,0.00018201328930445015,0.0,0.0,0.0,0.0,-0.0011428887955844402,0.0005038391682319343,0.0027523261960595846,1.0007953643798828,0.0,0.0,0.0,1.575973391532898,3.906367301940918,6.454137802124023,-285.2543029785156,0
1784.2039999999997,-0.017700541764497757,-0.015743916854262352,0.00014518102398142219,0.0,0.0,0.0,0.0,0.0013801873428747058,-0.0026466359850019217,-0.0012058122083544731,1.000080943107605,0.0,0.0,0.0,1.5743359327316284,3.9040451049804688,6.447358131408691,-284.9579162597656,0
1794.1149999999998,-0.017796732485294342,-0.015761561691761017,8.261835318990052e-05,0.0,0.0,0.0,0.0,-0.001890859566628933,0.003490018891170621,-0.002069420414045453,0.9991496801376343,0.0,0.0,0.0,1.5735399723052979,3.89941668510437,6.445491790771484,-284.8138732910156,0
1804.0409999999993,-0.017881065607070923,-0.015671592205762863,4.592399636749178e-05,0.0,0.0,0.0,0.0,0.004627949092537165,0.001981981797143817,0.0008238195441663265,1.0003782510757446,0.0,0.0,0.0,1.579952597618103,3.9154748916625977,6.445828437805176,-285.9745788574219,0
1813.9349999999995,-0.017982374876737595,-0.01568460650742054,-1.5408455510623753e-05,0.0,0.0,0.0,0.0,0.0011321103665977716,-0.00036859483225271106,0.0009321043617092073,1.0000396966934204,0.0,0.0,0.0,1.578919529914856,3.9112389087677,6.435769557952881,-285.78753662109375,0
1823.8600000000006,-0.018077261745929718,-0.01566510833799839,-8.3410763181746e-05,0.0,0.0,0.0,0.0,0.0006525038043037057,0.003676864318549633,-0.002475101500749588,1.0005130767822266,0.0,0.0,0.0,1.5783416032791138,3.9046390056610107,6.418384075164795,-285.6829833984375,0
1833.7630000000008,-0.018182100728154182,-0.01567702926695347,-0.00014455945347435772,0.0,0.0,0.0,0.0,0.0010205411817878485,0.006404791492968798,-0.00215043849311769,0.9988107681274414,0.0,0.0,0.0,1.576306939125061,3.8946468830108643,6.410173416137695,-285.314697265625,0
1843.687,-0.01829688996076584,-0.015628911554813385,-0.00016807419888209552,0.0,0.0,0.0,0.0,0.000259841704973951,0.005536540411412716,0.0020409459248185158,0.9995130300521851,0.0,0.0,0.0,1.585090160369873,3.911630868911743,6.38800573348999,-286.9044494628906,0
1853.5820000000003,-0.018406562507152557,-0.01564093492925167,-0.00022726318275090307,0.0,0.0,0.0,0.0,0.004034714307636023,0.000893859367351979,-0.0014420131919905543,0.997785747051239,0.0,0.0,0.0,1.5835222005844116,3.9038102626800537,6.368316650390625,-286.62066650390625,0
1863.5059999999994,-0.01852140575647354,-0.015604493208229542,-0.00027035039965994656,0.0,0.0,0.0,0.0,0.003279311815276742,-0.00476587051525712,0.0012464717729017138,1.0003360509872437,0.0,0.0,0.0,1.582358717918396,3.8969619274139404,6.3629326820373535,-286.4100646972656,0
1873.4060000000009,-0.01863672025501728,-0.015615909360349178,-0.0003301514661870897,0.0,0.0,0.0,0.0,0.0056073484010994434,-0.0006291939062066376,7.572542472189525e-06,1.0017383098602295,0.0,0.0,0.0,1.581740379333496,3.884028911590576,6.357019424438477,-286.2981872558594,0
1883.3320000000003,-0.01875360682606697,-0.015628917142748833,-0.0003896818379871547,0.0,0.0,0.0,0.0,-0.001140850712545216,-0.0021618553437292576,0.003531946334987879,1.0005449056625366,0.0,0.0,0.0,1.5809804201126099,3.8779423236846924,6.361809730529785,-286.1606140136719,0
1893.2309999999998,-0.01887231133878231,-0.01564295031130314,-0.00044779558083973825,0.0,0.0,0.0,0.0,-0.0017083620186895132,0.0017592121148481965,0.0010380299063399434,1.0015207529067993,0.0,0.0,0.0,1.5801849365234375,3.870814085006714,6.356001853942871,-286.0166320800781,0
1903.1509999999998,-0.01891944743692875,-0.01553600188344717,-0.0005555317038670182,0.0,0.0,0.0,0.0,-0.0015837704995647073,-0.006687949877232313,0.005556138232350349,0.9989522099494934,0.0,0.0,0.0,1.5769562721252441,3.924403190612793,6.3821187019348145,-285.43218994140625,0
1913.0550000000003,-0.01903744973242283,-0.015542583540081978,-0.000616902019828558,0.0,0.0,0.0,0.0,-0.0005320204072631896,0.003851591842249036,0.00023767616949044168,0.9979495406150818,0.0,0.0,0.0,1.5763919353485107,3.9228708744049072,6.385257244110107,-285.3300476074219,0
1922.9830000000002,-0.01911560632288456,-0.015498572960495949,-0.0007154312916100025,0.0,0.0,0.0,0.0,0.0011925059370696545,-0.0020335069857537746,-0.0031616883352398872,1.0010042190551758,0.0,0.0,0.0,1.5761369466781616,3.921677350997925,6.381656646728516,-285.2839050292969,0
1932.8799999999992,-0.01923602819442749,-0.015505325980484486,-0.0007817638106644154,0.0,0.0,0.0,0.0,0.0008878051885403693,0.0020323190838098526,0.0007020398625172675,0.9988552927970886,0.0,0.0,0.0,1.5745408535003662,3.923459529876709,6.378178119659424,-284.9949951171875,0
1942.8060000000005,-0.019310912117362022,-0.015429149381816387,-0.0008741708588786423,0.0,0.0,0.0,0.0,-0.0005254175630398095,7.00391101418063e-05,0.0012403518194332719,1.0000017881393433,0.0,0.0,0.0,1.571131944656372,3.958312511444092,6.388735294342041,-284.37799072265625,0
1952.7150000000001,-0.01943266950547695,-0.01543336734175682,-0.0009436324471607804,0.0,0.0,0.0,0.0,-0.0006655539618805051,0.0017957256641238928,-0.001019163872115314,0.9995429515838623,0.0,0.0,0.0,1.5690597295761108,3.95815110206604,6.382722854614258,-284.0029602050781,0
1962.6360000000004,-0.019522875547409058,-0.015400981530547142,-0.0010395041899755597,0.0,0.0,0.0,0.0,-0.002174095017835498,-0.0035734011325985193,-0.0002256672887597233,0.9977636933326721,0.0,0.0,0.0,1.5676599740982056,3.9570977687835693,6.383470058441162,-283.7496032714844,0
1972.5319999999992,-0.019648512825369835,-0.015403684228658676,-0.001112279249355197,0.0,0.0,0.0,0.0,-0.002035735873505473,0.0030029157642275095,0.0007715636165812612,0.9978517889976501,0.0,0.0,0.0,1.5671415328979492,3.960426092147827,6.38051176071167,-283.65576171875,0
1982.4519999999993,-0.01977621391415596,-0.01535751111805439,-0.0011882086982950568,0.0,0.0,0.0,0.0,0.0026748855598270893,0.0025553409941494465,0.0013820886379107833,0.9992154240608215,0.0,0.0,0.0,1.5652111768722534,3.951246976852417,6.378822326660156,-283.30633544921875,0
1992.3629999999994,-0.01990625075995922,-0.015358985401690006,-0.0012640266213566065,0.0,0.0,0.0,0.0,-0.0009768432937562466,-0.0017662966856732965,0.0023430678993463516,0.9981905221939087,0.0,0.0,0.0,1.5634101629257202,3.9472286701202393,6.373131275177002,-282.9803161621094,0
2002.2810000000009,-0.02003227360546589,-0.015298420563340187,-0.0013433486456051469,0.0,0.0,0.0,0.0,-0.0023341826163232327,0.0015683593228459358,0.0022208066657185555,0.9986540675163269,0.0,0.0,0.0,1.5699502229690552,3.9681897163391113,6.364101886749268,-284.16412353515625,0
2012.1859999999997,-0.020167648792266846,-0.015296311117708683,-0.0014221703168004751,0.0,0.0,0.0,0.0,0.001320644747465849,-0.003726620925590396,-0.0006609437987208366,0.9998599290847778,0.0,0.0,0.0,1.569426417350769,3.967843532562256,6.364315032958984,-284.0693359375,0
2022.1000000000004,-0.020294077694416046,-0.015240604057908058,-0.0015117090661078691,0.0,0.0,0.0,0.0,0.001230745343491435,0.0015460207359865308,0.0014207590138539672,0.9993227124214172,0.0,0.0,0.0,1.568808913230896,3.967331886291504,6.35317850112915,-283.95751953125,0
2032.0030000000006,-0.020432354882359505,-0.015235044062137604,-0.0015934518305584788,0.0,0.0,0.0,0.0,-0.0019128192216157913,-0.004406008403748274,0.0050214435905218124,1.000949501991272,0.0,0.0,0.0,1.5675818920135498,3.9569125175476074,6.348983287811279,-283.7354431152344,0
2041.9320000000007,-0.02054646797478199,-0.01517735980451107,-0.0016895676963031292,0.0,0.0,0.0,0.0,0.0012798936804756522,0.004822248127311468,-0.0005782517837360501,1.0001977682113647,0.0,0.0,0.0,1.5739225149154663,3.9701550006866455,6.3534979820251465,-284.88311767578125,0
2051.8279999999995,-0.02068815380334854,-0.015170483849942684,-0.0017722612246870995,0.0,0.0,0.0,0.0,0.0002839161898009479,0.0015668345149606466,-0.004003664944320917,1.0003472566604614,0.0,0.0,0.0,1.5720826387405396,3.964982032775879,6.350324630737305,-284.5500793457031,0
2061.758,-0.020817195996642113,-0.015116341412067413,-0.0018665135139599442,0.0,0.0,0.0,0.0,-0.001407372998073697,-0.0041188341565430164,0.0020998483523726463,0.9987865686416626,0.0,0.0,0.0,1.569785475730896,3.9655938148498535,6.33457612991333,-284.13427734375,0
2071.661,-0.02096308395266533,-0.01510789804160595,-0.001950045581907034,0.0,0.0,0.0,0.0,0.0006661656661890447,0.00041849265107885003,0.00026527137379162014,0.9974855184555054,0.0,0.0,0.0,1.5678610801696777,3.9518678188323975,6.328059196472168,-283.7859802246094,0
2081.571,-0.020979024469852448,-0.015043403021991253,-0.002067004097625613,0.0,0.0,0.0,0.0,0.000950220855884254,0.0007464148802682757,0.0033078650012612343,0.9976729154586792,0.0,0.0,0.0,1.5657347440719604,3.950171709060669,6.323591709136963,-283.4010925292969,0
2091.4750000000004,-0.021120354533195496,-0.015031607821583748,-0.002160734962671995,0.0,0.0,0.0,0.0,-0.0016192651819437742,-0.003258294193074107,-0.004280094522982836,1.0006780624389648,0.0,0.0,0.0,1.564262866973877,3.9458703994750977,6.311349391937256,-283.1347351074219,0
2101.402,-0.02114950679242611,-0.01498451642692089,-0.0022859207820147276,0.0,0.0,0.0,0.0,0.0011373546440154314,0.0005087254103273153,0.0007813154952600598,0.99886155128479,0.0,0.0,0.0,1.5630484819412231,3.943808078765869,6.313075065612793,-282.9148864746094,0
2111.2999999999993,-0.021301928907632828,-0.01497130747884512,-0.0023977195378392935,0.0,0.0,0.0,0.0,-0.0009076785063371062,0.0013701645657420158,0.00179103366099298,0.9982828497886658,0.0,0.0,0.0,1.5616672039031982,3.935770273208618,6.306845188140869,-282.66485595703125,0
2121.2129999999997,-0.021297676488757133,-0.014899305999279022,-0.0025237964000552893,0.0,0.0,0.0,0.0,0.00044317200081422925,-0.002397258998826146,-0.003207596717402339,1.0010300874710083,0.0,0.0,0.0,1.5606017112731934,3.9278762340545654,6.2899017333984375,-282.4720153808594,0
2131.1280000000006,-0.021434079855680466,-0.014885353855788708,-0.0026336018927395344,0.0,0.0,0.0,0.0,-0.003491609590128064,-0.0012104024644941092,-0.00232231174595654,1.0006822347640991,0.0,0.0,0.0,1.5583701133728027,3.922198534011841,6.286000728607178,-282.0680847167969,0
2141.0390000000007,-0.0215618833899498,-0.014839454554021358,-0.002766585908830166,0.0,0.0,0.0,0.0,-0.0010542763629928231,-0.0019871159456670284,0.0025520604103803635,0.9978052377700806,0.0,0.0,0.0,1.5559229850769043,3.913083553314209,6.274954795837402,-281.6251525878906,0
2150.9519999999993,-0.02170216105878353,-0.014828143641352654,-0.002877086168155074,0.0,0.0,0.0,0.0,-0.0049842423759400845,0.00017732728156261146,0.000642026134300977,0.9961230754852295,0.0,0.0,0.0,1.5536682605743408,3.90649676322937,6.2646260261535645,-281.2170715332031,0
