timestamp,stateEstimate.x,stateEstimate.y,stateEstimate.z,controller.cmd_thrust,controller.cmd_roll,controller.cmd_pitch,controller.cmd_yaw,controller.r_roll,controller.r_pitch,controller.r_yaw,controller.accelz,controller.actuatorThrust,controller.roll,controller.pitch,controller.yaw,controller.rollRate,controller.pitchRate,controller.yawRate,controller.ctr_yaw
0.0,-0.00021022959845140576,-0.00010126221604878083,-0.00017158975242637098,0.0,0.0,0.0,0.0,-0.0014421520754694939,0.0017890370218083262,-0.001302622607909143,0.9984695315361023,0.0,0.0,0.0,0.31589755415916443,2.725456714630127,5.3679680824279785,-57.1780891418457,0
9.897999999999229,-6.582813512068242e-05,-0.00014517453382723033,-7.4746560130734e-05,0.0,0.0,0.0,0.0,0.000775792810600251,-0.0015429758932441473,0.0008877702639438212,1.0002049207687378,0.0,0.0,0.0,0.3149016201496124,2.7202939987182617,5.363981246948242,-56.99781799316406,0
19.825000000000728,-4.228909529047087e-05,-7.533646567026153e-05,-0.00012680646614171565,0.0,0.0,0.0,0.0,-0.001287373248487711,0.00013890754780732095,-0.00019976160547230393,1.0007697343826294,0.0,0.0,0.0,0.3146430552005768,2.714731216430664,5.363747596740723,-56.951019287109375,0
29.72400000000016,-1.2992033589398488e-05,-0.00012131397670600563,-0.00012113209959352389,0.0,0.0,0.0,0.0,0.0011444863630458713,0.0037246248684823513,-0.0021720556542277336,0.9987686276435852,0.0,0.0,0.0,0.31433528661727905,2.7141361236572266,5.35056209564209,-56.89531326293945,0
39.64799999999923,-5.300887642079033e-05,-0.0001483131927670911,-0.0001238037075381726,0.0,0.0,0.0,0.0,-0.00215955451130867,-0.005947982892394066,0.004035487771034241,1.0005298852920532,0.0,0.0,0.0,0.3137681186199188,2.7104814052581787,5.340558052062988,-56.79265594482422,0
49.548000000000684,-0.00010080221545649692,-0.00015941087622195482,-0.00011742494098143652,0.0,0.0,0.0,0.0,0.0009592775604687631,0.002580445259809494,0.004135964438319206,1.0013208389282227,0.0,0.0,0.0,0.31459951400756836,2.7083523273468018,5.345170974731445,-56.94313430786133,0
59.47199999999975,-0.00014642137102782726,-0.00018900043505709618,-0.00011878531222464517,0.0,0.0,0.0,0.0,-0.00010537393973208964,0.0003171259304508567,3.0999904993223026e-05,1.0000383853912354,0.0,0.0,0.0,0.31577834486961365,2.709988832473755,5.342290878295898,-57.1565055847168,0
69.37099999999919,-0.00018533239199314266,-0.00019634992349892855,-0.00012384308502078056,0.0,0.0,0.0,0.0,-0.0006096380529925227,0.0016883403295651078,0.002768286969512701,0.9982354044914246,0.0,0.0,0.0,0.31534552574157715,2.702352523803711,5.319655418395996,-57.07817077636719,0
79.29299999999967,-0.00023412042355630547,-0.0002272452402394265,-0.00012472434900701046,0.0,0.0,0.0,0.0,0.0014840317890048027,-0.005576786585152149,-0.0006739195669069886,0.9995756149291992,0.0,0.0,0.0,0.3152313530445099,2.6999809741973877,5.315530300140381,-57.057498931884766,0
89.19599999999991,-0.00026400547358207405,-0.000228666584007442,-0.00015757110668346286,0.0,0.0,0.0,0.0,-0.0014895538333803415,-0.0009406573954038322,0.003602780168876052,1.000840663909912,0.0,0.0,0.0,0.3139090836048126,2.696228504180908,5.322750568389893,-56.81816864013672,0
99.1180000000004,-0.00031343003502115607,-0.00026170554338023067,-0.00016242818674072623,0.0,0.0,0.0,0.0,-0.0010271271457895637,0.003906862810254097,-0.003954834770411253,0.998658299446106,0.0,0.0,0.0,0.31305867433547974,2.691765069961548,5.310200214385986,-56.664241790771484,0
109.02299999999923,-0.0003648315032478422,-0.00029589288169518113,-0.00016716899699531496,0.0,0.0,0.0,0.0,0.0017459209775552154,-0.003763661254197359,0.0046923295594751835,0.9992333054542542,0.0,0.0,0.0,0.31302928924560547,2.6923623085021973,5.301247596740723,-56.65892028808594,0
118.94499999999971,-0.00041821872582659125,-0.00033178357989527285,-0.00017272171680815518,0.0,0.0,0.0,0.0,0.004146642051637173,0.001029195380397141,-0.0013487674295902252,1.0010730028152466,0.0,0.0,0.0,0.3139926493167877,2.688847303390503,5.301878929138184,-56.83329772949219,0
128.85599999999977,-0.0003983432543464005,-0.0002287562529090792,-0.0003078108129557222,0.0,0.0,0.0,0.0,0.0014287942321971059,0.0007231130148284137,-0.003981824964284897,0.9989283680915833,0.0,0.0,0.0,0.31622427701950073,2.7291100025177,5.319800853729248,-57.23722839355469,0
138.77299999999923,-0.0004485029203351587,-0.0002579278079792857,-0.00032304259366355836,0.0,0.0,0.0,0.0,-0.0021822575945407152,-0.0018436700338497758,-0.0022868826054036617,1.000411868095398,0.0,0.0,0.0,0.3152030110359192,2.726499557495117,5.307508945465088,-57.052371978759766,0
148.67300000000068,-0.0004777067224495113,-0.0001427603856427595,-0.00033412870834581554,0.0,0.0,0.0,0.0,-0.002562319627031684,0.0011914907954633236,-0.0009830556809902191,0.9995033740997314,0.0,0.0,0.0,0.3159877061843872,2.7716238498687744,5.321171760559082,-57.19440841674805,0
158.59399999999914,-0.0005283277714625001,-0.00016417451843153685,-0.0003499866579659283,0.0,0.0,0.0,0.0,-0.0010273235384374857,0.0012446576729416847,-0.003145265858620405,0.9988005757331848,0.0,0.0,0.0,0.31531745195388794,2.770569086074829,5.319591999053955,-57.07308578491211,0
168.5020000000004,-0.0005431579193100333,-0.0001577127113705501,-0.00044437655014917254,0.0,0.0,0.0,0.0,0.0013265806483104825,-0.0009148528333753347,0.0014021035749465227,0.9993658065795898,0.0,0.0,0.0,0.32121798396110535,2.782566785812378,5.317435264587402,-58.141090393066406,0
178.42499999999927,-0.0005950253689661622,-0.00017957747331820428,-0.00046650771400891244,0.0,0.0,0.0,0.0,0.00021674168237950653,0.002202217234298587,0.000806517549790442,0.9990630149841309,0.0,0.0,0.0,0.3207175135612488,2.7767081260681152,5.317277908325195,-58.050506591796875,0
188.3199999999997,-0.0006381151033565402,-0.00014024443225935102,-0.000493485014885664,0.0,0.0,0.0,0.0,-0.002065874170511961,-0.003957061562687159,0.0041624936275184155,0.9995969533920288,0.0,0.0,0.0,0.31970933079719543,2.7698142528533936,5.301003932952881,-57.86802673339844,0
198.2479999999996,-0.0006947995279915631,-0.00016157740901689976,-0.000517261098138988,0.0,0.0,0.0,0.0,0.001273198053240776,0.0021743541583418846,-0.001990753225982189,1.0013526678085327,0.0,0.0,0.0,0.320455938577652,2.7758705615997314,5.296487808227539,-58.00316619873047,0
208.15099999999984,-0.0007183088455349207,-0.00014750052650924772,-0.0006062828470021486,0.0,0.0,0.0,0.0,0.002711093984544277,0.0002046838926617056,0.00167233741376549,1.0003145933151245,0.0,0.0,0.0,0.3186350464820862,2.7714316844940186,5.288367748260498,-57.673580169677734,0
218.0650000000005,-0.0007776895072311163,-0.00016753323143348098,-0.0006337588420137763,0.0,0.0,0.0,0.0,0.000569817319046706,0.005383927375078201,0.001981293084099889,1.0008131265640259,0.0,0.0,0.0,0.3189556896686554,2.7625248432159424,5.268754959106445,-57.73161697387695,0
227.96899999999914,-0.0008050231263041496,-0.0001136153659899719,-0.0007060184143483639,0.0,0.0,0.0,0.0,0.001234893104992807,-0.00442512147128582,-0.0009450593497604132,1.0008924007415771,0.0,0.0,0.0,0.3185984790325165,2.7544314861297607,5.258034706115723,-57.666954040527344,0
237.89099999999962,-0.000869301613420248,-0.0001298454008065164,-0.0007357683498412371,0.0,0.0,0.0,0.0,-0.00026658494607545435,0.004300459288060665,-0.00441944133490324,1.0014909505844116,0.0,0.0,0.0,0.3168623149394989,2.7507548332214355,5.259976863861084,-57.35270690917969,0
247.80099999999948,-0.0009359566611237824,-0.00014691731485072523,-0.0007644251454621553,0.0,0.0,0.0,0.0,0.0037972070276737213,0.0038146236911416054,0.0026782697532325983,1.0013107061386108,0.0,0.0,0.0,0.31598642468452454,2.7481160163879395,5.242697715759277,-57.194175720214844,0
257.71800000000076,-0.001004478195682168,-0.00016517493349965662,-0.0007916065515019,0.0,0.0,0.0,0.0,0.001517042052000761,0.0014740194892510772,-0.0009979456663131714,0.9984128475189209,0.0,0.0,0.0,0.31504711508750916,2.7405846118927,5.240466117858887,-57.02415084838867,0
267.6180000000004,-0.0010750152869150043,-0.00018460015417076647,-0.0008178390562534332,0.0,0.0,0.0,0.0,-0.0036524501629173756,-0.0034432457759976387,-0.003940782509744167,0.998001754283905,0.0,0.0,0.0,0.3142533004283905,2.7366371154785156,5.237493991851807,-56.88047790527344,0
277.53900000000067,-0.0011479932582005858,-0.0002051578339887783,-0.000844892580062151,0.0,0.0,0.0,0.0,-0.0026635013055056334,-0.002427490660920739,0.00266742124222219,1.0004258155822754,0.0,0.0,0.0,0.3139021098613739,2.736954927444458,5.239735126495361,-56.8169059753418,0
287.4429999999993,-0.001223264611326158,-0.00022677515516988933,-0.0008728760294616222,0.0,0.0,0.0,0.0,-0.002143238205462694,-0.0005689039826393127,-0.0036775406915694475,0.9999218583106995,0.0,0.0,0.0,0.31364068388938904,2.7387704849243164,5.234512805938721,-56.76958465576172,0
297.3690000000006,-0.0013002785854041576,-0.00024938510614447296,-0.000900654005818069,0.0,0.0,0.0,0.0,-0.002632447751238942,-0.00012571216211654246,0.001326036755926907,1.0010242462158203,0.0,0.0,0.0,0.3126569390296936,2.739659070968628,5.2211737632751465,-56.591529846191406,0
307.27000000000044,-0.0013792177196592093,-0.0002732667198870331,-0.0009279473451897502,0.0,0.0,0.0,0.0,-0.0002950623456854373,0.003707694122567773,0.001001365715637803,0.9990214705467224,0.0,0.0,0.0,0.3127347528934479,2.738717555999756,5.212791919708252,-56.605613708496094,0
317.1959999999999,-0.0014604345196858048,-0.0002990296925418079,-0.0009545704815536737,0.0,0.0,0.0,0.0,-0.0010541613446548581,0.00012623296061065048,0.0023269334342330694,0.9973496794700623,0.0,0.0,0.0,0.31272900104522705,2.736931085586548,5.20920991897583,-56.60456848144531,0
327.09499999999935,-0.0015438082627952099,-0.0003265464911237359,-0.00098163983784616,0.0,0.0,0.0,0.0,-0.001972183817997575,-0.000575171085074544,-0.0006893050740472972,0.9974720478057861,0.0,0.0,0.0,0.3125258684158325,2.7387986183166504,5.203603744506836,-56.567806243896484,0
337.0159999999996,-0.0016296262620016932,-0.00035537549410946667,-0.001010682201012969,0.0,0.0,0.0,0.0,0.0006761139375157654,0.002478634240105748,-0.004101433791220188,1.0002810955047607,0.0,0.0,0.0,0.3129880130290985,2.7341694831848145,5.1982035636901855,-56.65145492553711,0
346.91899999999987,-0.0017180967843160033,-0.0003846461477223784,-0.0010414895368739963,0.0,0.0,0.0,0.0,-0.000259781489148736,-0.002518397755920887,0.0021747718565165997,1.0004520416259766,0.0,0.0,0.0,0.3118893802165985,2.730539083480835,5.182910919189453,-56.45260238647461,0
356.83799999999974,-0.0018095620907843113,-0.00041413214057683945,-0.0010724423918873072,0.0,0.0,0.0,0.0,0.0013292182702571154,0.004069147631525993,0.00045165701885707676,1.001731514930725,0.0,0.0,0.0,0.31140580773353577,2.7350025177001953,5.1805877685546875,-56.36507034301758,0
366.7420000000002,-0.0019044255604967475,-0.00044495941256172955,-0.001102169742807746,0.0,0.0,0.0,0.0,-0.0019686510786414146,0.0049025435000658035,0.001893037580884993,0.997739851474762,0.0,0.0,0.0,0.3108293414115906,2.7281506061553955,5.167037487030029,-56.26072692871094,0
376.66200000000026,-0.0020023593679070473,-0.0004777627473231405,-0.0011311713606119156,0.0,0.0,0.0,0.0,0.003277901792898774,0.00048058474203571677,-0.0006262590759433806,0.9997291564941406,0.0,0.0,0.0,0.3116832971572876,2.7222740650177,5.156922340393066,-56.4152946472168,0
386.5720000000001,-0.002103575272485614,-0.0005118853878229856,-0.001160886837169528,0.0,0.0,0.0,0.0,0.0013858929742127657,0.0012011830694973469,-0.0006372571224346757,1.0023058652877808,0.0,0.0,0.0,0.3114425539970398,2.709681987762451,5.142921447753906,-56.37171936035156,0
396.4899999999998,-0.002208811929449439,-0.0005469988682307303,-0.0011902371188625693,0.0,0.0,0.0,0.0,-0.0006889065261930227,0.0029632740188390017,-0.00019994525064248592,1.0003221035003662,0.0,0.0,0.0,0.3113190531730652,2.703843832015991,5.138726711273193,-56.349369049072266,0
406.39300000000003,-0.002318957354873419,-0.0005837926873937249,-0.0012179923942312598,0.0,0.0,0.0,0.0,-0.0007982315146364272,0.0028615444898605347,0.0010121595114469528,0.9977315068244934,0.0,0.0,0.0,0.31099364161491394,2.6968705654144287,5.1339263916015625,-56.29046630859375,0
416.3140000000003,-0.0024343046825379133,-0.0006229325081221759,-0.0012456215918064117,0.0,0.0,0.0,0.0,-0.0021043140441179276,0.0006523666670545936,-0.0033607513178139925,0.9978172779083252,0.0,0.0,0.0,0.31131401658058167,2.6987061500549316,5.12106990814209,-56.34845733642578,0
426.21999999999935,-0.0025536746252328157,-0.0006649426068179309,-0.0012746693100780249,0.0,0.0,0.0,0.0,-0.0044406927190721035,0.0015602895291522145,-0.0015324292471632361,1.000827431678772,0.0,0.0,0.0,0.31128671765327454,2.6952290534973145,5.115316867828369,-56.3435173034668,0
436.1370000000006,-0.002675758209079504,-0.0007097902125678957,-0.0013051198329776525,0.0,0.0,0.0,0.0,-0.0023772241547703743,0.0007426640950143337,-0.0038658827543258667,1.002476692199707,0.0,0.0,0.0,0.30987533926963806,2.7012062072753906,5.104544162750244,-56.08805465698242,0
446.0490000000009,-0.0028008061926811934,-0.000756218796595931,-0.0013349095825105906,0.0,0.0,0.0,0.0,0.0021189814433455467,-0.0016235274961218238,-0.0020684939809143543,1.0000532865524292,0.0,0.0,0.0,0.30906808376312256,2.700521230697632,5.092538356781006,-55.94193649291992,0
455.96999999999935,-0.0029298425652086735,-0.0008029787568375468,-0.0013627579901367426,0.0,0.0,0.0,0.0,-0.0006814340595155954,0.0009556575096212327,-0.0020363163203001022,0.9991781711578369,0.0,0.0,0.0,0.30943697690963745,2.7055675983428955,5.09538459777832,-56.008705139160156,0
465.8719999999994,-0.0030629117973148823,-0.0008500629337504506,-0.0013901317724958062,0.0,0.0,0.0,0.0,0.0004041179199703038,0.0018545723287388682,0.0019040494225919247,1.0001295804977417,0.0,0.0,0.0,0.3094901144504547,2.695359945297241,5.087510585784912,-56.01832962036133,0
475.79199999999946,-0.0031987575348466635,-0.0008984261658042669,-0.00141782290302217,0.0,0.0,0.0,0.0,0.0022940076887607574,0.002666692016646266,0.0023616498801857233,1.000247836112976,0.0,0.0,0.0,0.3098588287830353,2.6903021335601807,5.081729412078857,-56.08506393432617,0
485.7029999999995,-0.0004610296746250242,-0.000605521781835705,0.0009618017938919365,0.0,0.0,0.0,0.0,-0.0023544945288449526,0.004435915034264326,-0.0017251981189474463,0.9994211196899414,0.0,0.0,0.0,0.29935750365257263,2.7779154777526855,5.3736371994018555,-54.184303283691406,0
495.6149999999998,-0.0005180630832910538,-0.0006381584098562598,0.0009996230946853757,0.0,0.0,0.0,0.0,0.002433385932818055,-0.002407293999567628,0.0011409604921936989,0.9998443722724915,0.0,0.0,0.0,0.29920443892478943,2.770683765411377,5.362051010131836,-54.15660095214844,0
505.5139999999992,-0.0005052305059507489,-0.0006318429368548095,0.0011253021657466888,0.0,0.0,0.0,0.0,-0.0019936657045036554,-0.001853527850471437,-0.00041205011075362563,1.0010329484939575,0.0,0.0,0.0,0.29943349957466125,2.7675793170928955,5.356286525726318,-54.198055267333984,0
515.4410000000007,-0.0005644298507831991,-0.0006660016370005906,0.0011675846762955189,0.0,0.0,0.0,0.0,0.0004714245442301035,-0.0005382134113460779,0.0003001151781063527,0.9995236992835999,0.0,0.0,0.0,0.29973214864730835,2.763612985610962,5.351099491119385,-54.25211715698242,0
525.3389999999999,-0.0006246990524232388,-0.0007026790990494192,0.0012108769733458757,0.0,0.0,0.0,0.0,-0.0011037939693778753,-0.005832518916577101,-0.0005455194623209536,0.9988831281661987,0.0,0.0,0.0,0.29909759759902954,2.762514352798462,5.343526363372803,-54.137264251708984,0
535.2600000000002,-0.0006853252416476607,-0.0007416859152726829,0.001254136092029512,0.0,0.0,0.0,0.0,-0.00040981092024594545,0.0027783859986811876,-0.002151726046577096,1.0009921789169312,0.0,0.0,0.0,0.29980897903442383,2.760787010192871,5.349236011505127,-54.266021728515625,0
545.1650000000009,-0.0006262741517275572,-0.0007391538820229471,0.001370548503473401,0.0,0.0,0.0,0.0,0.00433690520003438,0.00026514483033679426,0.0026941539254039526,1.0017508268356323,0.0,0.0,0.0,0.29860231280326843,2.758648157119751,5.397824764251709,-54.04761505126953,0
555.0949999999993,-0.0006779846735298634,-0.0007804762572050095,0.0014205179177224636,0.0,0.0,0.0,0.0,0.001200221129693091,-0.000827004958409816,-0.0009640248608775437,0.9994694590568542,0.0,0.0,0.0,0.2991342544555664,2.753229856491089,5.389284133911133,-54.14389419555664,0
564.991,-0.0007323777535930276,-0.0008233939879573882,0.0014716550940647721,0.0,0.0,0.0,0.0,-0.001480596256442368,0.002484144177287817,0.0024083340540528297,0.9976553916931152,0.0,0.0,0.0,0.29850703477859497,2.744875431060791,5.389807224273682,-54.03036880493164,0
574.9079999999994,-0.0007892962894402444,-0.0008686678484082222,0.0015225493116304278,0.0,0.0,0.0,0.0,-0.0002402823301963508,-0.00437652925029397,0.004816309083253145,0.9979537725448608,0.0,0.0,0.0,0.2979922592639923,2.7461750507354736,5.3826422691345215,-53.937191009521484,0
584.8150000000005,-0.0007184235146269202,-0.0008691599941812456,0.001624397817067802,0.0,0.0,0.0,0.0,-0.0008408496505580842,0.0019318294944241643,0.001762254862114787,1.000104546546936,0.0,0.0,0.0,0.29712817072868347,2.750260591506958,5.4477081298828125,-53.78078842163086,0
594.7430000000004,-0.0007664558361284435,-0.000918275851290673,0.0016800833400338888,0.0,0.0,0.0,0.0,-0.003904100740328431,-0.0034457286819815636,0.005457684863358736,0.999774694442749,0.0,0.0,0.0,0.29727476835250854,2.747360944747925,5.445605754852295,-53.80732345581055,0
604.6380000000008,-0.0007436851738020778,-0.0009266027482226491,0.0017755641601979733,0.0,0.0,0.0,0.0,0.00019961001817137003,0.0011184383183717728,9.609380504116416e-05,0.9995198845863342,0.0,0.0,0.0,0.29507991671562195,2.750066041946411,5.4712653160095215,-53.41005325317383,0
614.5660000000007,-0.00012471716036088765,-0.00018333243497181684,-0.00011142147559439763,0.0,0.0,0.0,0.0,0.0018705388065427542,0.001428336021490395,-0.003538243705406785,1.000253438949585,0.0,0.0,0.0,0.3019271492958069,2.857131004333496,5.56537389755249,-54.649410247802734,0
624.4740000000002,-6.514766573673114e-05,-0.00015636355965398252,-4.967630229657516e-05,0.0,0.0,0.0,0.0,-0.0006721006939187646,-0.0018331882311031222,0.0010551405139267445,1.0015696287155151,0.0,0.0,0.0,0.30178239941596985,2.8593637943267822,5.569977760314941,-54.62321472167969,0
634.4030000000002,-6.762141129001975e-05,-0.000157715636305511,-7.922708027763292e-05,0.0,0.0,0.0,0.0,-0.001740349573083222,0.0027841695118695498,-0.003222303930670023,1.0004342794418335,0.0,0.0,0.0,0.3015526533126831,2.861729621887207,5.552399635314941,-54.58163070678711,0
644.2939999999999,-7.244973676279187e-05,-9.764738933881745e-05,-2.926239903899841e-05,0.0,0.0,0.0,0.0,-0.00333120534196496,0.008097449317574501,-0.0034626300912350416,0.9982653856277466,0.0,0.0,0.0,0.3022153675556183,2.858966112136841,5.55984354019165,-54.70158386230469,0
654.2150000000001,-8.559152774978429e-05,-0.00011580397404031828,-3.964392453781329e-05,0.0,0.0,0.0,0.0,0.004629170056432486,0.00099392409902066,0.00026731917751021683,0.9996099472045898,0.0,0.0,0.0,0.301493763923645,2.856926202774048,5.542232990264893,-54.57097244262695,0
664.1219999999994,-6.591856072191149e-05,-8.886140858521685e-05,3.1770250643603504e-06,0.0,0.0,0.0,0.0,-0.0006472462555393577,-0.000388587883207947,0.0011430184822529554,0.998809278011322,0.0,0.0,0.0,0.3011821210384369,2.85760760307312,5.515303134918213,-54.514564514160156,0
674.0319999999992,-6.872019730508327e-05,-6.975128053454682e-05,-7.787538379488979e-06,0.0,0.0,0.0,0.0,-0.003864348167553544,-0.0035309800878167152,0.002188991755247116,0.9991193413734436,0.0,0.0,0.0,0.3020150065422058,2.8506903648376465,5.50547456741333,-54.66531753540039,0
683.9380000000001,-5.4994223319226876e-05,-9.479803702561185e-05,1.2769102795573417e-05,0.0,0.0,0.0,0.0,-0.0019260814879089594,0.002116566291078925,-0.0035928774159401655,1.0001600980758667,0.0,0.0,0.0,0.2968418300151825,2.8544347286224365,5.500789165496826,-53.728965759277344,0
693.8500000000004,-7.734842074569315e-05,-0.00010788049985421821,1.3295335520524532e-05,0.0,0.0,0.0,0.0,0.0013394812121987343,-0.0004151030152570456,0.000592030759435147,0.9990677237510681,0.0,0.0,0.0,0.29606005549430847,2.854245185852051,5.503198623657227,-53.58745574951172,0
703.7649999999994,-5.825360494782217e-05,-0.00011872839240822941,4.2471354390727356e-05,0.0,0.0,0.0,0.0,-0.00030047359177842736,-0.0011046805884689093,-2.6180427084909752e-05,1.0000580549240112,0.0,0.0,0.0,0.2953748106956482,2.8508870601654053,5.489745140075684,-53.46342468261719,0
713.6849999999995,-4.5339009375311434e-05,-8.297116437461227e-05,1.3692392712982837e-05,0.0,0.0,0.0,0.0,0.0029451134614646435,0.0024863171856850386,-0.0007464428199455142,1.0001055002212524,0.0,0.0,0.0,0.2954331040382385,2.843480348587036,5.4859185218811035,-53.473976135253906,0
723.5900000000001,-4.5845510612707585e-05,-0.00010707821638789028,2.9411879950203e-05,0.0,0.0,0.0,0.0,0.000699714757502079,-0.00535868713632226,0.0029263391625136137,0.9999681115150452,0.0,0.0,0.0,0.29466748237609863,2.840944528579712,5.491412162780762,-53.33539962768555,0
733.5049999999992,-4.789051308762282e-05,-9.344614227302372e-05,6.979131740081357e-06,0.0,0.0,0.0,0.0,-0.0015354313654825091,0.0014060400426387787,0.0009708308498375118,1.0001496076583862,0.0,0.0,0.0,0.28803378343582153,2.8446547985076904,5.491969108581543,-52.13468933105469,0
743.4140000000007,-4.365876884548925e-05,-0.00013950389984529465,1.544104452477768e-05,0.0,0.0,0.0,0.0,-0.0023655162658542395,0.0006115491851232946,-0.003189731389284134,0.9994499683380127,0.0,0.0,0.0,0.2885662019252777,2.8374762535095215,5.479325294494629,-52.231056213378906,0
753.3289999999997,-4.124912084080279e-05,-0.00011022953549399972,-8.533732398063876e-06,0.0,0.0,0.0,0.0,0.0011153032537549734,0.003571472130715847,0.003089378122240305,1.0004291534423828,0.0,0.0,0.0,0.28908997774124146,2.8339667320251465,5.479649066925049,-52.325862884521484,0
763.2360000000008,-4.6374330850085244e-05,-0.00013274792581796646,5.688828878191998e-06,0.0,0.0,0.0,0.0,0.0018062506569549441,0.003946969285607338,-0.001983220223337412,0.999430775642395,0.0,0.0,0.0,0.288812518119812,2.831447124481201,5.46604061126709,-52.275638580322266,0
773.1509999999998,-4.37760136264842e-05,-9.81101838988252e-05,-2.1000618289690465e-05,0.0,0.0,0.0,0.0,-0.001968981232494116,-0.0018568809609860182,0.000705856189597398,0.998845636844635,0.0,0.0,0.0,0.2877672612667084,2.822019577026367,5.44571590423584,-52.086448669433594,0
783.0640000000003,-8.408364374190569e-05,-0.00013323612802196294,-1.912377047119662e-05,0.0,0.0,0.0,0.0,-0.0020253194961696863,0.003963686525821686,0.0027038869448006153,0.9988234639167786,0.0,0.0,0.0,0.28806257247924805,2.816696882247925,5.440705299377441,-52.139896392822266,0
792.973,-7.590473251184449e-05,-0.00012964304187335074,-8.866764983395115e-05,0.0,0.0,0.0,0.0,0.0016664440045133233,-0.0013151565799489617,0.0030743100214749575,0.9990090727806091,0.0,0.0,0.0,0.2871732711791992,2.817462682723999,5.435981750488281,-51.97893142700195,0
802.8970000000008,-0.0001184419816127047,-0.0001652383361943066,-9.397033863933757e-05,0.0,0.0,0.0,0.0,0.0019844535272568464,-0.002058887155726552,-0.0032203157898038626,0.9986141920089722,0.0,0.0,0.0,0.28770244121551514,2.813026189804077,5.418451309204102,-52.07471466064453,0
812.8060000000005,-0.00014287905651144683,-0.00012009326746920124,-0.00011425004777265713,0.0,0.0,0.0,0.0,0.0001513788738520816,-5.4100866691442207e-05,0.001040901173837483,1.0016638040542603,0.0,0.0,0.0,0.28878793120384216,2.809664249420166,5.426609039306641,-52.27118682861328,0
822.7139999999999,-5.521880666492507e-05,-0.0001482042425777763,-4.853254358749837e-05,0.0,0.0,0.0,0.0,0.001976206200197339,0.003790124785155058,-0.0009655303438194096,0.9988016486167908,0.0,0.0,0.0,0.2879091501235962,2.8012003898620605,5.409167766571045,-52.11213302612305,0
832.6280000000006,-7.66388766351156e-05,-0.00013179560482967645,-6.0884318372700363e-05,0.0,0.0,0.0,0.0,-0.000721040996722877,-0.0017892408650368452,-0.005026321858167648,0.9989686012268066,0.0,0.0,0.0,0.28813636302948,2.798578977584839,5.4060959815979,-52.153255462646484,0
842.5450000000001,-4.630661351257004e-05,-0.00013626550207845867,-2.8734842999256216e-05,0.0,0.0,0.0,0.0,-0.001326914643868804,0.003104248782619834,0.002216591965407133,1.0004560947418213,0.0,0.0,0.0,0.2872692048549652,2.792595386505127,5.407435894012451,-51.996299743652344,0
852.4529999999995,-9.218804189004004e-05,-0.0001678734552115202,-2.9002598239458166e-05,0.0,0.0,0.0,0.0,0.002531973412260413,0.0006222084048204124,-0.0017767581157386303,0.9981428980827332,0.0,0.0,0.0,0.28534960746765137,2.787566661834717,5.401272773742676,-51.64884567260742,0
862.3600000000006,-0.00013988740101922303,-0.00020083400886505842,-2.9526292564696632e-05,0.0,0.0,0.0,0.0,-4.341578005551128e-06,0.002964381128549576,0.0008752088178880513,0.9968459010124207,0.0,0.0,0.0,0.28612077236175537,2.7858669757843018,5.381199359893799,-51.788429260253906,0
872.2729999999992,-0.0001451117714168504,-0.00019167161372024566,-8.624463953310624e-05,0.0,0.0,0.0,0.0,0.0007508186972700059,-0.001140297157689929,0.0006817618268541992,0.9985678791999817,0.0,0.0,0.0,0.28577595949172974,2.779618263244629,5.375946521759033,-51.726016998291016,0
882.1849999999995,-0.00019358373538125306,-0.0002238999877590686,-9.461376612307504e-05,0.0,0.0,0.0,0.0,0.0008547038305550814,-0.0030500905122607946,0.0003764634602703154,0.9993208646774292,0.0,0.0,0.0,0.28621160984039307,2.773833990097046,5.36970853805542,-51.804874420166016,0
892.0959999999995,-0.0002613604301586747,-0.00021227361867204309,-0.00013971490261610597,0.0,0.0,0.0,0.0,-0.0002789135032799095,0.00012799925752915442,-0.0014780634082853794,0.9983308911323547,0.0,0.0,0.0,0.2843170464038849,2.7701892852783203,5.361191272735596,-51.461952209472656,0
902.0110000000004,-0.0002613604301586747,-0.00021227361867204309,-0.00013971490261610597,0.0,0.0,0.0,0.0,0.0018181398045271635,0.0021517332643270493,0.0009604205843061209,1.0004318952560425,0.0,0.0,0.0,0.2843170464038849,2.7701892852783203,5.361191272735596,-51.461952209472656,0
911.9230000000007,-0.0003686640993691981,-0.0002802929957397282,-0.0001671103382250294,0.0,0.0,0.0,0.0,-0.0015489616198465228,0.003504042513668537,0.0018213533330708742,0.9991312623023987,0.0,0.0,0.0,0.28348490595817566,2.7718656063079834,5.349602699279785,-51.31133270263672,0
921.8369999999995,-0.00013941775250714272,-0.00022444466594606638,5.532970135391224e-07,0.0,0.0,0.0,0.0,-0.003532569855451584,0.004056932870298624,0.001034761662594974,1.0010026693344116,0.0,0.0,0.0,0.2807503938674927,2.7884459495544434,5.410205841064453,-50.816375732421875,0
931.7469999999994,-0.00012726738350465894,-0.00014883853145875037,-0.0001202515559270978,0.0,0.0,0.0,0.0,0.0005637133144773543,-0.0007852085982449353,-0.004924757871776819,1.0007184743881226,0.0,0.0,0.0,0.28606918454170227,2.8197402954101562,5.4093217849731445,-51.77909469604492,0
941.6589999999997,-0.00012726738350465894,-0.00014883853145875037,-0.0001202515559270978,0.0,0.0,0.0,0.0,0.0019361147424206138,0.000404583930503577,-0.0006951606483198702,0.999581515789032,0.0,0.0,0.0,0.28606918454170227,2.8197402954101562,5.4093217849731445,-51.77909469604492,0
951.5779999999995,-0.00010568965080892667,-0.00010999872029060498,-0.0002351005532545969,0.0,0.0,0.0,0.0,-0.0036217609886080027,0.0022655175998806953,-0.001264647813513875,0.9986552000045776,0.0,0.0,0.0,0.2964993417263031,2.8378589153289795,5.425053119659424,-53.666969299316406,0
961.4869999999992,-6.64961407892406e-05,-5.4200150771066546e-05,-0.00017041699902620167,0.0,0.0,0.0,0.0,-0.001566662802360952,0.003282412188127637,-0.003747990122064948,0.9974503517150879,0.0,0.0,0.0,0.2971000075340271,2.836581230163574,5.430143356323242,-53.77569580078125,0
971.4050000000007,-8.496695954818279e-05,-5.5113359849201515e-05,-0.00021059659775346518,0.0,0.0,0.0,0.0,-0.002462201053276658,-0.0031725657172501087,0.004258306697010994,0.9989672303199768,0.0,0.0,0.0,0.3031943440437317,2.840407609939575,5.430813789367676,-54.878780364990234,0
981.3119999999999,-4.320918378653005e-05,-9.457377927901689e-06,-0.00017113375361077487,0.0,0.0,0.0,0.0,0.00366398086771369,0.007300245109945536,-0.0035262256860733032,0.9991486668586731,0.0,0.0,0.0,0.2958498001098633,2.8479974269866943,5.432347774505615,-53.54940414428711,0
991.2299999999996,-8.591714140493423e-05,-3.115397703368217e-05,-0.0001835830044001341,0.0,0.0,0.0,0.0,0.002232176484540105,-7.719028508290648e-05,0.0016695555532351136,1.0003759860992432,0.0,0.0,0.0,0.2965889573097229,2.846538782119751,5.42401123046875,-53.68318557739258,0
1001.1380000000008,-4.393031485960819e-05,-6.155284063424915e-05,-0.00018557974544819444,0.0,0.0,0.0,0.0,0.0009513263939879835,0.004218805581331253,0.0002478059905115515,0.9997915625572205,0.0,0.0,0.0,0.2967236042022705,2.838707685470581,5.403982162475586,-53.70756530761719,0
1011.0640000000003,-7.252725481521338e-05,-8.159047138178721e-05,-0.0002280833723489195,0.0,0.0,0.0,0.0,-0.0010113402968272567,-0.004144503269344568,-0.00036085277679376304,1.0009398460388184,0.0,0.0,0.0,0.2976974546909332,2.839677095413208,5.3939528465271,-53.88383483886719,0
1020.9590000000007,-0.00011939888645429164,-0.0001063567033270374,-0.00024171912809833884,0.0,0.0,0.0,0.0,-6.901858432684094e-05,0.002699863165616989,0.0004620404215529561,0.9978744387626648,0.0,0.0,0.0,0.2974226772785187,2.8403966426849365,5.387971878051758,-53.8340950012207,0
1030.8799999999992,-0.00018425726739224046,-0.00012043125025229529,-0.00022207642905414104,0.0,0.0,0.0,0.0,-0.0005995660321787,0.0011313622817397118,-0.0027758481446653605,0.9970430731773376,0.0,0.0,0.0,0.2982705533504486,2.8338942527770996,5.379557132720947,-53.9875602722168,0
1040.7819999999992,-3.460749940131791e-05,-0.00013073997979518026,-0.00013919087359681726,0.0,0.0,0.0,0.0,0.002347572473809123,-0.001156731159426272,0.004356391727924347,0.9995064735412598,0.0,0.0,0.0,0.29794660210609436,2.8300886154174805,5.372355937957764,-53.928924560546875,0
1050.7070000000003,-7.422111229971051e-05,-0.00012777229130733758,-0.00014385634858626872,0.0,0.0,0.0,0.0,0.001018447452224791,0.0036687543615698814,0.0026047127321362495,0.9983897805213928,0.0,0.0,0.0,0.2974213659763336,2.8310739994049072,5.366805076599121,-53.833858489990234,0
1060.6090000000004,1.2065253031323664e-05,-0.00017967108578886837,-0.00012189328845124692,0.0,0.0,0.0,0.0,0.0007691272185184062,-0.005018013529479504,0.0019600712694227695,0.9990183711051941,0.0,0.0,0.0,0.2976897954940796,2.8229331970214844,5.3569464683532715,-53.8824462890625,0
1070.5310000000009,-3.915316119673662e-05,-0.00020096520893275738,-0.00012029672507196665,0.0,0.0,0.0,0.0,-0.0010831512045115232,-0.004810743033885956,0.0007852197159081697,0.9990063905715942,0.0,0.0,0.0,0.2983221709728241,2.8232998847961426,5.351559638977051,-53.99690246582031,0
1080.433000000001,-8.759905176702887e-05,-0.00023145823797676712,-0.00012736732605844736,0.0,0.0,0.0,0.0,0.0032134687062352896,0.0030908938497304916,-0.0005273212445899844,0.9993758201599121,0.0,0.0,0.0,0.29836219549179077,2.8166232109069824,5.348451137542725,-54.004150390625,0
1090.3639999999996,-0.00013888288231100887,-0.00018572296539787203,-9.919540752889588e-05,0.0,0.0,0.0,0.0,-0.00029658328276127577,-0.0020716649014502764,0.0022857298608869314,0.9989405274391174,0.0,0.0,0.0,0.29872533679008484,2.814483404159546,5.347520351409912,-54.06987762451172,0
1100.259,-0.00010077108890982345,-0.0001454139855923131,-2.627884896355681e-05,0.0,0.0,0.0,0.0,-0.00464771268889308,-0.001799469580873847,0.0009261693339794874,0.9994120001792908,0.0,0.0,0.0,0.29763638973236084,2.7967984676361084,5.325981616973877,-53.872779846191406,0
1110.179,-0.00015538484149146825,-0.0001566658029332757,-1.4073939382797107e-05,0.0,0.0,0.0,0.0,-0.0004774482804350555,-0.0013145848643034697,0.0017261685570701957,1.0001178979873657,0.0,0.0,0.0,0.2982463836669922,2.8023416996002197,5.324395179748535,-53.98318862915039,0
1120.0869999999995,-0.00021068952628411353,-0.0001896639441838488,-1.4357119653141126e-05,0.0,0.0,0.0,0.0,0.0008632841054350138,-0.0020469208247959614,0.0010941063519567251,0.9979567527770996,0.0,0.0,0.0,0.2984532415866852,2.7991678714752197,5.322835922241211,-54.020626068115234,0
1130.0049999999992,-0.00024459336418658495,-0.00013413670239970088,-1.5392481145681813e-05,0.0,0.0,0.0,0.0,-0.0021554739214479923,2.9063186957500875e-05,0.0033825428690761328,0.9978006482124329,0.0,0.0,0.0,0.2979983687400818,2.799663543701172,5.315059185028076,-53.938297271728516,0
1139.92,-0.00011959136463701725,-0.00017283970373682678,6.177086470415816e-05,0.0,0.0,0.0,0.0,-0.0009100036113522947,-0.0006010313518345356,0.003430335083976388,0.9995132088661194,0.0,0.0,0.0,0.29878976941108704,2.7949469089508057,5.317172050476074,-54.081546783447266,0
1149.8269999999993,-0.00010750773071777076,-9.938389848684892e-05,1.698274900263641e-05,0.0,0.0,0.0,0.0,-0.001249051420018077,0.0012113942066207528,0.002118906006217003,1.0003710985183716,0.0,0.0,0.0,0.2994036376476288,2.796765089035034,5.312512397766113,-54.19265365600586,0
1159.7299999999996,-0.0001616556546650827,-0.00012861614231951535,1.460813837184105e-05,0.0,0.0,0.0,0.0,0.0007073996821418405,0.0016902503557503223,0.00027177439187653363,1.0018128156661987,0.0,0.0,0.0,0.29970577359199524,2.7893240451812744,5.303857326507568,-54.247337341308594,0
1169.6509999999998,-0.00017351360293105245,-9.974938438972458e-05,-3.4927033993881196e-05,0.0,0.0,0.0,0.0,-0.0005487920716404915,-0.0019918798934668303,0.0024595812428742647,1.0019402503967285,0.0,0.0,0.0,0.3008344769477844,2.785041093826294,5.30281400680542,-54.45164108276367,0
1179.5560000000005,-0.00023014565522316843,-0.00012728245928883553,-3.872415254591033e-05,0.0,0.0,0.0,0.0,0.0005539620760828257,-0.0023395365569740534,0.00015746241842862219,0.9997799396514893,0.0,0.0,0.0,0.30076369643211365,2.7798995971679688,5.294947147369385,-54.43882369995117,0
1189.4789999999994,-0.0002582591841928661,-0.00010026526433648542,-7.867296517360955e-05,0.0,0.0,0.0,0.0,0.00033004567376337945,0.002456182148307562,0.0035491602029651403,1.0001949071884155,0.0,0.0,0.0,0.3005386292934418,2.772897243499756,5.292500972747803,-54.39808654785156,0
1199.3919999999998,-9.070729720406234e-05,-0.0001518898643553257,2.9456123229465447e-05,0.0,0.0,0.0,0.0,-0.0011446942808106542,0.002184805925935507,-0.00034484697971493006,1.0009926557540894,0.0,0.0,0.0,0.2978490889072418,2.773601770401001,5.3376264572143555,-53.91127395629883,0
1209.3019999999997,-0.00010644203575793654,-0.00011387690756237134,-4.9861551815411076e-05,0.0,0.0,0.0,0.0,-0.0011675575515255332,-0.001005043857730925,-0.0031174144241958857,0.9969863891601562,0.0,0.0,0.0,0.29743826389312744,2.767690658569336,5.316161155700684,-53.83692169189453,0
1219.205,-3.6151792301097885e-05,-0.00011106542660854757,-2.7992340619675815e-05,0.0,0.0,0.0,0.0,-0.0034138711635023355,0.0017283642664551735,0.002002149587497115,0.9967706799507141,0.0,0.0,0.0,0.29743826389312744,2.767690658569336,5.316161155700684,-53.83692169189453,0
1229.1280000000006,-6.559121538884938e-05,-8.088018512353301e-05,-0.00010577634384389967,0.0,0.0,0.0,0.0,0.002385864732787013,0.0036308891139924526,0.0029116931837052107,0.9992364048957825,0.0,0.0,0.0,0.3062381446361542,2.7842230796813965,5.314250469207764,-55.42971420288086,0
1239.0290000000005,-6.000245048198849e-05,-9.949704690370709e-05,-0.00011709764658007771,0.0,0.0,0.0,0.0,-0.0020117193926125765,-0.0017827191622927785,0.0012974129058420658,1.0001705884933472,0.0,0.0,0.0,0.3062381446361542,2.7842230796813965,5.314250469207764,-55.42971420288086,0
1248.950999999999,-0.000170556188095361,-0.0001620856928639114,-0.00014080449182074517,0.0,0.0,0.0,0.0,-0.002656355034559965,0.0025083445943892,0.0009468802018091083,0.9998814463615417,0.0,0.0,0.0,0.30772361159324646,2.776510715484619,5.30535888671875,-55.698585510253906,0
1258.8580000000002,-9.805045556277037e-05,-0.0001250262575922534,-0.00011842216918012127,0.0,0.0,0.0,0.0,0.001856845454312861,-0.0025241884868592024,0.002640422433614731,1.001151442527771,0.0,0.0,0.0,0.30772361159324646,2.776510715484619,5.30535888671875,-55.698585510253906,0
1268.7780000000002,-9.668951679486781e-05,-7.395727880066261e-05,-0.00020294472051318735,0.0,0.0,0.0,0.0,-0.003531414084136486,0.0004571116587612778,0.0021832482889294624,1.001693606376648,0.0,0.0,0.0,0.3082699775695801,2.7796108722686768,5.291875839233398,-55.797481536865234,0
1278.679,-0.00015615788288414478,-0.00010479638149263337,-0.00021699864009860903,0.0,0.0,0.0,0.0,-0.0022710494231432676,0.004586642142385244,-0.002532675163820386,1.0003889799118042,0.0,0.0,0.0,0.3078690469264984,2.777617931365967,5.291414260864258,-55.72490692138672,0
1288.6000000000004,-0.00021892040967941284,-0.00013756730186287314,-0.00022946369426790625,0.0,0.0,0.0,0.0,0.0006460548611357808,0.0013664769940078259,0.001672912621870637,0.9992535710334778,0.0,0.0,0.0,0.3078315854072571,2.7794604301452637,5.270900726318359,-55.7181282043457,0
1298.5059999999994,-0.0002826281706802547,-0.00017244418268091977,-0.0002414441405562684,0.0,0.0,0.0,0.0,0.0008098455145955086,-0.0011633667163550854,-0.0016184098785743117,0.9994295835494995,0.0,0.0,0.0,0.3062626123428345,2.784092426300049,5.26126766204834,-55.43414306640625,0
1308.429,-0.000331559800542891,-0.00016679482359904796,-0.00026628890191204846,0.0,0.0,0.0,0.0,-0.0012295210035517812,-0.0020247632637619972,0.004524735268205404,1.0004490613937378,0.0,0.0,0.0,0.3114524781703949,2.79144549369812,5.259671211242676,-56.373512268066406,0
1318.3359999999993,-9.253292228095233e-05,-0.00020441829110495746,-0.00011434977204771712,0.0,0.0,0.0,0.0,-0.0026176567189395428,0.003270630957558751,-0.0011060205288231373,1.0000104904174805,0.0,0.0,0.0,0.3091610074043274,2.7882602214813232,5.332961559295654,-55.95875549316406,0
1328.2620000000006,-9.466233314014971e-05,-0.00020010449225082994,-0.00017776567256078124,0.0,0.0,0.0,0.0,0.0011145732132717967,0.0013437290908768773,0.003363876137882471,1.0001059770584106,0.0,0.0,0.0,0.31501591205596924,2.793938636779785,5.331131935119629,-57.01850509643555,0
1338.1540000000005,-0.00014434507465921342,-0.00023882511595729738,-0.00018300814554095268,0.0,0.0,0.0,0.0,0.00024847558233886957,-0.0039130146615207195,0.004329655319452286,1.0001020431518555,0.0,0.0,0.0,0.31348928809165955,2.79681658744812,5.3153486251831055,-56.7421875,0
1348.0869999999995,-0.00014541239943355322,-0.00019197346409782767,-0.0002410670422250405,0.0,0.0,0.0,0.0,0.0010997969657182693,-0.0020220386795699596,-0.0037874055560678244,0.9987556338310242,0.0,0.0,0.0,0.3140251338481903,2.7923460006713867,5.312816143035889,-56.839176177978516,0
1357.9779999999992,-6.38046331005171e-05,-0.00017154653323814273,-0.0001558948279125616,0.0,0.0,0.0,0.0,-0.00033932781661860645,0.0011180872097611427,-0.0016768797067925334,0.9996746182441711,0.0,0.0,0.0,0.3136075735092163,2.7923107147216797,5.305446147918701,-56.76359176635742,0
1367.8940000000002,-8.735562732908875e-05,-0.00019992578017991036,-0.00020286237122491002,0.0,0.0,0.0,0.0,-0.0004963689716532826,0.00012978579616174102,0.0014429023722186685,0.9982452988624573,0.0,0.0,0.0,0.31266868114471436,2.783973455429077,5.295792579650879,-56.59365463256836,0
1377.8099999999995,-0.00014268288214225322,-0.00023429302382282913,-0.00020974018843844533,0.0,0.0,0.0,0.0,0.0013156376080587506,-0.00738478684797883,-0.0017491246107965708,0.9981836676597595,0.0,0.0,0.0,0.31193599104881287,2.7856993675231934,5.2858357429504395,-56.461036682128906,0
1387.7240000000002,-0.00015416894166264683,-0.0001848667743615806,-0.0002591476368252188,0.0,0.0,0.0,0.0,-0.0013175951316952705,0.0014976141974329948,-0.0018625175580382347,0.9998976588249207,0.0,0.0,0.0,0.3128948509693146,2.7821898460388184,5.280168533325195,-56.63459014892578,0
1397.6319999999996,-5.2522907935781404e-05,-0.00015932034875731915,-0.00016921755741350353,0.0,0.0,0.0,0.0,-0.002220644149929285,0.002859825035557151,-0.0010602970141917467,1.0010066032409668,0.0,0.0,0.0,0.3131040036678314,2.782362937927246,5.2746806144714355,-56.67245101928711,0
1407.5419999999995,-5.5100212193792686e-05,-0.00010680865671020001,-0.0002091358182951808,0.0,0.0,0.0,0.0,0.0003292048932053149,0.0009008388733491302,-0.0016301620053127408,1.000277042388916,0.0,0.0,0.0,0.31199684739112854,2.7831406593322754,5.256079196929932,-56.47205352783203,0
1417.464,-0.00010991857561748475,-0.0001386243966408074,-0.0002160693984478712,0.0,0.0,0.0,0.0,-0.0016112875891849399,-0.0027359568048268557,0.0012533955741673708,1.0009379386901855,0.0,0.0,0.0,0.31173229217529297,2.7855701446533203,5.2483720779418945,-56.42416000366211,0
1427.3729999999996,-0.0001524966355646029,-9.918624709825963e-05,-0.00021439965348690748,0.0,0.0,0.0,0.0,0.0004957884666509926,-0.003545331070199609,-0.00332271377556026,0.9987396597862244,0.0,0.0,0.0,0.3101924657821655,2.7870724201202393,5.24524450302124,-56.14545440673828,0
1437.2800000000007,-0.00010263103467877954,-8.815430192044005e-05,-0.0001540264202049002,0.0,0.0,0.0,0.0,0.0005637527210637927,0.004269869532436132,-3.731749893631786e-05,0.998869776725769,0.0,0.0,0.0,0.3103317618370056,2.7828896045684814,5.243262767791748,-56.17066955566406,0
1447.1980000000003,-0.0001734653633320704,-0.00012351734039839357,-0.0001367778895655647,0.0,0.0,0.0,0.0,-0.0007071283762343228,-0.007812744937837124,-8.222941687563434e-05,0.9978746771812439,0.0,0.0,0.0,0.30986425280570984,2.780024766921997,5.237488269805908,-56.08604049682617,0
1457.1129999999994,-0.000232776757911779,-0.00015689228894189,-0.0001371612452203408,0.0,0.0,0.0,0.0,0.00021440861746668816,0.0008510574116371572,-0.002546746516600251,0.9994903206825256,0.0,0.0,0.0,0.30980032682418823,2.7741646766662598,5.229846477508545,-56.07447814941406,0
1467.0239999999994,-0.00026990854530595243,-0.0001718952553346753,-0.0001699575368547812,0.0,0.0,0.0,0.0,-0.0010934516321867704,7.912537512311246e-06,-0.0010140695376321673,0.9981218576431274,0.0,0.0,0.0,0.3099048435688019,2.777106285095215,5.2330641746521,-56.093387603759766,0
1476.9259999999995,-0.00013629838940687478,-0.00020001770462840796,-8.062976121436805e-05,0.0,0.0,0.0,0.0,0.00019754697859752923,0.0011295991716906428,-0.0019052099669352174,0.9969931244850159,0.0,0.0,0.0,0.30925822257995605,2.7799952030181885,5.222336769104004,-55.97635269165039,0
1486.8490000000002,-0.00014964502770453691,-0.00015590593102388084,-0.00010703231964726001,0.0,0.0,0.0,0.0,0.0027275746688246727,0.000858958694152534,-0.003170734504237771,0.9967333674430847,0.0,0.0,0.0,0.31000253558158875,2.777067184448242,5.215368747711182,-56.111080169677734,0
1496.7569999999996,-6.77099815220572e-05,-0.00016943069931585342,-5.587187115452252e-05,0.0,0.0,0.0,0.0,-0.002194755943492055,0.0008960998384281993,-0.00497090071439743,0.999512255191803,0.0,0.0,0.0,0.30872613191604614,2.7793591022491455,5.21488618850708,-55.880043029785156,0
1506.67,-9.56175645114854e-05,-0.00014832204033154994,-7.902306970208883e-05,0.0,0.0,0.0,0.0,-0.004557971376925707,0.0036504254676401615,-0.0013598366640508175,0.999337911605835,0.0,0.0,0.0,0.3078129291534424,2.7721447944641113,5.20638370513916,-55.714752197265625,0
1516.5789999999997,-4.475229434319772e-05,-0.0001474141754442826,-3.6581990570994094e-05,0.0,0.0,0.0,0.0,0.000994811300188303,0.0012502999743446708,0.0038640652783215046,1.0010194778442383,0.0,0.0,0.0,0.3059130609035492,2.7699661254882812,5.203965663909912,-55.370872497558594,0
1526.5,-6.670608854619786e-05,-0.00010751551599241793,-6.42355444142595e-05,0.0,0.0,0.0,0.0,-0.0044096047058701515,0.001453849021345377,0.0014447139110416174,1.0011402368545532,0.0,0.0,0.0,0.30560192465782166,2.774975538253784,5.196184158325195,-55.314552307128906,0
1536.4009999999998,-0.00013210314500611275,-0.00014547434693668038,-6.754269998054951e-05,0.0,0.0,0.0,0.0,-0.00011412629100959748,0.0023427484557032585,0.005282031837850809,0.9993302226066589,0.0,0.0,0.0,0.30553579330444336,2.7691733837127686,5.192329406738281,-55.302581787109375,0
1546.3199999999997,-0.00024451251374557614,-0.00019432684348430485,-0.00010372000542702153,0.0,0.0,0.0,0.0,-0.0006113257841207087,-0.0012824031291529536,-0.00263614091090858,0.9976833462715149,0.0,0.0,0.0,0.3062017858028412,2.76728892326355,5.173433780670166,-55.42313766479492,0
1556.2250000000004,-0.00024451251374557614,-0.00019432684348430485,-0.00010372000542702153,0.0,0.0,0.0,0.0,0.00321785151027143,0.003016545670107007,-4.247258766554296e-05,0.9986860156059265,0.0,0.0,0.0,0.3062017858028412,2.76728892326355,5.173433780670166,-55.42313766479492,0
1566.152,-0.0003547944943420589,-0.00019350381626281887,-0.00015513383550569415,0.0,0.0,0.0,0.0,0.003947287332266569,0.0035357107408344746,0.0019485119264572859,0.9986783266067505,0.0,0.0,0.0,0.3040121793746948,2.7597193717956543,5.156364917755127,-55.02680969238281,0
1576.0499999999993,-0.0003547944943420589,-0.00019350381626281887,-0.00015513383550569415,0.0,0.0,0.0,0.0,-0.0014515228103846312,-0.0018907275516539812,0.0033069599885493517,1.001065731048584,0.0,0.0,0.0,0.3040121793746948,2.7597193717956543,5.156364917755127,-55.02680969238281,0
1585.9840000000004,-0.00046875292900949717,-0.00018295348854735494,-0.00021928623027633876,0.0,0.0,0.0,0.0,0.0028774228412657976,0.0035986120346933603,-0.001653198036365211,0.998193085193634,0.0,0.0,0.0,0.3042058050632477,2.7505810260772705,5.145613193511963,-55.061851501464844,0
1595.8850000000002,-0.0001152853510575369,-0.0002040568069787696,-6.429125278373249e-06,0.0,0.0,0.0,0.0,-0.0011846296256408095,-0.0021792761981487274,-0.0012367083691060543,0.9993829131126404,0.0,0.0,0.0,0.3011944591999054,2.746926784515381,5.235496997833252,-54.51679992675781,0
1605.7929999999997,-0.00012496838462539017,-0.0001789319794625044,-5.14254134031944e-05,0.0,0.0,0.0,0.0,-0.0006386992754414678,-0.0020455773919820786,0.0026938593946397305,0.998843252658844,0.0,0.0,0.0,0.3007557690143585,2.7439842224121094,5.220322132110596,-54.43739700317383,0
1615.7080000000005,-9.344386489829049e-05,-0.00017487442528363317,-9.057270290213637e-06,0.0,0.0,0.0,0.0,0.004667309578508139,-0.0016633424675092101,0.0010533391032367945,0.9987969994544983,0.0,0.0,0.0,0.3011881709098816,2.74042010307312,5.226123332977295,-54.51565933227539,0
1625.616,-0.00014839941286481917,-0.0002118541015079245,-1.0825735444086604e-05,0.0,0.0,0.0,0.0,0.0004188115708529949,-0.0010321736335754395,-0.0025202103424817324,1.0009757280349731,0.0,0.0,0.0,0.3005664646625519,2.7355964183807373,5.220548629760742,-54.40312576293945,0
1635.5339999999997,-0.0001297401322517544,-0.00021341722458600998,1.258627435163362e-05,0.0,0.0,0.0,0.0,0.0032363603822886944,-0.0017218146240338683,0.0007987578283064067,1.0003420114517212,0.0,0.0,0.0,0.3004678189754486,2.7262613773345947,5.217899799346924,-54.38527297973633,0
1645.4400000000005,-8.461614197585732e-05,-0.000148675826494582,-0.0001217154276673682,0.0,0.0,0.0,0.0,0.0016174237243831158,0.002126205014064908,-0.002873973920941353,0.999174952507019,0.0,0.0,0.0,0.3060464560985565,2.7459630966186523,5.223049640655518,-55.395015716552734,0
1655.3500000000004,-6.037179264239967e-05,-0.0001509547291789204,-9.400829003425315e-05,0.0,0.0,0.0,0.0,0.0028517479076981544,0.003603393444791436,-0.0012577564921230078,0.9974521994590759,0.0,0.0,0.0,0.3063764274120331,2.737190008163452,5.2179155349731445,-55.454742431640625,0
1665.2659999999996,-0.00012170524860266596,-0.00018967717187479138,-0.0001011523199849762,0.0,0.0,0.0,0.0,0.00027856885571964085,-0.006194775924086571,0.0009471905650570989,0.9979469776153564,0.0,0.0,0.0,0.30672720074653625,2.7276973724365234,5.206550598144531,-55.51823043823242,0
1675.1749999999993,-0.0001872384746093303,-0.00023161918215919286,-0.00011032462498405948,0.0,0.0,0.0,0.0,0.0019545413088053465,0.003739645006135106,0.00020511999900918454,0.999542772769928,0.0,0.0,0.0,0.30635204911231995,2.7203590869903564,5.20359992980957,-55.4503288269043,0
1685.089,-0.00015128108498174697,-0.00013015243166591972,-0.0002367702400078997,0.0,0.0,0.0,0.0,0.00138176791369915,-0.0017041320679709315,-0.0006503372569568455,0.9984123706817627,0.0,0.0,0.0,0.30851316452026367,2.7528512477874756,5.218607425689697,-55.841495513916016,0
1695.0020000000004,-7.369175727944821e-05,-9.638143819756806e-05,-0.00016611743194516748,0.0,0.0,0.0,0.0,0.001317518763244152,0.001991076162084937,-0.0013324780156835914,0.9987164735794067,0.0,0.0,0.0,0.309082955121994,2.745776891708374,5.208987712860107,-55.94462966918945,0
1704.911,-0.00010419205500511453,-9.341429540654644e-05,-0.00021739992371294647,0.0,0.0,0.0,0.0,-0.0015202860813587904,-0.0006659332429990172,-0.0006511574611067772,1.0009396076202393,0.0,0.0,0.0,0.31031370162963867,2.7483527660369873,5.211956977844238,-56.167396545410156,0
1714.8250000000007,-0.00017020423547364771,-0.0001302419841522351,-0.00023450645676348358,0.0,0.0,0.0,0.0,0.0016822082689031959,0.0035245276521891356,-0.002590958261862397,0.9999140501022339,0.0,0.0,0.0,0.3100501298904419,2.7411954402923584,5.20760440826416,-56.119693756103516,0
1724.7389999999996,-0.00024117196153383702,-0.00016181357204914093,-0.0002437825023662299,0.0,0.0,0.0,0.0,0.002034322824329138,0.0017049964517354965,0.0015900564612820745,0.9964525103569031,0.0,0.0,0.0,0.31002578139305115,2.739285945892334,5.192451477050781,-56.11528015136719,0
1734.6530000000002,-9.029874490806833e-05,-0.00016700349806342274,-0.00013748816854786128,0.0,0.0,0.0,0.0,0.0007049445994198322,0.0006195747409947217,0.0005671664257533848,0.9956883192062378,0.0,0.0,0.0,0.3058664798736572,2.7420706748962402,5.224964618682861,-55.3624382019043,0
1744.5660000000007,-0.00011116775567643344,-0.0001674102240940556,-0.00019852253899443895,0.0,0.0,0.0,0.0,0.0025867982767522335,-0.0037370193749666214,-0.00017313531134277582,0.9981730580329895,0.0,0.0,0.0,0.3070800304412842,2.738978624343872,5.216223239898682,-55.582096099853516,0
1754.482,-0.00017897278303280473,-0.0002034424542216584,-0.00021570567332673818,0.0,0.0,0.0,0.0,-0.0016925500240176916,0.002710880246013403,-0.0024096753913909197,0.998291015625,0.0,0.0,0.0,0.3065221607685089,2.7352962493896484,5.207551956176758,-55.48112487792969,0
1764.3940000000002,-0.0002364031388424337,-0.00020275742281228304,-0.00024047121405601501,0.0,0.0,0.0,0.0,-0.0016493303701281548,0.0026579159311950207,0.000997725990600884,1.000877022743225,0.0,0.0,0.0,0.30649882555007935,2.7269680500030518,5.211292743682861,-55.476898193359375,0
1774.3050000000003,-4.432595960679464e-05,-0.0002481542469467968,-0.00014272551925387233,0.0,0.0,0.0,0.0,-0.0010111023439094424,-0.00093332480173558,-0.0003959642199333757,1.0000218152999878,0.0,0.0,0.0,0.30818626284599304,2.726245641708374,5.246530532836914,-55.78232955932617,0
1784.2240000000002,-7.722737063886598e-05,-0.00020465765555854887,-0.0001604976860107854,0.0,0.0,0.0,0.0,0.0019225102150812745,0.00045300601050257683,0.001708482624962926,1.0020008087158203,0.0,0.0,0.0,0.30819132924079895,2.7243897914886475,5.239158630371094,-55.78324508666992,0
1794.1350000000002,-0.00014247601211536676,-0.00024374487111344934,-0.00017162576841656119,0.0,0.0,0.0,0.0,-0.0006626207614317536,0.0010553537867963314,-0.0013006138615310192,1.0022944211959839,0.0,0.0,0.0,0.30774325132369995,2.7170302867889404,5.2237548828125,-55.7021369934082,0
1804.0460000000003,-0.00018059462308883667,-0.00019237323431298137,-0.0001904347591334954,0.0,0.0,0.0,0.0,-0.0010958794737234712,0.004082500468939543,0.001076024491339922,1.0016013383865356,0.0,0.0,0.0,0.30845969915390015,2.709059000015259,5.216385364532471,-55.83182144165039,0
1813.955,-7.425316289300099e-05,-0.0001866444799816236,-9.851392678683624e-05,0.0,0.0,0.0,0.0,-0.0018050010548904538,5.080143455415964e-05,-0.0019714522641152143,1.0010560750961304,0.0,0.0,0.0,0.3077563941478729,2.709174633026123,5.201617240905762,-55.70451736450195,0
1823.8709999999992,-0.0001549485750729218,-0.00020413163292687386,-7.550574082415551e-05,0.0,0.0,0.0,0.0,0.0027036620303988457,0.004257030785083771,-0.0028063813224434853,1.0007293224334717,0.0,0.0,0.0,0.31409692764282227,2.705836296081543,5.192587852478027,-56.8521728515625,0
1833.786,-0.00013065374514553696,-0.0002115763636538759,-2.3057422367855906e-05,0.0,0.0,0.0,0.0,0.0006489886436611414,0.0005913501954637468,0.0014256961876526475,1.0009936094284058,0.0,0.0,0.0,0.3134514093399048,2.702425718307495,5.1813645362854,-56.73532485961914,0
1843.6939999999995,-0.00016497538308613002,-0.0001825838116928935,-4.64034965261817e-05,0.0,0.0,0.0,0.0,0.0013756358530372381,0.0021911608055233955,0.0025525360833853483,1.0010862350463867,0.0,0.0,0.0,0.3130803406238556,2.6979997158050537,5.180300235748291,-56.66816329956055,0
1853.6039999999994,-0.00013849316746927798,-0.0001822209742385894,8.53985420690151e-06,0.0,0.0,0.0,0.0,0.0011876214994117618,0.0008379091159440577,-0.0009571866248734295,0.9985888600349426,0.0,0.0,0.0,0.3133894205093384,2.695305347442627,5.168212890625,-56.72410583496094,0
1863.5200000000004,-0.0001635755179449916,-0.00015340227400884032,-2.206217141065281e-05,0.0,0.0,0.0,0.0,0.0016457167221233249,-0.0018997864099219441,-0.0015374774811789393,0.9999721646308899,0.0,0.0,0.0,0.31338441371917725,2.6888461112976074,5.159461498260498,-56.723201751708984,0
1873.4300000000003,-0.00016946371761150658,-0.00012435909593477845,3.4483702620491385e-05,0.0,0.0,0.0,0.0,2.685238177946303e-05,0.0019036098383367062,-0.0004970753798261285,1.0000693798065186,0.0,0.0,0.0,0.31338295340538025,2.6761133670806885,5.1547675132751465,-56.722938537597656,0
1883.3410000000003,-0.00020262625184841454,-0.00011428924335632473,2.9311304388102144e-06,0.0,0.0,0.0,0.0,0.0012186744716018438,0.0031886266078799963,0.002882047789171338,1.0003712177276611,0.0,0.0,0.0,0.3135277032852173,2.6777985095977783,5.151110649108887,-56.7491340637207,0
1893.2559999999994,-0.0001800872851163149,-0.00013185381249058992,5.4393240134231746e-05,0.0,0.0,0.0,0.0,0.0018092446262016892,0.003004604484885931,0.0005949589540250599,1.001401662826538,0.0,0.0,0.0,0.31435370445251465,2.672905921936035,5.136891841888428,-56.898651123046875,0
1903.1820000000007,-0.0002034606586676091,-0.00012024144234601408,8.509829967806581e-06,0.0,0.0,0.0,0.0,0.00308593874797225,-7.926548732939409e-07,-0.001646653632633388,1.0000245571136475,0.0,0.0,0.0,0.314858615398407,2.6683945655822754,5.122552871704102,-56.99003982543945,0
1913.0779999999995,-0.00028327060863375664,-0.00016215560026466846,1.7842146917246282e-05,0.0,0.0,0.0,0.0,-0.0022737972903996706,0.0017592491349205375,-0.0007357600261457264,1.000852346420288,0.0,0.0,0.0,0.31543731689453125,2.6614418029785156,5.112533092498779,-57.094783782958984,0
1922.9899999999998,-0.0003658673958852887,-0.00020569292246364057,2.7576330467127264e-05,0.0,0.0,0.0,0.0,-0.002092144452035427,-0.0032274224795401096,-0.002125621074810624,0.9981914758682251,0.0,0.0,0.0,0.3148028552532196,2.6649858951568604,5.109462261199951,-56.97993850708008,0
1932.9099999999999,-0.00025814046966843307,-0.00020070243044756353,0.00013405510981101543,0.0,0.0,0.0,0.0,-0.0007202503620646894,-0.0016159514198079705,-0.002230260521173477,0.9989888072013855,0.0,0.0,0.0,0.3093675374984741,2.681129217147827,5.141587257385254,-55.99613952636719,0
1942.821,-0.00020236623822711408,-9.822235733736306e-05,-2.3383314328384586e-05,0.0,0.0,0.0,0.0,0.00043625335092656314,-0.0003639480273704976,-0.0012748773442581296,0.999634861946106,0.0,0.0,0.0,0.30847427248954773,2.680365800857544,5.13814640045166,-55.83445358276367,0
1952.7399999999998,-0.00028330355416983366,-0.0001342966133961454,-2.0879046132904477e-05,0.0,0.0,0.0,0.0,0.0007963967509567738,0.00039428501622751355,-0.0003787046007346362,0.9983654022216797,0.0,0.0,0.0,0.3084891736507416,2.674177646636963,5.145159721374512,-55.837158203125,0
1962.6419999999998,-0.0003682249807752669,-0.0001731130905682221,-1.9222165065002628e-05,0.0,0.0,0.0,0.0,0.0027272056322544813,-0.001545772305689752,0.0034569292329251766,0.9986818432807922,0.0,0.0,0.0,0.30834534764289856,2.6721155643463135,5.135890960693359,-55.81112289428711,0
1972.554,-0.00020202124142087996,-0.00023243663599714637,7.51201732782647e-05,0.0,0.0,0.0,0.0,-0.0006201115902513266,-0.0006584186921827495,0.0007351659587584436,0.9999434947967529,0.0,0.0,0.0,0.30689990520477295,2.666456937789917,5.181711196899414,-55.549495697021484,0
1982.4699999999993,-0.00015296562924049795,-0.00011919029930140823,-8.042270928854123e-05,0.0,0.0,0.0,0.0,-0.00036085513420403004,0.0015252346638590097,0.003787371562793851,0.9982556104660034,0.0,0.0,0.0,0.31185048818588257,2.7026946544647217,5.19255256652832,-56.445552825927734,0
1992.3780000000006,-0.0002275610459037125,-0.00015510310186073184,-8.657275611767545e-05,0.0,0.0,0.0,0.0,-0.0028761608991771936,-0.0022403679322451353,-0.00016534443420823663,1.0007710456848145,0.0,0.0,0.0,0.3124072551727295,2.701577663421631,5.183826446533203,-56.54633331298828,0
2002.295,-0.00026883071404881775,-0.00012994161807000637,-0.00013157300418242812,0.0,0.0,0.0,0.0,-0.0021741536911576986,0.0005743411020375788,0.0021042474545538425,0.998976469039917,0.0,0.0,0.0,0.31128641963005066,2.699218273162842,5.1776814460754395,-56.34346008300781,0
2012.2070000000003,-0.0001328752696281299,-0.00018248222477268428,-4.523697498370893e-05,0.0,0.0,0.0,0.0,-0.0006638173945248127,-0.0010860275942832232,0.0006692863535135984,0.9982195496559143,0.0,0.0,0.0,0.31138017773628235,2.696685552597046,5.204528331756592,-56.36043167114258,0
2022.116,-0.00016961409710347652,-0.00014987154281698167,-7.343004108406603e-05,0.0,0.0,0.0,0.0,0.0020492044277489185,0.0018729891162365675,-0.0010450733825564384,0.9995455741882324,0.0,0.0,0.0,0.31120970845222473,2.700493097305298,5.2063751220703125,-56.32957458496094,0
2032.0370000000003,-0.00011480835382826626,-0.0001959685905603692,-4.3107040255563334e-05,0.0,0.0,0.0,0.0,-0.00038654342642985284,-0.00033033694489859045,0.002455092268064618,1.0006078481674194,0.0,0.0,0.0,0.310403436422348,2.695574998855591,5.195327281951904,-56.18363571166992,0
2041.9529999999995,-0.00011664743215078488,-0.00015639852790627629,-0.00011967297905357555,0.0,0.0,0.0,0.0,0.002610738854855299,-0.00070166279328987,0.0025270225014537573,0.9992591738700867,0.0,0.0,0.0,0.3105243444442749,2.689066171646118,5.187998294830322,-56.20552444458008,0
2051.861000000001,-0.00018933857791125774,-0.0001936146290972829,-0.00012830999912694097,0.0,0.0,0.0,0.0,0.0009637649636715651,0.00022866523067932576,-0.0005689231329597533,1.0001775026321411,0.0,0.0,0.0,0.31038758158683777,2.683473587036133,5.187386989593506,-56.18077087402344,0
2061.7649999999994,-0.00024221287458203733,-0.00018980693130288273,-0.00015524392074439675,0.0,0.0,0.0,0.0,0.0024598201271146536,0.0017299327300861478,0.00022470943804364651,1.0004003047943115,0.0,0.0,0.0,0.31033995747566223,2.6778500080108643,5.189085006713867,-56.172149658203125,0
2071.6749999999993,-0.00031947530806064606,-0.00022937804169487208,-0.00016520674398634583,0.0,0.0,0.0,0.0,0.0005940480041317642,-0.0011421339586377144,0.0015882260631769896,0.9984402060508728,0.0,0.0,0.0,0.30965131521224976,2.674395799636841,5.177836894989014,-56.04750061035156,0
2081.5910000000003,-0.0004000478656962514,-0.00027112444513477385,-0.00017520888650324196,0.0,0.0,0.0,0.0,-0.002504855627194047,-0.003956547472625971,-0.00012572943523991853,0.9976136684417725,0.0,0.0,0.0,0.3096228241920471,2.672600269317627,5.1687211990356445,-56.0423469543457,0
2091.5,-0.00048342905938625336,-0.00031488511012867093,-0.00018651642312761396,0.0,0.0,0.0,0.0,-0.00017404535901732743,-0.0010646672453731298,-0.00196692137978971,0.9988978505134583,0.0,0.0,0.0,0.3094765245914459,2.666517496109009,5.172353744506836,-56.01586151123047,0
2101.415000000001,-0.0005044722929596901,-0.00022975285537540913,-0.00026598075055517256,0.0,0.0,0.0,0.0,-0.0009743075352162123,0.0023073910269886255,0.0014671728713437915,1.0007848739624023,0.0,0.0,0.0,0.3077501356601715,2.7009758949279785,5.193850040435791,-55.70338439941406,0
2111.3330000000005,-0.0005873090703971684,-0.0002702044148463756,-0.00028476957231760025,0.0,0.0,0.0,0.0,-0.0013536507030948997,-0.0042880624532699585,0.002353029092773795,1.0012239217758179,0.0,0.0,0.0,0.30776283144950867,2.702852964401245,5.194209575653076,-55.705684661865234,0
