timestamp,stateEstimate.x,stateEstimate.y,stateEstimate.z,controller.cmd_thrust,controller.cmd_roll,controller.cmd_pitch,controller.cmd_yaw,controller.r_roll,controller.r_pitch,controller.r_yaw,controller.accelz,controller.actuatorThrust,controller.roll,controller.pitch,controller.yaw,controller.rollRate,controller.pitchRate,controller.yawRate,controller.ctr_yaw
0.0,-0.0006111310212872922,-0.0005802272935397923,0.0008956125820986927,0.0,0.0,0.0,0.0,-0.0011361303040757775,-0.0022187938448041677,-0.0014472845941781998,0.9992091059684753,0.0,0.0,0.0,0.2645745575428009,2.933655023574829,5.696987152099609,-47.88852310180664,0
9.911000000000058,-0.0002758779446594417,-0.00021991315588820726,-0.00010171908070333302,0.0,0.0,0.0,0.0,-0.002524508163332939,-0.0022047292441129684,0.0038212547078728676,0.996375560760498,0.0,0.0,0.0,0.26299020648002625,3.006570339202881,5.764668941497803,-47.60175323486328,0
19.81500000000051,-0.00016033653810154647,-0.00024462322471663356,-4.956168049830012e-05,0.0,0.0,0.0,0.0,-0.004666137974709272,3.48714274878148e-05,-0.001149776391685009,0.9988404512405396,0.0,0.0,0.0,0.2633722722530365,3.0060348510742188,5.759394645690918,-47.67090606689453,0
29.739000000001397,-8.74442484928295e-05,-0.00012518973380792886,-0.0001981171953957528,0.0,0.0,0.0,0.0,0.0008624018519185483,0.002106086350977421,-0.00012435548705980182,1.000433087348938,0.0,0.0,0.0,0.2733781039714813,3.0299341678619385,5.768411159515381,-49.48197937011719,0
39.64000000000124,-1.4848885257379152e-05,-0.00013665789447259158,-0.00017565763846505433,0.0,0.0,0.0,0.0,-0.0021186750382184982,0.004560810048133135,0.00028208212461322546,0.998812198638916,0.0,0.0,0.0,0.2728019058704376,3.0291736125946045,5.7597455978393555,-49.377685546875,0
49.560999999999694,-9.011152542370837e-06,-8.176968549378216e-05,-0.00021478088456206024,0.0,0.0,0.0,0.0,-0.00124428141862154,-0.0017622053856030107,0.0060149203054606915,0.9968129396438599,0.0,0.0,0.0,0.28089144825935364,3.0380332469940186,5.746399879455566,-50.84191131591797,0
59.465000000000146,-1.45619433169486e-05,-0.00011957251990679651,-0.0002245526557089761,0.0,0.0,0.0,0.0,-0.0006840177811682224,0.0007951024454087019,0.00010528434359002858,0.9978811740875244,0.0,0.0,0.0,0.2815120220184326,3.0388119220733643,5.7470927238464355,-50.9542350769043,0
69.39099999999962,-2.6215357138426043e-05,-8.397596684517339e-05,-0.0002504276344552636,0.0,0.0,0.0,0.0,-3.7749756302218884e-05,-0.002441671909764409,-0.0014493943890556693,0.998021125793457,0.0,0.0,0.0,0.28147053718566895,3.041118860244751,5.735177993774414,-50.94672775268555,0
79.29100000000108,-4.503647141973488e-05,-6.67962885927409e-05,-0.00024635219597257674,0.0,0.0,0.0,0.0,0.0002385737025178969,0.0008732345304451883,0.0014797636540606618,0.9978910088539124,0.0,0.0,0.0,0.2810768485069275,3.047441005706787,5.737960338592529,-50.87546920776367,0
89.21299999999974,-8.515935041941702e-05,-8.837280620355159e-05,-0.000261603738181293,0.0,0.0,0.0,0.0,-0.004206783603876829,-0.003495763288810849,-0.0015759915113449097,0.9973860383033752,0.0,0.0,0.0,0.2812761068344116,3.0454318523406982,5.728698253631592,-50.91153335571289,0
99.1180000000004,-3.071970058954321e-05,-9.095718996832147e-05,-0.00025910825934261084,0.0,0.0,0.0,0.0,0.0016133437165990472,0.00453160610049963,0.005174165591597557,0.9981010556221008,0.0,0.0,0.0,0.2806270718574524,3.0497353076934814,5.733542442321777,-50.7940559387207,0
109.05299999999988,-8.82109598023817e-05,-7.735045801382512e-05,-0.0002447953156661242,0.0,0.0,0.0,0.0,0.001184983178973198,-0.0010298719862475991,-0.0007505042012780905,0.9971997141838074,0.0,0.0,0.0,0.29196515679359436,3.05075740814209,5.7123823165893555,-52.84627151489258,0
118.94000000000051,-7.09979358362034e-05,-6.644964014412835e-05,-0.00023262783361133188,0.0,0.0,0.0,0.0,0.0034224919509142637,0.0010838642483577132,-1.590762440173421e-05,0.9981257319450378,0.0,0.0,0.0,0.2914639413356781,3.0460846424102783,5.708632946014404,-52.75555419921875,0
128.85900000000038,-0.0001317032874794677,-9.084899647859856e-05,-0.00023817077453713864,0.0,0.0,0.0,0.0,0.001429133815690875,0.001142461085692048,0.0009724200936034322,0.9997212290763855,0.0,0.0,0.0,0.2965798079967499,3.0392653942108154,5.6916093826293945,-53.68153762817383,0
138.76400000000103,-9.092439722735435e-05,-9.44075727602467e-05,-0.0002206339850090444,0.0,0.0,0.0,0.0,0.002516351407393813,-0.0049813236109912395,3.7441270251292735e-05,1.0005755424499512,0.0,0.0,0.0,0.29656335711479187,3.0367369651794434,5.688363075256348,-53.678558349609375,0
148.70000000000073,-0.00018371814803685993,-0.00014104839647188783,-0.00018872515647672117,0.0,0.0,0.0,0.0,0.001737258629873395,-0.005308930762112141,0.0014958693645894527,0.9978019595146179,0.0,0.0,0.0,0.2961076498031616,3.0296120643615723,5.688551902770996,-53.596073150634766,0
158.58899999999994,-7.820536848157644e-05,-0.00015270651783794165,-0.00014847313286736608,0.0,0.0,0.0,0.0,0.0026726173236966133,-0.002817274536937475,0.002418078714981675,0.9966540336608887,0.0,0.0,0.0,0.2957562804222107,3.024245262145996,5.690544605255127,-53.532470703125,0
168.52100000000064,-0.00018545266357250512,-0.0001922321825986728,-9.184588998323306e-05,0.0,0.0,0.0,0.0,-0.0010678506223484874,0.0036861314438283443,-0.0009010962676256895,0.9989666938781738,0.0,0.0,0.0,0.2903953492641449,3.019540309906006,5.6871018409729,-52.562129974365234,0
178.41600000000108,-0.00013056759780738503,-0.00018780890968628228,-5.51389493921306e-05,0.0,0.0,0.0,0.0,-0.0027540740557014942,-0.0012757641961798072,0.002081099431961775,0.9997099041938782,0.0,0.0,0.0,0.28941047191619873,3.0213868618011475,5.672902584075928,-52.383872985839844,0
188.34000000000015,-0.00012773596972692758,-0.00012151419650763273,-0.00011659190204227343,0.0,0.0,0.0,0.0,-0.0026937308721244335,-0.003339964197948575,0.005784578621387482,0.9978189468383789,0.0,0.0,0.0,0.29504916071891785,3.0430634021759033,5.677088737487793,-53.404483795166016,0
198.2390000000014,-0.00012390993651933968,-0.00010152514005312696,-9.39139281399548e-05,0.0,0.0,0.0,0.0,0.002759455470368266,0.0035628145560622215,0.002688427921384573,0.9975999593734741,0.0,0.0,0.0,0.29552608728408813,3.040520668029785,5.676877498626709,-53.490806579589844,0
208.15899999999965,-0.0001902449585031718,-0.00011012928007403389,-9.591210255166516e-05,0.0,0.0,0.0,0.0,-0.0019670501351356506,-0.00043493686825968325,-0.001119521795772016,0.9990592002868652,0.0,0.0,0.0,0.3034482002258301,3.0375804901123047,5.660742282867432,-54.92472839355469,0
218.0640000000003,-0.00013556645717471838,-0.00017481861868873239,-8.520013943780214e-05,0.0,0.0,0.0,0.0,-0.0008058574749156833,-0.0036442535929381847,0.00020141832646913826,1.0003471374511719,0.0,0.0,0.0,0.30240002274513245,3.036778688430786,5.65189790725708,-54.73500442504883,0
227.9860000000008,-0.00021563426707871258,-0.00019152552704326808,-8.182378223864362e-05,0.0,0.0,0.0,0.0,5.441152097773738e-05,-0.0005969617050141096,0.0011953472858294845,1.0010133981704712,0.0,0.0,0.0,0.3015006184577942,3.0332391262054443,5.6481451988220215,-54.57221221923828,0
237.88900000000103,-0.000132888148073107,-0.0002096543030347675,-4.0827460907166824e-05,0.0,0.0,0.0,0.0,0.0013897665776312351,0.001132693258114159,0.0011798827908933163,0.9979425072669983,0.0,0.0,0.0,0.3015252351760864,3.02909779548645,5.636627674102783,-54.576663970947266,0
247.8109999999997,-0.0001936267362907529,-0.00022092892322689295,-5.3163079428486526e-05,0.0,0.0,0.0,0.0,-0.0010403920896351337,-0.000720367708709091,0.0034746744204312563,0.9980798363685608,0.0,0.0,0.0,0.30193662643432617,3.025017023086548,5.630359649658203,-54.651126861572266,0
257.71299999999974,-0.00017200069851242006,-0.0002381885569775477,-2.525185300328303e-05,0.0,0.0,0.0,0.0,0.0007029850385151803,-0.002911417977884412,0.0018224832601845264,0.999239444732666,0.0,0.0,0.0,0.30264875292778015,3.0274596214294434,5.628796100616455,-54.780025482177734,0
267.6329999999998,-0.00024430177290923893,-0.00027182037592865527,-3.1949341064319015e-05,0.0,0.0,0.0,0.0,0.00017332106654066592,-0.00223136181011796,0.0029812275897711515,0.9993436932563782,0.0,0.0,0.0,0.30251821875572205,3.023416519165039,5.630370616912842,-54.756404876708984,0
277.5460000000003,-0.00022309075575321913,-0.00020299905736465007,3.3022238312696572e-06,0.0,0.0,0.0,0.0,0.0022885557264089584,0.0022527130786329508,-0.005261714104562998,1.000854253768921,0.0,0.0,0.0,0.3026680648326874,3.0207667350769043,5.622622489929199,-54.78352737426758,0
287.46100000000115,-0.0002615252451505512,-0.0001873344008345157,-4.5259286707732826e-05,0.0,0.0,0.0,0.0,-0.0021844101138412952,0.002632387448102236,-0.0018147861119359732,0.9987223744392395,0.0,0.0,0.0,0.30029532313346863,3.016684055328369,5.614396095275879,-54.35405349731445,0
297.3680000000004,-0.00019390987290535122,-0.00015359686221927404,9.926945494953543e-06,0.0,0.0,0.0,0.0,0.0010111916344612837,-0.001176579506136477,-0.0004209515464026481,0.998019814491272,0.0,0.0,0.0,0.2992335557937622,3.0171854496002197,5.604685306549072,-54.16187286376953,0
307.28300000000127,-0.0002519944100640714,-0.00014522840501740575,-3.901566287822789e-06,0.0,0.0,0.0,0.0,0.003562090452760458,0.0033005881123244762,0.0018395596416667104,1.0003416538238525,0.0,0.0,0.0,0.29851609468460083,3.0096070766448975,5.608407974243164,-54.03200912475586,0
317.1930000000011,-0.0001982040994334966,-0.00017367165128234774,3.299664240330458e-05,0.0,0.0,0.0,0.0,0.00018951593665406108,-0.0003846735053230077,0.0005877012154087424,1.0001577138900757,0.0,0.0,0.0,0.29864993691444397,2.9994325637817383,5.59431266784668,-54.056236267089844,0
327.1110000000008,-0.0002115181996487081,-0.00013820997264701873,-3.5690936783794314e-05,0.0,0.0,0.0,0.0,-0.001086619682610035,-0.0007087393896654248,0.000341544218827039,0.9982419610023499,0.0,0.0,0.0,0.2987062335014343,2.9979100227355957,5.58798885345459,-54.06642150878906,0
337.0120000000006,-0.00020237539138179272,-0.00014989339979365468,-7.298035598068964e-06,0.0,0.0,0.0,0.0,0.003081534756347537,1.797469303710386e-05,-0.0012545482022687793,0.9964736700057983,0.0,0.0,0.0,0.29958420991897583,2.9955530166625977,5.589687347412109,-54.225337982177734,0
346.9320000000007,-0.00021354929776862264,-9.539170423522592e-05,-9.255579061573371e-05,0.0,0.0,0.0,0.0,-0.00028528698021546006,0.003657703287899494,-0.002289649797603488,0.9989892244338989,0.0,0.0,0.0,0.29283595085144043,3.000688314437866,5.592368125915527,-53.00389099121094,0
356.83700000000135,-0.0002951103379018605,-0.00012542842887341976,-0.00010686140012694523,0.0,0.0,0.0,0.0,-0.0009892559610307217,-0.0032226964831352234,0.00039700997876934707,1.0005340576171875,0.0,0.0,0.0,0.2920801341533661,2.998917579650879,5.5842719078063965,-52.86708068847656,0
366.759,-0.0003780940896831453,-0.00015621105558238924,-0.00012140592298237607,0.0,0.0,0.0,0.0,-0.005374698434025049,0.0021197786554694176,0.002628352027386427,0.9996973276138306,0.0,0.0,0.0,0.29251760244369507,2.99580979347229,5.591947555541992,-52.94626235961914,0
376.66200000000026,-0.00020632162340916693,-0.00021889968775212765,-5.211634925217368e-05,0.0,0.0,0.0,0.0,0.0018349000019952655,0.0006883483729325235,0.0023594130761921406,0.9996172785758972,0.0,0.0,0.0,0.28901785612106323,2.991140842437744,5.634248733520508,-52.31281280517578,0
386.58200000000033,-0.0002131772052962333,-0.0001610709587112069,-0.00014016863133292645,0.0,0.0,0.0,0.0,-0.004823619499802589,0.0006326204747892916,0.003638902911916375,0.9999620318412781,0.0,0.0,0.0,0.289405882358551,2.9780333042144775,5.622843265533447,-52.3830451965332,0
396.4899999999998,-0.00014288377133198082,-0.0001986423449125141,-0.0001086102201952599,0.0,0.0,0.0,0.0,0.00017702035256661475,-0.00022641397663392127,-0.0037014263216406107,0.99940025806427,0.0,0.0,0.0,0.2910434603691101,2.9827630519866943,5.612557411193848,-52.67945098876953,0
406.41100000000006,-0.00019041652558371425,-0.00018341907707508653,-0.0001444089284632355,0.0,0.0,0.0,0.0,0.0030977788846939802,0.0027798691298812628,-0.003060924354940653,1.000813364982605,0.0,0.0,0.0,0.2900896370410919,2.9789748191833496,5.59652853012085,-52.506805419921875,0
416.3180000000011,-0.0001460941566620022,-0.00020156599930487573,-0.00011440588423283771,0.0,0.0,0.0,0.0,-0.0025542827788740396,0.003697779728099704,0.0013162530958652496,0.9998325109481812,0.0,0.0,0.0,0.288711816072464,2.9669318199157715,5.585830211639404,-52.257408142089844,0
426.23199999999997,-0.0001726269256323576,-0.0001478890480939299,-0.0001626971352379769,0.0,0.0,0.0,0.0,-0.00014448942965827882,0.0023163899313658476,-0.0017574831144884229,0.9984405636787415,0.0,0.0,0.0,0.2886813282966614,2.97209095954895,5.575101375579834,-52.251888275146484,0
436.14500000000044,-0.00013374579430092126,-0.00017846847185865045,-0.00014056269719731063,0.0,0.0,0.0,0.0,-0.0006879302090965211,-0.0002549494674894959,-0.0020137394312769175,0.9978659152984619,0.0,0.0,0.0,0.2879013121128082,2.971054792404175,5.571059703826904,-52.110713958740234,0
446.0529999999999,-0.0001900919305626303,-0.00016419078747276217,-0.00016895153385121375,0.0,0.0,0.0,0.0,-0.001181799452751875,-0.0031388653442263603,-0.0012067141942679882,0.9986781477928162,0.0,0.0,0.0,0.2863557040691376,2.970473527908325,5.5570478439331055,-51.83095169067383,0
455.96299999999974,-0.00014218405704014003,-0.00017782369104679674,-0.00013754938845522702,0.0,0.0,0.0,0.0,0.001272676046937704,-0.005553892347961664,0.0015980866737663746,0.9987122416496277,0.0,0.0,0.0,0.2853509485721588,2.9695560932159424,5.552848815917969,-51.649085998535156,0
465.875,-0.00019794923719018698,-0.00018218447803519666,-0.00018187540990766138,0.0,0.0,0.0,0.0,-0.0017989609623327851,-0.0046613784506917,-0.001583961071446538,0.9993818402290344,0.0,0.0,0.0,0.286042720079422,2.9672093391418457,5.563709735870361,-51.77429962158203,0
475.78600000000006,-0.00014678765728604048,-0.0001966615382116288,-0.00014948805619496852,0.0,0.0,0.0,0.0,9.061260061571375e-05,0.002635482233017683,-0.00499090226367116,0.9993182420730591,0.0,0.0,0.0,0.2844587564468384,2.968782663345337,5.560159206390381,-51.48759841918945,0
485.70200000000114,-0.00019369536312296987,-0.00015444801829289645,-0.00019014674762729555,0.0,0.0,0.0,0.0,-0.0005655023851431906,0.00041067833080887794,0.005119701847434044,0.9986387491226196,0.0,0.0,0.0,0.2828327715396881,2.9653003215789795,5.543911457061768,-51.19329071044922,0
495.6170000000002,-0.00012999793398194015,-0.0001644793665036559,-0.0001508362329332158,0.0,0.0,0.0,0.0,-0.0020143536385148764,-0.002623266540467739,-4.109437213628553e-05,0.9990995526313782,0.0,0.0,0.0,0.28411969542503357,2.9590795040130615,5.538713455200195,-51.426231384277344,0
505.53600000000006,-0.00021865441522095352,-0.0001891634165076539,-0.00016297971887979656,0.0,0.0,0.0,0.0,0.0017225835472345352,0.003080247435718775,-0.002911612391471863,1.0003252029418945,0.0,0.0,0.0,0.2841242849826813,2.958566427230835,5.540696620941162,-51.427059173583984,0
515.4430000000011,-0.00019510768470354378,-0.0001382156478939578,-0.00013781082816421986,0.0,0.0,0.0,0.0,0.000972426263615489,-0.0021272923331707716,-3.874967296724208e-05,1.0003966093063354,0.0,0.0,0.0,0.28362753987312317,2.9522013664245605,5.520371913909912,-51.337154388427734,0
525.3490000000002,-0.00026195342070423067,-0.00013207846495788544,-0.00018193869618698955,0.0,0.0,0.0,0.0,-0.0007323780446313322,-0.00030646700179204345,-0.0017566235037520528,1.0004531145095825,0.0,0.0,0.0,0.2897779941558838,2.951154947280884,5.522645950317383,-52.45039367675781,0
535.2690000000002,-0.00019628545851446688,-0.00013589317677542567,-0.00013736197433900088,0.0,0.0,0.0,0.0,0.0020250193774700165,0.0036210559774190187,-0.0012773817870765924,0.9991052746772766,0.0,0.0,0.0,0.2887582778930664,2.9494221210479736,5.517160415649414,-52.26581954956055,0
545.1730000000007,-0.00021557259606197476,-7.580668898299336e-05,-0.0002181088348152116,0.0,0.0,0.0,0.0,0.0018579319585114717,-3.6888352497044252e-06,-0.00012892569066025317,0.9998631477355957,0.0,0.0,0.0,0.29892870783805847,2.9559807777404785,5.516911506652832,-54.106689453125,0
555.0930000000008,-0.00015916553093120456,-9.91547349258326e-05,-0.00018364135758019984,0.0,0.0,0.0,0.0,-0.0009319563396275043,0.0069724214263260365,-0.004592230077832937,1.0015084743499756,0.0,0.0,0.0,0.2987397313117981,2.9521684646606445,5.518510818481445,-54.072486877441406,0
564.9980000000014,-0.00017994167865253985,-6.365140143316239e-05,-0.0002673356793820858,0.0,0.0,0.0,0.0,-0.0013056483585387468,-0.003096905304118991,-0.0009450719808228314,0.9993079900741577,0.0,0.0,0.0,0.29097288846969604,2.9650931358337402,5.506899356842041,-52.66667175292969,0
574.9210000000003,-9.355186921311542e-05,-0.00010402939369669184,-0.00023639436403755099,0.0,0.0,0.0,0.0,-0.0011411726009100676,-0.000786479446105659,-0.0018372565973550081,0.9984290599822998,0.0,0.0,0.0,0.2907867729663849,2.9646220207214355,5.509647369384766,-52.63298416137695,0
584.8299999999999,-0.00013984451652504504,-9.895432594930753e-05,-0.000295834441203624,0.0,0.0,0.0,0.0,0.0030955031979829073,0.0030669202096760273,-0.001907742116600275,0.9980474710464478,0.0,0.0,0.0,0.29026156663894653,2.9613893032073975,5.503880500793457,-52.53792190551758,0
594.7540000000008,-0.00010621652472764254,-0.000125777893117629,-0.0002749267441686243,0.0,0.0,0.0,0.0,0.0007188811432570219,0.0009152779239229858,-0.0015429886989295483,0.9977952241897583,0.0,0.0,0.0,0.2895716428756714,2.9553728103637695,5.49556827545166,-52.41304397583008,0
604.652,-0.00019093493756372482,-0.0001097200729418546,-0.00028183305403217673,0.0,0.0,0.0,0.0,0.0025522992946207523,-0.0027912992518395185,0.00010512414883123711,0.9976106286048889,0.0,0.0,0.0,0.28189966082572937,2.959853172302246,5.48720645904541,-51.0244026184082,0
614.5680000000011,-0.00018290321168024093,-0.00010128991561941803,-0.0002607656060718,0.0,0.0,0.0,0.0,0.002035774989053607,0.00010797381401062012,-0.0012933327816426754,0.9997684955596924,0.0,0.0,0.0,0.2810308337211609,2.9559404850006104,5.487429618835449,-50.86713790893555,0
624.4740000000002,-4.8502963181817904e-05,-9.170650446321815e-05,-0.00020413316087797284,0.0,0.0,0.0,0.0,-0.000989131978712976,-0.0013488000258803368,-0.00394063163548708,0.9999681711196899,0.0,0.0,0.0,0.27988192439079285,2.9490556716918945,5.47502326965332,-50.659183502197266,0
634.393,-0.0001391380064887926,-0.00011572681250981987,-0.0002143275341950357,0.0,0.0,0.0,0.0,-4.6228011342464015e-05,0.005522636696696281,-0.0020934653002768755,0.9991805553436279,0.0,0.0,0.0,0.2785192131996155,2.946885585784912,5.4722819328308105,-50.412532806396484,0
644.2990000000009,-0.0002768558915704489,-0.0001484295935370028,-0.00016781545127741992,0.0,0.0,0.0,0.0,-0.001269916887395084,0.0011417929781600833,0.00021848488540854305,0.9999769330024719,0.0,0.0,0.0,0.2854156792163849,2.9414806365966797,5.454541206359863,-51.66080856323242,0
654.219000000001,-0.0001648491306696087,-0.00018311277381144464,-0.00011429952428443357,0.0,0.0,0.0,0.0,-0.00023658321879338473,0.00566732045263052,0.0027598119340837,1.0002034902572632,0.0,0.0,0.0,0.28532645106315613,2.936041831970215,5.4506516456604,-51.64466094970703,0
664.1370000000006,-8.156010153470561e-05,-0.00017257138097193092,-5.697802407667041e-05,0.0,0.0,0.0,0.0,0.003071004990488291,-0.0016609489684924483,-0.0012206482933834195,0.9992203116416931,0.0,0.0,0.0,0.2850160002708435,2.9364161491394043,5.432178974151611,-51.58845901489258,0
674.0429999999997,-0.00017333563300780952,-0.0001978994841920212,-5.535862874239683e-05,0.0,0.0,0.0,0.0,0.00022785342298448086,0.00439418712630868,0.00013512495206668973,0.9992497563362122,0.0,0.0,0.0,0.2845660150051117,2.9277267456054688,5.433098316192627,-51.507015228271484,0
683.9539999999997,-8.764315134612843e-05,-0.00016031037375796586,8.312652425956912e-06,0.0,0.0,0.0,0.0,0.0026337953750044107,0.0017910125898197293,-0.0008117870893329382,0.9991211295127869,0.0,0.0,0.0,0.2910841405391693,2.9263699054718018,5.41837739944458,-52.68681335449219,0
693.8760000000002,-0.00018065882613882422,-0.00018787501903716475,1.321059426118154e-05,0.0,0.0,0.0,0.0,-0.00429330812767148,-0.0016626244178041816,0.0021643296349793673,0.9999827146530151,0.0,0.0,0.0,0.2904285192489624,2.915893077850342,5.412148475646973,-52.568138122558594,0
703.7740000000013,-0.00012101572065148503,-0.00017876016499940306,3.0366985811269842e-05,0.0,0.0,0.0,0.0,0.0033941087312996387,-0.001904351869598031,0.0023260870948433876,1.0002994537353516,0.0,0.0,0.0,0.29912421107292175,2.9264400005340576,5.418013095855713,-54.14208221435547,0
713.6959999999999,-0.00021557406580541283,-0.00020837313786614686,3.6278383049648255e-05,0.0,0.0,0.0,0.0,-0.0016078413464128971,-0.0021105462219566107,-0.0006200004136189818,0.9984651803970337,0.0,0.0,0.0,0.2993842363357544,2.916243314743042,5.4223737716674805,-54.189144134521484,0
723.6050000000014,-0.00012664390669669956,-0.00020863907411694527,5.3035011660540476e-05,0.0,0.0,0.0,0.0,-0.0013188826851546764,0.0004086640547029674,0.0015212602447718382,1.0016366243362427,0.0,0.0,0.0,0.2983633279800415,2.920168876647949,5.423318386077881,-54.00435256958008,0
733.523000000001,-0.0002228875528089702,-0.0002392683527432382,5.9905611124122515e-05,0.0,0.0,0.0,0.0,0.003203647444024682,-0.003903056262061,-0.0005847581778652966,0.999567449092865,0.0,0.0,0.0,0.2979391813278198,2.923055410385132,5.423753261566162,-53.92758560180664,0
743.4250000000011,-0.0001523896644357592,-0.00018103254842571914,5.243336272542365e-05,0.0,0.0,0.0,0.0,-0.001723151421174407,-0.00062262371648103,0.0016055356245487928,0.9968917369842529,0.0,0.0,0.0,0.2965933680534363,2.912865400314331,5.424238204956055,-53.683990478515625,0
753.348,-0.00024981811293400824,-0.00021178819588385522,5.8305060520069674e-05,0.0,0.0,0.0,0.0,0.0005460579413920641,-0.002144802827388048,0.0032037729397416115,0.998138964176178,0.0,0.0,0.0,0.29574552178382874,2.912557601928711,5.412827014923096,-53.5305290222168,0
763.2530000000006,-0.00015011162031441927,-0.0001459469203837216,1.55090765474597e-05,0.0,0.0,0.0,0.0,0.0014055230421945453,0.004063040018081665,-0.0006528644007630646,0.9991452693939209,0.0,0.0,0.0,0.29509997367858887,2.9047799110412598,5.408397197723389,-53.41368103027344,0
773.1720000000005,-0.00025078465114347637,-0.00017842993838712573,1.4817336705164053e-05,0.0,0.0,0.0,0.0,0.00064459367422387,0.0018224776722490788,0.005647710058838129,0.9969531893730164,0.0,0.0,0.0,0.2943178117275238,2.9008474349975586,5.398298740386963,-53.27210998535156,0
783.0709999999999,-0.00013307844346854836,-0.00015015352983027697,3.4850141673814505e-05,0.0,0.0,0.0,0.0,-0.0019355310359969735,-0.005224309395998716,-0.0046035656705498695,0.9984754920005798,0.0,0.0,0.0,0.2953107953071594,2.8930633068084717,5.389608383178711,-53.45184326171875,0
792.991,-0.00023183570010587573,-0.00018266987171955407,3.2420379284303635e-05,0.0,0.0,0.0,0.0,0.0019280276028439403,0.0006687347777187824,-0.004544141236692667,0.9997022151947021,0.0,0.0,0.0,0.2937685251235962,2.896979808807373,5.39514684677124,-53.172691345214844,0
802.8960000000006,-0.00011442800314398482,-9.832673094933853e-05,-1.5968847947078757e-05,0.0,0.0,0.0,0.0,-0.0015679497737437487,-0.004595375619828701,-3.9928923797560856e-05,0.9999800324440002,0.0,0.0,0.0,0.3000086545944214,2.9107937812805176,5.40396785736084,-54.302162170410156,0
812.8330000000005,-0.00020981115812901407,-0.00012872047955170274,-2.2409554730984382e-05,0.0,0.0,0.0,0.0,-0.002032102318480611,-0.0004995940835215151,-0.0012434824602678418,1.0004991292953491,0.0,0.0,0.0,0.29878634214401245,2.911313533782959,5.405861854553223,-54.0809211730957,0
822.7210000000014,-6.966453656787053e-05,-8.73760727699846e-05,-0.00013305179891176522,0.0,0.0,0.0,0.0,0.002156076254323125,0.002596458652988076,-0.0039846147410571575,1.0003092288970947,0.0,0.0,0.0,0.29097241163253784,2.9339747428894043,5.42680025100708,-52.666587829589844,0
832.6509999999998,-0.0001638123649172485,-0.00011796106991823763,-0.000145786558277905,0.0,0.0,0.0,0.0,0.0006672258023172617,0.0021172023843973875,-0.0006024200120009482,0.9992359280586243,0.0,0.0,0.0,0.29117316007614136,2.928076982498169,5.412543296813965,-52.70292663574219,0
842.5460000000003,-0.00011359914060449228,-0.00011076583905378357,-0.00011313696450088173,0.0,0.0,0.0,0.0,-0.0016155539778992534,0.00024047029728535563,0.0023564533330500126,1.0002893209457397,0.0,0.0,0.0,0.29119542241096497,2.9173636436462402,5.396520614624023,-52.70695114135742,0
852.4740000000002,-0.00021206008386798203,-0.00014201128215063363,-0.00012217926268931478,0.0,0.0,0.0,0.0,0.0004879792395513505,0.0006318269297480583,0.0031573870219290257,1.0002683401107788,0.0,0.0,0.0,0.29132410883903503,2.9098498821258545,5.391354084014893,-52.73024368286133,0
862.3739999999998,-8.965804590843618e-05,-0.00010124345135409385,-0.00011157769040437415,0.0,0.0,0.0,0.0,0.00010930356802418828,-0.008662167005240917,0.003101473907008767,0.9980297684669495,0.0,0.0,0.0,0.30008482933044434,2.9183740615844727,5.395277500152588,-54.315948486328125,0
872.2880000000005,-0.00018624713993631303,-0.00013092803419567645,-0.00011882343824254349,0.0,0.0,0.0,0.0,0.0023096015211194754,0.0007776595884934068,-0.00019618135411292315,0.9966512322425842,0.0,0.0,0.0,0.30066660046577454,2.912435293197632,5.403632164001465,-54.42125701904297,0
882.1959999999999,-1.9596507172536803e-06,-7.422507042065263e-05,-0.00014114525401964784,0.0,0.0,0.0,0.0,9.780851542018354e-05,-0.0014016723725944757,-0.0013855978613719344,0.9993152022361755,0.0,0.0,0.0,0.309745728969574,2.923605442047119,5.400631427764893,-56.06459426879883,0
892.1170000000002,-9.580917685525492e-05,-0.0001026043391902931,-0.0001527731365058571,0.0,0.0,0.0,0.0,0.0046981340274214745,-0.0010397571604698896,-0.0003089622769039124,0.9989229440689087,0.0,0.0,0.0,0.3092859387397766,2.9204440116882324,5.3927459716796875,-55.98136901855469,0
902.023000000001,-2.338679405511357e-05,-0.00011522854765644297,-0.00013400198076851666,0.0,0.0,0.0,0.0,-0.0003090282843913883,-0.0014124569715932012,0.001394971157424152,0.9994452595710754,0.0,0.0,0.0,0.30810943245887756,2.9112746715545654,5.3866682052612305,-55.76841735839844,0
911.9390000000003,-0.0001190161710837856,-0.00014664021728094667,-0.0001448718539904803,0.0,0.0,0.0,0.0,-0.00015484968025702983,-0.0002962950093206018,-0.0036659527104347944,0.9962353110313416,0.0,0.0,0.0,0.30788654088974,2.9038584232330322,5.379058361053467,-55.72807693481445,0
921.8450000000012,-7.728618220426142e-05,-0.0001482711231801659,-7.320161239476874e-05,0.0,0.0,0.0,0.0,0.00018495554104447365,0.0004221848794259131,0.0001733202807372436,0.9990255236625671,0.0,0.0,0.0,0.31380602717399597,2.9023993015289307,5.367000102996826,-56.79951477050781,0
931.7620000000006,-0.000175819470314309,-0.00018209870904684067,-8.22852089186199e-05,0.0,0.0,0.0,0.0,0.0006612170836888254,-0.0020068848971277475,-0.0006670107832178473,0.9990302324295044,0.0,0.0,0.0,0.31396353244781494,2.8961474895477295,5.361386299133301,-56.82802963256836,0
941.6710000000003,-5.699639950762503e-05,-0.00015644970699213445,-8.71400479809381e-05,0.0,0.0,0.0,0.0,-0.0020237211138010025,0.0021072756499052048,-0.004331698641180992,0.9982032775878906,0.0,0.0,0.0,0.3136642575263977,2.8941450119018555,5.357107639312744,-56.77385330200195,0
951.5950000000012,-0.0001547191059216857,-0.0001913004380185157,-9.771987242856994e-05,0.0,0.0,0.0,0.0,0.0018424014560878277,0.0028917337767779827,0.0028159311041235924,0.9991018772125244,0.0,0.0,0.0,0.3120794892311096,2.8919239044189453,5.345649719238281,-56.48701095581055,0
961.4980000000014,-0.0001314733672188595,-0.00018466770416125655,-7.388788799289614e-05,0.0,0.0,0.0,0.0,-0.0020770446863025427,0.0034682678524404764,0.0015724246622994542,0.9999390244483948,0.0,0.0,0.0,0.3133555054664612,2.889129161834717,5.334072113037109,-56.71797180175781,0
971.4070000000011,-0.0002309721166966483,-0.00021952514362055808,-8.364229870494455e-05,0.0,0.0,0.0,0.0,0.0006694587063975632,0.001841207267716527,-0.0025088677648454905,0.9999998807907104,0.0,0.0,0.0,0.31375741958618164,2.8889598846435547,5.3198041915893555,-56.79071807861328,0
981.3199999999997,-7.729588833171874e-05,-0.00016016066365409642,-8.943628199631348e-05,0.0,0.0,0.0,0.0,0.0010189793538302183,-0.0020806456450372934,-0.0004630470066331327,1.0020942687988281,0.0,0.0,0.0,0.3128592073917389,2.885411262512207,5.313546657562256,-56.62813949584961,0
991.2330000000002,-0.00017465083510614932,-0.00019397638970986009,-9.758174564922228e-05,0.0,0.0,0.0,0.0,-0.002445524325594306,0.0031716336961835623,-0.0018442438449710608,0.9992631673812866,0.0,0.0,0.0,0.3122217357158661,2.8768205642700195,5.308304309844971,-56.512752532958984,0
1001.1450000000004,-4.228379111737013e-05,-0.00014682135952170938,-0.00010678219405235723,0.0,0.0,0.0,0.0,-0.0006405285093933344,0.0037244432605803013,-0.0008190384251065552,0.9986014366149902,0.0,0.0,0.0,0.3060055375099182,2.8909811973571777,5.312602996826172,-55.38760757446289,0
1011.0570000000007,-0.000137837982038036,-0.00018048560013994575,-0.0001142351029557176,0.0,0.0,0.0,0.0,0.00011438435467425734,0.0007221498526632786,-0.0006335887592285872,0.999006450176239,0.0,0.0,0.0,0.3060683012008667,2.8830137252807617,5.298448085784912,-55.39897155761719,0
1020.969000000001,-6.388228939613327e-05,-0.00015457240806426853,-9.627287363400683e-05,0.0,0.0,0.0,0.0,-0.002996706170961261,0.002076641656458378,-0.0009627774707041681,0.9998220205307007,0.0,0.0,0.0,0.30530330538749695,2.8811450004577637,5.2928147315979,-55.26050567626953,0
1030.8829999999998,-0.00017066780128516257,-0.00019166564743500203,-0.00010390308307250962,0.0,0.0,0.0,0.0,0.001231884933076799,0.0011995696695521474,-0.0012187146348878741,0.9986022114753723,0.0,0.0,0.0,0.30406537652015686,2.8848462104797363,5.281772613525391,-55.036434173583984,0
1040.7939999999999,-0.00011168837954755872,-0.00015000274288468063,-8.575838000979275e-05,0.0,0.0,0.0,0.0,-0.0013905701925978065,-0.0021566294599324465,-0.0009287393186241388,0.999000608921051,0.0,0.0,0.0,0.3033314347267151,2.8816230297088623,5.267703056335449,-54.90359115600586,0
1050.7090000000007,-0.0002128904452547431,-0.00018299574730917811,-9.135915024671704e-05,0.0,0.0,0.0,0.0,-0.001392115605995059,-0.0021733483299613,0.0015368357999250293,0.9997228384017944,0.0,0.0,0.0,0.30241385102272034,2.8836607933044434,5.268463134765625,-54.73751449584961,0
1060.6220000000012,-9.711290476843715e-05,-0.00017416673654224724,-5.4497711971635e-05,0.0,0.0,0.0,0.0,-0.0013471624115481973,0.0017156398389488459,0.0009885765612125397,0.9999421834945679,0.0,0.0,0.0,0.30138930678367615,2.8896751403808594,5.301346302032471,-54.552059173583984,0
1070.5330000000013,-0.0001975019258679822,-0.00020924914861097932,-5.589003922068514e-05,0.0,0.0,0.0,0.0,-0.003215544857084751,-0.0026666063349694014,0.0017312478739768267,0.9989873170852661,0.0,0.0,0.0,0.30164510011672974,2.8838987350463867,5.297111511230469,-54.59836196899414,0
1080.446,-6.035686601535417e-05,-0.00015154002176132053,-9.505612251814455e-05,0.0,0.0,0.0,0.0,-6.774653593311086e-05,0.0026309473905712366,0.0015110400272533298,0.9991403222084045,0.0,0.0,0.0,0.29303887486457825,2.904298782348633,5.304817199707031,-53.040618896484375,0
1090.366,-0.000107815649244003,-0.00011698807793436572,-0.00015107428771443665,0.0,0.0,0.0,0.0,0.00045679506729356945,0.002630155300721526,-0.0038864079397171736,1.0004923343658447,0.0,0.0,0.0,0.2937367558479309,2.9040262699127197,5.292031288146973,-53.16693878173828,0
1100.2690000000002,-7.51499246689491e-05,-0.00015962733596097678,-0.00012277816131245345,0.0,0.0,0.0,0.0,0.0011362741934135556,0.0015418408438563347,-0.002759649185463786,0.9991058707237244,0.0,0.0,0.0,0.29261261224746704,2.8947832584381104,5.278594493865967,-52.96346664428711,0
1110.1820000000007,-0.00017793803999666125,-0.00019145368423778564,-0.00012792220513802022,0.0,0.0,0.0,0.0,-0.001175847603008151,-0.0006603487418033183,0.0001590977335581556,0.9974365234375,0.0,0.0,0.0,0.29219555854797363,2.89265513420105,5.268444538116455,-52.887977600097656,0
1120.0990000000002,-9.548246453050524e-05,-0.00010385325003881007,-0.00015334319323301315,0.0,0.0,0.0,0.0,-0.0019659835379570723,-0.0023645346518605947,-0.004948744084686041,0.9979231357574463,0.0,0.0,0.0,0.2988673150539398,2.905170202255249,5.274476051330566,-54.0955810546875,0
1130.009,-0.0001982534013222903,-0.00013095926260575652,-0.0001625780132599175,0.0,0.0,0.0,0.0,-0.0010430552065372467,-0.0004805077041964978,0.0032135932706296444,0.9974964261054993,0.0,0.0,0.0,0.29754698276519775,2.903207778930664,5.267572402954102,-53.85659408569336,0
1139.924000000001,-6.15395256318152e-05,-8.425603300565854e-05,-0.00020984160073567182,0.0,0.0,0.0,0.0,0.0014395940816029906,0.0037151887081563473,-0.0005266954540275037,0.9988186359405518,0.0,0.0,0.0,0.29117023944854736,2.911552906036377,5.2807512283325195,-52.702392578125,0
1149.8360000000011,-0.0001638212415855378,-0.00011136604007333517,-0.0002251998957945034,0.0,0.0,0.0,0.0,0.0007052425644360483,0.0004621645493898541,0.0006751579348929226,0.9990171194076538,0.0,0.0,0.0,0.29037824273109436,2.9048874378204346,5.272397994995117,-52.55903625488281,0
1159.7489999999998,-6.917765858815983e-05,-0.00013252026110421866,-0.00021117379947099835,0.0,0.0,0.0,0.0,0.00023703280021436512,-0.0029690531082451344,0.0014746482484042645,0.9988793134689331,0.0,0.0,0.0,0.2903132736682892,2.894087076187134,5.265946388244629,-52.547279357910156,0
1169.6650000000009,-0.00014668263611383736,-9.701767703518271e-05,-0.000243921676883474,0.0,0.0,0.0,0.0,-0.0005468081217259169,-0.0006186679820530117,0.0007073113229125738,0.9987848997116089,0.0,0.0,0.0,0.29001739621162415,2.891052484512329,5.273501396179199,-52.49372863769531,0
1179.576000000001,-4.292372614145279e-05,-0.00012340370449237525,-0.0002032777847489342,0.0,0.0,0.0,0.0,0.0026157917454838753,-0.0013518554624170065,0.0015598952304571867,0.9992673993110657,0.0,0.0,0.0,0.28966984152793884,2.8930070400238037,5.275873184204102,-52.430816650390625,0
1189.4950000000008,-0.00017488337471149862,-0.00014532080967910588,-0.00017288133676629514,0.0,0.0,0.0,0.0,0.0002691637200769037,-0.002208209130913019,-0.004456252325326204,0.9977144598960876,0.0,0.0,0.0,0.3011244535446167,2.8849024772644043,5.272758483886719,-54.504127502441406,0
1199.402,-6.676229531876743e-05,-0.00016407448856625706,-0.00011626641207840294,0.0,0.0,0.0,0.0,-0.003093809587880969,-0.0009206421673297882,0.0012442823499441147,0.9984585046768188,0.0,0.0,0.0,0.2993506193161011,2.8819429874420166,5.2702250480651855,-54.18305969238281,0
1209.317000000001,-0.00014068414748180658,-0.00015304940461646765,-0.00014842834207229316,0.0,0.0,0.0,0.0,0.0017632929375395179,-0.0005010672030039132,-0.0029357303865253925,0.9969043135643005,0.0,0.0,0.0,0.3002287745475769,2.8873586654663086,5.26876163482666,-54.342002868652344,0
1219.2290000000012,-6.898849096614867e-05,-0.00016037945169955492,-9.79348988039419e-05,0.0,0.0,0.0,0.0,-0.0010102277155965567,-0.0018527221400290728,0.004119636956602335,0.999588668346405,0.0,0.0,0.0,0.29973268508911133,2.8752596378326416,5.266149997711182,-54.25221252441406,0
1229.1450000000004,-0.0001729445211822167,-0.0001830518594942987,-0.00010132897295989096,0.0,0.0,0.0,0.0,-0.0019596393685787916,-0.0013318400597199798,0.0012074587866663933,1.0013216733932495,0.0,0.0,0.0,0.30166956782341003,2.881350040435791,5.260711193084717,-54.60279083251953,0
1239.050000000001,-9.538299491396174e-05,-0.0001954852050403133,-4.730824366561137e-05,0.0,0.0,0.0,0.0,-0.0038854610174894333,-0.00033603591145947576,0.0011525674490258098,1.0004600286483765,0.0,0.0,0.0,0.3012412190437317,2.8827764987945557,5.259247779846191,-54.52526092529297,0
1248.9710000000014,-0.0001696154213277623,-0.00016988813877105713,-6.603646033909172e-05,0.0,0.0,0.0,0.0,0.0003428016207180917,-0.0006292217876762152,-0.003079837653785944,0.999697744846344,0.0,0.0,0.0,0.3068801164627075,2.892167091369629,5.259436130523682,-55.54591369628906,0
1258.8810000000012,-0.00012907605560030788,-0.00017368380213156343,-1.3114698049321305e-05,0.0,0.0,0.0,0.0,0.0007552922470495105,0.0033613110426813364,-0.0005922844284214079,0.9989010691642761,0.0,0.0,0.0,0.30488741397857666,2.8917927742004395,5.261434078216553,-55.18522644042969,0
1268.7880000000005,-0.00015967251965776086,-0.00010591622412903234,-7.647879101568833e-05,0.0,0.0,0.0,0.0,0.0005935898516327143,-8.963950676843524e-05,0.001418503001332283,0.9998884201049805,0.0,0.0,0.0,0.30524176359176636,2.8888001441955566,5.246806621551514,-55.24937057495117,0
1278.6949999999997,-0.00010312552331015468,-0.00016487589164171368,-4.133740367251448e-05,0.0,0.0,0.0,0.0,0.002191344741731882,-0.002296584192663431,0.00209094793535769,0.9998553991317749,0.0,0.0,0.0,0.3042776584625244,2.887326717376709,5.237192630767822,-55.07486343383789,0
1288.6110000000008,-0.00013864396896678954,-0.00010213739005848765,-0.00010330392251489684,0.0,0.0,0.0,0.0,0.0003495071141514927,0.00243583507835865,0.0022152357269078493,0.9988219738006592,0.0,0.0,0.0,0.3034020960330963,2.876255989074707,5.234663486480713,-54.916378021240234,0
1298.5220000000008,-0.00010885309166042134,-0.0001244354498339817,-6.384226435329765e-05,0.0,0.0,0.0,0.0,-7.567930879304186e-05,-0.002996948780491948,0.0017777667380869389,1.0010994672775269,0.0,0.0,0.0,0.3032778799533844,2.8673901557922363,5.225146293640137,-54.893898010253906,0
1308.4300000000003,-0.0001567687577335164,-7.590300083393231e-05,-0.00011668643855955452,0.0,0.0,0.0,0.0,0.0004620630934368819,0.0009837585967034101,0.0007266776519827545,0.9986643195152283,0.0,0.0,0.0,0.30393707752227783,2.869234323501587,5.226383209228516,-55.01321792602539,0
1318.3559999999998,-7.989352161530405e-05,-0.00015274564793799073,-8.32091536722146e-05,0.0,0.0,0.0,0.0,-0.0033137130085378885,0.0008455912466160953,0.000788545876275748,0.998461902141571,0.0,0.0,0.0,0.30264008045196533,2.861671209335327,5.211082458496094,-54.77846145629883,0
1328.255000000001,-0.00018708515563048422,-0.00018628514953888953,-8.720749610802159e-05,0.0,0.0,0.0,0.0,-0.001773562398739159,-0.0017342539504170418,-0.0008063188870437443,0.9987667798995972,0.0,0.0,0.0,0.3029685318470001,2.8596954345703125,5.195146560668945,-54.83790588378906,0
1338.1820000000007,-0.00012294334010221064,-0.00020998010586481541,-6.46789776510559e-05,0.0,0.0,0.0,0.0,0.0005987900076434016,-0.0022607515566051006,0.0027235951274633408,0.9980183839797974,0.0,0.0,0.0,0.30326390266418457,2.8618013858795166,5.193312168121338,-54.8913688659668,0
1348.0810000000001,-0.0001436275924788788,-0.0001333784603048116,-0.00016670141485519707,0.0,0.0,0.0,0.0,0.0024528298527002335,0.0006761122494935989,0.002044755732640624,0.9989946484565735,0.0,0.0,0.0,0.2950720191001892,2.8809316158294678,5.205874443054199,-53.40861892700195,0
1357.9989999999998,-8.789387356955558e-05,-0.00017223501345142722,-0.00013364190817810595,0.0,0.0,0.0,0.0,0.002151146065443754,-0.0008697842713445425,-0.0021885742899030447,0.9979382157325745,0.0,0.0,0.0,0.29508253931999207,2.875105619430542,5.200531482696533,-53.410526275634766,0
1367.9120000000003,-0.00015813282516319305,-0.0001526863779872656,-0.0001775887212716043,0.0,0.0,0.0,0.0,0.000558080559130758,0.002738358685746789,0.0014133264776319265,0.9986435770988464,0.0,0.0,0.0,0.2945762276649475,2.8763272762298584,5.1993088722229,-53.318878173828125,0
1377.821,-0.00011031924077542499,-0.00013409148959908634,-0.00012174233415862545,0.0,0.0,0.0,0.0,0.001366297947242856,-0.0030075262766331434,0.003351957071572542,0.9986582398414612,0.0,0.0,0.0,0.2946135997772217,2.872593641281128,5.189725399017334,-53.325645446777344,0
1387.732,-0.00021045906760264188,-0.00013076707546133548,-0.0001294501416850835,0.0,0.0,0.0,0.0,-0.0016727501060813665,0.0007142266258597374,0.0006127005908638239,0.997552216053009,0.0,0.0,0.0,0.2946934998035431,2.865356922149658,5.183611869812012,-53.340110778808594,0
1397.6450000000004,-0.0001413067220710218,-0.00014330376870930195,-7.540766819147393e-05,0.0,0.0,0.0,0.0,0.00018334311607759446,0.0006624673260375857,-0.002659314777702093,0.9994165897369385,0.0,0.0,0.0,0.2946285307407379,2.8723325729370117,5.182150363922119,-53.32835006713867,0
1407.558000000001,-0.00023360188060905784,-0.000151163520058617,-9.64706196100451e-05,0.0,0.0,0.0,0.0,0.0006896666600368917,-0.0006255243206396699,0.00020706311624962837,0.9998748898506165,0.0,0.0,0.0,0.29458755254745483,2.8750336170196533,5.173187732696533,-53.320926666259766,0
1417.473,-0.00015542017354164273,-0.00015613924188073725,-3.333629501867108e-05,0.0,0.0,0.0,0.0,0.0019374433904886246,-0.0009955146815627813,0.001223203493282199,0.9989720582962036,0.0,0.0,0.0,0.29390326142311096,2.870065450668335,5.170436859130859,-53.197078704833984,0
1427.3810000000012,-0.00020407521515153348,-0.00012645189417526126,-9.608593245502561e-05,0.0,0.0,0.0,0.0,-0.0014039612142369151,-0.0027102467138320208,-0.0023280351888388395,0.9987439513206482,0.0,0.0,0.0,0.2940056025981903,2.867495059967041,5.166311264038086,-53.215599060058594,0
1437.3070000000007,-0.00013301204307936132,-0.00015141790208872408,-4.2237650632159784e-05,0.0,0.0,0.0,0.0,-0.00020944818970747292,-0.00037856627022847533,0.009150499477982521,0.9991769790649414,0.0,0.0,0.0,0.29195550084114075,2.8627688884735107,5.167179584503174,-52.84452438354492,0
1447.2060000000001,-0.00021692867449019104,-0.00013714347733184695,-6.295566709013656e-05,0.0,0.0,0.0,0.0,0.0002697663730941713,0.0020068439189344645,0.00010752346861409023,1.000544548034668,0.0,0.0,0.0,0.29344725608825684,2.864046335220337,5.161683082580566,-53.11453628540039,0
1457.1239999999998,-0.00012223940575495362,-0.00019857157894875854,-1.2856876310252119e-05,0.0,0.0,0.0,0.0,-0.00018544714839663357,0.002188917715102434,0.00022340769646689296,0.9992774128913879,0.0,0.0,0.0,0.29371383786201477,2.8631515502929688,5.1580810546875,-53.16279220581055,0
1467.0330000000013,-0.0001911326398840174,-0.00017259859305340797,-4.4831955165136606e-05,0.0,0.0,0.0,0.0,-0.0005064476863481104,0.0018091085366904736,-0.0008298938628286123,1.0018391609191895,0.0,0.0,0.0,0.29928937554359436,2.875274896621704,5.1490583419799805,-54.17197036743164,0
1476.9590000000007,-0.00013606094580609351,-0.00018056851695291698,1.5084761798789259e-05,0.0,0.0,0.0,0.0,-0.0009422736475244164,0.0007146171992644668,-0.0003300697135273367,0.9984790086746216,0.0,0.0,0.0,0.2984681725502014,2.8714473247528076,5.136133193969727,-54.02333450317383,0
1486.8610000000008,-0.0001541766250738874,-9.914098336594179e-05,-6.255435437196866e-05,0.0,0.0,0.0,0.0,0.0006496616406366229,-0.0025694777723401785,0.0006620394997298717,1.0002639293670654,0.0,0.0,0.0,0.29967987537384033,2.8705856800079346,5.130328178405762,-54.24265670776367,0
1496.773000000001,-0.00010690005001379177,-0.00016240411787293851,-2.7909318305319175e-05,0.0,0.0,0.0,0.0,0.00045286904787644744,0.0019172120373696089,0.0040241992101073265,0.9991582036018372,0.0,0.0,0.0,0.2994595468044281,2.867964506149292,5.127229690551758,-54.20277404785156,0
1506.6970000000001,-0.00015782609989400953,-0.00013208953896537423,-8.724605140741915e-05,0.0,0.0,0.0,0.0,0.0027655083686113358,-0.0012148895766586065,-0.0009913439862430096,0.9985984563827515,0.0,0.0,0.0,0.3002493679523468,2.8627545833587646,5.133659362792969,-54.34572982788086,0
1516.6010000000006,-0.00012731207243632525,-0.0001570117165101692,-4.5613207475980744e-05,0.0,0.0,0.0,0.0,0.0014481662074103951,0.0018337691435590386,-0.0005907090962864459,0.9987934231758118,0.0,0.0,0.0,0.3006623685359955,2.859670639038086,5.124893665313721,-54.42048645019531,0
1526.5100000000002,-0.00024485847097821534,-0.00019180862000212073,-4.88548212160822e-05,0.0,0.0,0.0,0.0,0.0015051293885335326,0.0003823314909823239,-0.0007283524610102177,0.9994798898696899,0.0,0.0,0.0,0.30024051666259766,2.8544411659240723,5.11863374710083,-54.3441276550293,0
1536.4350000000013,-0.00014936471416149288,-0.0002089150802930817,-1.657357279327698e-05,0.0,0.0,0.0,0.0,-0.001794479670934379,-0.003107441822066903,-1.5192107639450114e-05,0.9996809959411621,0.0,0.0,0.0,0.29375216364860535,2.85268497467041,5.151856422424316,-53.16972351074219,0
1546.3410000000003,-0.000216530155739747,-0.00018074123363476247,-7.771589298499748e-05,0.0,0.0,0.0,0.0,0.0035017060581594706,0.0031485266517847776,0.004780950956046581,0.9999052286148071,0.0,0.0,0.0,0.2869594097137451,2.8598387241363525,5.150413513183594,-51.94021987915039,0
1556.264000000001,-0.00014777186152059585,-0.00018425985763315111,-1.53631317516556e-05,0.0,0.0,0.0,0.0,0.0024505280889570713,-0.003292826469987631,0.0026157801039516926,0.9957869052886963,0.0,0.0,0.0,0.2871990203857422,2.86002254486084,5.146078586578369,-51.98359680175781,0
1566.1670000000013,-0.0001870131673058495,-0.00013661581033375114,-9.648930426919833e-05,0.0,0.0,0.0,0.0,-0.0003750981413759291,1.512543713033665e-05,0.0033139819279313087,1.0001881122589111,0.0,0.0,0.0,0.28708675503730774,2.8505406379699707,5.13836145401001,-51.96327209472656,0
1576.0789999999997,-0.00014229847874958068,-0.00013573712203651667,-4.0604561945656314e-05,0.0,0.0,0.0,0.0,7.645783625775948e-05,-0.00012634144513867795,0.004838475026190281,0.9991423487663269,0.0,0.0,0.0,0.2881065011024475,2.8475217819213867,5.131776809692383,-52.14784622192383,0
1585.987000000001,-0.00019197238725610077,-7.607242878293619e-05,-0.0001035743480315432,0.0,0.0,0.0,0.0,0.00134960375726223,0.0013957336777821183,-0.0013246163725852966,0.9985073208808899,0.0,0.0,0.0,0.29589009284973145,2.8595712184906006,5.135399341583252,-53.55669403076172,0
1595.911,-7.797605940140784e-05,-0.00013429498358163983,-5.29271419509314e-05,0.0,0.0,0.0,0.0,-0.0022816478740423918,0.003161019179970026,0.0035623416770249605,0.9973141551017761,0.0,0.0,0.0,0.2960803210735321,2.8549046516418457,5.117061614990234,-53.591129302978516,0
1605.8199999999997,-0.00013573825708590448,-0.000117050192784518,-0.00011924102727789432,0.0,0.0,0.0,0.0,0.002701322315260768,0.0037599746137857437,-0.0017412261804565787,0.9988940954208374,0.0,0.0,0.0,0.2879467010498047,2.862515687942505,5.119588851928711,-52.118927001953125,0
1615.7240000000002,-7.77574532548897e-05,-0.0001604040589882061,-7.914888556115329e-05,0.0,0.0,0.0,0.0,0.0029746326617896557,-0.0020601062569767237,0.0021961780730634928,0.9994635581970215,0.0,0.0,0.0,0.2867196798324585,2.8580057621002197,5.107730865478516,-51.89683151245117,0
1625.6560000000009,-0.00010258665861329064,-8.184034959413111e-05,-0.00017297638987656683,0.0,0.0,0.0,0.0,0.0011265943758189678,0.0030106473714113235,0.0006965215434320271,1.0001957416534424,0.0,0.0,0.0,0.29688575863838196,2.8665354251861572,5.119822978973389,-53.736915588378906,0
1635.5550000000003,-9.343521378468722e-05,-8.436198550043628e-05,-0.00013781386951450258,0.0,0.0,0.0,0.0,0.000180579605512321,-0.00019673888164106756,-0.0023969197645783424,1.0002318620681763,0.0,0.0,0.0,0.2965489625930786,2.8666977882385254,5.10994815826416,-53.67594909667969,0
1645.4680000000008,-0.00019947063992731273,-0.0001045903263729997,-0.0001637908280827105,0.0,0.0,0.0,0.0,-0.0029483886901289225,-7.689951598877087e-05,-0.0010029890108853579,1.0015344619750977,0.0,0.0,0.0,0.29650771617889404,2.8652799129486084,5.107387065887451,-53.668479919433594,0
1655.3649999999998,-0.00015955728304106742,-0.00011555974197108299,-0.00012129076640121639,0.0,0.0,0.0,0.0,-0.00014652956451755017,8.335675374837592e-05,-0.000750384817365557,0.9987258911132812,0.0,0.0,0.0,0.29612934589385986,2.8609719276428223,5.099458694458008,-53.599998474121094,0
1665.2849999999999,-0.0002786953409668058,-0.00015325337881222367,-0.00012962677283212543,0.0,0.0,0.0,0.0,-0.001347884302958846,0.0004916564212180674,-0.0012427216861397028,0.9978711605072021,0.0,0.0,0.0,0.2947942316532135,2.859668731689453,5.096680641174316,-53.35834503173828,0
1675.1940000000013,-0.00016337285342160612,-0.00013843532360624522,-9.169340773951262e-05,0.0,0.0,0.0,0.0,0.0024118395522236824,-0.0013772972160950303,-0.0007943848613649607,0.9975453019142151,0.0,0.0,0.0,0.28917285799980164,2.876286745071411,5.129049301147461,-52.34086608886719,0
1685.1130000000012,-0.0002602269232738763,-0.0001405155344400555,-0.00012031753431074321,0.0,0.0,0.0,0.0,-0.00045470119221135974,0.00018446864851284772,-0.002206628443673253,0.9989350438117981,0.0,0.0,0.0,0.2879776954650879,2.872676134109497,5.118346691131592,-52.12453842163086,0
1695.0210000000006,-0.00013656410737894475,-0.0001937505294336006,-6.968744128243998e-05,0.0,0.0,0.0,0.0,-0.0006413647206500173,-0.007204782217741013,0.002832108875736594,0.9985034465789795,0.0,0.0,0.0,0.28714612126350403,2.867004632949829,5.113080978393555,-51.974021911621094,0
1704.9440000000013,-0.00025304389419034123,-0.00023473614419344813,-7.582159742014483e-05,0.0,0.0,0.0,0.0,-0.0006792680360376835,-0.002745102159678936,-0.00018399645341560245,0.9993139505386353,0.0,0.0,0.0,0.28825822472572327,2.863030195236206,5.122274398803711,-52.17531204223633,0
1714.8500000000004,-0.00017250912787858397,-0.00018995054415427148,-3.1287840101867914e-05,0.0,0.0,0.0,0.0,0.003978208173066378,0.0037391732912510633,-0.0026784364599734545,1.000689148902893,0.0,0.0,0.0,0.28360217809677124,2.881735324859619,5.167489528656006,-51.33256149291992,0
1724.7700000000004,-0.0002466962323524058,-0.0001751059462549165,-8.721408812562004e-05,0.0,0.0,0.0,0.0,-0.0010860618203878403,-0.0025411020033061504,0.001334698055870831,0.9997361898422241,0.0,0.0,0.0,0.2758369445800781,2.890848159790039,5.167674541473389,-49.927040100097656,0
1734.6760000000013,-0.000185585769941099,-0.00015110886306501925,-2.3818478439352475e-05,0.0,0.0,0.0,0.0,-0.0007630576728843153,-0.0010321637382730842,-9.78217285592109e-05,1.0002987384796143,0.0,0.0,0.0,0.27543145418167114,2.8895373344421387,5.164468288421631,-49.8536376953125,0
1744.5879999999997,-0.00025981193175539374,-0.00014251720858737826,-6.796196976210922e-05,0.0,0.0,0.0,0.0,0.0002874793717637658,0.0002677708398550749,0.002444891957566142,1.001318097114563,0.0,0.0,0.0,0.2753852903842926,2.8749678134918213,5.157665729522705,-49.84528732299805,0
1754.4989999999998,-0.00016270767082460225,-0.00013209217286203057,1.0815987479873002e-05,0.0,0.0,0.0,0.0,0.0003789440670516342,-0.0037136550527065992,-0.0001371314428979531,0.9992353320121765,0.0,0.0,0.0,0.2756478786468506,2.879817247390747,5.157665252685547,-49.89281463623047,0
1764.4130000000005,-0.00019110790162812918,-7.53035128582269e-05,-6.714336632285267e-05,0.0,0.0,0.0,0.0,-0.0021706551779061556,0.0017606543842703104,-0.004725595936179161,0.9983169436454773,0.0,0.0,0.0,0.2758597731590271,2.8802034854888916,5.156630039215088,-49.93117141723633,0
1774.3220000000001,-0.00013049764675088227,-0.00012348269228823483,-2.0359679183457047e-05,0.0,0.0,0.0,0.0,0.001089735422283411,0.009363065473735332,-0.0010502157965674996,0.9994276165962219,0.0,0.0,0.0,0.2735605239868164,2.880293369293213,5.156473159790039,-49.51499557495117,0
1784.2340000000004,-0.00017237399879377335,-7.7544515079353e-05,-8.933799108490348e-05,0.0,0.0,0.0,0.0,-0.0013630647445097566,-0.001925364718772471,-0.0002898180391639471,1.0020025968551636,0.0,0.0,0.0,0.2724817991256714,2.8835628032684326,5.140470504760742,-49.31974792480469,0
1794.1589999999997,-0.00012614559091161937,-0.00010884182120207697,-4.41264892288018e-05,0.0,0.0,0.0,0.0,-0.001761838560923934,-0.0017965020379051566,0.0005208772490732372,1.0002858638763428,0.0,0.0,0.0,0.27215954661369324,2.880819320678711,5.125211715698242,-49.26142120361328,0
1804.0690000000013,-0.00018320158415008336,-0.00010931698489002883,-0.00010880442277994007,0.0,0.0,0.0,0.0,-6.270143330766587e-06,-0.0016560108633711934,-0.0012661293148994446,0.9998090863227844,0.0,0.0,0.0,0.27102747559547424,2.877889394760132,5.128285884857178,-49.05651092529297,0
1813.9770000000008,-0.00013235965161584318,-0.00012734586198348552,-5.462425178848207e-05,0.0,0.0,0.0,0.0,-0.00611015735194087,-0.003902939846739173,-0.0021584017667919397,0.9985381960868835,0.0,0.0,0.0,0.2716398239135742,2.8728933334350586,5.12824010848999,-49.16734313964844,0
1823.8900000000012,-0.0001857081224443391,-0.00010402924090158194,-0.00011323317448841408,0.0,0.0,0.0,0.0,0.00036195761640556157,0.0009702718816697598,0.0009104629280045629,1.0005197525024414,0.0,0.0,0.0,0.2705138623714447,2.8762669563293457,5.125668048858643,-48.96354675292969,0
1833.8010000000013,-0.00010464928345754743,-0.00017257903527934104,-6.923290493432432e-05,0.0,0.0,0.0,0.0,0.0003774813958443701,-0.0004261080175638199,-0.0028434661217033863,1.0011509656906128,0.0,0.0,0.0,0.2700304687023163,2.875471830368042,5.133211612701416,-48.87605285644531,0
1843.7180000000008,-0.00016890582628548145,-0.00015486613847315311,-0.00011611393711064011,0.0,0.0,0.0,0.0,-0.004228956066071987,-0.0046890960074961185,0.0028741341084241867,0.9996371269226074,0.0,0.0,0.0,0.26893866062164307,2.877270221710205,5.128554344177246,-48.678436279296875,0
1853.6220000000012,-0.00010730003123171628,-0.00019703847647178918,-6.5662017732393e-05,0.0,0.0,0.0,0.0,-0.0015767425065860152,-0.0005645597702823579,0.0005176285631023347,0.999598503112793,0.0,0.0,0.0,0.269022673368454,2.8737123012542725,5.12821102142334,-48.693641662597656,0
1863.532000000001,-0.0002228773955721408,-0.00023799025802873075,-6.579292676178738e-05,0.0,0.0,0.0,0.0,-0.003095895517617464,0.0002283233479829505,-0.0017666683997958899,0.9990146160125732,0.0,0.0,0.0,0.26801520586013794,2.8700175285339355,5.129451751708984,-48.511287689208984,0
1873.4480000000003,-0.00016903920914046466,-0.00021468337217811495,-2.492317435098812e-05,0.0,0.0,0.0,0.0,0.0005825081025250256,-0.0005304382066242397,0.000916453602258116,0.9971305131912231,0.0,0.0,0.0,0.267692506313324,2.8698086738586426,5.126918792724609,-48.452877044677734,0
1883.3590000000004,-0.00020254224364180118,-0.0001833475544117391,-0.00012706818233709782,0.0,0.0,0.0,0.0,0.0011088941246271133,-0.0016650705365464091,0.003037639893591404,0.9978014230728149,0.0,0.0,0.0,0.2675465941429138,2.868417501449585,5.115473747253418,-48.42646026611328,0
1893.2759999999998,-0.00012392936332616955,-0.00021535504492931068,-7.605424616485834e-05,0.0,0.0,0.0,0.0,-0.0033606726210564375,-0.0031293360516428947,0.0006937701837159693,0.9970873594284058,0.0,0.0,0.0,0.26829272508621216,2.869217872619629,5.1134467124938965,-48.561519622802734,0
1903.183000000001,-0.0002375695767113939,-0.00025585966068319976,-8.105393499135971e-05,0.0,0.0,0.0,0.0,0.000997245078906417,0.004225937649607658,-0.0013458325993269682,0.999522864818573,0.0,0.0,0.0,0.26817160844802856,2.865199327468872,5.115855693817139,-48.53959655761719,0
1913.103000000001,-0.00016939347551669925,-0.00021971340174786747,-4.2298517655581236e-05,0.0,0.0,0.0,0.0,-9.721874084789306e-05,0.0010441076010465622,0.00032809481490403414,0.9967573285102844,0.0,0.0,0.0,0.26703140139579773,2.859473943710327,5.117114543914795,-48.33321762084961,0
1923.0030000000006,-0.00028469442622736096,-0.0002579922438599169,-4.550657467916608e-05,0.0,0.0,0.0,0.0,0.0006667284178547561,-0.002290012314915657,-0.005390986334532499,0.9990630745887756,0.0,0.0,0.0,0.2681182622909546,2.8536407947540283,5.113243103027344,-48.52994155883789,0
1932.9210000000003,-0.0004037671023979783,-0.0002973143709823489,-5.039991810917854e-05,0.0,0.0,0.0,0.0,0.002147061051800847,0.006071890704333782,-0.00030497039551846683,1.000076174736023,0.0,0.0,0.0,0.26747041940689087,2.855631113052368,5.103643894195557,-48.41267776489258,0
1942.83,-0.0003681349626276642,-0.00012007821351289749,-0.00024898492847569287,0.0,0.0,0.0,0.0,0.0030253876466304064,0.0037234066985547543,-0.0024341223761439323,1.0002199411392212,0.0,0.0,0.0,0.2741321325302124,2.9146039485931396,5.1297149658203125,-49.61846160888672,0
1952.7540000000008,-0.00010893848957493901,-0.00016730456263758242,-0.00013379435404203832,0.0,0.0,0.0,0.0,0.0010755924740806222,0.0023974354844540358,-0.0003773019998334348,0.9977530837059021,0.0,0.0,0.0,0.2723921239376068,2.897691011428833,5.206352710723877,-49.30352020263672,0
1962.6550000000007,-0.00020065113494638354,-0.00015755384811200202,-0.0001436424645362422,0.0,0.0,0.0,0.0,0.0010163404513150454,-0.001094843726605177,-0.0005232931580394506,0.999225378036499,0.0,0.0,0.0,0.2783878743648529,2.9050776958465576,5.196681499481201,-50.388755798339844,0
1972.5699999999997,-0.00010997900244547054,-0.00018385585281066597,-8.776225877227262e-05,0.0,0.0,0.0,0.0,0.0018994869897142053,-0.004219869151711464,-0.00047763061593286693,0.9991461038589478,0.0,0.0,0.0,0.27292758226394653,2.9039716720581055,5.227417945861816,-49.40043640136719,0
1982.4770000000008,-0.00019172154134139419,-0.00015624290972482413,-0.00010216293594567105,0.0,0.0,0.0,0.0,-0.00023266152129508555,-0.002258076798170805,-0.0010074579622596502,1.0001493692398071,0.0,0.0,0.0,0.28224533796310425,2.906686544418335,5.225230693817139,-51.086971282958984,0
1992.3950000000004,-6.338759703794494e-05,-0.00016424007480964065,-2.56777730101021e-05,0.0,0.0,0.0,0.0,0.00044169946340844035,0.0009798667160794139,0.0042241038754582405,0.9981135725975037,0.0,0.0,0.0,0.28244075179100037,2.9053733348846436,5.229954242706299,-51.122337341308594,0
2002.299000000001,-0.00014620339788962156,-0.0001440365012967959,-3.5658198612509295e-05,0.0,0.0,0.0,0.0,-0.0004947371198795736,-0.0007345582125708461,-0.0022355238907039165,0.9982021450996399,0.0,0.0,0.0,0.28162088990211487,2.9019546508789062,5.2271647453308105,-50.973941802978516,0
2012.2309999999998,-0.0001101438028854318,-0.00019377040734980255,-2.4593643956905e-06,0.0,0.0,0.0,0.0,-0.00025855927378870547,-0.0005267165252007544,0.000735122652258724,0.9990198016166687,0.0,0.0,0.0,0.28203922510147095,2.8996899127960205,5.221965312957764,-51.049659729003906,0
2022.1290000000008,-0.00013109318388160318,-0.00010915944585576653,-7.949637074489146e-05,0.0,0.0,0.0,0.0,-0.0006230012513697147,0.0024637256283313036,0.0007855344447307289,0.9981560707092285,0.0,0.0,0.0,0.28147783875465393,2.896515130996704,5.226222991943359,-50.94804763793945,0
2032.054,-3.832102447631769e-05,-0.0001376178115606308,-2.9380569685599767e-05,0.0,0.0,0.0,0.0,0.0018706803675740957,-0.0031320590060204268,-0.002058230573311448,0.9994180202484131,0.0,0.0,0.0,0.28255265951156616,2.8946597576141357,5.216873645782471,-51.14259338378906,0
2041.9520000000011,-0.0001026198297040537,-0.00013576334458775818,-8.207672362914309e-05,0.0,0.0,0.0,0.0,-0.0005568186170421541,0.000553369929548353,0.0033780497033149004,0.9998566508293152,0.0,0.0,0.0,0.2817322015762329,2.892530918121338,5.20667839050293,-50.99408721923828,0
2051.8770000000004,-0.00011283096682745963,-0.0001392936537740752,-5.439420783659443e-05,0.0,0.0,0.0,0.0,-0.0013716956600546837,-0.0017063302220776677,-0.004393269773572683,0.9994781017303467,0.0,0.0,0.0,0.27946895360946655,2.893728017807007,5.207764625549316,-50.58443832397461,0
2061.7780000000002,-0.00016195853822864592,-8.184466423699632e-05,-0.00011171077494509518,0.0,0.0,0.0,0.0,-0.000333623233018443,-0.0008686092332936823,0.000708065927028656,0.9992155432701111,0.0,0.0,0.0,0.27931636571884155,2.895265817642212,5.19890022277832,-50.55681610107422,0
2071.6890000000003,-0.0001244523882633075,-0.00010755001130746678,-7.5762793130707e-05,0.0,0.0,0.0,0.0,-0.0014878035290166736,-0.0039171273820102215,-0.001430019154213369,0.9977991580963135,0.0,0.0,0.0,0.277766615152359,2.8961217403411865,5.204879283905029,-50.276309967041016,0
2081.6010000000006,-0.00023378491459880024,-0.00010972159361699596,-7.995319174369797e-05,0.0,0.0,0.0,0.0,-0.00026254323893226683,0.00461060693487525,-0.00482266116887331,1.0001509189605713,0.0,0.0,0.0,0.28738972544670105,2.8982338905334473,5.208145618438721,-52.01811218261719,0
2091.523000000001,-0.00014215010742191225,-0.00014497451775241643,-2.7115220291307196e-05,0.0,0.0,0.0,0.0,0.00012775397044606507,-0.0014833613531664014,0.0005120629211887717,0.9994620084762573,0.0,0.0,0.0,0.28738799691200256,2.8941352367401123,5.20376443862915,-52.01779556274414,0
2101.424000000001,-0.00018247103434987366,-7.92632345110178e-05,-9.528936061542481e-05,0.0,0.0,0.0,0.0,-0.0006745648570358753,-0.00311882421374321,0.003403452457860112,0.9963024854660034,0.0,0.0,0.0,0.2860200107097626,2.8884994983673096,5.196077823638916,-51.77019119262695,0
