timestamp,stateEstimate.x,stateEstimate.y,stateEstimate.z,controller.cmd_thrust,controller.cmd_roll,controller.cmd_pitch,controller.cmd_yaw,controller.r_roll,controller.r_pitch,controller.r_yaw,controller.accelz,controller.actuatorThrust,controller.roll,controller.pitch,controller.yaw,controller.rollRate,controller.pitchRate,controller.yawRate,controller.ctr_yaw
0.0,-0.013746007345616817,-0.01786709763109684,-0.00033348327269777656,0.0,0.0,0.0,0.0,0.002214172389358282,-0.00396772613748908,0.0031113531440496445,0.9999818205833435,0.0,0.0,0.0,-14.715179443359375,1.8989982604980469,3.135695695877075,2663.476806640625,0
9.917999999999665,-0.013746007345616817,-0.01786709763109684,-0.00033348327269777656,0.0,0.0,0.0,0.0,0.0016989529831334949,0.002052061026915908,-0.0009016884723678231,1.002424716949463,0.0,0.0,0.0,-14.715179443359375,1.8989982604980469,3.135695695877075,2663.476806640625,0
19.823999999998705,-0.013669027015566826,-0.017595471814274788,-0.0007936149486340582,0.0,0.0,0.0,0.0,0.0008065290166996419,0.0029889983125030994,-0.002815838670358062,1.0007407665252686,0.0,0.0,0.0,-14.762274742126465,1.952640175819397,3.136564016342163,2672.001220703125,0
29.73699999999917,-0.01368015632033348,-0.01759030856192112,-0.0007969824364408851,0.0,0.0,0.0,0.0,0.0008783938828855753,0.001112051191739738,-0.0029412375297397375,1.0000277757644653,0.0,0.0,0.0,-14.748573303222656,1.9525392055511475,3.1216728687286377,2669.52099609375,0
39.65799999999945,-0.013568255119025707,-0.017565228044986725,-0.0008661682368256152,0.0,0.0,0.0,0.0,0.004192226566374302,0.002454653149470687,0.0014089974574744701,1.0003575086593628,0.0,0.0,0.0,-14.776654243469238,1.9567633867263794,3.1263866424560547,2674.603759765625,0
49.568999999999505,-0.013576109893620014,-0.01756078377366066,-0.0008708281675353646,0.0,0.0,0.0,0.0,0.0010723058367148042,0.0004375145072117448,0.0003309606108814478,1.0000531673431396,0.0,0.0,0.0,-14.762850761413574,1.948201060295105,3.1172995567321777,2672.105224609375,0
59.472999999999956,-0.013553749769926071,-0.017574075609445572,-0.0008752947323955595,0.0,0.0,0.0,0.0,-0.002665923209860921,0.0007130153244361281,-0.004194648005068302,0.9999697208404541,0.0,0.0,0.0,-14.767372131347656,1.9471179246902466,3.1249289512634277,2672.923583984375,0
69.38999999999942,-0.013562069274485111,-0.017571566626429558,-0.0008799341740086675,0.0,0.0,0.0,0.0,0.0010844430653378367,-0.007390226237475872,0.003839002689346671,0.9995560050010681,0.0,0.0,0.0,-14.753117561340332,1.9485386610031128,3.1265270709991455,2670.34375,0
79.30599999999868,-0.013553045690059662,-0.017569327726960182,-0.0008872640901245177,0.0,0.0,0.0,0.0,0.00025740914861671627,0.0031148509588092566,-0.0032536049839109182,1.001383662223816,0.0,0.0,0.0,-14.779980659484863,1.9519110918045044,3.1406922340393066,2675.205810546875,0
89.20899999999892,-0.013562575913965702,-0.017567282542586327,-0.0008912468911148608,0.0,0.0,0.0,0.0,-0.001805768464691937,-0.003727173199877143,-0.0010834474815055728,1.000198483467102,0.0,0.0,0.0,-14.766282081604004,1.951650619506836,3.1314589977264404,2672.726318359375,0
99.12199999999939,-0.013589633628726006,-0.017635954543948174,-0.0008519127732142806,0.0,0.0,0.0,0.0,-0.0007512788288295269,0.000864205532707274,0.002751101041212678,0.9992866516113281,0.0,0.0,0.0,-14.79312515258789,1.9538309574127197,3.1359200477600098,2677.5849609375,0
109.03399999999965,-0.013601742684841156,-0.017634140327572823,-0.0008515119552612305,0.0,0.0,0.0,0.0,-0.0008037377265281975,0.004355915822088718,-0.0023999796248972416,0.9987106323242188,0.0,0.0,0.0,-14.777726173400879,1.9552967548370361,3.137833833694458,2674.7978515625,0
118.9439999999995,-0.013611683622002602,-0.017680715769529343,-0.0008347307448275387,0.0,0.0,0.0,0.0,0.0016823791665956378,-0.0009827722096815705,0.002075818832963705,1.0010182857513428,0.0,0.0,0.0,-14.816715240478516,1.953799843788147,3.145764112472534,2681.85498046875,0
128.85799999999836,-0.01362506952136755,-0.017677364870905876,-0.0008345430251210928,0.0,0.0,0.0,0.0,0.002596197882667184,0.0028406011406332254,-0.002306087873876095,1.0001277923583984,0.0,0.0,0.0,-14.802117347717285,1.9506851434707642,3.1378896236419678,2679.212646484375,0
138.76800000000003,-0.013557878322899342,-0.017755849286913872,-0.0007763729663565755,0.0,0.0,0.0,0.0,0.0002434238704154268,0.0029260546434670687,0.0008617034181952477,0.9992661476135254,0.0,0.0,0.0,-14.826254844665527,1.9450044631958008,3.1450185775756836,2683.58154296875,0
148.67999999999847,-0.013569370843470097,-0.017752666026353836,-0.0007715998217463493,0.0,0.0,0.0,0.0,0.0008470599423162639,-0.0031073633581399918,-0.0007232366479001939,0.9999482035636902,0.0,0.0,0.0,-14.812362670898438,1.9398788213729858,3.1481850147247314,2681.067138671875,0
158.59699999999975,-0.01362674217671156,-0.017733857035636902,-0.0007186431321315467,0.0,0.0,0.0,0.0,-0.000130866959807463,0.004212170373648405,-0.0044067720882594585,0.9998183250427246,0.0,0.0,0.0,-14.84374713897705,1.9404937028884888,3.13637113571167,2686.747802734375,0
168.503999999999,-0.013638204894959927,-0.017731038853526115,-0.0007109087309800088,0.0,0.0,0.0,0.0,0.0001927964185597375,0.0010842203628271818,-0.000735256529878825,1.0003037452697754,0.0,0.0,0.0,-14.828814506530762,1.932640552520752,3.1325225830078125,2684.044677734375,0
178.42799999999988,-0.013627796433866024,-0.017669737339019775,-0.0007114846957847476,0.0,0.0,0.0,0.0,-0.0007193019846454263,-0.0002810776059050113,-0.0008072996861301363,1.0001083612442017,0.0,0.0,0.0,-14.848505973815918,1.9417001008987427,3.1261494159698486,2687.609130859375,0
188.32999999999993,-0.013638719916343689,-0.01766517199575901,-0.0007041732897050679,0.0,0.0,0.0,0.0,-0.00245754630304873,0.006107314955443144,0.0003535002761054784,0.998955488204956,0.0,0.0,0.0,-14.833438873291016,1.9403527975082397,3.128119468688965,2684.88232421875,0
198.2489999999998,-0.013677890412509441,-0.0176034364849329,-0.0007262527942657471,0.0,0.0,0.0,0.0,-0.0014403805835172534,0.001817196374759078,0.0011042301775887609,0.9990161061286926,0.0,0.0,0.0,-14.855124473571777,1.9479331970214844,3.129640579223633,2688.807373046875,0
208.15499999999884,-0.013689006678760052,-0.017596673220396042,-0.0007217306992970407,0.0,0.0,0.0,0.0,-0.0011107815662398934,0.003236528020352125,-0.002859590807929635,0.9994430541992188,0.0,0.0,0.0,-14.841209411621094,1.9510562419891357,3.118485689163208,2686.28857421875,0
218.0739999999987,-0.013623479753732681,-0.017560388892889023,-0.0007216400699689984,0.0,0.0,0.0,0.0,-0.0008315665181726217,-0.0005041738040745258,0.0021069988142699003,0.9999083280563354,0.0,0.0,0.0,-14.861990928649902,1.957602620124817,3.128521203994751,2690.0498046875,0
227.97799999999916,-0.01363443210721016,-0.017553206533193588,-0.0007185766589827836,0.0,0.0,0.0,0.0,-0.0012159788748249412,0.001482417224906385,0.0006170946289785206,0.9997872710227966,0.0,0.0,0.0,-14.848237991333008,1.9584674835205078,3.11719012260437,2687.560546875,0
237.89699999999903,-0.01367885246872902,-0.01756603829562664,-0.0007299483404494822,0.0,0.0,0.0,0.0,0.0003644783573690802,7.840326725272462e-05,0.0022202851250767708,1.0003063678741455,0.0,0.0,0.0,-14.870681762695312,1.9557610750198364,3.1086912155151367,2691.623046875,0
247.80299999999988,-0.013692528009414673,-0.017558898776769638,-0.0007283022860065103,0.0,0.0,0.0,0.0,0.0010014133295044303,-0.00209602527320385,-0.001432654564268887,0.9998211860656738,0.0,0.0,0.0,-14.85356330871582,1.9564599990844727,3.1112706661224365,2688.5244140625,0
257.72999999999956,-0.013614500872790813,-0.017579276114702225,-0.0007319936994463205,0.0,0.0,0.0,0.0,-0.00289875827729702,0.0007744742324575782,-0.004059130791574717,0.9974780082702637,0.0,0.0,0.0,-14.864989280700684,1.953723430633545,3.1328508853912354,2690.592529296875,0
267.6279999999988,-0.013624475337564945,-0.017575159668922424,-0.0007306934567168355,0.0,0.0,0.0,0.0,-0.0002330791758140549,0.003767416812479496,0.002313722623512149,0.998780369758606,0.0,0.0,0.0,-14.850336074829102,1.950727105140686,3.122817039489746,2687.9404296875,0
277.5559999999987,-0.013572667725384235,-0.017587481066584587,-0.0007331142551265657,0.0,0.0,0.0,0.0,-0.0017058931989595294,0.002009144052863121,-0.0034219652879983187,0.9989467859268188,0.0,0.0,0.0,-14.86470890045166,1.95281982421875,3.1308159828186035,2690.5419921875,0
287.4569999999985,-0.013584936037659645,-0.017602555453777313,-0.0007420862093567848,0.0,0.0,0.0,0.0,-0.0005239794845692813,-0.0033301543444395065,0.0019164665136486292,1.0003178119659424,0.0,0.0,0.0,-14.86658000946045,1.9498792886734009,3.1251919269561768,2690.880615234375,0
297.3709999999992,-0.013567016460001469,-0.017642902210354805,-0.0007450168486684561,0.0,0.0,0.0,0.0,-0.0010501877404749393,-0.002709171501919627,-0.0007509315619245172,0.9973636865615845,0.0,0.0,0.0,-14.860395431518555,1.9424940347671509,3.138230323791504,2689.76123046875,0
307.2769999999982,-0.013532072305679321,-0.017577532678842545,-0.0007867529639042914,0.0,0.0,0.0,0.0,0.0002721654891502112,-0.0030667169485241175,0.00033489661291241646,0.9982069134712219,0.0,0.0,0.0,-14.866432189941406,1.9535186290740967,3.143794298171997,2690.853759765625,0
317.1959999999999,-0.013472696766257286,-0.017626607790589333,-0.000787820783443749,0.0,0.0,0.0,0.0,-0.00043453980470076203,-0.003921892028301954,0.0016265824669972062,0.9992949962615967,0.0,0.0,0.0,-14.86185359954834,1.9494420289993286,3.164914846420288,2690.025146484375,0
327.10099999999875,-0.013500440865755081,-0.01765068620443344,-0.0007806519861333072,0.0,0.0,0.0,0.0,0.0004933973541483283,-0.003642589785158634,-0.001735943602398038,0.9975122213363647,0.0,0.0,0.0,-14.864452362060547,1.9480410814285278,3.165757894515991,2690.495361328125,0
337.0149999999994,-0.013514416292309761,-0.017701750621199608,-0.000806779891718179,0.0,0.0,0.0,0.0,0.0007701631402596831,-0.003815946402028203,-0.0028830289375036955,0.9979480504989624,0.0,0.0,0.0,-14.85700798034668,1.9346777200698853,3.173647880554199,2689.14794921875,0
346.9299999999985,-0.013520088978111744,-0.017670391127467155,-0.0008095954544842243,0.0,0.0,0.0,0.0,0.0004281845467630774,-0.0019036229932680726,0.0007215984514914453,0.9982767105102539,0.0,0.0,0.0,-14.858470916748047,1.9430123567581177,3.171116352081299,2689.412841796875,0
356.84199999999873,-0.01353519968688488,-0.017661144956946373,-0.000804488139692694,0.0,0.0,0.0,0.0,0.0015902933664619923,0.0006596330204047263,0.0003244611725676805,1.000717043876648,0.0,0.0,0.0,-14.861592292785645,1.9383372068405151,3.182039260864258,2689.97802734375,0
366.7509999999984,-0.013546314090490341,-0.017660295590758324,-0.0008150935755111277,0.0,0.0,0.0,0.0,-0.0014935265062376857,-0.00592613173648715,-0.0025578609202057123,0.999638557434082,0.0,0.0,0.0,-14.865620613098145,1.9348710775375366,3.167448043823242,2690.70703125,0
376.67299999999886,-0.013554977253079414,-0.01767350547015667,-0.0008227432263083756,0.0,0.0,0.0,0.0,0.000750671373680234,0.002591380849480629,0.00010409849346615374,0.9986425638198853,0.0,0.0,0.0,-14.856731414794922,1.9309605360031128,3.175039291381836,2689.097900390625,0
386.5809999999983,-0.013575691729784012,-0.017690280452370644,-0.0008259862661361694,0.0,0.0,0.0,0.0,-0.003179194638505578,-0.006556580308824778,0.0004807006916962564,0.9992315769195557,0.0,0.0,0.0,-14.856751441955566,1.931715726852417,3.1780784130096436,2689.101806640625,0
396.4939999999988,-0.01357308216392994,-0.017670797184109688,-0.0008108264300972223,0.0,0.0,0.0,0.0,-0.0006998050375841558,0.0005815390613861382,0.002644740045070648,1.0003489255905151,0.0,0.0,0.0,-14.853765487670898,1.9326226711273193,3.1837220191955566,2688.56103515625,0
406.39799999999923,-0.013572854921221733,-0.017620829865336418,-0.0008130099158734083,0.0,0.0,0.0,0.0,-5.2968651289120317e-05,-0.00200959132052958,-0.004646676126867533,1.0010277032852173,0.0,0.0,0.0,-14.85628890991211,1.9392086267471313,3.178925037384033,2689.017822265625,0
416.3299999999999,-0.013673946261405945,-0.017583178356289864,-0.0008207667851820588,0.0,0.0,0.0,0.0,0.0012596743181347847,-0.0006357908132486045,-0.004213322885334492,0.9989069104194641,0.0,0.0,0.0,-14.853055000305176,1.9469101428985596,3.1625967025756836,2688.4326171875,0
426.23199999999997,-0.013666315004229546,-0.0175519697368145,-0.0008430514135397971,0.0,0.0,0.0,0.0,0.0011662166798487306,-0.003600657917559147,0.0014634064864367247,0.9972735643386841,0.0,0.0,0.0,-14.853785514831543,1.9530268907546997,3.1658053398132324,2688.56494140625,0
436.1439999999984,-0.01369740255177021,-0.017535315826535225,-0.0008411114104092121,0.0,0.0,0.0,0.0,-0.000415639893617481,0.003647704841569066,0.000545558868907392,1.0000653266906738,0.0,0.0,0.0,-14.84974193572998,1.9534614086151123,3.177525520324707,2687.832763671875,0
446.0559999999987,-0.013699045404791832,-0.017499838024377823,-0.0008533057989552617,0.0,0.0,0.0,0.0,0.0029336826410144567,0.0023355400189757347,-0.0005080673727206886,1.0027117729187012,0.0,0.0,0.0,-14.853588104248047,1.9543613195419312,3.1670737266540527,2688.529052734375,0
455.96799999999894,-0.013681584037840366,-0.01752668246626854,-0.0008624964393675327,0.0,0.0,0.0,0.0,-0.0013022527564316988,-0.0011850970331579447,-0.001144258538261056,1.0014272928237915,0.0,0.0,0.0,-14.851676940917969,1.9499653577804565,3.1692068576812744,2688.18310546875,0
465.8719999999994,-0.013686359860002995,-0.01751868799328804,-0.0008772535366006196,0.0,0.0,0.0,0.0,-0.001316781621426344,-0.0032868136186152697,0.0009780852124094963,0.9993749856948853,0.0,0.0,0.0,-14.85240650177002,1.9515507221221924,3.165248394012451,2688.3154296875,0
475.79399999999987,-0.013659661635756493,-0.017541563138365746,-0.0008788157138042152,0.0,0.0,0.0,0.0,0.0021494687534868717,0.0059457323513925076,0.0006010108045302331,0.9997119307518005,0.0,0.0,0.0,-14.850109100341797,1.9497531652450562,3.1786012649536133,2687.8994140625,0
485.7009999999991,-0.013665793463587761,-0.017520969733595848,-0.0008820659713819623,0.0,0.0,0.0,0.0,0.002417790237814188,0.0016246034065261483,-0.0036892862990498543,0.9981023073196411,0.0,0.0,0.0,-14.850377082824707,1.9545398950576782,3.1686699390411377,2687.94775390625,0
495.6189999999988,-0.01364582497626543,-0.01752019301056862,-0.0008664953638799489,0.0,0.0,0.0,0.0,0.0015363136772066355,-0.004826649092137814,0.0033368177246302366,0.9994523525238037,0.0,0.0,0.0,-14.857306480407715,1.9558115005493164,3.1634533405303955,2689.2021484375,0
505.5279999999984,-0.01367152389138937,-0.017553655430674553,-0.0008615768747404218,0.0,0.0,0.0,0.0,-0.0013532083248719573,0.004109094850718975,-0.0004800486785825342,1.0002771615982056,0.0,0.0,0.0,-14.862955093383789,1.9428482055664062,3.1554112434387207,2690.224365234375,0
515.4419999999991,-0.013604520820081234,-0.017588384449481964,-0.0008475914946757257,0.0,0.0,0.0,0.0,-0.0015399534022435546,-0.0009594263392500579,0.001745192683301866,1.0001622438430786,0.0,0.0,0.0,-14.867420196533203,1.9454890489578247,3.1950175762176514,2691.03271484375,0
525.3489999999983,-0.013625716790556908,-0.017612189054489136,-0.000842700304929167,0.0,0.0,0.0,0.0,-0.00039133711834438145,0.0017886178102344275,0.0015267202397808433,0.99894118309021,0.0,0.0,0.0,-14.871156692504883,1.9408960342407227,3.189682722091675,2691.709228515625,0
535.2649999999994,-0.013638107106089592,-0.01759435422718525,-0.0008261382463388145,0.0,0.0,0.0,0.0,0.0019490561680868268,0.003007335588335991,-0.0023226395715028048,1.0001513957977295,0.0,0.0,0.0,-14.871087074279785,1.9438464641571045,3.187391996383667,2691.6962890625,0
545.1689999999999,-0.013644183985888958,-0.017594819888472557,-0.000831445911899209,0.0,0.0,0.0,0.0,-0.004230157472193241,0.0019447423983365297,-5.927814345341176e-05,1.000046730041504,0.0,0.0,0.0,-14.872879981994629,1.9422297477722168,3.1804871559143066,2692.020751953125,0
555.0889999999999,-0.013558181934058666,-0.017606563866138458,-0.0007985627162270248,0.0,0.0,0.0,0.0,0.0007141443784348667,0.0007395249558612704,-9.200209751725197e-05,0.9989488124847412,0.0,0.0,0.0,-14.873557090759277,1.9369256496429443,3.1935577392578125,2692.1435546875,0
564.9989999999998,-0.013573594391345978,-0.017628520727157593,-0.0007925930549390614,0.0,0.0,0.0,0.0,-0.004125633742660284,0.0034683889243751764,-0.0017388386186212301,0.9979262351989746,0.0,0.0,0.0,-14.878162384033203,1.9297666549682617,3.1806933879852295,2692.97705078125,0
574.9179999999997,-0.013540149666368961,-0.017634211108088493,-0.0007722700829617679,0.0,0.0,0.0,0.0,-0.0018627726240083575,5.4446230933535844e-05,0.002929309383034706,0.9981468319892883,0.0,0.0,0.0,-14.878697395324707,1.9337173700332642,3.1910741329193115,2693.07373046875,0
584.8239999999987,-0.013549705035984516,-0.017648661509156227,-0.0007696768152527511,0.0,0.0,0.0,0.0,-0.0011220136657357216,-0.002328586997464299,0.0001333962136413902,0.9988576173782349,0.0,0.0,0.0,-14.88255786895752,1.931222677230835,3.183670997619629,2693.772705078125,0
594.7439999999988,-0.013558636419475079,-0.017653455957770348,-0.0007658416288904846,0.0,0.0,0.0,0.0,0.0022945483215153217,0.008005429990589619,-0.0019286427414044738,1.0002273321151733,0.0,0.0,0.0,-14.87518310546875,1.9356995820999146,3.1831088066101074,2692.43798828125,0
604.646999999999,-0.013595148921012878,-0.017665375024080276,-0.0007294071838259697,0.0,0.0,0.0,0.0,-0.000403342506615445,-0.0005355659523047507,0.0023034578189253807,1.0000752210617065,0.0,0.0,0.0,-14.878348350524902,1.9315028190612793,3.1781537532806396,2693.010498046875,0
614.5669999999991,-0.013578711077570915,-0.01767207309603691,-0.0007153691258281469,0.0,0.0,0.0,0.0,0.0007377365836873651,0.0006033912650309503,-0.0007916788454167545,0.9988768100738525,0.0,0.0,0.0,-14.873711585998535,1.9222636222839355,3.1721982955932617,2692.17138671875,0
624.4679999999989,-0.013561497442424297,-0.01762346923351288,-0.0007286117179319263,0.0,0.0,0.0,0.0,0.00031843074248172343,0.0010286656906828284,-0.0014920536195859313,0.9992249608039856,0.0,0.0,0.0,-14.872220039367676,1.9296573400497437,3.1695196628570557,2691.901611328125,0
634.3849999999984,-0.01364138163626194,-0.01761089451611042,-0.0007331650704145432,0.0,0.0,0.0,0.0,0.002157650189474225,0.004103792831301689,0.0029185086023062468,1.0004539489746094,0.0,0.0,0.0,-14.87559986114502,1.9297924041748047,3.16383957862854,2692.513427734375,0
644.2959999999985,-0.013591624796390533,-0.017535189166665077,-0.0007865726365707815,0.0,0.0,0.0,0.0,-0.0026991425547748804,0.003485997673124075,0.00030525049078278244,1.0008881092071533,0.0,0.0,0.0,-14.875321388244629,1.9405014514923096,3.1688380241394043,2692.462646484375,0
654.2219999999998,-0.013598326593637466,-0.01753094233572483,-0.0007827424560673535,0.0,0.0,0.0,0.0,0.002252784790471196,0.004533280618488789,0.002340804086998105,0.9988637566566467,0.0,0.0,0.0,-14.869915008544922,1.935200572013855,3.155120849609375,2691.484130859375,0
664.119999999999,-0.013607163913547993,-0.017530549317598343,-0.0007861687918193638,0.0,0.0,0.0,0.0,-1.6382233297917992e-05,-0.003612102009356022,-0.0015595233999192715,0.9989271759986877,0.0,0.0,0.0,-14.870867729187012,1.9295520782470703,3.1500308513641357,2691.656494140625,0
674.039999999999,-0.013606246560811996,-0.017574211582541466,-0.0008128007175400853,0.0,0.0,0.0,0.0,-0.0003624205128289759,-0.0014853831380605698,-0.0012091585667803884,1.0001381635665894,0.0,0.0,0.0,-14.86101245880127,1.9051121473312378,3.157144784927368,2689.872802734375,0
683.9449999999997,-0.013612152077257633,-0.017549831420183182,-0.0007976533379405737,0.0,0.0,0.0,0.0,0.0012281375238671899,0.0007925757090561092,0.0010713229421526194,1.0012555122375488,0.0,0.0,0.0,-14.877706527709961,1.9132602214813232,3.154090404510498,2692.89453125,0
693.8669999999984,-0.01354170497506857,-0.01757429540157318,-0.0007918598130345345,0.0,0.0,0.0,0.0,-0.0009466927731409669,0.0015929428627714515,-0.002622497733682394,1.0016123056411743,0.0,0.0,0.0,-14.863743782043457,1.9069713354110718,3.17010235786438,2690.3671875,0
703.7709999999988,-0.013564621098339558,-0.017628906294703484,-0.0007857795571908355,0.0,0.0,0.0,0.0,0.0009344248101115227,0.001867840182967484,0.003211122937500477,0.9993652701377869,0.0,0.0,0.0,-14.876055717468262,1.8998844623565674,3.1695759296417236,2692.595703125,0
713.6939999999995,-0.01357099786400795,-0.017628539353609085,-0.0007855874137021601,0.0,0.0,0.0,0.0,-0.0032686367630958557,0.004466498736292124,0.0014216848649084568,0.9993461966514587,0.0,0.0,0.0,-14.85696029663086,1.9012678861618042,3.160719871520996,2689.1396484375,0
723.601999999999,-0.013613911345601082,-0.01766161434352398,-0.0007435365114361048,0.0,0.0,0.0,0.0,0.0008474577334709466,-0.005117691587656736,-0.000369171699276194,1.0030509233474731,0.0,0.0,0.0,-14.874894142150879,1.897683024406433,3.1553032398223877,2692.385498046875,0
733.5209999999988,-0.013665324077010155,-0.01764245517551899,-0.0007318640709854662,0.0,0.0,0.0,0.0,0.0020115291699767113,-0.0020561995916068554,0.0026574288494884968,1.0022289752960205,0.0,0.0,0.0,-14.877626419067383,1.9016692638397217,3.152904748916626,2692.880126953125,0
743.4309999999987,-0.013691012747585773,-0.017674775794148445,-0.0007174512720666826,0.0,0.0,0.0,0.0,-0.0033700987696647644,-0.0018380619585514069,-0.00396098243072629,1.0004113912582397,0.0,0.0,0.0,-14.87952709197998,1.891357421875,3.1519272327423096,2693.223876953125,0
753.3409999999985,-0.013701963238418102,-0.017650380730628967,-0.0006814461085014045,0.0,0.0,0.0,0.0,-0.002165145706385374,0.004787992686033249,-0.005148349795490503,0.9993817210197449,0.0,0.0,0.0,-14.8843355178833,1.8984233140945435,3.162303924560547,2694.09423828125,0
763.2549999999992,-0.0136686647310853,-0.017622394487261772,-0.0007206493173725903,0.0,0.0,0.0,0.0,-0.00036774540785700083,-0.0026547531597316265,-0.0022933075670152903,0.9999052286148071,0.0,0.0,0.0,-14.881389617919922,1.9107179641723633,3.171433687210083,2693.56103515625,0
773.1699999999983,-0.013677740469574928,-0.017631927505135536,-0.0007105822442099452,0.0,0.0,0.0,0.0,0.0028325123712420464,0.005459399428218603,0.0008451136527583003,1.0000966787338257,0.0,0.0,0.0,-14.883208274841309,1.9096955060958862,3.167587995529175,2693.890380859375,0
783.0829999999987,-0.013652286492288113,-0.017599746584892273,-0.0007412605918943882,0.0,0.0,0.0,0.0,0.0006331691984087229,-0.000663874379824847,0.0018763032276183367,0.9998449683189392,0.0,0.0,0.0,-14.884965896606445,1.9173871278762817,3.16711163520813,2694.20849609375,0
792.9929999999986,-0.013672120869159698,-0.01759108155965805,-0.0007233357173390687,0.0,0.0,0.0,0.0,0.0020448691211640835,-0.00028973747976124287,-0.0018962688045576215,0.9996437430381775,0.0,0.0,0.0,-14.891027450561523,1.91118323802948,3.162177562713623,2695.3056640625,0
802.8939999999984,-0.013644194230437279,-0.017540426924824715,-0.0007486558752134442,0.0,0.0,0.0,0.0,0.0011068035382777452,0.0014486281434074044,0.000902371306437999,0.9999589920043945,0.0,0.0,0.0,-14.89000415802002,1.9179450273513794,3.156935214996338,2695.12060546875,0
812.8169999999991,-0.013572834432125092,-0.017592936754226685,-0.0007421312038786709,0.0,0.0,0.0,0.0,0.002639775862917304,0.004042751621454954,0.00023450567096006125,1.0011942386627197,0.0,0.0,0.0,-14.88558578491211,1.9096287488937378,3.1761202812194824,2694.320556640625,0
822.7339999999986,-0.013566145673394203,-0.017574088647961617,-0.0007478148327209055,0.0,0.0,0.0,0.0,0.0001683426962699741,-0.0021950777154415846,-0.0022713274229317904,0.9993646740913391,0.0,0.0,0.0,-14.883302688598633,1.9025657176971436,3.158672571182251,2693.907470703125,0
832.6349999999984,-0.0135895274579525,-0.017616422846913338,-0.0007634904468432069,0.0,0.0,0.0,0.0,0.003193887881934643,-0.0027399349492043257,0.0010898234322667122,0.9986451864242554,0.0,0.0,0.0,-14.88640022277832,1.890380620956421,3.1680119037628174,2694.468017578125,0
842.5449999999983,-0.013597806915640831,-0.017622085288167,-0.0007588447188027203,0.0,0.0,0.0,0.0,0.0013059525517746806,0.0032311773393303156,-1.4331012607726734e-06,1.0013203620910645,0.0,0.0,0.0,-14.89059066772461,1.8921343088150024,3.167191743850708,2695.2265625,0
852.4589999999989,-0.013558188453316689,-0.017639746889472008,-0.0007405074429698288,0.0,0.0,0.0,0.0,0.0002837465435732156,-0.0005647835205309093,0.0014481893740594387,0.9987903237342834,0.0,0.0,0.0,-14.892220497131348,1.886763095855713,3.1789612770080566,2695.521484375,0
862.3719999999994,-0.013546612113714218,-0.017604870721697807,-0.0007456874009221792,0.0,0.0,0.0,0.0,-0.0023751119151711464,-0.0032959170639514923,-0.0010762717574834824,0.9985058307647705,0.0,0.0,0.0,-14.889848709106445,1.8989427089691162,3.1757733821868896,2695.09228515625,0
872.280999999999,-0.013596788048744202,-0.0175941102206707,-0.0007437847089022398,0.0,0.0,0.0,0.0,0.0019034885335713625,0.0036809653975069523,-0.0003852247027680278,0.9998060464859009,0.0,0.0,0.0,-14.88284683227539,1.8934396505355835,3.1773877143859863,2693.824951171875,0
882.1969999999983,-0.013625333085656166,-0.017629457637667656,-0.0007287338958121836,0.0,0.0,0.0,0.0,-0.0034100322518497705,-0.0003207380941603333,-0.0011744758812710643,0.9986874461174011,0.0,0.0,0.0,-14.881946563720703,1.8857823610305786,3.1759791374206543,2693.662109375,0
892.1119999999992,-0.01358580868691206,-0.01765296421945095,-0.0007159976521506906,0.0,0.0,0.0,0.0,-0.0005246232612989843,-0.0020586266182363033,8.001195965334773e-05,0.9983450174331665,0.0,0.0,0.0,-14.877397537231445,1.8706328868865967,3.1735191345214844,2692.838623046875,0
902.0229999999992,-0.013571960851550102,-0.017643218860030174,-0.0007380588795058429,0.0,0.0,0.0,0.0,0.0023909315932542086,-0.0013812384568154812,0.0005410776357166469,1.0003178119659424,0.0,0.0,0.0,-14.879881858825684,1.8800126314163208,3.1701784133911133,2693.2880859375,0
911.9249999999993,-0.013545396737754345,-0.017652422189712524,-0.0007188229938037694,0.0,0.0,0.0,0.0,0.0030930344946682453,-0.0005160081200301647,-0.0005492333439178765,0.9992032647132874,0.0,0.0,0.0,-14.877421379089355,1.873902678489685,3.17850923538208,2692.8427734375,0
921.8549999999996,-0.013545765541493893,-0.017658332362771034,-0.0007264782325364649,0.0,0.0,0.0,0.0,0.0005774871096946299,0.0018607500242069364,0.0005144251044839621,0.9986544251441956,0.0,0.0,0.0,-14.88060474395752,1.8727048635482788,3.182429075241089,2693.419189453125,0
931.753999999999,-0.013597414828836918,-0.01762751117348671,-0.0007169442251324654,0.0,0.0,0.0,0.0,0.003536215517669916,0.000599916442297399,0.0006417036056518555,0.9990663528442383,0.0,0.0,0.0,-14.8753080368042,1.8711603879928589,3.1718943119049072,2692.46044921875,0
941.6689999999999,-0.013576186262071133,-0.01758304238319397,-0.0007383341435343027,0.0,0.0,0.0,0.0,-0.0003260907542426139,-0.0006098425365053117,0.0032890874426811934,0.9998493194580078,0.0,0.0,0.0,-14.873926162719727,1.877945065498352,3.1664183139801025,2692.21044921875,0
951.5739999999987,-0.013660363852977753,-0.017581813037395477,-0.0007545281550846994,0.0,0.0,0.0,0.0,0.0017484986456111073,-3.601123535190709e-05,-0.005717317573726177,0.9998379349708557,0.0,0.0,0.0,-14.878835678100586,1.8705612421035767,3.1612160205841064,2693.098876953125,0
961.4979999999996,-0.01364137139171362,-0.017548486590385437,-0.0007804303895682096,0.0,0.0,0.0,0.0,0.0012238896451890469,-0.0012227463303133845,0.0014716226141899824,0.9986494183540344,0.0,0.0,0.0,-14.879237174987793,1.8778733015060425,3.1613340377807617,2693.17138671875,0
971.3989999999994,-0.013613131828606129,-0.017556993290781975,-0.0007725033792667091,0.0,0.0,0.0,0.0,0.002827869728207588,0.001100094523280859,0.005498441401869059,0.9970529079437256,0.0,0.0,0.0,-14.87424087524414,1.8713933229446411,3.1700284481048584,2692.26708984375,0
981.3219999999983,-0.013627022504806519,-0.017593983560800552,-0.0007843499770388007,0.0,0.0,0.0,0.0,0.0017512792255729437,0.005440643522888422,0.0019572062883526087,0.9995374083518982,0.0,0.0,0.0,-14.875085830688477,1.8654885292053223,3.1677911281585693,2692.420166015625,0
991.2239999999983,-0.013614581897854805,-0.01763838157057762,-0.0007981745293363929,0.0,0.0,0.0,0.0,-5.023962876293808e-05,-0.0014555706875398755,0.0011887684231624007,0.9978229403495789,0.0,0.0,0.0,-14.878803253173828,1.8557608127593994,3.183176040649414,2693.093017578125,0
1001.146999999999,-0.013646762818098068,-0.017651036381721497,-0.0007763261673972011,0.0,0.0,0.0,0.0,-5.90476265642792e-05,-0.001120284665375948,0.001036731293424964,0.9988297820091248,0.0,0.0,0.0,-14.885316848754883,1.8500843048095703,3.1685080528259277,2694.272216796875,0
1011.0509999999995,-0.013591771014034748,-0.017657456919550896,-0.0007717260159552097,0.0,0.0,0.0,0.0,0.001141365384683013,0.0017233677208423615,0.00320714944973588,1.0010145902633667,0.0,0.0,0.0,-14.865350723266602,1.842693567276001,3.1797871589660645,2690.657958984375,0
1020.9699999999993,-0.013576973229646683,-0.017618203535676003,-0.0007788746152073145,0.0,0.0,0.0,0.0,0.0038877849001437426,0.00010215307702310383,0.0016301564173772931,1.0006386041641235,0.0,0.0,0.0,-14.879114151000977,1.8541502952575684,3.17930006980896,2693.149169921875,0
1030.8689999999988,-0.013654664158821106,-0.017605716362595558,-0.0008078233222477138,0.0,0.0,0.0,0.0,0.000795914966147393,-0.003614380257204175,-0.00017609549104236066,0.9997509121894836,0.0,0.0,0.0,-14.8565092086792,1.8381164073944092,3.168874740600586,2689.057861328125,0
1040.7939999999999,-0.01363872829824686,-0.01757952757179737,-0.0008224232587963343,0.0,0.0,0.0,0.0,0.0030318936333060265,-0.0008083499269559979,0.003133299294859171,1.001111388206482,0.0,0.0,0.0,-14.872692108154297,1.8475762605667114,3.169377326965332,2691.98681640625,0
1050.6969999999983,-0.01361139677464962,-0.017563847824931145,-0.0008067211019806564,0.0,0.0,0.0,0.0,0.0029239607974886894,-0.002802153117954731,0.00428643636405468,0.99937903881073,0.0,0.0,0.0,-14.871837615966797,1.8482590913772583,3.181028127670288,2691.832275390625,0
1060.6119999999992,-0.01366343256086111,-0.017617687582969666,-0.000776272383518517,0.0,0.0,0.0,0.0,1.6475074517074972e-05,-0.0013217957457527518,0.003725096583366394,1.0003480911254883,0.0,0.0,0.0,-14.871783256530762,1.8336206674575806,3.172333240509033,2691.822265625,0
1070.5289999999986,-0.013598737306892872,-0.01764047145843506,-0.0007597820949740708,0.0,0.0,0.0,0.0,-0.0016008305829018354,0.001524993684142828,-0.0010156311327591538,0.999519407749176,0.0,0.0,0.0,-14.867521286010742,1.828450322151184,3.1911895275115967,2691.051025390625,0
1080.4449999999997,-0.013600549660623074,-0.017632080242037773,-0.0007676272070966661,0.0,0.0,0.0,0.0,0.0012022898299619555,0.0048101418651640415,0.0037473849952220917,0.9994842410087585,0.0,0.0,0.0,-14.871339797973633,1.8313610553741455,3.188042640686035,2691.7421875,0
1090.348,-0.013667679391801357,-0.01762002520263195,-0.0007756378618068993,0.0,0.0,0.0,0.0,-0.0022985772229731083,-0.0008505663136020303,0.0014576667454093695,0.9997463226318359,0.0,0.0,0.0,-14.871175765991211,1.832132339477539,3.1755504608154297,2691.71240234375,0
1100.2579999999998,-0.013645974919199944,-0.017556387931108475,-0.0007985931588336825,0.0,0.0,0.0,0.0,-0.0002921803679782897,0.0009296733769588172,0.0013909689150750637,1.0006593465805054,0.0,0.0,0.0,-14.871493339538574,1.8445639610290527,3.165649890899658,2691.769775390625,0
1110.1679999999997,-0.013603432103991508,-0.01755566895008087,-0.0007794116972945631,0.0,0.0,0.0,0.0,-0.0015872579533606768,0.0021684132516384125,0.0022460275795310736,1.0000473260879517,0.0,0.0,0.0,-14.86618423461914,1.8399348258972168,3.1856331825256348,2690.808837890625,0
1120.0819999999985,-0.013611257076263428,-0.017530236393213272,-0.0007712162914685905,0.0,0.0,0.0,0.0,-0.0013476861640810966,-0.0013469160767272115,0.004666989203542471,1.0016127824783325,0.0,0.0,0.0,-14.86894702911377,1.8387352228164673,3.1742725372314453,2691.30908203125,0
1130.0019999999986,-0.013634596951305866,-0.017543988302350044,-0.0007726481417194009,0.0,0.0,0.0,0.0,-0.0014016390778124332,-0.0015028937486931682,0.00021029204071965069,1.0011186599731445,0.0,0.0,0.0,-14.873159408569336,1.8397330045700073,3.182343006134033,2692.071533203125,0
1139.9199999999983,-0.013638840988278389,-0.01755440980195999,-0.0007817443693056703,0.0,0.0,0.0,0.0,-0.002600431442260742,-0.0017614357639104128,-0.00185564742423594,0.998289942741394,0.0,0.0,0.0,-14.874919891357422,1.832942247390747,3.1907830238342285,2692.39013671875,0
1149.8239999999987,-0.013645166531205177,-0.01756623014807701,-0.0007759908330626786,0.0,0.0,0.0,0.0,1.9697576135513373e-05,3.5241901059634984e-05,-0.0025247219018638134,1.0004554986953735,0.0,0.0,0.0,-14.880592346191406,1.835408329963684,3.1958167552948,2693.416748046875,0
1159.7349999999988,-0.013638293370604515,-0.017537062987685204,-0.0007771035889163613,0.0,0.0,0.0,0.0,0.002135263988748193,0.0036250960547477007,0.006188280880451202,1.0003752708435059,0.0,0.0,0.0,-14.881482124328613,1.8323627710342407,3.1959612369537354,2693.577880859375,0
1169.6499999999996,-0.013619405217468739,-0.01753549464046955,-0.0007639116956852376,0.0,0.0,0.0,0.0,-0.0004189290339127183,-0.0004247261967975646,0.0028004080522805452,0.999351978302002,0.0,0.0,0.0,-14.879717826843262,1.8376638889312744,3.199516773223877,2693.258544921875,0
1179.5629999999983,-0.013627744279801846,-0.017565306276082993,-0.0007638545357622206,0.0,0.0,0.0,0.0,9.45822466746904e-06,0.005611548200249672,-0.0028042830526828766,1.0004457235336304,0.0,0.0,0.0,-14.882004737854004,1.8277045488357544,3.191728115081787,2693.67236328125,0
1189.4629999999997,-0.013601873070001602,-0.01756572164595127,-0.0007479240302927792,0.0,0.0,0.0,0.0,-0.0004459855845198035,0.001256341114640236,-0.0007670887862332165,1.0025991201400757,0.0,0.0,0.0,-14.876306533813477,1.8305634260177612,3.1827080249786377,2692.64111328125,0
1199.3769999999986,-0.013597061857581139,-0.017578603699803352,-0.0007560441736131907,0.0,0.0,0.0,0.0,0.0027239175979048014,0.00038147190934978426,-0.003720569657161832,1.001943588256836,0.0,0.0,0.0,-14.880725860595703,1.8231066465377808,3.172163963317871,2693.441162109375,0
1209.2879999999986,-0.013600757345557213,-0.017571009695529938,-0.0007435170700773597,0.0,0.0,0.0,0.0,-0.0005424806731753051,0.001834183931350708,-0.000954889808781445,1.0035020112991333,0.0,0.0,0.0,-14.877289772033691,1.8214783668518066,3.1811273097991943,2692.819091796875,0
1219.200999999999,-0.013600238598883152,-0.017585448920726776,-0.000741269497666508,0.0,0.0,0.0,0.0,-0.00014447032299358398,-9.21952505450463e-06,-0.0026014631148427725,1.000497579574585,0.0,0.0,0.0,-14.880149841308594,1.816330075263977,3.1766927242279053,2693.3369140625,0
1229.1179999999986,-0.013643945567309856,-0.017580430954694748,-0.0007314563845284283,0.0,0.0,0.0,0.0,-0.0026517589576542377,0.00356238498352468,-0.003076869063079357,0.9996065497398376,0.0,0.0,0.0,-14.884258270263672,1.819184422492981,3.171112060546875,2694.08056640625,0
1239.0269999999982,-0.0136331245303154,-0.017581839114427567,-0.0007377833244390786,0.0,0.0,0.0,0.0,-0.0004549688892439008,-0.005661784205585718,0.0018227591644972563,1.0008398294448853,0.0,0.0,0.0,-14.888320922851562,1.8136340379714966,3.154496192932129,2694.815673828125,0
1248.937,-0.013600563630461693,-0.017644328996539116,-0.0007387766381725669,0.0,0.0,0.0,0.0,0.0008959145634435117,0.0013069838751107454,0.00012887761113233864,0.998835027217865,0.0,0.0,0.0,-14.891237258911133,1.8046998977661133,3.173311710357666,2695.343505859375,0
1258.8499999999985,-0.013574591837823391,-0.017591048032045364,-0.0007457574247382581,0.0,0.0,0.0,0.0,0.0014546591555699706,0.0010269153863191605,-0.00011864490079460666,1.0003936290740967,0.0,0.0,0.0,-14.893648147583008,1.8163498640060425,3.179582118988037,2695.77978515625,0
1268.762999999999,-0.013558462262153625,-0.017620671540498734,-0.0007407090743072331,0.0,0.0,0.0,0.0,0.0012794305803254247,-0.001707163522951305,-0.0010930048301815987,1.0006893873214722,0.0,0.0,0.0,-14.887582778930664,1.8110407590866089,3.1816611289978027,2694.68212890625,0
1278.6819999999989,-0.013550888746976852,-0.01762426272034645,-0.0007436151499859989,0.0,0.0,0.0,0.0,-0.0020726691000163555,0.0005294251604937017,-0.0004256108950357884,0.9978899955749512,0.0,0.0,0.0,-14.888143539428711,1.807411789894104,3.1776976585388184,2694.783447265625,0
1288.5859999999993,-0.013551479205489159,-0.01764434017241001,-0.0007408229284919798,0.0,0.0,0.0,0.0,0.0012344017159193754,-0.002217847853899002,0.0003697715001180768,0.999079704284668,0.0,0.0,0.0,-14.883360862731934,1.8009045124053955,3.174251079559326,2693.91796875,0
1298.5019999999986,-0.01354764960706234,-0.01765105314552784,-0.0007414861465804279,0.0,0.0,0.0,0.0,-0.005083066876977682,0.0007956651970744133,0.0012241193326190114,1.0000534057617188,0.0,0.0,0.0,-14.88399600982666,1.7928181886672974,3.175665855407715,2694.032958984375,0
1308.4139999999989,-0.013572130352258682,-0.017683083191514015,-0.0007493572775274515,0.0,0.0,0.0,0.0,0.0032724165357649326,0.0007399471942335367,-0.0027872028294950724,1.0023705959320068,0.0,0.0,0.0,-14.885650634765625,1.7901010513305664,3.1928863525390625,2694.33251953125,0
1318.33,-0.013558964245021343,-0.017665015533566475,-0.0007576224743388593,0.0,0.0,0.0,0.0,-0.002760891104117036,0.003303981153294444,-0.0001103607501136139,1.0012633800506592,0.0,0.0,0.0,-14.889881134033203,1.8005374670028687,3.18530011177063,2695.09814453125,0
1328.2349999999988,-0.013567137531936169,-0.01766784116625786,-0.000748707796446979,0.0,0.0,0.0,0.0,0.0010913556907325983,0.0016275375382974744,0.005237992387264967,0.9983965754508972,0.0,0.0,0.0,-14.884514808654785,1.7955242395401,3.1878085136413574,2694.126708984375,0
1338.1529999999984,-0.013562679290771484,-0.017674464732408524,-0.0007546128472313285,0.0,0.0,0.0,0.0,0.0010839002206921577,-7.04639678588137e-05,-0.0036747390404343605,1.0005762577056885,0.0,0.0,0.0,-14.8885498046875,1.793519139289856,3.1863722801208496,2694.857177734375,0
1348.0649999999987,-0.01359687652438879,-0.01764327846467495,-0.0007346990751102567,0.0,0.0,0.0,0.0,0.00036764092510566115,-0.00025090036797337234,-0.0026582719292491674,1.0019840002059937,0.0,0.0,0.0,-14.869070053100586,1.7972332239151,3.173525094985962,2691.331298828125,0
1357.9809999999998,-0.013586891815066338,-0.017640016973018646,-0.0007502944208681583,0.0,0.0,0.0,0.0,-0.00013719113485421985,0.0072618150152266026,0.003697914769873023,0.9996007084846497,0.0,0.0,0.0,-14.886560440063477,1.8020106554031372,3.1745660305023193,2694.4970703125,0
1367.884,-0.013570008799433708,-0.0176453348249197,-0.0007296300027519464,0.0,0.0,0.0,0.0,-0.0003320664691273123,-0.003999912645667791,0.0022594965994358063,0.9983060956001282,0.0,0.0,0.0,-14.86849308013916,1.79031503200531,3.159407377243042,2691.226806640625,0
1377.8059999999987,-0.013568931259214878,-0.01765730232000351,-0.0007392095867544413,0.0,0.0,0.0,0.0,-0.0002661653852555901,-0.000229693905566819,0.0021616886369884014,1.000954031944275,0.0,0.0,0.0,-14.886826515197754,1.7920331954956055,3.1599457263946533,2694.54541015625,0
1387.7129999999997,-0.013704808428883553,-0.01762692630290985,-0.0007441089837811887,0.0,0.0,0.0,0.0,-0.0032701638992875814,0.0009056276176124811,0.0011812708107754588,1.0024031400680542,0.0,0.0,0.0,-14.893619537353516,1.7963604927062988,3.1486263275146484,2695.77490234375,0
1397.6389999999992,-0.013673746958374977,-0.017566325142979622,-0.0007700042915530503,0.0,0.0,0.0,0.0,0.00229135830886662,-0.0018748408183455467,3.0308516215882264e-05,0.999205470085144,0.0,0.0,0.0,-14.897196769714355,1.8158689737319946,3.147921562194824,2696.42236328125,0
1407.5469999999987,-0.013677495531737804,-0.017584819346666336,-0.000764923810493201,0.0,0.0,0.0,0.0,0.0007408444071188569,0.002801294904202223,-0.002771365689113736,1.0006760358810425,0.0,0.0,0.0,-14.894876480102539,1.8191174268722534,3.1652414798736572,2696.00244140625,0
1417.4559999999983,-0.013679317198693752,-0.017594067379832268,-0.0007769735530018806,0.0,0.0,0.0,0.0,-0.0008499576942995191,-0.0021197593305259943,-0.0002506733871996403,1.0006779432296753,0.0,0.0,0.0,-14.89892864227295,1.8136605024337769,3.1588706970214844,2696.735595703125,0
1427.3599999999988,-0.013622001744806767,-0.01759313978254795,-0.0007380076567642391,0.0,0.0,0.0,0.0,0.0005250633112154901,-0.0011293269926682115,0.006219204980880022,0.9987451434135437,0.0,0.0,0.0,-14.894887924194336,1.8148139715194702,3.1628201007843018,2696.00439453125,0
1437.280999999999,-0.013619924895465374,-0.017604844644665718,-0.0007531450246460736,0.0,0.0,0.0,0.0,-0.0005977188120596111,0.0008532496867701411,-0.0008375656325370073,1.0012255907058716,0.0,0.0,0.0,-14.891898155212402,1.8153762817382812,3.1643006801605225,2695.463134765625,0
1447.1819999999989,-0.0136655168607831,-0.01759837567806244,-0.0007401377079077065,0.0,0.0,0.0,0.0,0.0031665563583374023,0.002349854214116931,0.0024832747876644135,1.000575304031372,0.0,0.0,0.0,-14.895840644836426,1.814123511314392,3.1533761024475098,2696.1767578125,0
1457.1059999999998,-0.013638170436024666,-0.017550881952047348,-0.0007663520518690348,0.0,0.0,0.0,0.0,-0.0009069968364201486,-0.0029033455066382885,0.0025795758701860905,0.9999216794967651,0.0,0.0,0.0,-14.89557933807373,1.8206605911254883,3.1634199619293213,2696.129638671875,0
1467.0109999999986,-0.013653597794473171,-0.017558760941028595,-0.0007522820378653705,0.0,0.0,0.0,0.0,0.004155431874096394,0.006358974147588015,-0.003738619852811098,1.0007528066635132,0.0,0.0,0.0,-14.90060806274414,1.8139013051986694,3.166200876235962,2697.03955078125,0
1476.9299999999985,-0.013611975125968456,-0.017503228038549423,-0.0007970035076141357,0.0,0.0,0.0,0.0,-0.0027589870151132345,-0.0017771263374015689,-0.002730489009991288,1.0000535249710083,0.0,0.0,0.0,-14.9025297164917,1.827559232711792,3.174239158630371,2697.3876953125,0
1486.8379999999997,-0.013577270321547985,-0.0175703726708889,-0.0008038461091928184,0.0,0.0,0.0,0.0,0.0008323331130668521,0.002291725715622306,-0.001090202247723937,0.9973359704017639,0.0,0.0,0.0,-14.904629707336426,1.8120827674865723,3.181936025619507,2697.767578125,0
1496.7569999999996,-0.013549941591918468,-0.017535362392663956,-0.0008380227372981608,0.0,0.0,0.0,0.0,0.00015033880481496453,0.0026464411057531834,-0.0013015680015087128,0.9986687898635864,0.0,0.0,0.0,-14.900239944458008,1.8274176120758057,3.186824083328247,2696.972900390625,0
1506.6629999999986,-0.013508526608347893,-0.017557140439748764,-0.0008230917155742645,0.0,0.0,0.0,0.0,0.003253236413002014,-0.00044146424625068903,-0.0029491535387933254,1.0020873546600342,0.0,0.0,0.0,-14.90315055847168,1.8222589492797852,3.1933646202087402,2697.499755859375,0
1516.5779999999995,-0.01349667739123106,-0.01753496751189232,-0.0008388087735511363,0.0,0.0,0.0,0.0,-0.0026991660706698895,0.002305378671735525,-0.0031033933628350496,1.0000559091567993,0.0,0.0,0.0,-14.905729293823242,1.8253014087677002,3.1836230754852295,2697.966552734375,0
1526.4899999999998,-0.013510249555110931,-0.017548993229866028,-0.000839282525703311,0.0,0.0,0.0,0.0,0.004579844418913126,-0.0038451000582426786,-0.0007504904642701149,0.9993888139724731,0.0,0.0,0.0,-14.909262657165527,1.8170474767684937,3.187803030014038,2698.606201171875,0
1536.4019999999982,-0.013547578826546669,-0.017608340829610825,-0.0008158900309354067,0.0,0.0,0.0,0.0,-0.0005260438774712384,-0.003523609833791852,-0.0039863381534814835,0.9995761513710022,0.0,0.0,0.0,-14.912880897521973,1.8076343536376953,3.183095932006836,2699.260986328125,0
1546.3149999999987,-0.013622182421386242,-0.017592694610357285,-0.0008156211115419865,0.0,0.0,0.0,0.0,0.0008450729656033218,-0.0007280693389475346,-0.00029216177063062787,0.9990783929824829,0.0,0.0,0.0,-14.912857055664062,1.8068534135818481,3.182304859161377,2699.256591796875,0
1556.2239999999983,-0.01363366562873125,-0.017614437267184258,-0.0008124218438751996,0.0,0.0,0.0,0.0,0.0016570626758038998,0.0029001219663769007,-0.0011838654754683375,0.9993013143539429,0.0,0.0,0.0,-14.917231559753418,1.7998427152633667,3.1869239807128906,2700.048583984375,0
1566.1399999999994,-0.013645874336361885,-0.017602091655135155,-0.0007923817611299455,0.0,0.0,0.0,0.0,-0.0005289568798616529,0.0002120389835909009,-0.0005938682006672025,1.0013315677642822,0.0,0.0,0.0,-14.916707038879395,1.8068435192108154,3.1887834072113037,2699.95361328125,0
1576.048999999999,-0.013642176054418087,-0.01761823147535324,-0.0008057920495048165,0.0,0.0,0.0,0.0,0.00016873326967470348,-0.0029459455981850624,0.0030470145866274834,0.9999693632125854,0.0,0.0,0.0,-14.912899017333984,1.7979696989059448,3.179664373397827,2699.26416015625,0
1585.9619999999995,-0.01365070790052414,-0.017612362280488014,-0.0007855500443838537,0.0,0.0,0.0,0.0,0.0009803547291085124,0.002120722783729434,-0.0016537768533453345,0.9995535016059875,0.0,0.0,0.0,-14.911377906799316,1.799696922302246,3.18798828125,2698.989013671875,0
1595.8809999999994,-0.0136430524289608,-0.017627911642193794,-0.0008005704148672521,0.0,0.0,0.0,0.0,0.0014033674960955977,0.0010068415431305766,0.0004897434264421463,0.9958838820457458,0.0,0.0,0.0,-14.909567832946777,1.8034923076629639,3.1863582134246826,2698.66162109375,0
1605.7919999999995,-0.013589682057499886,-0.01764952391386032,-0.0007802352192811668,0.0,0.0,0.0,0.0,-0.001954056089743972,-0.002688185777515173,0.0026712240651249886,0.997888445854187,0.0,0.0,0.0,-14.901402473449707,1.7989866733551025,3.1946446895599365,2697.183349609375,0
1615.6969999999983,-0.013584394939243793,-0.01766551285982132,-0.0007915165042504668,0.0,0.0,0.0,0.0,0.001637282082810998,0.006746219005435705,-0.003392203478142619,0.9996158480644226,0.0,0.0,0.0,-14.89938735961914,1.7973781824111938,3.1988632678985596,2696.818603515625,0
1625.6099999999988,-0.01353008858859539,-0.017672168090939522,-0.0007649763720110059,0.0,0.0,0.0,0.0,0.0006853168015368283,0.0024556349962949753,0.0016807068604975939,0.9997826814651489,0.0,0.0,0.0,-14.902276992797852,1.7950109243392944,3.1972806453704834,2697.341796875,0
1635.521999999999,-0.013523702509701252,-0.017666945233941078,-0.0007650390034541488,0.0,0.0,0.0,0.0,0.0012432136572897434,0.003038712777197361,0.000404236139729619,1.0012333393096924,0.0,0.0,0.0,-14.901659965515137,1.797364592552185,3.18822979927063,2697.22998046875,0
1645.4339999999993,-0.013572493568062782,-0.017683790996670723,-0.0007746394257992506,0.0,0.0,0.0,0.0,-0.0025283508002758026,0.0023367071989923716,0.002238573506474495,1.0008891820907593,0.0,0.0,0.0,-14.90435791015625,1.7886874675750732,3.1795742511749268,2697.71826171875,0
1655.3459999999995,-0.013553552329540253,-0.017667610198259354,-0.0007898537442088127,0.0,0.0,0.0,0.0,0.0023410392459481955,0.00021751651365775615,0.0020260061137378216,0.998385488986969,0.0,0.0,0.0,-14.906060218811035,1.7995904684066772,3.1703200340270996,2698.0263671875,0
1665.2609999999986,-0.013593141920864582,-0.017679743468761444,-0.0007914853049442172,0.0,0.0,0.0,0.0,-0.0026037280913442373,0.001289843930862844,0.0006237974739633501,0.9989208579063416,0.0,0.0,0.0,-14.908302307128906,1.7937371730804443,3.174915313720703,2698.432373046875,0
1675.1689999999999,-0.013565425761044025,-0.017631739377975464,-0.0008069277391768992,0.0,0.0,0.0,0.0,0.0020568203181028366,0.002249422948807478,0.000395010516513139,0.9975278377532959,0.0,0.0,0.0,-14.907452583312988,1.8056334257125854,3.1667730808258057,2698.27880859375,0
1685.083999999999,-0.013590959832072258,-0.017651185393333435,-0.0008124870946630836,0.0,0.0,0.0,0.0,-0.0013533661840483546,0.006303289905190468,0.00024314915935974568,0.999002993106842,0.0,0.0,0.0,-14.908437728881836,1.7976086139678955,3.1615967750549316,2698.45703125,0
1694.994999999999,-0.013572611846029758,-0.017617132514715195,-0.0008255810244008899,0.0,0.0,0.0,0.0,-0.0008467118022963405,-0.0009894078830257058,-0.0015961998142302036,0.9998363256454468,0.0,0.0,0.0,-14.905391693115234,1.8105672597885132,3.147003650665283,2697.905517578125,0
1704.9119999999984,-0.013594664633274078,-0.017592424526810646,-0.0008133419323712587,0.0,0.0,0.0,0.0,0.0008707874221727252,-0.0004710209905169904,-0.0011465594870969653,0.9992867112159729,0.0,0.0,0.0,-14.903035163879395,1.8139731884002686,3.154320478439331,2697.47900390625,0
1714.816999999999,-0.013585657812654972,-0.017564576119184494,-0.000817422172985971,0.0,0.0,0.0,0.0,-0.0009563828934915364,0.002208002144470811,-0.00483578210696578,0.998174250125885,0.0,0.0,0.0,-14.899443626403809,1.8175181150436401,3.1429059505462646,2696.8291015625,0
1724.7509999999984,-0.013616845943033695,-0.017559779807925224,-0.0008143531158566475,0.0,0.0,0.0,0.0,0.005154862999916077,-0.0013912771828472614,-0.0029013603925704956,0.998836874961853,0.0,0.0,0.0,-14.904448509216309,1.8199982643127441,3.1333160400390625,2697.73486328125,0
1734.6549999999988,-0.013619224540889263,-0.017599795013666153,-0.0008316823514178395,0.0,0.0,0.0,0.0,-0.0006464525940828025,0.0002307481481693685,-0.005887528415769339,0.9977384209632874,0.0,0.0,0.0,-14.905710220336914,1.8080103397369385,3.1338751316070557,2697.96337890625,0
1744.5589999999993,-0.013577250763773918,-0.017605261877179146,-0.0008186365594156086,0.0,0.0,0.0,0.0,-0.0005768981063738465,0.0012067279312759638,0.0007592639303766191,0.9994452595710754,0.0,0.0,0.0,-14.901838302612305,1.804845929145813,3.154548168182373,2697.262451171875,0
1754.4689999999991,-0.013611815869808197,-0.017637256532907486,-0.0007824051426723599,0.0,0.0,0.0,0.0,0.00199343403801322,-0.002897650934755802,0.0026281485334038734,0.9990301132202148,0.0,0.0,0.0,-14.904308319091797,1.8046573400497437,3.14778995513916,2697.70947265625,0
1764.3829999999998,-0.01358657144010067,-0.017674075439572334,-0.000782944553066045,0.0,0.0,0.0,0.0,-0.0029670519288629293,0.0002836897037923336,0.0012807779712602496,1.0003941059112549,0.0,0.0,0.0,-14.906709671020508,1.7952855825424194,3.1574928760528564,2698.14404296875,0
1774.2909999999993,-0.013643527403473854,-0.017717596143484116,-0.0007198814419098198,0.0,0.0,0.0,0.0,0.00397407216951251,0.0033865037839859724,0.0001202831044793129,1.0014901161193848,0.0,0.0,0.0,-14.903582572937012,1.7881371974945068,3.1429283618927,2697.577880859375,0
1784.2019999999993,-0.013536819256842136,-0.017759842798113823,-0.0006882564048282802,0.0,0.0,0.0,0.0,-0.0034690662287175655,-0.0031330708879977465,0.0017008106224238873,1.000227451324463,0.0,0.0,0.0,-14.905292510986328,1.779684066772461,3.157792568206787,2697.887451171875,0
1794.1229999999996,-0.013536929152905941,-0.01773616299033165,-0.0006655119359493256,0.0,0.0,0.0,0.0,-0.0021779737435281277,0.0015369151951745152,-2.0792442228412256e-05,0.9999392628669739,0.0,0.0,0.0,-14.907535552978516,1.7907540798187256,3.1575915813446045,2698.293701171875,0
1804.0329999999994,-0.013542437925934792,-0.017717882990837097,-0.0006369920447468758,0.0,0.0,0.0,0.0,-0.0005632862448692322,-0.0009253467433154583,-0.003694184822961688,1.0001158714294434,0.0,0.0,0.0,-14.908546447753906,1.79437255859375,3.1531314849853516,2698.4765625,0
1813.9449999999997,-0.013499136082828045,-0.0176467876881361,-0.0006575415609404445,0.0,0.0,0.0,0.0,0.0007310804212465882,-0.0004927928675897419,0.001721286796964705,1.0020965337753296,0.0,0.0,0.0,-14.90501594543457,1.8154600858688354,3.154611587524414,2697.837646484375,0
1823.857,-0.013527519069612026,-0.017643481492996216,-0.0006472277455031872,0.0,0.0,0.0,0.0,-0.001514365547336638,0.0012065548216924071,-0.0010918511543422937,1.000724196434021,0.0,0.0,0.0,-14.907052993774414,1.8116410970687866,3.152989149093628,2698.206298828125,0
1833.7729999999992,-0.013507242314517498,-0.017639903351664543,-0.00066417979542166,0.0,0.0,0.0,0.0,0.00177948665805161,-0.0019948319531977177,-0.0005724231014028192,0.9985687732696533,0.0,0.0,0.0,-14.908288955688477,1.809491753578186,3.1368274688720703,2698.429931640625,0
1843.6819999999989,-0.013572139665484428,-0.017675066366791725,-0.0006851244834251702,0.0,0.0,0.0,0.0,0.0028936744201928377,-0.0005373144522309303,0.0019756616093218327,0.9982535243034363,0.0,0.0,0.0,-14.913460731506348,1.7955721616744995,3.1432816982269287,2699.365966796875,0
1853.592999999999,-0.013546952977776527,-0.017662547528743744,-0.0007154657505452633,0.0,0.0,0.0,0.0,0.0011821266962215304,-0.0015956915449351072,0.0018787846202030778,0.9984322190284729,0.0,0.0,0.0,-14.91757583618164,1.7965190410614014,3.1413443088531494,2700.11083984375,0
1863.4969999999994,-0.01364124845713377,-0.017641926184296608,-0.0007203881395980716,0.0,0.0,0.0,0.0,0.001401763642206788,-0.00280603114515543,0.0007557153585366905,0.9996044039726257,0.0,0.0,0.0,-14.91791820526123,1.7931617498397827,3.135282278060913,2700.1728515625,0
1873.4119999999984,-0.013571714051067829,-0.017562607303261757,-0.0007975006010383368,0.0,0.0,0.0,0.0,-0.001440577325411141,-0.001367098418995738,0.0010606474243104458,0.9998642206192017,0.0,0.0,0.0,-14.916207313537598,1.8097922801971436,3.1370880603790283,2699.86328125,0
1883.325999999999,-0.01367464940994978,-0.017536144703626633,-0.0008164505707100034,0.0,0.0,0.0,0.0,0.0014730228576809168,0.0023042955435812473,0.0006416825926862657,0.997404158115387,0.0,0.0,0.0,-14.908770561218262,1.8129016160964966,3.130141258239746,2698.51708984375,0
1893.2509999999984,-0.013639703392982483,-0.017505329102277756,-0.000875706784427166,0.0,0.0,0.0,0.0,-0.000932899012695998,-0.0017468924634158611,0.00043686703429557383,0.9960766434669495,0.0,0.0,0.0,-14.912496566772461,1.8184438943862915,3.13744854927063,2699.19140625,0
1903.1439999999984,-0.013729945756494999,-0.01745118759572506,-0.0008825643453747034,0.0,0.0,0.0,0.0,-0.001641524606384337,-0.0006932950345799327,-0.0021864608861505985,0.9997063279151917,0.0,0.0,0.0,-14.907291412353516,1.825900912284851,3.129103899002075,2698.24951171875,0
1913.0629999999983,-0.013743263669312,-0.017454741522669792,-0.000900890096090734,0.0,0.0,0.0,0.0,0.00043625454418361187,0.0012012793449684978,-0.0013723456067964435,1.0002690553665161,0.0,0.0,0.0,-14.906509399414062,1.8294795751571655,3.122314691543579,2698.107666015625,0
1922.9719999999998,-0.013761135749518871,-0.017439959570765495,-0.000897012185305357,0.0,0.0,0.0,0.0,0.0009935300331562757,-0.000544367590919137,0.0003619835479184985,0.9991756081581116,0.0,0.0,0.0,-14.91382122039795,1.8290677070617676,3.1219894886016846,2699.43115234375,0
1932.8889999999992,-0.013777565211057663,-0.017439788207411766,-0.0009108487283810973,0.0,0.0,0.0,0.0,0.0015112468972802162,0.0022843279875814915,0.00052055245032534,0.999675452709198,0.0,0.0,0.0,-14.918383598327637,1.8267312049865723,3.1269078254699707,2700.257080078125,0
1942.7929999999997,-0.01373344473540783,-0.017459027469158173,-0.0009128039237111807,0.0,0.0,0.0,0.0,0.0009367517777718604,-0.0015281819505617023,0.000955142080783844,0.9975219368934631,0.0,0.0,0.0,-14.913150787353516,1.827701210975647,3.1274335384368896,2699.31005859375,0
1952.7069999999985,-0.013746310025453568,-0.017461786046624184,-0.0009316227515228093,0.0,0.0,0.0,0.0,-0.00010753634705906734,-0.0014673194382339716,0.0036377524957060814,0.9990901947021484,0.0,0.0,0.0,-14.91181468963623,1.8257521390914917,3.123555898666382,2699.068115234375,0
1962.625,-0.013679089955985546,-0.017495669424533844,-0.0009250008733943105,0.0,0.0,0.0,0.0,0.0008395287441089749,0.00012017345579806715,-0.0009030457586050034,0.9996951222419739,0.0,0.0,0.0,-14.911625862121582,1.8182692527770996,3.147224187850952,2699.033935546875,0
1972.5329999999994,-0.013753059320151806,-0.017590509727597237,-0.0008882323745638132,0.0,0.0,0.0,0.0,-0.0036387378349900246,0.005481245927512646,0.0014233906986191869,1.000725269317627,0.0,0.0,0.0,-14.91081428527832,1.794033169746399,3.139414072036743,2698.886962890625,0
1982.4399999999987,-0.013607189990580082,-0.01762663945555687,-0.0008543184958398342,0.0,0.0,0.0,0.0,-0.00011846770939882845,0.005184425972402096,0.00032553961500525475,0.9975649118423462,0.0,0.0,0.0,-14.903564453125,1.793669581413269,3.1632590293884277,2697.57470703125,0
1992.3599999999988,-0.013653125613927841,-0.017668113112449646,-0.000821281922981143,0.0,0.0,0.0,0.0,-0.000223468872718513,0.003038952127099037,-0.00031270936597138643,0.9987770318984985,0.0,0.0,0.0,-14.89807415008545,1.7868212461471558,3.142981767654419,2696.5810546875,0
2002.2659999999996,-0.013593054376542568,-0.017667556181550026,-0.0007893709116615355,0.0,0.0,0.0,0.0,-0.002723349491134286,-0.003997666295617819,-0.0002281440538354218,1.0025503635406494,0.0,0.0,0.0,-14.892557144165039,1.7864793539047241,3.147592544555664,2695.58251953125,0
2012.1819999999989,-0.013634010218083858,-0.01771559566259384,-0.0007599841337651014,0.0,0.0,0.0,0.0,0.0007553026080131531,0.000568235176615417,0.005198872648179531,0.9996453523635864,0.0,0.0,0.0,-14.896848678588867,1.783304214477539,3.1468276977539062,2696.359130859375,0
2022.0949999999993,-0.013592945411801338,-0.01771404594182968,-0.0007274075178429484,0.0,0.0,0.0,0.0,-0.0006305279675871134,-0.0025246127042919397,0.0016230071196332574,1.0009204149246216,0.0,0.0,0.0,-14.880751609802246,1.778585433959961,3.145578384399414,2693.445556640625,0
2032.0099999999984,-0.01361475232988596,-0.01772541180253029,-0.000707806961145252,0.0,0.0,0.0,0.0,0.0022610274609178305,0.004097305238246918,-0.0021964709740132093,0.999071478843689,0.0,0.0,0.0,-14.878314971923828,1.7824652194976807,3.1509854793548584,2693.004638671875,0
2041.9189999999999,-0.013588733039796352,-0.017745792865753174,-0.0006871869554743171,0.0,0.0,0.0,0.0,-0.000797863700427115,-0.00045258310274221003,0.0012168261455371976,1.0015989542007446,0.0,0.0,0.0,-14.869806289672852,1.7777795791625977,3.1610400676727295,2691.464599609375,0
2051.834999999999,-0.013595959171652794,-0.017725102603435516,-0.0006729832966811955,0.0,0.0,0.0,0.0,-0.0008937400998547673,3.481868770904839e-05,0.0039395662024617195,1.0031765699386597,0.0,0.0,0.0,-14.875088691711426,1.7882088422775269,3.1574225425720215,2692.420654296875,0
2061.741,-0.013598727062344551,-0.017732318490743637,-0.0006518342415802181,0.0,0.0,0.0,0.0,-0.0017337003955617547,0.002058654325082898,-0.0026387993711978197,0.9997038245201111,0.0,0.0,0.0,-14.86740493774414,1.7847065925598145,3.1556055545806885,2691.02978515625,0
2071.651999999998,-0.013555051758885384,-0.01766492985188961,-0.0006890333606861532,0.0,0.0,0.0,0.0,0.00064449681667611,-0.0006071313400752842,-0.002829421078786254,0.9994035363197327,0.0,0.0,0.0,-14.87038516998291,1.801102638244629,3.1563875675201416,2691.569580078125,0
2081.565999999999,-0.013654070906341076,-0.017642443999648094,-0.0006808156613260508,0.0,0.0,0.0,0.0,1.7298580132774077e-05,-0.004109553527086973,0.0004832739650737494,0.9991825819015503,0.0,0.0,0.0,-14.873638153076172,1.804052472114563,3.1386642456054688,2692.158203125,0
2091.477999999999,-0.013636506162583828,-0.017627893015742302,-0.0007105462718755007,0.0,0.0,0.0,0.0,0.0028112391009926796,-0.0007434720755554736,-0.0024088139180094004,1.0006375312805176,0.0,0.0,0.0,-14.877740859985352,1.8082343339920044,3.1482815742492676,2692.900634765625,0
2101.387999999999,-0.01367015577852726,-0.017632920295000076,-0.0006986594526097178,0.0,0.0,0.0,0.0,0.002622550819069147,0.0017268562223762274,-0.004331829026341438,1.0003411769866943,0.0,0.0,0.0,-14.882105827331543,1.8103333711624146,3.1513900756835938,2693.69091796875,0
2111.298999999999,-0.013552329502999783,-0.017487309873104095,-0.0008231165120378137,0.0,0.0,0.0,0.0,-0.002788376994431019,-0.005221979226917028,0.005090401507914066,0.9978312849998474,0.0,0.0,0.0,-14.879555702209473,1.841413974761963,3.1583449840545654,2693.229248046875,0
2121.2119999999995,-0.013559868559241295,-0.0175461582839489,-0.000847376708406955,0.0,0.0,0.0,0.0,0.0020477245561778545,0.0017073667841032147,0.001383793307468295,0.9982185959815979,0.0,0.0,0.0,-14.883737564086914,1.8283425569534302,3.1765027046203613,2693.986328125,0
2131.124,-0.013506635092198849,-0.017497936263680458,-0.0009297424694523215,0.0,0.0,0.0,0.0,0.0024555991403758526,0.0021417702082544565,-0.0005984265590086579,1.0005519390106201,0.0,0.0,0.0,-14.879799842834473,1.8390355110168457,3.1834146976470947,2693.2734375,0
2141.0369999999984,-0.013564937748014927,-0.017529046162962914,-0.0009643022785894573,0.0,0.0,0.0,0.0,-0.0011290652910247445,0.001895005814731121,0.0007344936020672321,1.0027896165847778,0.0,0.0,0.0,-14.879892349243164,1.8254811763763428,3.175468921661377,2693.2900390625,0
