timestamp,stateEstimate.x,stateEstimate.y,stateEstimate.z,controller.cmd_thrust,controller.cmd_roll,controller.cmd_pitch,controller.cmd_yaw,controller.r_roll,controller.r_pitch,controller.r_yaw,controller.accelz,controller.actuatorThrust,controller.roll,controller.pitch,controller.yaw,controller.rollRate,controller.pitchRate,controller.yawRate,controller.ctr_yaw
0.0,-0.00016585471166763455,-0.00017635358381085098,2.7602769478107803e-05,0.0,0.0,0.0,0.0,-0.0005887944716960192,-0.004756777081638575,-0.0018858000403270125,1.0004866123199463,0.0,0.0,0.0,0.32740113139152527,1.68153715133667,5.1349616050720215,-59.260257720947266,0
9.913000000000466,-0.00012521604367066175,-7.736519182799384e-05,-5.768971823272295e-05,0.0,0.0,0.0,0.0,-0.00035703546018339694,0.0013293962692841887,0.002416179981082678,0.9980950355529785,0.0,0.0,0.0,0.32633018493652344,1.678409218788147,5.135025501251221,-59.06641387939453,0
19.82300000000032,-0.00010660551924956962,-0.00010443870996823534,-4.296426413930021e-05,0.0,0.0,0.0,0.0,0.0011907083680853248,-0.00028872242546640337,0.0017622297164052725,0.9979559183120728,0.0,0.0,0.0,0.32619255781173706,1.6751809120178223,5.1260504722595215,-59.04150390625,0
29.73400000000038,-8.678111043991521e-05,-4.173310298938304e-05,-0.00011904594430234283,0.0,0.0,0.0,0.0,0.0010253223590552807,-0.0015625866362825036,-0.001094456179998815,0.9992441534996033,0.0,0.0,0.0,0.32603275775909424,1.6717056035995483,5.1162028312683105,-59.012577056884766,0
39.646999999999025,-0.00013648250023834407,-6.462533201556653e-05,-0.00013446535740513355,0.0,0.0,0.0,0.0,0.0033673092257231474,-0.001074252650141716,0.00192224548663944,1.0000319480895996,0.0,0.0,0.0,0.3251568675041199,1.6655150651931763,5.109654903411865,-58.854042053222656,0
49.55999999999949,-0.00015190358681138605,-1.8874454326578416e-05,-0.00018088646174874157,0.0,0.0,0.0,0.0,-0.0001449726551072672,-0.007642811629921198,0.004427171312272549,1.0004531145095825,0.0,0.0,0.0,0.32498452067375183,1.6601250171661377,5.111057758331299,-58.82284164428711,0
59.47600000000057,-4.0487466321792454e-05,-7.623465353390202e-05,-0.00013514867168851197,0.0,0.0,0.0,0.0,-0.001500848331488669,-0.004350263625383377,0.0026552847120910883,1.0009468793869019,0.0,0.0,0.0,0.3261706531047821,1.6593332290649414,5.115562438964844,-59.037532806396484,0
69.39300000000003,-7.103173993527889e-05,-7.136058411560953e-05,-0.00016340750153176486,0.0,0.0,0.0,0.0,0.0009932321263477206,-0.0012650825083255768,-0.0017511564074084163,1.0013409852981567,0.0,0.0,0.0,0.3264259696006775,1.6616324186325073,5.11789608001709,-59.0837516784668,0
79.29800000000068,-3.670220758067444e-05,-6.834866508143023e-05,-0.0001315622648689896,0.0,0.0,0.0,0.0,-0.0027810290921479464,-0.0017205070471391082,-0.0024050052743405104,1.0003018379211426,0.0,0.0,0.0,0.3261556625366211,1.6621063947677612,5.114095687866211,-59.03482437133789,0
89.21199999999953,-6.763391138520092e-05,-5.3100837249075994e-05,-0.00015209107368718833,0.0,0.0,0.0,0.0,-0.00040290181641466916,-0.003190333256497979,-0.0005523605505004525,1.0035206079483032,0.0,0.0,0.0,0.32551681995391846,1.6635668277740479,5.108259677886963,-58.91919708251953,0
99.1299999999992,-3.832337461062707e-05,-4.393551716930233e-05,-0.00011583966988837346,0.0,0.0,0.0,0.0,0.0021604211069643497,-0.0004867587995249778,-0.0018677342450246215,1.0028942823410034,0.0,0.0,0.0,0.3253643810749054,1.6694552898406982,5.104976177215576,-58.891605377197266,0
109.03900000000067,-5.871352186659351e-05,-1.9067352695856243e-05,-0.00014706552610732615,0.0,0.0,0.0,0.0,0.0015298513462767005,-7.341201126109809e-05,-0.00202446267940104,0.9975593090057373,0.0,0.0,0.0,0.32524359226226807,1.6582350730895996,5.09977912902832,-58.86974334716797,0
118.95199999999932,-2.529351149860304e-05,-4.2604227928677574e-05,-0.0001200554397655651,0.0,0.0,0.0,0.0,-0.0005039299139752984,0.0030505552422255278,-0.0011790115386247635,0.9960090517997742,0.0,0.0,0.0,0.3253243565559387,1.6544979810714722,5.09410285949707,-58.88435745239258,0
128.87099999999919,-0.00010432341514388099,-6.646740075666457e-05,-9.370675252284855e-05,0.0,0.0,0.0,0.0,0.00026790265110321343,-0.001357909175567329,0.0017078525852411985,0.9986366033554077,0.0,0.0,0.0,0.31670236587524414,1.6575236320495605,5.091932773590088,-57.323760986328125,0
138.78800000000047,-3.5340020986041054e-05,-0.00010381030006101355,-6.089359158067964e-05,0.0,0.0,0.0,0.0,-0.0032011091243475676,-0.0036994190886616707,0.0048232125118374825,1.0001733303070068,0.0,0.0,0.0,0.3183068633079529,1.6570229530334473,5.087306022644043,-57.614173889160156,0
148.6890000000003,-8.595018880441785e-05,-0.00011654473200906068,-7.270897185662761e-05,0.0,0.0,0.0,0.0,-0.002072501229122281,7.866398664191365e-05,0.002532553393393755,1.0002813339233398,0.0,0.0,0.0,0.3254258930683136,1.6683636903762817,5.0891571044921875,-58.90273666381836,0
158.61499999999978,-2.965111707453616e-05,-0.00015479275316465646,-3.846289837383665e-05,0.0,0.0,0.0,0.0,-0.0020334389992058277,0.0006247239070944488,-0.002739106770604849,0.997327983379364,0.0,0.0,0.0,0.3254280984401703,1.6686830520629883,5.085366249084473,-58.903133392333984,0
168.51699999999983,-0.00011132037616334856,-0.00016585338744334877,-8.439651537628379e-06,0.0,0.0,0.0,0.0,0.0012330136960372329,-0.0017842845991253853,0.0020511839538812637,0.9980987906455994,0.0,0.0,0.0,0.32508620619773865,1.6682556867599487,5.076322555541992,-58.841243743896484,0
178.4439999999995,-0.0001788579684216529,-0.00019735236128326505,-6.044697329343762e-06,0.0,0.0,0.0,0.0,0.0005176562117412686,-0.0006719204247929156,0.001051600556820631,0.9968019127845764,0.0,0.0,0.0,0.32527488470077515,1.6664621829986572,5.074982166290283,-58.875404357910156,0
188.34200000000055,-0.00019390948000364006,-0.00011014535994036123,-3.708430449478328e-05,0.0,0.0,0.0,0.0,-0.0005137933185324073,-7.071936124702916e-05,0.004069898277521133,0.9980363845825195,0.0,0.0,0.0,0.32722365856170654,1.6642032861709595,5.076327800750732,-59.22813034057617,0
198.26000000000022,-0.0002630091330502182,-0.00013609712186735123,-4.121207166463137e-05,0.0,0.0,0.0,0.0,0.003525658743456006,-0.00010453438881086186,0.0037000009324401617,1.0002810955047607,0.0,0.0,0.0,0.3287157118320465,1.6639384031295776,5.068747043609619,-59.49819564819336,0
208.17300000000068,-0.0003098702582065016,-7.719743007328361e-05,-6.320465763565153e-05,0.0,0.0,0.0,0.0,0.00043720484245568514,-0.002488207072019577,-0.0007615524809807539,1.0010616779327393,0.0,0.0,0.0,0.32889407873153687,1.6538087129592896,5.07029390335083,-59.53048324584961,0
218.10200000000077,-0.00038194144144654274,-0.00010090619616676122,-6.867047341074795e-05,0.0,0.0,0.0,0.0,-0.0009529107483103871,0.0003568737884052098,0.00038630457129329443,0.9987643957138062,0.0,0.0,0.0,0.3273802101612091,1.6530143022537231,5.06662654876709,-59.2564697265625,0
227.9940000000006,-0.0004243830044288188,-3.904777986463159e-05,-0.0001090897640096955,0.0,0.0,0.0,0.0,0.0012389661278575659,0.0008878404623828828,-0.0021807244047522545,0.9987614154815674,0.0,0.0,0.0,0.3278209865093231,1.6507699489593506,5.067813396453857,-59.33625411987305,0
237.91599999999926,-0.0004965191474184394,-6.024475806043483e-05,-0.00011806404654635116,0.0,0.0,0.0,0.0,0.0014239673037081957,0.0016287029720842838,0.001968878088518977,0.9987709522247314,0.0,0.0,0.0,0.3268611431121826,1.6451853513717651,5.056190013885498,-59.162513732910156,0
247.8209999999999,-0.0004980332450941205,5.7122069847537205e-06,-0.0001890610728878528,0.0,0.0,0.0,0.0,-0.004015019163489342,-0.008188989013433456,0.0004115185292903334,0.9977192878723145,0.0,0.0,0.0,0.32556331157684326,1.670130729675293,5.084070682525635,-58.927608489990234,0
257.7459999999992,-0.0005666795768775046,-1.1978923794231378e-05,-0.00020540936384350061,0.0,0.0,0.0,0.0,0.0004895051242783666,-0.0011178551940247416,0.00017987086903303862,1.000203013420105,0.0,0.0,0.0,0.32469940185546875,1.6735790967941284,5.098639011383057,-58.77123260498047,0
267.64899999999943,-0.0005767412367276847,5.4866039135959e-05,-0.0002543447189964354,0.0,0.0,0.0,0.0,0.0017343983054161072,0.0023977316450327635,-0.0003817334945779294,0.9967446327209473,0.0,0.0,0.0,0.3249393105506897,1.6720460653305054,5.1001787185668945,-58.814659118652344,0
277.5709999999999,-0.0006408148910850286,4.532251841737889e-05,-0.0002759677590802312,0.0,0.0,0.0,0.0,-0.0012410469353199005,-0.003416948253288865,-0.0010724214371293783,0.9982594847679138,0.0,0.0,0.0,0.3243536651134491,1.6637715101242065,5.087606430053711,-58.708656311035156,0
287.48199999999997,-0.0006466665072366595,0.00010759235738078132,-0.0003264811239205301,0.0,0.0,0.0,0.0,0.002400832949206233,-0.0009267175919376314,0.002155846217647195,1.0011111497879028,0.0,0.0,0.0,0.323952317237854,1.6658225059509277,5.087402820587158,-58.63601303100586,0
297.39300000000003,-0.0007074064924381673,0.00010386554640717804,-0.00035308560472913086,0.0,0.0,0.0,0.0,0.0030258207116276026,0.005510586313903332,0.0031809911597520113,0.9987694621086121,0.0,0.0,0.0,0.3244878947734833,1.6600195169448853,5.0802788734436035,-58.73295211791992,0
307.3029999999999,-0.000734540750272572,9.080506424652413e-05,-0.0004209945327602327,0.0,0.0,0.0,0.0,-0.0018711108714342117,-0.002916022203862667,0.005100565031170845,1.0004531145095825,0.0,0.0,0.0,0.31661078333854675,1.6517219543457031,5.082498550415039,-57.307186126708984,0
317.21800000000076,-0.0007976765045896173,8.360797073692083e-05,-0.00045055110240355134,0.0,0.0,0.0,0.0,0.0020113408099859953,-0.0015311180613934994,0.0014858407666906714,1.0012935400009155,0.0,0.0,0.0,0.317310094833374,1.6524356603622437,5.089061737060547,-57.43376159667969,0
327.1290000000008,-0.0008217768045142293,0.00012559503375086933,-0.0004913912853226066,0.0,0.0,0.0,0.0,0.0004564773407764733,0.003798115300014615,0.001611487241461873,1.0017240047454834,0.0,0.0,0.0,0.31035706400871277,1.6707935333251953,5.107670307159424,-56.17524719238281,0
337.04899999999907,-0.00014325499068945646,-0.00015095126582309604,6.602269422728568e-05,0.0,0.0,0.0,0.0,0.000407998712034896,-0.0006956103607080877,0.0033344540279358625,1.0002474784851074,0.0,0.0,0.0,0.31250667572021484,1.616806149482727,5.249303340911865,-56.5643310546875,0
346.95700000000033,-0.00011551760690053925,-9.261249215342104e-05,-6.217208465386648e-06,0.0,0.0,0.0,0.0,-0.002470968058332801,0.00417220639064908,-0.0015405139420181513,0.9995429515838623,0.0,0.0,0.0,0.30680492520332336,1.6304086446762085,5.258975505828857,-55.53229904174805,0
356.8719999999994,-0.00011173912207596004,-0.00011355403694324195,2.8952622415090445e-06,0.0,0.0,0.0,0.0,-0.0018794232746586204,-0.0028443201445043087,-0.0013054792070761323,1.0018723011016846,0.0,0.0,0.0,0.30589669942855835,1.62650465965271,5.244091510772705,-55.36791229248047,0
366.77700000000004,-9.577723540132865e-05,-7.860979530960321e-05,-5.409109508036636e-05,0.0,0.0,0.0,0.0,-0.0008671934483572841,-0.0013742779847234488,-0.00453149015083909,1.0004665851593018,0.0,0.0,0.0,0.3056187331676483,1.628399133682251,5.2474751472473145,-55.317596435546875,0
376.6970000000001,-6.459731957875192e-05,-8.288011304102838e-05,-2.3270142264664173e-05,0.0,0.0,0.0,0.0,-0.0012435135431587696,0.004791509360074997,-0.0008803149103187025,1.0013178586959839,0.0,0.0,0.0,0.31154054403305054,1.6281702518463135,5.247006893157959,-56.38945770263672,0
386.60299999999916,-9.382730058860034e-05,-7.671653293073177e-05,-2.253328602819238e-05,0.0,0.0,0.0,0.0,-0.001995297148823738,0.002188475336879492,2.6312553018215112e-05,1.0009634494781494,0.0,0.0,0.0,0.31087303161621094,1.6267932653427124,5.235374927520752,-56.268638610839844,0
396.52499999999964,-9.613688598619774e-05,-0.0001171105177490972,-2.0002533346996643e-05,0.0,0.0,0.0,0.0,-0.00023651703668292612,-0.002183700678870082,-0.0012469749199226499,0.9988870620727539,0.0,0.0,0.0,0.3111295998096466,1.6265491247177124,5.218836307525635,-56.3150749206543,0
406.4329999999991,-8.980162965599447e-05,-8.781864016782492e-05,-6.544557254528627e-05,0.0,0.0,0.0,0.0,0.003631001338362694,0.00279048434458673,0.0010051516583189368,0.9980458617210388,0.0,0.0,0.0,0.3103385269641876,1.6266422271728516,5.215926170349121,-56.17189025878906,0
416.35200000000077,-0.00010414955613669008,-0.00012899476860184222,-6.919349107192829e-05,0.0,0.0,0.0,0.0,0.001004591817036271,0.00105681037530303,-0.0015418216353282332,0.9987664818763733,0.0,0.0,0.0,0.3103438913822174,1.6224267482757568,5.208000659942627,-56.1728630065918,0
426.2549999999992,-0.00012937492283526808,-0.00010029730037786067,-7.973582250997424e-05,0.0,0.0,0.0,0.0,0.0001459836057620123,0.0018507185159251094,0.0006796797388233244,1.0001122951507568,0.0,0.0,0.0,0.3155861794948578,1.6287230253219604,5.199562072753906,-57.12172317504883,0
436.1769999999997,-5.8501962485024706e-05,-0.00013748880883213133,-5.4091222409624606e-05,0.0,0.0,0.0,0.0,-0.00241750106215477,-0.003287107916548848,-0.0003089879173785448,1.001515507698059,0.0,0.0,0.0,0.315683513879776,1.6255226135253906,5.190866470336914,-57.139347076416016,0
446.08100000000013,-7.21955148037523e-05,-0.0001259133714484051,-8.783281373325735e-05,0.0,0.0,0.0,0.0,-0.00284143490716815,0.0011003190884366632,-0.003986471798270941,1.0009351968765259,0.0,0.0,0.0,0.3093133568763733,1.6328086853027344,5.190430641174316,-55.98633575439453,0
456.0030000000006,-3.1860312446951866e-05,-0.00014675634156446904,-5.988797056488693e-05,0.0,0.0,0.0,0.0,0.0014675282873213291,0.0012297012144699693,-0.0013244434958323836,1.0000526905059814,0.0,0.0,0.0,0.3087225556373596,1.63447904586792,5.184393882751465,-55.879398345947266,0
465.90699999999924,-7.731759978923947e-05,-0.00012314296327531338,-4.8264690121868625e-05,0.0,0.0,0.0,0.0,-0.00129467505030334,-0.003092206781730056,-0.002252910053357482,0.9988477826118469,0.0,0.0,0.0,0.30722776055336,1.6261699199676514,5.172321319580078,-55.60883712768555,0
475.83300000000054,-4.9781596317188814e-05,-0.00015244065434671938,-2.38410630117869e-05,0.0,0.0,0.0,0.0,-0.00026388480910100043,-0.002918015234172344,-0.001216270262375474,0.9979975819587708,0.0,0.0,0.0,0.3067820072174072,1.6264662742614746,5.169556617736816,-55.52815246582031,0
485.7340000000004,-9.845942258834839e-05,-0.0001723691530060023,-3.100913454545662e-05,0.0,0.0,0.0,0.0,-0.0012468836503103375,-0.00012846585013903677,0.0007311151712201536,0.9990774989128113,0.0,0.0,0.0,0.30592140555381775,1.6251739263534546,5.169197082519531,-55.37238311767578,0
495.65599999999904,-0.00015480993897654116,-0.00020334820146672428,-3.262107929913327e-05,0.0,0.0,0.0,0.0,0.0035142649430781603,-0.005382085219025612,0.003186585148796439,0.9982692003250122,0.0,0.0,0.0,0.30627405643463135,1.6264071464538574,5.159603118896484,-55.436214447021484,0
505.5599999999995,-0.00016356802370864898,-0.00015021293074823916,-7.787425420247018e-05,0.0,0.0,0.0,0.0,0.0025596043560653925,-0.0012014431413263083,-0.0017335298471152782,0.9988104701042175,0.0,0.0,0.0,0.3010996878147125,1.6393791437149048,5.171205043792725,-54.49964141845703,0
515.4799999999996,-0.00022223719861358404,-0.00018211819406133145,-8.504098514094949e-05,0.0,0.0,0.0,0.0,-0.0035165459848940372,-0.00027969430084340274,-0.0021315650083124638,0.9990367293357849,0.0,0.0,0.0,0.3003777265548706,1.6329175233840942,5.166234493255615,-54.36896514892578,0
525.3860000000004,-0.0002555422543082386,-0.00011710874969139695,-0.00010194097558269277,0.0,0.0,0.0,0.0,0.0010179418604820967,0.001832108828239143,0.0020460104569792747,0.998314619064331,0.0,0.0,0.0,0.2996227443218231,1.6347039937973022,5.164683818817139,-54.23231506347656,0
535.3079999999991,-0.00031488030799664557,-0.00014661852037534118,-0.00011154864478157833,0.0,0.0,0.0,0.0,-0.0026565564330667257,0.004157018382102251,0.0002695175353437662,0.9997231960296631,0.0,0.0,0.0,0.3000244200229645,1.6266112327575684,5.152587413787842,-54.30501937866211,0
545.2119999999995,-0.0003302910190541297,-9.693329775473103e-05,-0.00017582262807991356,0.0,0.0,0.0,0.0,-0.0006247165729291737,-0.0008490403997711837,0.0034145077224820852,1.000741720199585,0.0,0.0,0.0,0.29963257908821106,1.6275677680969238,5.133486270904541,-54.234092712402344,0
555.1319999999996,-0.0003895839909091592,-0.0001238792756339535,-0.00018994569836650044,0.0,0.0,0.0,0.0,0.00035707891220226884,0.001591951702721417,-0.0019975111354142427,1.001058578491211,0.0,0.0,0.0,0.29946789145469666,1.6244947910308838,5.129547119140625,-54.204280853271484,0
565.0380000000005,-0.0004179374373052269,-4.5185672206571326e-05,-0.00021404758444987237,0.0,0.0,0.0,0.0,0.0011414376785978675,-0.004877960309386253,0.0038827923126518726,1.000024676322937,0.0,0.0,0.0,0.30667799711227417,1.6521248817443848,5.14204740524292,-55.50932693481445,0
574.9619999999995,-0.0004766590427607298,-6.518753070849925e-05,-0.0002275412844028324,0.0,0.0,0.0,0.0,-0.0008736695745028555,0.0018405651208013296,0.003053550375625491,0.999218225479126,0.0,0.0,0.0,0.30688124895095825,1.6448097229003906,5.145622253417969,-55.546112060546875,0
584.8639999999996,-0.0005097487010061741,-1.3595719792647287e-05,-0.0002499699767213315,0.0,0.0,0.0,0.0,-0.000837251718621701,0.004698653239756823,0.0012191978748887777,0.9986932277679443,0.0,0.0,0.0,0.29964765906333923,1.670056700706482,5.152511119842529,-54.236820220947266,0
594.7880000000005,-0.0005680245812982321,-3.0164817871991545e-05,-0.00026546072331257164,0.0,0.0,0.0,0.0,-0.0016839997842907906,0.0024746155831962824,-0.00044482244993560016,0.9986833333969116,0.0,0.0,0.0,0.2995399832725525,1.6669795513153076,5.1371941566467285,-54.21733474731445,0
604.6919999999991,-0.0005860466044396162,-6.314203346846625e-07,-0.00032266779453493655,0.0,0.0,0.0,0.0,0.0018982202745974064,0.004824376665055752,0.0010879606707021594,0.998487651348114,0.0,0.0,0.0,0.29884055256843567,1.6701369285583496,5.12930965423584,-54.09074020385742,0
614.6170000000002,-0.00019331846851855516,-0.00017394337919540703,-9.855575626716018e-06,0.0,0.0,0.0,0.0,-0.0006342065753415227,0.00144710554741323,-0.0005869010929018259,1.0002151727676392,0.0,0.0,0.0,0.30093851685523987,1.6312814950942993,5.2325758934021,-54.4704704284668,0
624.5239999999994,-0.0002000831882469356,-0.00012985737703274935,-3.2133561035152525e-05,0.0,0.0,0.0,0.0,0.0038707235362380743,0.001472312374971807,0.002511635422706604,0.9984169006347656,0.0,0.0,0.0,0.28987330198287964,1.6473230123519897,5.236326217651367,-52.46764373779297,0
634.4429999999993,-0.00016879108443390578,-0.00016402784967795014,-1.1350672139087692e-05,0.0,0.0,0.0,0.0,-0.0002813937026076019,-0.0021452619694173336,0.0005259531899355352,0.9986323118209839,0.0,0.0,0.0,0.29101404547691345,1.6367290019989014,5.229666233062744,-52.67412185668945,0
644.3510000000006,-0.00015699148934800178,-8.787554543232545e-05,-5.44268186786212e-05,0.0,0.0,0.0,0.0,-0.002993555273860693,-0.001746343681588769,-0.002878679195418954,0.9990366697311401,0.0,0.0,0.0,0.30039137601852417,1.6499735116958618,5.230795383453369,-54.37143325805664,0
654.2669999999998,-0.00019693806825671345,-0.00011260902101639658,-6.320790998870507e-05,0.0,0.0,0.0,0.0,-0.0007495413301512599,-0.0017165952594950795,0.0029471039306372404,0.9994181990623474,0.0,0.0,0.0,0.29977911710739136,1.651119589805603,5.230180263519287,-54.2606201171875,0
664.1689999999999,-0.00020376339671202004,-8.48990966915153e-05,-0.00011393259046599269,0.0,0.0,0.0,0.0,-0.0007515829638577998,-0.0017531112534925342,0.003179761581122875,1.0002912282943726,0.0,0.0,0.0,0.3002968728542328,1.6512296199798584,5.229604721069336,-54.35432815551758,0
674.0910000000003,-0.0001474926102673635,-0.000140135467518121,-8.851977327140048e-05,0.0,0.0,0.0,0.0,0.0015304143307730556,0.005585751961916685,0.001204208005219698,0.9985076785087585,0.0,0.0,0.0,0.30080199241638184,1.651928424835205,5.233558177947998,-54.44575881958008,0
683.9950000000008,-0.00013293315714690834,-8.107525354716927e-05,-0.00015150151739362627,0.0,0.0,0.0,0.0,0.0007337587303481996,0.0002849692536983639,0.0016003961209207773,0.9998627305030823,0.0,0.0,0.0,0.30060064792633057,1.6497551202774048,5.223997592926025,-54.40932083129883,0
693.914999999999,-7.455534068867564e-05,-0.00010408293746877462,-0.0001238345867022872,0.0,0.0,0.0,0.0,-0.0036254345905035734,-0.0036001813132315874,0.0023133226204663515,1.000885009765625,0.0,0.0,0.0,0.30737319588661194,1.6482658386230469,5.228150844573975,-55.635154724121094,0
703.8209999999999,-9.098990994971246e-05,-8.646534115541726e-05,-0.00015860755229368806,0.0,0.0,0.0,0.0,-0.0003635510802268982,0.0014790577115491033,-0.0014334399020299315,1.001792550086975,0.0,0.0,0.0,0.30717629194259644,1.6571038961410522,5.2299113273620605,-55.59952163696289,0
713.7430000000004,-8.309026452479884e-05,-7.689543417654932e-05,-0.00013048818800598383,0.0,0.0,0.0,0.0,0.0029223382007330656,0.0032286331988871098,-0.001395867089740932,0.9989331364631653,0.0,0.0,0.0,0.306094229221344,1.6569933891296387,5.225203037261963,-55.403663635253906,0
723.646999999999,-0.0001296136761084199,-6.60041332594119e-05,-0.00012479652650654316,0.0,0.0,0.0,0.0,-0.002919532358646393,-0.0010873874416574836,0.0006873880629427731,0.999513566493988,0.0,0.0,0.0,0.3057490587234497,1.6478748321533203,5.218322277069092,-55.341190338134766,0
733.5679999999993,-6.403529550880194e-05,-0.00011679422459565103,-0.00010681589628802612,0.0,0.0,0.0,0.0,0.0031061216723173857,0.0021025652531534433,-0.001228567911311984,0.9987333416938782,0.0,0.0,0.0,0.30590271949768066,1.6507638692855835,5.216516971588135,-55.36899948120117,0
743.473,-8.947143942350522e-05,-0.00011866006389027461,-0.00013333257811609656,0.0,0.0,0.0,0.0,0.0008263348718173802,-0.0004087426350452006,0.004670750815421343,1.000066876411438,0.0,0.0,0.0,0.3051806390285492,1.6437336206436157,5.212244510650635,-55.238304138183594,0
753.3950000000004,-3.531967377057299e-05,-0.00014604825992137194,-0.00010078158811666071,0.0,0.0,0.0,0.0,-0.001059445203281939,0.0001176341756945476,-0.0003957809822168201,0.9996639490127563,0.0,0.0,0.0,0.30513471364974976,1.6450917720794678,5.215803623199463,-55.22998809814453,0
763.2989999999991,-6.317549559753388e-05,-0.00013632238551508635,-0.00012009897181997076,0.0,0.0,0.0,0.0,0.0018209004774689674,-0.0029569922480732203,0.0008066875743679702,1.0005890130996704,0.0,0.0,0.0,0.3045763075351715,1.6446244716644287,5.2144904136657715,-55.1289176940918,0
773.2199999999993,-6.808462785556912e-05,-0.00016391865210607648,-0.00010530377039685845,0.0,0.0,0.0,0.0,0.002740058582276106,-0.00014428640133701265,-0.0028605784755200148,0.9989138245582581,0.0,0.0,0.0,0.30543234944343567,1.6355276107788086,5.217833518981934,-55.28386688232422,0
783.1260000000002,-8.623876783531159e-05,-0.00013679952826350927,-0.00013361108722165227,0.0,0.0,0.0,0.0,-0.003506961977109313,0.0006009262287989259,-0.0008953632204793394,0.9992164373397827,0.0,0.0,0.0,0.30577555298805237,1.627025842666626,5.215989112854004,-55.34598159790039,0
793.0509999999995,-6.113525159889832e-05,-0.00016151423915289342,-0.00010859462054213509,0.0,0.0,0.0,0.0,0.0013555466430261731,0.006841167341917753,0.00048190337838605046,0.9988918900489807,0.0,0.0,0.0,0.3055516481399536,1.6317368745803833,5.214312553405762,-55.30545425415039,0
802.9519999999993,-0.00011810491560027003,-0.00018791004549711943,-0.0001115293925977312,0.0,0.0,0.0,0.0,-0.0012910820078104734,-0.002721137832850218,0.003442519111558795,0.9986061453819275,0.0,0.0,0.0,0.305029034614563,1.6304322481155396,5.19843053817749,-55.21086120605469,0
812.8739999999998,-0.00017625073087401688,-0.00022424530470743775,-0.00011674127745209262,0.0,0.0,0.0,0.0,0.003385230666026473,0.0036688775289803743,0.0004967146087437868,1.0005741119384766,0.0,0.0,0.0,0.30570313334465027,1.628817081451416,5.200808525085449,-55.3328742980957,0
822.7780000000002,-0.0001880525378510356,-0.00015629353583790362,-0.00015214690938591957,0.0,0.0,0.0,0.0,-0.0015149264363572001,0.002495601074770093,0.00027811512700282037,1.0017197132110596,0.0,0.0,0.0,0.3059367537498474,1.6184407472610474,5.18195915222168,-55.375160217285156,0
832.7039999999997,-0.00024810232571326196,-0.00019245993462391198,-0.00015846025780774653,0.0,0.0,0.0,0.0,-0.001045297714881599,0.0005126636824570596,-0.0019179321825504303,1.0011993646621704,0.0,0.0,0.0,0.3054587244987488,1.6163452863693237,5.162996768951416,-55.28863525390625,0
842.6039999999994,-0.0002816812484525144,-0.0001221685961354524,-0.00016898143803700805,0.0,0.0,0.0,0.0,-0.0027429587207734585,-0.002328145783394575,0.0010996517958119512,0.9994387030601501,0.0,0.0,0.0,0.30444878339767456,1.6129852533340454,5.155208587646484,-55.105838775634766,0
852.5290000000005,-0.00034340296406298876,-0.00015448741032741964,-0.00017394270980730653,0.0,0.0,0.0,0.0,-0.0028059384785592556,0.0038467049598693848,-0.003180282423272729,0.9999790787696838,0.0,0.0,0.0,0.30421966314315796,1.615078330039978,5.15415096282959,-55.06435775756836,0
862.4300000000003,-0.00038506390410475433,-0.00010289698548149318,-0.00018104698392562568,0.0,0.0,0.0,0.0,0.003139382228255272,0.0010467367246747017,-2.0750729163410142e-05,0.9982590079307556,0.0,0.0,0.0,0.30357223749160767,1.6153384447097778,5.1402268409729,-54.947181701660156,0
872.3549999999996,-0.0004475375753827393,-0.00013223974383436143,-0.00018683852977119386,0.0,0.0,0.0,0.0,-0.002455285983160138,0.0023424215614795685,0.004404006991535425,0.9985758662223816,0.0,0.0,0.0,0.3033744990825653,1.6069399118423462,5.129834175109863,-54.9113883972168,0
882.2559999999994,-0.0004644952423404902,-4.40092189819552e-05,-0.00021629255206789821,0.0,0.0,0.0,0.0,0.0005536655662581325,-0.0061287833377718925,-0.0012942866887897253,1.0001707077026367,0.0,0.0,0.0,0.3097945749759674,1.6469277143478394,5.154772758483887,-56.07343292236328,0
892.1779999999999,-0.0005271921982057393,-6.599436164833605e-05,-0.00022590339358430356,0.0,0.0,0.0,0.0,0.0025799397844821215,-0.009055214934051037,0.0016841334290802479,0.9992973208427429,0.0,0.0,0.0,0.30990666151046753,1.6438953876495361,5.165436744689941,-56.093719482421875,0
902.0820000000003,-0.0005397729109972715,-7.45173565519508e-07,-0.000266890914645046,0.0,0.0,0.0,0.0,0.00020253888214938343,0.0031573157757520676,-0.005987622309476137,0.9986701011657715,0.0,0.0,0.0,0.31359294056892395,1.6716328859329224,5.203415870666504,-56.76094436645508,0
912.0159999999996,-0.0006019215215928853,-1.854858419392258e-05,-0.0002799718058668077,0.0,0.0,0.0,0.0,0.0008374528842978179,0.0005980344722047448,0.000903127423953265,1.0009300708770752,0.0,0.0,0.0,0.3117174208164215,1.6701853275299072,5.186106204986572,-56.421470642089844,0
921.9110000000001,-0.0006107902154326439,5.196507117943838e-05,-0.00031613491591997445,0.0,0.0,0.0,0.0,0.002762065501883626,0.003861098550260067,0.0013161157257854939,0.9998876452445984,0.0,0.0,0.0,0.3193064332008362,1.7033228874206543,5.206828594207764,-57.795101165771484,0
931.8359999999993,-0.0006716015050187707,3.839463897747919e-05,-0.000330884475260973,0.0,0.0,0.0,0.0,-0.0003581421624403447,0.0006883315509185195,0.0005225358763709664,0.9992202520370483,0.0,0.0,0.0,0.31874939799308777,1.6953051090240479,5.1938157081604,-57.69427490234375,0
941.7399999999998,-0.0006756668444722891,0.00010029891564045101,-0.0003737909719347954,0.0,0.0,0.0,0.0,-0.004303495399653912,-0.002229312201961875,-0.003863659920170903,0.9972511529922485,0.0,0.0,0.0,0.3262755274772644,1.7252750396728516,5.203121185302734,-59.0565185546875,0
951.6679999999997,-0.0001414433791069314,-0.00015381346747744828,3.236099291825667e-05,0.0,0.0,0.0,0.0,0.0011646260973066092,0.001217548968270421,0.00043283149716444314,0.9986806511878967,0.0,0.0,0.0,0.3321819007396698,1.6767692565917969,5.334985733032227,-60.12558364868164,0
961.5609999999997,-0.00014220064622350037,-0.00012228569539729506,7.123350769688841e-06,0.0,0.0,0.0,0.0,0.0003444997710175812,-0.0020201706793159246,-0.0010887510143220425,0.99854576587677,0.0,0.0,0.0,0.3255140483379364,1.6870628595352173,5.331179141998291,-58.9186897277832,0
971.4869999999992,-5.927481106482446e-05,-0.00017511389160063118,3.766066220123321e-05,0.0,0.0,0.0,0.0,0.0041211992502212524,-0.002583883935585618,0.0021392847411334515,0.9992097616195679,0.0,0.0,0.0,0.32537031173706055,1.6862856149673462,5.3310465812683105,-58.89267349243164,0
981.3870000000006,-0.00010640802065609023,-0.0001957996719283983,6.301370012806728e-05,0.0,0.0,0.0,0.0,0.00312220910564065,0.005247033666819334,-0.00012017098197247833,0.9993991851806641,0.0,0.0,0.0,0.3322013318538666,1.6772394180297852,5.332942008972168,-60.12910461425781,0
991.3079999999991,-5.648515798384324e-05,-0.0002277649473398924,9.000121644930914e-05,0.0,0.0,0.0,0.0,-0.0007722379523329437,-0.0007309979409910738,-0.001824106089770794,1.0001109838485718,0.0,0.0,0.0,0.33147379755973816,1.6710178852081299,5.3147969245910645,-59.99741744995117,0
1001.2160000000003,-7.610703323734924e-05,-0.00024059491988737136,6.878092244733125e-05,0.0,0.0,0.0,0.0,0.0033563561737537384,-0.0006048615323379636,0.0015647487016394734,0.9989360570907593,0.0,0.0,0.0,0.3305956721305847,1.674924373626709,5.313900470733643,-59.838470458984375,0
1011.1370000000006,-7.240822014864534e-05,-0.0002535841485951096,9.298727673012763e-05,0.0,0.0,0.0,0.0,0.003169174073264003,-0.0036008425522595644,-7.136548447306268e-06,0.998806357383728,0.0,0.0,0.0,0.3305724859237671,1.6666759252548218,5.315798759460449,-59.83427810668945,0
1021.039999999999,-6.727469735778868e-05,-0.00022713076032232493,4.74371227028314e-05,0.0,0.0,0.0,0.0,0.0024683349765837193,-0.003294939175248146,0.003534715622663498,0.9991275668144226,0.0,0.0,0.0,0.32957980036735535,1.661960244178772,5.311681747436523,-59.654598236083984,0
1030.9660000000003,-6.788632890675217e-05,-0.00024027389008551836,6.39439676888287e-05,0.0,0.0,0.0,0.0,0.0020450868178159,0.00016570105799473822,0.0020983838476240635,0.9983319044113159,0.0,0.0,0.0,0.3303609788417816,1.655043601989746,5.308665752410889,-59.79599380493164,0
1040.8649999999998,-6.0563859733520076e-05,-0.00016808071814011782,3.0077280825935304e-05,0.0,0.0,0.0,0.0,0.0021574117708951235,-0.002065747044980526,0.00016052802675403655,0.999196469783783,0.0,0.0,0.0,0.330210417509079,1.6517869234085083,5.29998779296875,-59.76873779296875,0
1050.7909999999993,-0.00010365337948314846,-0.00018348496814724058,2.7955175028182566e-05,0.0,0.0,0.0,0.0,-0.0013799873413518071,0.002014865865930915,0.0005801945808343589,0.999542236328125,0.0,0.0,0.0,0.3287332355976105,1.6427338123321533,5.302552223205566,-59.50136947631836,0
1060.691999999999,-8.601203444413841e-05,-0.000128690866404213,-3.644172829808667e-05,0.0,0.0,0.0,0.0,-0.00046208204003050923,0.0024917779956012964,-0.0006266239215619862,1.0000773668289185,0.0,0.0,0.0,0.3281038999557495,1.6483467817306519,5.295551300048828,-59.38745880126953,0
1070.616,-0.00010947692499030381,-0.0001575954374857247,-4.161009201197885e-05,0.0,0.0,0.0,0.0,0.00048818576033227146,-0.0013868778478354216,0.0016876320587471128,1.0002321004867554,0.0,0.0,0.0,0.33439815044403076,1.646491289138794,5.28954553604126,-60.526729583740234,0
1080.518,-0.00010832502448465675,-0.0001196348894154653,-9.90191037999466e-05,0.0,0.0,0.0,0.0,-0.0011827544076368213,0.000467850302811712,0.0010261862771585584,1.0002225637435913,0.0,0.0,0.0,0.3348441421985626,1.6424460411071777,5.285761833190918,-60.60745620727539,0
1090.4400000000005,-7.812047260813415e-05,-0.00012584743672050536,-7.412200648104772e-05,0.0,0.0,0.0,0.0,0.002193862572312355,-0.0017465241253376007,0.0032438882626593113,1.0010684728622437,0.0,0.0,0.0,0.33457404375076294,1.6395535469055176,5.277009010314941,-60.55856704711914,0
1100.3439999999991,-8.457341755274683e-05,-8.113011426758021e-05,-0.00011961619748035446,0.0,0.0,0.0,0.0,-0.00015389912005048245,-0.0023280452005565166,-0.003437093459069729,1.000990867614746,0.0,0.0,0.0,0.33462828397750854,1.6300575733184814,5.277740955352783,-60.568382263183594,0
1110.2659999999996,-0.00011751354031730443,-0.00010396066500106826,-0.00012431122013367712,0.0,0.0,0.0,0.0,-0.00032344626379199326,0.005573543719947338,-0.004581667482852936,0.9991892576217651,0.0,0.0,0.0,0.33333146572113037,1.6274833679199219,5.2814507484436035,-60.33366012573242,0
1120.1710000000003,-0.00015744726988486946,-8.279900066554546e-05,-0.00013555939949583262,0.0,0.0,0.0,0.0,-0.0036694430746138096,0.0007230133633129299,-0.0013266634196043015,1.000044822692871,0.0,0.0,0.0,0.33321595191955566,1.6225000619888306,5.269679069519043,-60.31275177001953,0
1130.0920000000006,-0.00012412559590302408,-0.0001205595035571605,-0.0001240595884155482,0.0,0.0,0.0,0.0,-0.0012497063726186752,0.00038643513107672334,0.002315389458090067,1.0007840394973755,0.0,0.0,0.0,0.33362165093421936,1.6271376609802246,5.272616863250732,-60.38618087768555,0
1139.9959999999992,-0.00021416957315523177,-0.00015494521358050406,-8.715930016478524e-05,0.0,0.0,0.0,0.0,0.0012686626287177205,-0.0004583812551572919,0.00028497149469330907,0.9986664652824402,0.0,0.0,0.0,0.3396437466144562,1.6267143487930298,5.265131950378418,-61.476192474365234,0
1149.923999999999,-0.0001629543403396383,-0.00017674780974630266,-5.494159267982468e-05,0.0,0.0,0.0,0.0,0.0026457090862095356,0.00278081395663321,-0.004178648814558983,0.9976823925971985,0.0,0.0,0.0,0.33858129382133484,1.6237229108810425,5.259103775024414,-61.28388595581055,0
1159.8220000000001,-0.0001948362187249586,-0.00016141225933097303,-7.584162085549906e-05,0.0,0.0,0.0,0.0,-0.0018384110881015658,0.0011587106855586171,0.001736810547299683,0.9990161061286926,0.0,0.0,0.0,0.3374362289905548,1.616287350654602,5.246632099151611,-61.076629638671875,0
1169.741,-0.00018928937788587064,-0.00018633577565196902,-6.056455822545104e-05,0.0,0.0,0.0,0.0,0.0009597302414476871,0.004044557921588421,-0.003922286909073591,0.9988887906074524,0.0,0.0,0.0,0.33824899792671204,1.613360047340393,5.239360809326172,-61.2237434387207,0
1179.652,-0.00020893567125312984,-0.00015507084026467055,-9.641853102948517e-05,0.0,0.0,0.0,0.0,-0.0013068591943010688,-0.0018267090199515224,0.0043998947367072105,1.0003148317337036,0.0,0.0,0.0,0.3367006778717041,1.612046241760254,5.227203369140625,-60.9434928894043,0
1189.5720000000001,-0.00026606072788126767,-0.00018360145622864366,-0.00010436274169478565,0.0,0.0,0.0,0.0,0.0031775746028870344,0.0026372973807156086,0.00018512651149649173,0.9990487694740295,0.0,0.0,0.0,0.33748099207878113,1.6127851009368896,5.227268695831299,-61.08473587036133,0
1199.4750000000004,-0.00032515061320737004,-0.0002123481099260971,-0.00011252304830122739,0.0,0.0,0.0,0.0,-0.0006224810495041311,0.0007669753977097571,-0.0008064120775088668,1.00163996219635,0.0,0.0,0.0,0.3377276659011841,1.6031755208969116,5.215329170227051,-61.1293830871582,0
1209.396999999999,-0.00034568607225082815,-0.00012424560554791242,-0.0001307554339291528,0.0,0.0,0.0,0.0,-0.0015627116663381457,-0.000997702474705875,-0.0030370026361197233,0.9994605183601379,0.0,0.0,0.0,0.3301987946033478,1.6330606937408447,5.222898006439209,-59.766639709472656,0
1219.3019999999997,-0.00040436373092234135,-0.0001497079647378996,-0.00013847438094671816,0.0,0.0,0.0,0.0,0.001038266229443252,0.0018585101934149861,-0.0026126657612621784,1.0004024505615234,0.0,0.0,0.0,0.329677939414978,1.6342087984085083,5.2252020835876465,-59.67236328125,0
1229.2270000000008,-0.00042130117071792483,-0.00011553052172530442,-0.0001889863924589008,0.0,0.0,0.0,0.0,-0.0014182641170918941,-0.0014841952361166477,0.0027231904678046703,0.9998647570610046,0.0,0.0,0.0,0.32836413383483887,1.628174901008606,5.2155561447143555,-59.4345588684082,0
1239.1409999999996,-0.0004803285701200366,-0.0001416950108250603,-0.0001993984915316105,0.0,0.0,0.0,0.0,0.0005916081718169153,-0.0013569201109930873,0.00014231810928322375,0.9999415874481201,0.0,0.0,0.0,0.32897913455963135,1.630715250968933,5.210639953613281,-59.545875549316406,0
1249.0599999999995,-0.00048325088573619723,-5.3792446124134585e-05,-0.0002487729652784765,0.0,0.0,0.0,0.0,-0.0014269464882090688,0.0014914037892594934,-0.0002495251828804612,1.0005147457122803,0.0,0.0,0.0,0.33223956823349,1.668516993522644,5.238567352294922,-60.136024475097656,0
1258.9629999999997,-0.0005471315234899521,-7.781617750879377e-05,-0.00026314216665923595,0.0,0.0,0.0,0.0,0.0034487987868487835,0.0037673665210604668,0.003444577334448695,1.0017527341842651,0.0,0.0,0.0,0.33225417137145996,1.66789710521698,5.233736515045166,-60.13866424560547,0
1268.8780000000006,-0.0005486918380483985,4.7140929382294416e-07,-0.00030921088182367384,0.0,0.0,0.0,0.0,-0.00010531372390687466,0.0016771109076216817,-0.003590809879824519,1.0017855167388916,0.0,0.0,0.0,0.33427393436431885,1.6944890022277832,5.248377799987793,-60.50424575805664,0
1278.789999999999,-0.0006057048449292779,-1.7379128621541895e-05,-0.0003224493411835283,0.0,0.0,0.0,0.0,-0.0011610437650233507,-0.0017880075611174107,0.0023278275039047003,1.001497507095337,0.0,0.0,0.0,0.33284991979599,1.6915593147277832,5.241578102111816,-60.24650192260742,0
1288.7019999999993,-0.0006059759180061519,5.783190135844052e-05,-0.0003596565220504999,0.0,0.0,0.0,0.0,0.00034270252217538655,0.0002049574686679989,0.002947410335764289,1.0000081062316895,0.0,0.0,0.0,0.34139108657836914,1.7253466844558716,5.274119853973389,-61.7924690246582,0
1298.6129999999994,-0.0006598602631129324,4.646786692319438e-05,-0.00037262585829012096,0.0,0.0,0.0,0.0,0.00023550930200144649,-0.003747184993699193,-0.0006797457463108003,0.9995562434196472,0.0,0.0,0.0,0.34289008378982544,1.7188845872879028,5.279067516326904,-62.06378936767578,0
1308.527,-0.0006714618066325784,0.0001083700408344157,-0.0003973298880737275,0.0,0.0,0.0,0.0,-0.00512556592002511,-0.002159496769309044,0.0026416368782520294,0.9985086917877197,0.0,0.0,0.0,0.3435036540031433,1.7174471616744995,5.2811598777771,-62.174842834472656,0
1318.4390000000003,-0.0007242743158712983,0.0001009161351248622,-0.00041243722080253065,0.0,0.0,0.0,0.0,0.00019111621077172458,0.004284015391021967,-0.00015597318997606635,0.9990828037261963,0.0,0.0,0.0,0.344157874584198,1.7259114980697632,5.2843017578125,-62.29325866699219,0
1328.3559999999998,-0.000699428899679333,0.0001521712401881814,-0.00048320507630705833,0.0,0.0,0.0,0.0,0.0006444070022553205,0.0006380569539032876,0.003930584527552128,0.9991742372512817,0.0,0.0,0.0,0.3437393009662628,1.72385835647583,5.2768659591674805,-62.21749496459961,0
1338.2690000000002,-0.000747575075365603,0.00015137500304263085,-0.0005046585574746132,0.0,0.0,0.0,0.0,0.0023383568041026592,-0.0014167064800858498,0.0015487062046304345,0.9996363520622253,0.0,0.0,0.0,0.3446758985519409,1.7244638204574585,5.266758441925049,-62.387020111083984,0
1348.1800000000003,-0.0007383598713204265,0.00018030742648988962,-0.0005729057011194527,0.0,0.0,0.0,0.0,0.002346007153391838,-0.0015258033527061343,-0.003101699287071824,1.00046968460083,0.0,0.0,0.0,0.34508687257766724,1.7204371690750122,5.256899356842041,-62.46141052246094,0
1358.0910000000003,-0.0007864317740313709,0.0001791349786799401,-0.000598036393057555,0.0,0.0,0.0,0.0,-0.0010712810326367617,0.00044370765681378543,-0.003364644246175885,1.0020785331726074,0.0,0.0,0.0,0.3446841239929199,1.717002034187317,5.254408836364746,-62.388511657714844,0
1368.0079999999998,-0.0007958863279782236,0.0001984970149351284,-0.0006511937244795263,0.0,0.0,0.0,0.0,-0.001210613176226616,-0.0005498847458511591,-0.0031502798665314913,1.000929594039917,0.0,0.0,0.0,0.34330958127975464,1.7184866666793823,5.249553203582764,-62.13971710205078,0
1377.9210000000003,-0.0008452284964732826,0.00019600478117354214,-0.0006757239461876452,0.0,0.0,0.0,0.0,-0.0005315108573995531,-0.00295789772644639,0.002543271752074361,1.0018103122711182,0.0,0.0,0.0,0.3427680730819702,1.719435453414917,5.2421183586120605,-62.04170608520508,0
1387.8269999999993,-0.0009001693688333035,0.00017581605061423033,-0.0007133264443837106,0.0,0.0,0.0,0.0,-7.6182059274287894e-06,0.0033711239229887724,-0.0002397991338511929,1.0000255107879639,0.0,0.0,0.0,0.3375939130783081,1.7143906354904175,5.24251127243042,-61.10517120361328,0
1397.7450000000008,-0.0009559927857480943,0.000171024861629121,-0.0007364951306954026,0.0,0.0,0.0,0.0,-0.0023403391242027283,-0.0048661744222044945,0.0012254015309736133,0.999130368232727,0.0,0.0,0.0,0.33757346868515015,1.714211106300354,5.23036527633667,-61.101470947265625,0
1407.6540000000005,-0.0010136853670701385,0.00016519664495717734,-0.0007596244104206562,0.0,0.0,0.0,0.0,-0.00451425788924098,-0.0054322704672813416,0.0028655051719397306,0.9986138343811035,0.0,0.0,0.0,0.3375284671783447,1.7160075902938843,5.236108303070068,-61.09332275390625,0
1417.5740000000005,-0.0010720982681959867,0.00015794839418958873,-0.0007835178985260427,0.0,0.0,0.0,0.0,0.0016575611662119627,0.0006729066371917725,-0.0035674339160323143,1.0010167360305786,0.0,0.0,0.0,0.3377445936203003,1.7210063934326172,5.238533973693848,-61.13243865966797,0
1427.4770000000008,-0.0011317284079268575,0.0001498668862041086,-0.000807488220743835,0.0,0.0,0.0,0.0,-0.0001786671782610938,-0.004078373778611422,0.004683980718255043,0.9992607235908508,0.0,0.0,0.0,0.3365412950515747,1.7139039039611816,5.2310309410095215,-60.91464614868164,0
1437.3989999999994,-0.0011944136349484324,0.00014060021203476936,-0.0008312739664688706,0.0,0.0,0.0,0.0,-0.004348307847976685,-0.00032667958294041455,0.0016357701970264316,0.9965854287147522,0.0,0.0,0.0,0.3377252221107483,1.7096848487854004,5.234349250793457,-61.12894058227539,0
1447.3029999999999,-0.0012605468509718776,0.00012915057595819235,-0.000856654136441648,0.0,0.0,0.0,0.0,0.0012457460397854447,0.007186390459537506,-0.00036877812817692757,1.000204086303711,0.0,0.0,0.0,0.3375195562839508,1.7151015996932983,5.229700565338135,-61.09170913696289,0
1457.2270000000008,-0.0013290708884596825,0.00011557854304555804,-0.0008833790197968483,0.0,0.0,0.0,0.0,-0.003987184260040522,0.0019891478586941957,0.0018214078154414892,1.000961422920227,0.0,0.0,0.0,0.3376742899417877,1.7095530033111572,5.210515975952148,-61.119720458984375,0
1467.1299999999992,-0.0013996405759826303,0.00010029957047663629,-0.0009096484864130616,0.0,0.0,0.0,0.0,-0.001500794431194663,-0.0030140746384859085,0.0005612265667878091,0.996600866317749,0.0,0.0,0.0,0.3381445109844208,1.7149665355682373,5.202127456665039,-61.20482635498047,0
1477.048999999999,-0.0014719432219862938,8.356843318324536e-05,-0.0009367815800942481,0.0,0.0,0.0,0.0,-0.001315468456596136,-0.00394706055521965,0.003581119468435645,1.0000097751617432,0.0,0.0,0.0,0.3374137282371521,1.7139892578125,5.1996660232543945,-61.07255935668945,0
1486.9529999999995,-0.0015456258552148938,6.519224552903324e-05,-0.0009653441375121474,0.0,0.0,0.0,0.0,0.0007278886623680592,0.0015284465625882149,-0.0020927521400153637,1.0003913640975952,0.0,0.0,0.0,0.3376532793045044,1.7090237140655518,5.2045698165893555,-61.11591720581055,0
1496.8729999999996,-0.001620098832063377,4.412287307786755e-05,-0.0009937637951225042,0.0,0.0,0.0,0.0,-0.002009462798014283,-0.0015000634593889117,0.0017449383158236742,0.9994670748710632,0.0,0.0,0.0,0.33648598194122314,1.7008358240127563,5.195064067840576,-60.904632568359375,0
1506.7800000000007,-0.001695185899734497,2.0022371245431714e-05,-0.0010220224503427744,0.0,0.0,0.0,0.0,-0.0011676652356982231,-0.0020328788086771965,0.0023818239569664,0.9998892545700073,0.0,0.0,0.0,0.3368472456932068,1.7018775939941406,5.1930084228515625,-60.97002410888672,0
1516.700999999999,-0.0017719087190926075,-5.924735887674615e-06,-0.0010504417587071657,0.0,0.0,0.0,0.0,0.0004285596660338342,0.0016121756052598357,-0.0017058250959962606,0.9988110661506653,0.0,0.0,0.0,0.3359743356704712,1.7048722505569458,5.192079544067383,-60.81202697753906,0
1526.6080000000002,-0.0018506228225305676,-3.318613744340837e-05,-0.0010794189292937517,0.0,0.0,0.0,0.0,0.0030084028840065002,0.002802634844556451,-0.0007125301053747535,0.9977152347564697,0.0,0.0,0.0,0.3350735604763031,1.7034826278686523,5.187137126922607,-60.648983001708984,0
1536.5249999999996,-0.0019315676763653755,-6.171587301651016e-05,-0.001109805190935731,0.0,0.0,0.0,0.0,0.0038046478293836117,-0.000520799309015274,-0.0008194273104891181,1.0014173984527588,0.0,0.0,0.0,0.33484968543052673,1.6975048780441284,5.175667762756348,-60.60845947265625,0
1546.432999999999,-0.0020157056860625744,-9.113189298659563e-05,-0.0011405793484300375,0.0,0.0,0.0,0.0,-0.0012222506338730454,0.0009950213134288788,-0.0007320271688513458,1.0006593465805054,0.0,0.0,0.0,0.33422309160232544,1.6904001235961914,5.170502662658691,-60.49504470825195,0
1556.3590000000004,-0.0021030462812632322,-0.00012151303235441446,-0.001170403673313558,0.0,0.0,0.0,0.0,0.0024270040448755026,0.005897718481719494,-5.936915840720758e-05,0.9982618093490601,0.0,0.0,0.0,0.33411216735839844,1.685094952583313,5.168308734893799,-60.47496795654297,0
1566.259,-0.0022018798626959324,-0.00015566687216050923,-0.0012034098617732525,0.0,0.0,0.0,0.0,-0.0021776079665869474,0.0037267254665493965,-0.0011646394850686193,1.0014851093292236,0.0,0.0,0.0,0.33396726846694946,1.6780530214309692,5.154697895050049,-60.44873809814453,0
1576.1810000000005,-0.002293786033987999,-0.00018666185496840626,-0.0012333992635831237,0.0,0.0,0.0,0.0,-0.000497461820486933,0.0012016396503895521,-0.0012400962878018618,1.0012813806533813,0.0,0.0,0.0,0.33289897441864014,1.6810588836669922,5.143031120300293,-60.25537872314453,0
1586.0949999999993,-0.002387955319136381,-0.00021789601305499673,-0.0012619373155757785,0.0,0.0,0.0,0.0,-0.0026707216165959835,-0.0008916516089811921,-2.3226077246363275e-05,1.0013370513916016,0.0,0.0,0.0,0.3323264718055725,1.6851048469543457,5.129953861236572,-60.15174865722656,0
1596.0100000000002,-0.00248481472954154,-0.0002501262933947146,-0.0012888810597360134,0.0,0.0,0.0,0.0,-0.00486501632258296,-0.002106593456119299,0.002128951484337449,0.9991203546524048,0.0,0.0,0.0,0.3313916325569153,1.6887797117233276,5.122206211090088,-59.9825439453125,0
1605.9099999999999,-0.002584204776212573,-0.00028402628959156573,-0.0013153759064152837,0.0,0.0,0.0,0.0,-6.444964674301445e-05,0.0021249998826533556,0.0010559266665950418,0.9988371729850769,0.0,0.0,0.0,0.33165422081947327,1.6928155422210693,5.123584747314453,-60.03007507324219,0
1615.839,-0.002686099847778678,-0.0003195839235559106,-0.0013426011428236961,0.0,0.0,0.0,0.0,0.000800459471065551,-0.004676100332289934,0.0019641483668237925,0.9993343353271484,0.0,0.0,0.0,0.33196455240249634,1.687337040901184,5.113280773162842,-60.08624267578125,0
1625.7360000000008,-0.0027905080933123827,-0.00035619043046608567,-0.001370417419821024,0.0,0.0,0.0,0.0,-0.00065439916215837,0.0014881682582199574,0.0022136529441922903,1.000034213066101,0.0,0.0,0.0,0.33171677589416504,1.6885266304016113,5.120259761810303,-60.04139709472656,0
1635.6669999999995,-0.002897545462474227,-0.0003929218219127506,-0.0013982855016365647,0.0,0.0,0.0,0.0,0.001537542906589806,0.00030680050258524716,0.0022419902961701155,1.0007153749465942,0.0,0.0,0.0,0.33180129528045654,1.6901408433914185,5.119265556335449,-60.05669021606445,0
1645.562,-0.003007688093930483,-0.0004295790276955813,-0.0014255335554480553,0.0,0.0,0.0,0.0,-0.003885648911818862,0.0054070851765573025,-0.0023160118144005537,1.0001848936080933,0.0,0.0,0.0,0.33212384581565857,1.6864449977874756,5.115442276000977,-60.11507797241211,0
1655.4889999999996,-0.0003393554943613708,-0.000870721647515893,0.0010317186824977398,0.0,0.0,0.0,0.0,0.002230035839602351,-0.0008534357184544206,-0.001363778137601912,1.0014148950576782,0.0,0.0,0.0,0.33310815691947937,1.708903193473816,5.367867469787598,-60.293243408203125,0
1665.3889999999992,-0.00030008458998054266,-0.0008325080270878971,0.0011786653194576502,0.0,0.0,0.0,0.0,0.0017463266849517822,-1.9833143596770242e-05,7.397463195957243e-05,1.001194715499878,0.0,0.0,0.0,0.3322947323322296,1.7028181552886963,5.363824844360352,-60.14600372314453,0
1675.3189999999995,-0.000339339894708246,-0.0008738400065340102,0.0012183201033622026,0.0,0.0,0.0,0.0,1.9801469534286298e-05,0.002048867056146264,-0.0012534265406429768,0.9988206624984741,0.0,0.0,0.0,0.33224543929100037,1.6982091665267944,5.360876560211182,-60.1370849609375,0
1685.2160000000003,-0.00031371533987112343,-0.0008580837165936828,0.0012994373682886362,0.0,0.0,0.0,0.0,-0.004168476909399033,-0.0010029234690591693,0.003557676449418068,1.0007563829421997,0.0,0.0,0.0,0.3316037058830261,1.6971923112869263,5.349947452545166,-60.02093505859375,0
1695.137999999999,-0.00035466652479954064,-0.0009004395105876029,0.0013424360658973455,0.0,0.0,0.0,0.0,0.0030003858264535666,0.0031202889513224363,0.002945314859971404,0.9996162056922913,0.0,0.0,0.0,0.33191755414009094,1.7004151344299316,5.344779014587402,-60.077735900878906,0
1705.0439999999999,-0.0003362834395375103,-0.0008985240710899234,0.0013892584247514606,0.0,0.0,0.0,0.0,-0.0017293239943683147,0.0002477607922628522,-0.0020522461272776127,0.9984212517738342,0.0,0.0,0.0,0.33154234290122986,1.6926796436309814,5.334658622741699,-60.009822845458984,0
1714.9709999999995,-0.0003768527240026742,-0.0009405821328982711,0.0014344325754791498,0.0,0.0,0.0,0.0,-0.0003605588572099805,0.004517958965152502,0.002200494520366192,0.9992086291313171,0.0,0.0,0.0,0.33076953887939453,1.692943811416626,5.329463958740234,-59.86994552612305,0
1724.8709999999992,-0.0003724037960637361,-0.0009565562941133976,0.0014598596608266234,0.0,0.0,0.0,0.0,-0.0007660670089535415,0.0011552984360605478,0.001076948014087975,0.99930739402771,0.0,0.0,0.0,0.3423604667186737,1.6903339624404907,5.33639669418335,-61.96792221069336,0
1734.8009999999995,-0.0004117813368793577,-0.0009987012017518282,0.001504530431702733,0.0,0.0,0.0,0.0,-0.00043347885366529226,0.003604111261665821,0.0012850621715188026,0.9974341988563538,0.0,0.0,0.0,0.3424166440963745,1.6827988624572754,5.327390193939209,-61.97809600830078,0
1744.6949999999997,-0.0003765262372326106,-0.0009762568515725434,0.0015072684036567807,0.0,0.0,0.0,0.0,0.0007082357187755406,0.000526704709045589,0.0013672714121639729,0.9985976219177246,0.0,0.0,0.0,0.3477668762207031,1.6836105585098267,5.354037284851074,-62.94649124145508,0
1754.6119999999992,-0.0004114904731977731,-0.00101810647174716,0.0015517051797360182,0.0,0.0,0.0,0.0,-0.0026595608796924353,-0.0007126896525733173,0.0005760248168371618,1.002026915550232,0.0,0.0,0.0,0.348054438829422,1.6766057014465332,5.348503112792969,-62.99854278564453,0
1764.5239999999994,-0.00044883304508402944,-0.0010617186781018972,0.001596570247784257,0.0,0.0,0.0,0.0,0.003228767542168498,0.0033828418236225843,-0.0017831727163866162,1.000205636024475,0.0,0.0,0.0,0.34771960973739624,1.6794670820236206,5.351980209350586,-62.93794250488281,0
1774.4429999999993,-0.0004884227528236806,-0.0011073362547904253,0.001642515417188406,0.0,0.0,0.0,0.0,-0.004290477838367224,-0.0037998026236891747,0.00020296592265367508,0.9999480247497559,0.0,0.0,0.0,0.34707164764404297,1.6761494874954224,5.345719814300537,-62.820655822753906,0
1784.3459999999995,-0.00039738460327498615,-0.0010600135428830981,0.0016216434305533767,0.0,0.0,0.0,0.0,-0.0005907268496230245,0.0005290170083753765,-0.0036169879604130983,0.9997230172157288,0.0,0.0,0.0,0.34649693965911865,1.6981346607208252,5.421726703643799,-62.716636657714844,0
1794.2649999999994,-0.00042781420052051544,-0.0011056874645873904,0.0016718192491680384,0.0,0.0,0.0,0.0,0.0022294868249446154,0.0013898873003199697,0.0015998678281903267,0.9983721375465393,0.0,0.0,0.0,0.3446815609931946,1.6985721588134766,5.415953159332275,-62.3880500793457,0
1804.1769999999997,-0.0004588324809446931,-0.0011531199561432004,0.001721397740766406,0.0,0.0,0.0,0.0,0.0005527522880584002,-0.0009502732427790761,0.0008980543352663517,1.0014071464538574,0.0,0.0,0.0,0.34474828839302063,1.6915913820266724,5.410082817077637,-62.400123596191406,0
1814.0959999999995,-0.0004902073414996266,-0.0012023919261991978,0.0017709445673972368,0.0,0.0,0.0,0.0,0.0009211585274897516,0.00026825180975720286,0.0030512958765029907,0.9989644289016724,0.0,0.0,0.0,0.34500789642333984,1.6886918544769287,5.4108476638793945,-62.44711685180664,0
1823.9969999999994,-0.0005224478081800044,-0.0012529242085292935,0.0018206731183454394,0.0,0.0,0.0,0.0,0.0029589261393994093,0.00017313974967692047,-0.001172068528831005,0.998609185218811,0.0,0.0,0.0,0.34510236978530884,1.6879770755767822,5.4071197509765625,-62.46421432495117,0
1833.9220000000005,-0.0005570788634940982,-0.0013048608088865876,0.0018695688340812922,0.0,0.0,0.0,0.0,-0.0017266884678974748,-0.002306931186467409,-0.00044918188359588385,1.0011649131774902,0.0,0.0,0.0,0.34423837065696716,1.6806085109710693,5.399725437164307,-62.30782699584961,0
1843.8230000000003,-0.0004267023177817464,-0.0012308661825954914,0.0018628672696650028,0.0,0.0,0.0,0.0,0.0019846067298203707,-0.0037520709447562695,0.0036841374821960926,1.0027409791946411,0.0,0.0,0.0,0.34366485476493835,1.704174518585205,5.467282772064209,-62.204017639160156,0
1853.7469999999994,-0.0004518298665061593,-0.0012815030058845878,0.0019184821285307407,0.0,0.0,0.0,0.0,-0.00253089121542871,-0.0020571895875036716,-0.0011991322971880436,0.9990929961204529,0.0,0.0,0.0,0.34435760974884033,1.6967207193374634,5.472301483154297,-62.32941818237305,0
1863.6499999999996,-4.1754963604034856e-05,-0.00010373510303907096,-8.114555384963751e-05,0.0,0.0,0.0,0.0,0.0027271576691418886,0.0002559220010880381,0.002060804981738329,0.9969132542610168,0.0,0.0,0.0,0.33344539999961853,1.828489899635315,5.521738529205322,-60.354278564453125,0
1873.5730000000003,-5.711972335120663e-05,-0.00011905831343028694,-7.22657423466444e-05,0.0,0.0,0.0,0.0,0.0015462854644283652,0.0030973991379141808,0.004206178244203329,0.9999342560768127,0.0,0.0,0.0,0.33366063237190247,1.8260135650634766,5.51458215713501,-60.39323806762695,0
1883.4760000000006,-3.0971110390964895e-05,-0.00017116086382884532,5.3437139285961166e-05,0.0,0.0,0.0,0.0,0.0013724940363317728,0.004510412458330393,-0.0019326346227899194,0.9995346665382385,0.0,0.0,0.0,0.3415864408016205,1.8199832439422607,5.494881629943848,-61.827823638916016,0
1893.4009999999998,-5.1413895562291145e-05,-0.00018758460646495223,6.57609780319035e-05,0.0,0.0,0.0,0.0,0.0016635367646813393,-3.9368882426060736e-05,0.0007990762824192643,1.0001099109649658,0.0,0.0,0.0,0.33930572867393494,1.8115731477737427,5.475417613983154,-61.415016174316406,0
1903.304,-6.519749877043068e-05,-0.00019789277575910091,0.00015975727001205087,0.0,0.0,0.0,0.0,-0.0003476591082289815,0.0029361210763454437,-0.0006069143419153988,1.0006262063980103,0.0,0.0,0.0,0.33907127380371094,1.804271936416626,5.472480297088623,-61.37257766723633,0
1913.2260000000006,-8.687741501489654e-05,-0.00021469060447998345,0.00017708662198856473,0.0,0.0,0.0,0.0,0.001478981808759272,0.001973250415176153,0.0006984886131249368,1.000651240348816,0.0,0.0,0.0,0.3387351930141449,1.8049535751342773,5.465577602386475,-61.31174087524414,0
1923.1280000000006,-0.00016125584079418331,-0.00017360734636895359,0.00017704945639707148,0.0,0.0,0.0,0.0,-0.0007078642374835908,-0.0025686349254101515,-0.0023446811828762293,0.9989783763885498,0.0,0.0,0.0,0.34666213393211365,1.8018872737884521,5.458821773529053,-62.74653244018555,0
1933.0519999999997,-0.00018536612333264202,-0.00019157418864779174,0.00019416239229030907,0.0,0.0,0.0,0.0,0.0004507728444878012,-0.0018336659995839,0.0030531303491443396,1.0019463300704956,0.0,0.0,0.0,0.34598541259765625,1.7991766929626465,5.464027404785156,-62.62404251098633,0
1942.9539999999997,-0.00018501793965697289,-0.00014910413301549852,0.0001897873735288158,0.0,0.0,0.0,0.0,0.0014725301880389452,-0.0009119692840613425,-0.004608239978551865,1.0013095140457153,0.0,0.0,0.0,0.3469497561454773,1.796093463897705,5.461731910705566,-62.7985954284668,0
1952.8799999999992,-0.0002101919671986252,-0.00016680486442055553,0.00020775281882379204,0.0,0.0,0.0,0.0,0.0018624616786837578,0.004011228214949369,-0.0026121626142412424,1.0004298686981201,0.0,0.0,0.0,0.3458165228366852,1.7940008640289307,5.451358795166016,-62.593475341796875,0
1962.7849999999999,-0.00014685382484458387,-7.005127554293722e-05,0.0001362195616820827,0.0,0.0,0.0,0.0,-0.00305174826644361,-0.0018893248634412885,0.0005147673655301332,0.9991499781608582,0.0,0.0,0.0,0.3447567820549011,1.7886161804199219,5.438885688781738,-62.401668548583984,0
1972.7019999999993,-0.0001719300780678168,-8.699324098415673e-05,0.00014830126019660383,0.0,0.0,0.0,0.0,0.00047174247447401285,0.00635905796661973,-0.0016764240572229028,0.9990113973617554,0.0,0.0,0.0,0.3441796600818634,1.7944027185440063,5.441956043243408,-62.297203063964844,0
1982.6119999999992,-5.46536102774553e-05,-7.651776832062751e-05,0.00010122363164555281,0.0,0.0,0.0,0.0,0.003601114498451352,-0.0014814297901466489,0.005253083538264036,0.9988621473312378,0.0,0.0,0.0,0.3432728052139282,1.7927223443984985,5.42770528793335,-62.133060455322266,0
1992.5349999999999,-8.001129026524723e-05,-9.452068479731679e-05,0.00010678968101274222,0.0,0.0,0.0,0.0,-0.0004847475211136043,0.001671327161602676,-6.269782170420513e-05,1.0004440546035767,0.0,0.0,0.0,0.3451354503631592,1.7832610607147217,5.4296464920043945,-62.4702033996582,0
2002.437,3.584519618016202e-06,-0.00011761290079448372,4.272567093721591e-05,0.0,0.0,0.0,0.0,0.00014817652117926627,0.0020591046195477247,0.0026481966488063335,0.997332751750946,0.0,0.0,0.0,0.3443746268749237,1.7864257097244263,5.420448303222656,-62.33249282836914,0
2012.3629999999994,-2.4524717446183786e-05,-0.0001356784487143159,4.157892180955969e-05,0.0,0.0,0.0,0.0,-0.001412414014339447,0.0011613823007792234,-0.0003488456131890416,0.9989810585975647,0.0,0.0,0.0,0.3442307710647583,1.7845451831817627,5.409893035888672,-62.30644989013672,0
2022.259,-4.280553184798919e-05,-7.787968934280798e-05,2.4290033252327703e-05,0.0,0.0,0.0,0.0,-0.0002492995699867606,0.00020352851424831897,-0.0012136948062106967,1.0006637573242188,0.0,0.0,0.0,0.3513355553150177,1.7941687107086182,5.401507377624512,-63.59243392944336,0
2032.182999999999,-5.989402052364312e-05,-5.50589757040143e-05,1.1186202755197883e-05,0.0,0.0,0.0,0.0,0.0024697405751794577,0.0024574038106948137,-0.0050007193349301815,0.997844934463501,0.0,0.0,0.0,0.3510810136795044,1.7885854244232178,5.392945289611816,-63.546363830566406,0
2042.0920000000006,-4.496668407227844e-05,-6.870946526760235e-05,2.464669341861736e-05,0.0,0.0,0.0,0.0,-0.0008130446658469737,-0.002815930638462305,-0.002428422449156642,0.9988861083984375,0.0,0.0,0.0,0.3494407534599304,1.7895506620407104,5.379464149475098,-63.24946975708008,0
2052.021999999999,-6.16525430814363e-05,-4.530903970589861e-05,8.358345439773984e-06,0.0,0.0,0.0,0.0,0.001270565204322338,0.0036293985322117805,0.0021844704169780016,0.9983609914779663,0.0,0.0,0.0,0.34952107071876526,1.795524001121521,5.380590915679932,-63.264007568359375,0
2061.9179999999997,-2.3159902411862276e-05,-0.00010457998723722994,3.664679525172687e-06,0.0,0.0,0.0,0.0,-0.0005808184505440295,-0.00016132165910676122,0.0036973829846829176,0.9982617497444153,0.0,0.0,0.0,0.34917327761650085,1.7934023141860962,5.369469165802002,-63.201053619384766,0
2071.8500000000004,-1.3609723282570485e-05,-5.710830373573117e-05,-4.587228613672778e-05,0.0,0.0,0.0,0.0,0.00175286247394979,4.622645428753458e-05,0.002335392637178302,0.9985966086387634,0.0,0.0,0.0,0.3490779399871826,1.795777440071106,5.360889911651611,-63.183799743652344,0
2081.7530000000006,-3.2700230804039165e-05,-7.563924009446055e-05,-5.3090290748514235e-05,0.0,0.0,0.0,0.0,-0.001314189052209258,0.0019128911662846804,-0.000201856906642206,0.9995056986808777,0.0,0.0,0.0,0.34851086139678955,1.791248083114624,5.354426383972168,-63.08115768432617,0
2091.688,-4.747611455968581e-05,-6.755723006790504e-05,-9.363171557197347e-05,0.0,0.0,0.0,0.0,-0.0007885757950134575,-0.0004967583809047937,0.001993586542084813,1.000875473022461,0.0,0.0,0.0,0.339303195476532,1.7977358102798462,5.3499555587768555,-61.41455841064453,0
2101.5750000000007,-6.841427239123732e-05,-8.790048013906926e-05,-0.00010018180182669312,0.0,0.0,0.0,0.0,0.00014432260650210083,0.0039992742240428925,0.001953381346538663,0.9997270703315735,0.0,0.0,0.0,0.33931708335876465,1.8008849620819092,5.345016956329346,-61.41707229614258,0
2111.4979999999996,-8.841309318086132e-05,-7.247133180499077e-05,-0.00013071592547930777,0.0,0.0,0.0,0.0,0.0009049467043951154,-0.004710365552455187,-0.0030549606308341026,0.9987396001815796,0.0,0.0,0.0,0.33248066902160645,1.8091967105865479,5.3352952003479,-60.17966079711914,0
