timestamp,stateEstimate.x,stateEstimate.y,stateEstimate.z,controller.cmd_thrust,controller.cmd_roll,controller.cmd_pitch,controller.cmd_yaw,controller.r_roll,controller.r_pitch,controller.r_yaw,controller.accelz,controller.actuatorThrust,controller.roll,controller.pitch,controller.yaw,controller.rollRate,controller.pitchRate,controller.yawRate,controller.ctr_yaw
0.0,-0.01639365591108799,0.011542157270014286,-0.000252954923780635,0.0,0.0,0.0,0.0,0.001354239764623344,-0.0026989334728568792,0.0026448362041264772,1.0000697374343872,0.0,0.0,0.0,-4.061302661895752,1.0547126531600952,4.073477745056152,735.1038208007812,0
9.915000000000873,-0.016389289870858192,0.011602667160332203,-0.0003150576667394489,0.0,0.0,0.0,0.0,0.0002537656400818378,0.0019786509219557047,0.00044701347360387444,0.9988373517990112,0.0,0.0,0.0,-4.0570902824401855,1.0535551309585571,4.075572490692139,734.3414306640625,0
19.82300000000032,-0.01647820882499218,0.011611786670982838,-0.00031362890149466693,0.0,0.0,0.0,0.0,-0.0012964947381988168,-0.0027071719523519278,0.0009512430406175554,1.000572681427002,0.0,0.0,0.0,-4.0538740158081055,1.0490230321884155,4.066535949707031,733.75927734375,0
29.739000000001397,-0.01647919788956642,0.01166525948792696,-0.00038098657387308776,0.0,0.0,0.0,0.0,0.00038853101432323456,0.001191631075926125,0.0020898724906146526,1.000662088394165,0.0,0.0,0.0,-4.049560070037842,1.055174708366394,4.0675153732299805,732.9784545898438,0
39.64600000000064,-0.016391141340136528,0.011635912582278252,-0.00034604532993398607,0.0,0.0,0.0,0.0,-0.0023838828783482313,0.0030137361027300358,-0.0072652557864785194,1.0009056329727173,0.0,0.0,0.0,-4.044858932495117,1.0583668947219849,4.069484233856201,732.1275634765625,0
49.54500000000007,-0.016451891511678696,0.011581013910472393,-0.0003695874765980989,0.0,0.0,0.0,0.0,-0.0016500098863616586,0.00032247352646663785,-0.003475941950455308,1.0034033060073853,0.0,0.0,0.0,-4.055926322937012,1.0533943176269531,4.063558101654053,734.1307373046875,0
59.465000000000146,-0.01633155159652233,0.011545902118086815,-0.00032520006061531603,0.0,0.0,0.0,0.0,0.00018304106197319925,0.002968166023492813,-0.0013946479884907603,1.0000048875808716,0.0,0.0,0.0,-4.046422958374023,1.048201084136963,4.094548225402832,732.41064453125,0
69.37400000000162,-0.016426049172878265,0.01147959753870964,-0.00029093780904076993,0.0,0.0,0.0,0.0,0.0009136516018770635,0.002248450182378292,-0.0039695994928479195,0.9995003938674927,0.0,0.0,0.0,-4.053379058837891,1.0395642518997192,4.076092720031738,733.669677734375,0
79.29100000000108,-0.016201717779040337,0.011378954164683819,-0.00023996617528609931,0.0,0.0,0.0,0.0,-0.00012322682596277446,0.002654913580045104,-0.0018441836582496762,1.000906229019165,0.0,0.0,0.0,-4.054152488708496,1.0185555219650269,4.114202976226807,733.8096313476562,0
89.19700000000012,-0.016239754855632782,0.011369259096682072,-0.00024731605662964284,0.0,0.0,0.0,0.0,0.00038150831824168563,0.0023828314151614904,-0.006712553557008505,0.998823344707489,0.0,0.0,0.0,-4.062098979949951,1.0164881944656372,4.100707530975342,735.248046875,0
99.11700000000019,-0.01621711626648903,0.011332591064274311,-0.0002274316648254171,0.0,0.0,0.0,0.0,0.0013702617725357413,0.002135729417204857,0.002468074206262827,0.9993098378181458,0.0,0.0,0.0,-4.058388710021973,1.017486572265625,4.089799404144287,734.576416015625,0
109.02700000000004,-0.01619342714548111,0.01142674870789051,-0.00028236390789970756,0.0,0.0,0.0,0.0,0.0009608410764485598,-0.002909410512074828,0.0030716038309037685,0.999555230140686,0.0,0.0,0.0,-4.067936420440674,1.0338993072509766,4.086333751678467,736.3045654296875,0
118.9310000000005,-0.016125384718179703,0.011354715563356876,-0.00027469074120745063,0.0,0.0,0.0,0.0,0.0008532974752597511,0.002064208034425974,-0.0031323314178735018,1.000036358833313,0.0,0.0,0.0,-4.068428039550781,1.0202308893203735,4.104701995849609,736.3935546875,0
128.84000000000015,-0.01612919569015503,0.011420105583965778,-0.000306426256429404,0.0,0.0,0.0,0.0,0.0039064157754182816,0.0017634403193369508,-0.002562514739111066,0.998549222946167,0.0,0.0,0.0,-4.074796676635742,1.0350587368011475,4.109447002410889,737.5463256835938,0
138.7520000000004,-0.016185127198696136,0.011443371884524822,-0.0002935239754151553,0.0,0.0,0.0,0.0,0.0013005014043301344,0.0033727590925991535,-0.003946803975850344,1.0001637935638428,0.0,0.0,0.0,-4.071443557739258,1.0363324880599976,4.103943824768066,736.9393310546875,0
148.66800000000148,-0.016231482848525047,0.01147390529513359,-0.0002894359058700502,0.0,0.0,0.0,0.0,0.0016135714249685407,0.004602937493473291,-0.0010674060322344303,1.001949667930603,0.0,0.0,0.0,-4.079029083251953,1.0432666540145874,4.094465255737305,738.3123779296875,0
158.58000000000175,-0.01616775617003441,0.01143568940460682,-0.0002680939214769751,0.0,0.0,0.0,0.0,-0.0005740695050917566,-0.0018924998585134745,0.0013053030706942081,0.9980347752571106,0.0,0.0,0.0,-4.075497627258301,1.04097580909729,4.082737445831299,737.6732177734375,0
168.4920000000002,-0.01618242636322975,0.011497109197080135,-0.0002923610445577651,0.0,0.0,0.0,0.0,0.0014957208186388016,0.0018338060472160578,0.003825272200629115,1.0002405643463135,0.0,0.0,0.0,-4.071278095245361,1.0415043830871582,4.068274974822998,736.909423828125,0
178.40000000000146,-0.016247188672423363,0.011476850137114525,-0.00030524536850862205,0.0,0.0,0.0,0.0,0.0004937463090755045,-0.0018975561251863837,0.00015143050404731184,1.000700831413269,0.0,0.0,0.0,-4.065948009490967,1.040102243423462,4.070019245147705,735.9446411132812,0
188.31700000000092,-0.01629277877509594,0.011497975327074528,-0.00030695705208927393,0.0,0.0,0.0,0.0,0.0003755872312467545,-0.002896529156714678,-0.0024054867681115866,0.9980483651161194,0.0,0.0,0.0,-4.076850414276123,1.0453979969024658,4.063181400299072,737.9180908203125,0
198.2310000000016,-0.01626722700893879,0.011480225250124931,-0.0002855471393559128,0.0,0.0,0.0,0.0,-0.0018244016682729125,-0.0003434882964938879,0.0030212358105927706,0.9973528385162354,0.0,0.0,0.0,-4.072894096374512,1.0410962104797363,4.063641548156738,737.201904296875,0
208.13600000000042,-0.016278598457574844,0.01152614876627922,-0.0003289577434770763,0.0,0.0,0.0,0.0,0.003634049789980054,-0.0012605837546288967,-9.367996244691312e-05,0.9991710782051086,0.0,0.0,0.0,-4.080116271972656,1.0529476404190063,4.069129467010498,738.5091552734375,0
218.04600000000028,-0.01630544476211071,0.011531941592693329,-0.00032286191708408296,0.0,0.0,0.0,0.0,-0.002419298980385065,-0.00073184201028198,0.0018269761931151152,0.9979022741317749,0.0,0.0,0.0,-4.069594860076904,1.0447852611541748,4.0686445236206055,736.604736328125,0
227.96300000000156,-0.016319522634148598,0.01156375091522932,-0.0003743631241377443,0.0,0.0,0.0,0.0,-0.0014434573240578175,0.0017612609080970287,0.0007941452204249799,0.9990931153297424,0.0,0.0,0.0,-4.075034141540527,1.055135726928711,4.0694661140441895,737.5892944335938,0
237.8700000000008,-0.01633777655661106,0.011547301895916462,-0.00037790866917930543,0.0,0.0,0.0,0.0,-0.0008534944499842823,0.00028686143923550844,-0.0006832318031229079,1.0008717775344849,0.0,0.0,0.0,-4.07036828994751,1.0560238361358643,4.058260440826416,736.7446899414062,0
247.78600000000006,-0.016354599967598915,0.011580795980989933,-0.00042609916999936104,0.0,0.0,0.0,0.0,-0.0012875519460067153,-0.0046859863214194775,-0.0016205955762416124,1.002769112586975,0.0,0.0,0.0,-4.079348564147949,1.064671516418457,4.058173179626465,738.3702392578125,0
257.6980000000003,-0.016338221728801727,0.011557483114302158,-0.00042235024739056826,0.0,0.0,0.0,0.0,0.002029063180088997,-0.0015529129886999726,-0.0014433973701670766,1.0022014379501343,0.0,0.0,0.0,-4.074795246124268,1.0654841661453247,4.066056251525879,737.546142578125,0
267.6060000000016,-0.016316993162035942,0.011659172363579273,-0.0004982174141332507,0.0,0.0,0.0,0.0,0.002759678987786174,-0.0016849630046635866,0.0013651566114276648,1.0011428594589233,0.0,0.0,0.0,-4.080402851104736,1.0830117464065552,4.067975997924805,738.56103515625,0
277.52500000000146,-0.016266392543911934,0.011630680412054062,-0.0004900291096419096,0.0,0.0,0.0,0.0,0.0028921414632350206,0.00028109046979807317,-0.0020751908887177706,1.0002837181091309,0.0,0.0,0.0,-4.07559871673584,1.0764514207839966,4.06655740737915,737.6915283203125,0
287.4310000000005,-0.01636725850403309,0.011550791561603546,-0.00046406793990172446,0.0,0.0,0.0,0.0,-0.00031485265935771167,-0.003651999169960618,-0.00030587168294005096,1.0000425577163696,0.0,0.0,0.0,-4.082391262054443,1.0619521141052246,4.060489654541016,738.9209594726562,0
297.34200000000055,-0.01629670150578022,0.011554980650544167,-0.0004259838897269219,0.0,0.0,0.0,0.0,0.0008323802030645311,0.0010131302988156676,-0.002454575151205063,1.0001823902130127,0.0,0.0,0.0,-4.078984260559082,1.0557565689086914,4.052780628204346,738.3042602539062,0
307.2530000000006,-0.01636798493564129,0.011503304354846478,-0.00042425846913829446,0.0,0.0,0.0,0.0,0.001660568406805396,-0.0017907246947288513,0.0007495674071833491,1.0009468793869019,0.0,0.0,0.0,-4.085511684417725,1.0477843284606934,4.0513176918029785,739.4857177734375,0
317.1660000000011,-0.01628788933157921,0.011491473764181137,-0.0003825988678727299,0.0,0.0,0.0,0.0,-0.000961470534093678,-0.0033221524208784103,0.0016275806119665504,1.0031548738479614,0.0,0.0,0.0,-4.08112096786499,1.04606032371521,4.042510509490967,738.6910400390625,0
327.08500000000095,-0.016387976706027985,0.011429163627326488,-0.00033163485932163894,0.0,0.0,0.0,0.0,-0.005483868531882763,0.000978564959950745,0.0011338315671309829,1.0013877153396606,0.0,0.0,0.0,-4.087521076202393,1.031781792640686,4.038000106811523,739.8494873046875,0
336.9930000000004,-0.01632687635719776,0.011443602852523327,-0.00027392408810555935,0.0,0.0,0.0,0.0,-0.0009822144638746977,-0.000706325052306056,-0.0005386877455748618,0.999247133731842,0.0,0.0,0.0,-4.0829572677612305,1.034311294555664,4.033001899719238,739.0233764648438,0
346.90200000000004,-0.01639713905751705,0.011429465375840664,-0.00023880397202447057,0.0,0.0,0.0,0.0,-0.0003926065983250737,0.00032790080877020955,0.0008074964862316847,0.9996213912963867,0.0,0.0,0.0,-4.078457832336426,1.0342695713043213,4.026287078857422,738.208984375,0
356.8140000000003,-0.01630004309117794,0.011392825283110142,-0.00018355016072746366,0.0,0.0,0.0,0.0,0.0019794018007814884,0.0014926977455615997,0.00238071009516716,1.001243233680725,0.0,0.0,0.0,-4.074982643127441,1.033064603805542,4.015342712402344,737.5799560546875,0
366.72500000000036,-0.016350995749235153,0.011376556009054184,-0.00017185074102599174,0.0,0.0,0.0,0.0,0.00036937565892003477,0.0015395734226331115,-0.0010995514458045363,0.9977962374687195,0.0,0.0,0.0,-4.079413414001465,1.0290589332580566,4.014984607696533,738.3820190429688,0
376.63800000000083,-0.016253814101219177,0.01145003642886877,-0.00018637444009073079,0.0,0.0,0.0,0.0,0.00050836376613006,0.004397358279675245,0.003142016241326928,0.9983660578727722,0.0,0.0,0.0,-4.087348937988281,1.0439599752426147,4.008543014526367,739.8182983398438,0
386.5480000000007,-0.016301317140460014,0.011450313031673431,-0.0001730727672111243,0.0,0.0,0.0,0.0,0.000437558424891904,0.0008677226724103093,0.0022408217191696167,1.0001190900802612,0.0,0.0,0.0,-4.083439826965332,1.0439119338989258,3.9985275268554688,739.1107177734375,0
396.47000000000116,-0.016288645565509796,0.011542494408786297,-0.00024144128838088363,0.0,0.0,0.0,0.0,-0.0010612198384478688,-0.0047765253111720085,-0.0016148771392181516,1.002140998840332,0.0,0.0,0.0,-4.085019588470459,1.0693506002426147,4.002426624298096,739.3966674804688,0
406.3780000000006,-0.016338972374796867,0.011543809436261654,-0.00023469269217457622,0.0,0.0,0.0,0.0,0.0011627987259998918,0.003374180756509304,-0.002157938200980425,1.0015923976898193,0.0,0.0,0.0,-4.080945014953613,1.072716236114502,4.003605842590332,738.6591796875,0
416.2910000000011,-0.01628553494811058,0.011539110913872719,-0.00024413512437604368,0.0,0.0,0.0,0.0,0.001097921864129603,0.007214145269244909,0.0017996843671426177,0.9992933869361877,0.0,0.0,0.0,-4.088324546813965,1.0711523294448853,3.993863344192505,739.9949340820312,0
426.1970000000001,-0.016337675973773003,0.01154111698269844,-0.00023641527513973415,0.0,0.0,0.0,0.0,0.0003325657162349671,-0.001917629037052393,0.0010680889245122671,0.9979996681213379,0.0,0.0,0.0,-4.083871364593506,1.0679033994674683,3.971196174621582,739.1888427734375,0
436.1090000000004,-0.016293726861476898,0.011533799581229687,-0.00023381330538541079,0.0,0.0,0.0,0.0,0.0002508718171156943,0.0019513991428539157,-0.0018885611789301038,0.9982131123542786,0.0,0.0,0.0,-4.088503837585449,1.065794825553894,3.990234613418579,740.02734375,0
446.01900000000023,-0.016347263008356094,0.01153787225484848,-0.00022861722391098738,0.0,0.0,0.0,0.0,-0.0006776939844712615,-0.003845878876745701,0.00014393440505955368,0.9982326626777649,0.0,0.0,0.0,-4.084587574005127,1.0662130117416382,3.9884016513824463,739.3184814453125,0
455.9340000000011,-0.01622767187654972,0.01153988391160965,-0.00025327879120595753,0.0,0.0,0.0,0.0,-0.0013003841741010547,-0.0002535826060920954,0.0019094756571576,1.0020480155944824,0.0,0.0,0.0,-4.073980808258057,1.0625296831130981,4.011021137237549,737.3986206054688,0
465.84500000000116,-0.01622026413679123,0.011502319946885109,-0.00024827566812746227,0.0,0.0,0.0,0.0,0.00010434796422487125,-0.0007371393730863929,0.0004554343759082258,1.001697063446045,0.0,0.0,0.0,-4.070690155029297,1.0664126873016357,4.000127792358398,736.802978515625,0
475.75800000000163,-0.016274984925985336,0.01148420013487339,-0.00025387018104083836,0.0,0.0,0.0,0.0,-0.0017695307033136487,0.007494339719414711,-0.0009614975424483418,0.9999693632125854,0.0,0.0,0.0,-4.0736188888549805,1.0648404359817505,3.996847152709961,737.3330688476562,0
485.6780000000017,-0.01632882095873356,0.011485730297863483,-0.0002513588697183877,0.0,0.0,0.0,0.0,0.004282682202756405,0.0019275929080322385,0.0014272554544731975,0.998749315738678,0.0,0.0,0.0,-4.0695481300354,1.056584358215332,3.9810006618499756,736.5962524414062,0
495.58100000000013,-0.016346780583262444,0.01144248154014349,-0.00021403755818028003,0.0,0.0,0.0,0.0,0.0009387597092427313,0.003172264201566577,0.0006036082049831748,1.002571702003479,0.0,0.0,0.0,-4.06969690322876,1.0405404567718506,3.9807965755462646,736.6232299804688,0
505.5040000000008,-0.0162693839520216,0.011406388133764267,-0.00017552671488374472,0.0,0.0,0.0,0.0,-0.0018519145669415593,0.004081974271684885,0.0008651056559756398,1.0023221969604492,0.0,0.0,0.0,-4.065279006958008,1.0403000116348267,3.973992109298706,735.8235473632812,0
515.4110000000001,-0.016328318044543266,0.011411519721150398,-0.00016348240023944527,0.0,0.0,0.0,0.0,-0.0018109086668118834,-0.0015513789840042591,5.331118518370204e-05,1.0002851486206055,0.0,0.0,0.0,-4.060204982757568,1.043211579322815,3.965562105178833,734.9051513671875,0
525.3250000000007,-0.016245465725660324,0.011357761919498444,-0.00012605403026100248,0.0,0.0,0.0,0.0,-0.0007649933686479926,0.0064427778124809265,-0.0006497888825833797,0.9983325600624084,0.0,0.0,0.0,-4.055711269378662,1.0400067567825317,3.9595577716827393,734.0918579101562,0
535.2290000000012,-0.016262980177998543,0.011388222686946392,-0.00015795466606505215,0.0,0.0,0.0,0.0,-0.00022886595979798585,0.0011082354467362165,0.00149336748290807,0.9983211755752563,0.0,0.0,0.0,-4.0586042404174805,1.0464415550231934,3.952338457107544,734.6154174804688,0
545.1510000000017,-0.016238633543252945,0.011356767266988754,-0.0001332452957285568,0.0,0.0,0.0,0.0,-0.0013104319805279374,0.0029798573814332485,0.00020134435908403248,1.0004245042800903,0.0,0.0,0.0,-4.053573131561279,1.0343191623687744,3.934335470199585,733.7047729492188,0
555.0510000000013,-0.016233310103416443,0.011439958587288857,-0.00018204082152806222,0.0,0.0,0.0,0.0,0.0018066741758957505,0.0037631739396601915,4.836519656237215e-05,1.0007121562957764,0.0,0.0,0.0,-4.062994956970215,1.06672203540802,3.9310503005981445,735.4102172851562,0
564.9710000000014,-0.016227206215262413,0.011408529244363308,-0.0001670865312917158,0.0,0.0,0.0,0.0,0.00124177907127887,0.004315229132771492,-0.0015778930392116308,0.99925297498703,0.0,0.0,0.0,-4.05765438079834,1.061133861541748,3.9222002029418945,734.4435424804688,0
574.875,-0.01625201851129532,0.011471605859696865,-0.0001845353253884241,0.0,0.0,0.0,0.0,-0.0038588603492826223,0.001438444945961237,-0.0014529330655932426,1.000901222229004,0.0,0.0,0.0,-4.064356327056885,1.0678399801254272,3.9190547466278076,735.6565551757812,0
584.8010000000013,-0.01621462218463421,0.011422935873270035,-0.00016889664402697235,0.0,0.0,0.0,0.0,0.00330011872574687,0.0007998192450031638,-0.0018124806229025126,1.0009493827819824,0.0,0.0,0.0,-4.059362411499023,1.0651310682296753,3.9063920974731445,734.752685546875,0
594.7040000000015,-0.016234098002314568,0.011471382342278957,-0.00020210312504786998,0.0,0.0,0.0,0.0,-0.002466687699779868,-0.0015239998465403914,-0.0044828071258962154,1.0007922649383545,0.0,0.0,0.0,-4.07016658782959,1.072434425354004,3.9128658771514893,736.708251953125,0
604.625,-0.016205307096242905,0.011412247084081173,-0.0001969685108633712,0.0,0.0,0.0,0.0,0.0019736564718186855,-0.001790305832400918,0.0008136953692883253,1.0005300045013428,0.0,0.0,0.0,-4.066716194152832,1.076368808746338,3.918224334716797,736.0836791992188,0
614.5240000000013,-0.016205133870244026,0.011484116315841675,-0.00024777621729299426,0.0,0.0,0.0,0.0,-0.004780186805874109,-0.003254122333601117,0.0019186511635780334,1.0003962516784668,0.0,0.0,0.0,-4.0638275146484375,1.0738483667373657,3.9168848991394043,735.5608520507812,0
624.4440000000013,-0.016163958236575127,0.011461588554084301,-0.00022239715326577425,0.0,0.0,0.0,0.0,0.002664997475221753,-0.0012809508480131626,-0.002002781955525279,1.0001846551895142,0.0,0.0,0.0,-4.0585503578186035,1.071899652481079,3.908010721206665,734.605712890625,0
634.3460000000014,-0.01620669662952423,0.011481733061373234,-0.00023278126900549978,0.0,0.0,0.0,0.0,0.0007499619969166815,-0.0022626300342381,0.0005569550557993352,1.0005664825439453,0.0,0.0,0.0,-4.068629264831543,1.0808104276657104,3.9074580669403076,736.4299926757812,0
644.2760000000017,-0.016190988942980766,0.011434241198003292,-0.000225899726501666,0.0,0.0,0.0,0.0,-0.0002996773982886225,0.001377421896904707,0.000251803983701393,0.998132050037384,0.0,0.0,0.0,-4.064079761505127,1.0826371908187866,3.9136714935302734,735.6065063476562,0
654.1710000000003,-0.016188759356737137,0.01149909757077694,-0.00027795234927907586,0.0,0.0,0.0,0.0,0.00012558938760776073,-0.003934337291866541,-0.003697329666465521,1.0010329484939575,0.0,0.0,0.0,-4.060201644897461,1.0825426578521729,3.9089274406433105,734.904541015625,0
664.0990000000002,-0.016237877309322357,0.011508602648973465,-0.000264267175225541,0.0,0.0,0.0,0.0,0.0008763318182900548,-0.0032293631229549646,0.0027258575428277254,1.0028809309005737,0.0,0.0,0.0,-4.05562162399292,1.0807982683181763,3.9115138053894043,734.0755615234375,0
673.9950000000008,-0.016251767054200172,0.011558901518583298,-0.0003073297848459333,0.0,0.0,0.0,0.0,0.0007813213742338121,-0.0015635191230103374,0.0018162982305511832,1.0008033514022827,0.0,0.0,0.0,-4.0583176612854,1.085923194885254,3.9081974029541016,734.5635375976562,0
683.9220000000005,-0.016249146312475204,0.011549379676580429,-0.00029048536089248955,0.0,0.0,0.0,0.0,-0.0011491889599710703,0.0005978246917948127,-0.004134833812713623,1.0016438961029053,0.0,0.0,0.0,-4.052853584289551,1.0862199068069458,3.9115524291992188,733.5745849609375,0
693.8230000000003,-0.01627781242132187,0.011574886739253998,-0.0003244687686674297,0.0,0.0,0.0,0.0,-0.0026785314548760653,-0.0012732582399621606,0.00015154581342358142,1.0027819871902466,0.0,0.0,0.0,-4.059074401855469,1.096153974533081,3.9143788814544678,734.7005004882812,0
703.741,-0.01625051349401474,0.01155859511345625,-0.0003007063060067594,0.0,0.0,0.0,0.0,0.0019533138256520033,0.0029295554850250483,0.0009857510449364781,1.0008207559585571,0.0,0.0,0.0,-4.057062149047852,1.1014889478683472,3.9102463722229004,734.3363037109375,0
713.6400000000012,-0.01630975864827633,0.011552476324141026,-0.00030352233443409204,0.0,0.0,0.0,0.0,0.002570588607341051,-0.002007679780945182,0.002071317983791232,1.0003242492675781,0.0,0.0,0.0,-4.069647312164307,1.1016052961349487,3.8924083709716797,736.6142578125,0
723.5710000000017,-0.01630416139960289,0.011510377749800682,-0.0002931066555902362,0.0,0.0,0.0,0.0,-0.0012902149464935064,0.0015073365066200495,-0.000956432893872261,1.0019574165344238,0.0,0.0,0.0,-4.065157413482666,1.0922420024871826,3.8901467323303223,735.8015747070312,0
733.4660000000003,-0.016342388466000557,0.011545438319444656,-0.00030899906414560974,0.0,0.0,0.0,0.0,0.003314977278932929,0.002419928787276149,0.0034371325746178627,1.0010268688201904,0.0,0.0,0.0,-4.076961040496826,1.103495478630066,3.8817362785339355,737.9381103515625,0
743.3830000000016,-0.016272904351353645,0.011525542475283146,-0.0002670334361027926,0.0,0.0,0.0,0.0,0.002844829112291336,0.0006119199097156525,0.0017713948618620634,0.9990073442459106,0.0,0.0,0.0,-4.071653842926025,1.100717544555664,3.8713347911834717,736.9774169921875,0
753.2880000000005,-0.01628602109849453,0.011575775220990181,-0.0003062994801439345,0.0,0.0,0.0,0.0,0.0011606088373810053,-0.0014880112139508128,0.0023292985279113054,1.000317096710205,0.0,0.0,0.0,-4.066199779510498,1.097717046737671,3.8606081008911133,735.9902954101562,0
763.2120000000014,-0.016284789890050888,0.01158516202121973,-0.0002773300220724195,0.0,0.0,0.0,0.0,0.0020141007844358683,0.0006885728216730058,0.0021067254710942507,1.0008256435394287,0.0,0.0,0.0,-4.053393840789795,1.0889142751693726,3.8701090812683105,733.67236328125,0
773.1140000000014,-0.016358008608222008,0.011554225347936153,-0.00027729952125810087,0.0,0.0,0.0,0.0,5.472872089740122e-06,0.004437875002622604,0.0009937365539371967,0.9993488788604736,0.0,0.0,0.0,-4.054928779602051,1.0762542486190796,3.8667378425598145,733.9501953125,0
783.0390000000007,-0.01628572680056095,0.011529630981385708,-0.00024181757180485874,0.0,0.0,0.0,0.0,0.0030581674072891474,0.00033106206683441997,-0.0028012432157993317,1.0007624626159668,0.0,0.0,0.0,-4.051229953765869,1.0747830867767334,3.858266592025757,733.2807006835938,0
792.9370000000017,-0.016298875212669373,0.011583058163523674,-0.00028857088182121515,0.0,0.0,0.0,0.0,0.0010668225586414337,-0.0009390455088578165,0.004193442407995462,1.0004466772079468,0.0,0.0,0.0,-4.053504467010498,1.0880205631256104,3.8690407276153564,733.6924438476562,0
802.8580000000002,-0.01622873917222023,0.011524572037160397,-0.00027102517196908593,0.0,0.0,0.0,0.0,-5.110815982334316e-05,0.0034605455584824085,-0.002773449057713151,0.999861478805542,0.0,0.0,0.0,-4.048465251922607,1.078991174697876,3.8628034591674805,732.7802734375,0
812.7620000000006,-0.01625230722129345,0.01157908421009779,-0.0003045743505936116,0.0,0.0,0.0,0.0,-0.0019156585913151503,0.0020359514746814966,0.0005566804320551455,1.0004668235778809,0.0,0.0,0.0,-4.045280933380127,1.0744009017944336,3.8518285751342773,732.2039184570312,0
822.6780000000017,-0.016229573637247086,0.011535448022186756,-0.00029539832030422986,0.0,0.0,0.0,0.0,0.001582522178068757,0.0008844550466164947,-0.0006833935040049255,1.0005919933319092,0.0,0.0,0.0,-4.041774272918701,1.0686012506484985,3.8374226093292236,731.5692138671875,0
832.5830000000005,-0.0163078885525465,0.011506796814501286,-0.0002924635191448033,0.0,0.0,0.0,0.0,-0.0006471529486589134,-0.000920342281460762,-0.0047430661506950855,0.9978151917457581,0.0,0.0,0.0,-4.043486595153809,1.0626214742660522,3.8326714038848877,731.8790893554688,0
842.5100000000002,-0.01628212258219719,0.011492151767015457,-0.00026732825790531933,0.0,0.0,0.0,0.0,0.0006023686728440225,0.004089572466909885,-0.0002546515897847712,0.9973920583724976,0.0,0.0,0.0,-4.033522129058838,1.0545276403427124,3.8424220085144043,730.0755004882812,0
852.4100000000017,-0.016338035464286804,0.011494036763906479,-0.00028549451963044703,0.0,0.0,0.0,0.0,-3.07741756842006e-05,0.0020665733609348536,0.002589533803984523,1.0001999139785767,0.0,0.0,0.0,-4.037273406982422,1.062174916267395,3.8335158824920654,730.7545166015625,0
862.3280000000013,-0.016288159415125847,0.011485999450087547,-0.0002517675166018307,0.0,0.0,0.0,0.0,0.0031980976928025484,-2.5883315174723975e-05,0.001955844461917877,1.0024772882461548,0.0,0.0,0.0,-4.031776428222656,1.0533146858215332,3.828331232070923,729.759521484375,0
872.2350000000006,-0.01637817732989788,0.01145436055958271,-0.0002376597112743184,0.0,0.0,0.0,0.0,-0.002865569433197379,-0.0015543036861345172,-6.492763350252062e-05,1.003016471862793,0.0,0.0,0.0,-4.041194915771484,1.0451443195343018,3.8184471130371094,731.46435546875,0
882.1500000000015,-0.01629812829196453,0.011438878253102303,-0.0001900005736388266,0.0,0.0,0.0,0.0,1.1315269148326479e-05,0.0042357416823506355,0.0058808536268770695,0.9994847178459167,0.0,0.0,0.0,-4.030389308929443,1.0367326736450195,3.8374569416046143,729.5084838867188,0
892.0550000000003,-0.016335967928171158,0.01145599689334631,-0.00022084012744016945,0.0,0.0,0.0,0.0,-0.0012937735300511122,0.005253834184259176,0.0014157301047816873,1.000834584236145,0.0,0.0,0.0,-4.035539627075195,1.0430861711502075,3.8378169536590576,730.4407348632812,0
901.9730000000018,-0.01627187430858612,0.011415713466703892,-0.0001872115390142426,0.0,0.0,0.0,0.0,0.0009108476806432009,0.0017659097211435437,0.0002889495517592877,0.9986236691474915,0.0,0.0,0.0,-4.031398296356201,1.0361558198928833,3.8282089233398438,729.691162109375,0
911.8860000000004,-0.016293998807668686,0.011485225521028042,-0.00021838065003976226,0.0,0.0,0.0,0.0,-0.0001371871039737016,0.004710243549197912,-0.002431681379675865,0.9993536472320557,0.0,0.0,0.0,-4.041215419769287,1.0478063821792603,3.8268728256225586,731.468017578125,0
921.7920000000013,-0.016278183087706566,0.01147882267832756,-0.00018884810560848564,0.0,0.0,0.0,0.0,0.001080094720236957,0.0022629417944699526,0.001889317063614726,0.9981554746627808,0.0,0.0,0.0,-4.037515163421631,1.046751618385315,3.8170411586761475,730.7982788085938,0
931.7080000000005,-0.01628061756491661,0.011556876823306084,-0.00025105217355303466,0.0,0.0,0.0,0.0,-0.0005902830744162202,0.0024430416524410248,-0.003575174603611231,1.0012017488479614,0.0,0.0,0.0,-4.040059566497803,1.0596779584884644,3.8132505416870117,731.2587890625,0
941.6150000000016,-0.01624501682817936,0.01150551624596119,-0.00024142558686435223,0.0,0.0,0.0,0.0,0.0021162647753953934,0.0035745578352361917,0.002260069129988551,0.9988779425621033,0.0,0.0,0.0,-4.035974979400635,1.0540746450424194,3.8094849586486816,730.51953125,0
951.527,-0.016247179359197617,0.011605340987443924,-0.00030186522053554654,0.0,0.0,0.0,0.0,0.0010458114556968212,-5.583359597949311e-05,0.0013319760328158736,1.0000351667404175,0.0,0.0,0.0,-4.045966148376465,1.0768462419509888,3.8015074729919434,732.3280029296875,0
961.4410000000007,-0.016157416626811028,0.0115552032366395,-0.0002827506687026471,0.0,0.0,0.0,0.0,-0.0013744070893153548,-0.003145173192024231,-0.00010467222455190495,0.9994565844535828,0.0,0.0,0.0,-4.041720867156982,1.0679428577423096,3.793292999267578,731.5594482421875,0
971.3490000000002,-0.01620427705347538,0.011564327403903008,-0.0003192489966750145,0.0,0.0,0.0,0.0,-0.00018677400657907128,0.005309447646141052,0.0033309534192085266,1.000218152999878,0.0,0.0,0.0,-4.05015230178833,1.071177363395691,3.8082258701324463,733.0856323242188,0
981.2630000000008,-0.016196170821785927,0.011510172858834267,-0.0003273561887908727,0.0,0.0,0.0,0.0,0.001074781408533454,0.0009088420774787664,0.003083355026319623,1.0009790658950806,0.0,0.0,0.0,-4.046029090881348,1.067029595375061,3.7998721599578857,732.33935546875,0
991.1730000000007,-0.016230206936597824,0.011550377123057842,-0.00036981271114200354,0.0,0.0,0.0,0.0,0.0013344779144972563,2.0611521904356778e-05,0.0006658460479229689,1.0000163316726685,0.0,0.0,0.0,-4.052844524383545,1.0765196084976196,3.795836925506592,733.5729370117188,0
1001.0870000000014,-0.01618589274585247,0.011524491012096405,-0.00035498791839927435,0.0,0.0,0.0,0.0,0.002142142504453659,0.00036226565134711564,0.00038713481626473367,1.0006601810455322,0.0,0.0,0.0,-4.048474311828613,1.0720500946044922,3.7843384742736816,732.7819213867188,0
1011.0020000000004,-0.016234396025538445,0.011559815146028996,-0.00037943560164421797,0.0,0.0,0.0,0.0,-0.0011224336922168732,-0.00017345398373436183,0.0003173635923303664,1.0003466606140137,0.0,0.0,0.0,-4.044766426086426,1.0737433433532715,3.7736010551452637,732.1107788085938,0
1020.9180000000015,-0.016081446781754494,0.01144497562199831,-0.0003714129561558366,0.0,0.0,0.0,0.0,-0.001725209061987698,0.0016340354923158884,0.00015601694758515805,1.0001355409622192,0.0,0.0,0.0,-4.048635482788086,1.0438518524169922,3.802706718444824,732.8110961914062,0
1030.8250000000007,-0.016218306496739388,0.011373478919267654,-0.0003110018151346594,0.0,0.0,0.0,0.0,0.0035276564303785563,-0.00043713595368899405,-0.0008244672208093107,0.9988332390785217,0.0,0.0,0.0,-4.056102275848389,1.0329973697662354,3.793809175491333,734.16259765625,0
1040.7320000000018,-0.016124065965414047,0.011326626874506474,-0.0002761498326435685,0.0,0.0,0.0,0.0,0.002352280542254448,0.004015874583274126,0.0011156718246638775,0.999690055847168,0.0,0.0,0.0,-4.051333904266357,1.0360890626907349,3.796299457550049,733.2994995117188,0
1050.6530000000002,-0.01616458222270012,0.011386990547180176,-0.0002880810643546283,0.0,0.0,0.0,0.0,0.0008264158386737108,0.0025389273650944233,0.002221188507974148,1.0014218091964722,0.0,0.0,0.0,-4.063581943511963,1.0435007810592651,3.78713059425354,735.5164184570312,0
1060.558000000001,-0.016207803040742874,0.011410866864025593,-0.0002621036837808788,0.0,0.0,0.0,0.0,-0.002040582476183772,-0.002122770994901657,0.0014497428201138973,0.999596893787384,0.0,0.0,0.0,-4.0589213371276855,1.038526177406311,3.7817320823669434,734.6728515625,0
1070.4710000000014,-0.016299432143568993,0.011394799686968327,-0.0002439070085529238,0.0,0.0,0.0,0.0,-0.0006811024504713714,5.560480713029392e-05,0.003830883651971817,0.9990833401679993,0.0,0.0,0.0,-4.065953731536865,1.0428904294967651,3.7760400772094727,735.9457397460938,0
1080.3810000000012,-0.016287678852677345,0.011412549763917923,-0.00019798848370555788,0.0,0.0,0.0,0.0,-0.00271484418772161,-0.0015015938552096486,-0.004143616184592247,0.9999570250511169,0.0,0.0,0.0,-4.061303615570068,1.0423420667648315,3.7753114700317383,735.10400390625,0
1090.2960000000003,-0.01635916344821453,0.011417897418141365,-0.0001989323500311002,0.0,0.0,0.0,0.0,0.0015052470844238997,-0.0003134515427518636,0.0033099690917879343,1.0003265142440796,0.0,0.0,0.0,-4.070610046386719,1.0434757471084595,3.773061752319336,736.7884521484375,0
1100.2130000000016,-0.016438426449894905,0.011448588222265244,-0.00013802949979435652,0.0,0.0,0.0,0.0,0.0019606798887252808,-0.000988182844594121,-5.364716344047338e-05,0.9987615346908569,0.0,0.0,0.0,-4.06195592880249,1.046578288078308,3.764526844024658,735.2221069335938,0
1110.1150000000016,-0.016366124153137207,0.011527355760335922,-0.0002098261029459536,0.0,0.0,0.0,0.0,0.0014547910541296005,0.0034525953233242035,-0.0008857121574692428,0.998965322971344,0.0,0.0,0.0,-4.07502555847168,1.0655003786087036,3.775015115737915,737.5877685546875,0
1120.0290000000005,-0.016398025676608086,0.011491745710372925,-0.00017533889331389219,0.0,0.0,0.0,0.0,-0.0010079581988975406,-0.002866956638172269,0.00017623072199057788,0.9996267557144165,0.0,0.0,0.0,-4.066522598266602,1.052829623222351,3.755082368850708,736.0486450195312,0
1129.942000000001,-0.016360677778720856,0.01149482000619173,-0.0002310194104211405,0.0,0.0,0.0,0.0,0.0006942292093299329,-0.0012910260120406747,-0.0019136382034048438,0.9992102980613708,0.0,0.0,0.0,-4.0750322341918945,1.0562292337417603,3.761932611465454,737.5889892578125,0
1139.8520000000008,-0.016377750784158707,0.011477026157081127,-0.00018944409384857863,0.0,0.0,0.0,0.0,0.0029110321775078773,0.005068196915090084,0.0018013142980635166,0.999942421913147,0.0,0.0,0.0,-4.068332672119141,1.0570852756500244,3.7671093940734863,736.3762817382812,0
1149.764000000001,-0.016307737678289413,0.011539015918970108,-0.00026583802537061274,0.0,0.0,0.0,0.0,0.00047681049909442663,0.002786447759717703,0.0022323194425553083,1.0005085468292236,0.0,0.0,0.0,-4.083169937133789,1.0727897882461548,3.7776741981506348,739.0618896484375,0
1159.6760000000013,-0.016348619014024734,0.011513116769492626,-0.000244543538428843,0.0,0.0,0.0,0.0,-0.0017208835342898965,0.005101057235151529,-6.570194091182202e-05,1.001449465751648,0.0,0.0,0.0,-4.068617343902588,1.0633790493011475,3.7714250087738037,736.4277954101562,0
1169.5960000000014,-0.016417257487773895,0.011497203260660172,-0.00027148672961629927,0.0,0.0,0.0,0.0,0.001977890497073531,-0.002755268942564726,-0.0019807787612080574,1.0006000995635986,0.0,0.0,0.0,-4.078709125518799,1.0614694356918335,3.7747628688812256,738.2544555664062,0
1179.5010000000002,-0.01633669249713421,0.011448599398136139,-0.00023497840447816998,0.0,0.0,0.0,0.0,0.0027393747586756945,-0.004643377847969532,-0.0018427401082590222,0.9995784759521484,0.0,0.0,0.0,-4.07387638092041,1.061320424079895,3.7783615589141846,737.3796997070312,0
1189.4140000000007,-0.016293399035930634,0.011590364389121532,-0.00035481862141750753,0.0,0.0,0.0,0.0,0.0024794554337859154,-0.00036675279261544347,0.0011573227820917964,1.0012189149856567,0.0,0.0,0.0,-4.084408760070801,1.0888246297836304,3.7956907749176025,739.2861328125,0
1199.326000000001,-0.01627623662352562,0.011548665352165699,-0.00034659073571674526,0.0,0.0,0.0,0.0,0.0005329720443114638,0.0026263860054314137,0.0009596234303899109,0.9999244809150696,0.0,0.0,0.0,-4.079420566558838,1.0864324569702148,3.7884509563446045,738.3832397460938,0
1209.2360000000008,-0.016328105702996254,0.01156646478921175,-0.00038504580152221024,0.0,0.0,0.0,0.0,-0.002317416714504361,0.00021586805814877152,0.0011794822057709098,0.9993917942047119,0.0,0.0,0.0,-4.091946125030518,1.089542031288147,3.7817153930664062,740.6504516601562,0
1219.1470000000008,-0.016305141150951385,0.011541381478309631,-0.00036725978134199977,0.0,0.0,0.0,0.0,0.0008217500289902091,-0.0025626246351748705,-0.0014904782874509692,0.998927891254425,0.0,0.0,0.0,-4.087274074554443,1.0884021520614624,3.7729873657226562,739.8047485351562,0
1229.059000000001,-0.016354205086827278,0.011568477377295494,-0.00040712577174417675,0.0,0.0,0.0,0.0,-0.003278949996456504,0.0006958040175959468,-0.0006603594520129263,0.9989328384399414,0.0,0.0,0.0,-4.095869064331055,1.0945593118667603,3.7766482830047607,741.3604125976562,0
1238.9710000000014,-0.016307562589645386,0.011534319259226322,-0.0003883109020534903,0.0,0.0,0.0,0.0,0.0006309534655883908,0.003833581693470478,-0.0008174352697096765,1.000070333480835,0.0,0.0,0.0,-4.092128276824951,1.0921845436096191,3.7750415802001953,740.6834106445312,0
1248.8880000000008,-0.016359912231564522,0.011548064649105072,-0.00043358627590350807,0.0,0.0,0.0,0.0,-3.847692278213799e-05,0.001422895584255457,-0.0034182360395789146,1.0013160705566406,0.0,0.0,0.0,-4.102869510650635,1.0963853597640991,3.76865291595459,742.62744140625,0
1258.7960000000003,-0.016335956752300262,0.01154159102588892,-0.00040940314647741616,0.0,0.0,0.0,0.0,-0.002894226461648941,0.003034606808796525,0.00354960304684937,1.0019997358322144,0.0,0.0,0.0,-4.099150657653809,1.0932354927062988,3.758484363555908,741.9544067382812,0
1268.7060000000001,-0.01642267405986786,0.011549047194421291,-0.0004103507089894265,0.0,0.0,0.0,0.0,0.002850722288712859,0.000842132605612278,0.002358447527512908,1.0003430843353271,0.0,0.0,0.0,-4.105903148651123,1.1025054454803467,3.746818780899048,743.1766357421875,0
1278.6240000000016,-0.01635577715933323,0.011532156728208065,-0.0003716680803336203,0.0,0.0,0.0,0.0,0.0019110527355223894,7.605784048791975e-06,-0.00011626836203504354,0.9988199472427368,0.0,0.0,0.0,-4.100975513458252,1.101152777671814,3.7377796173095703,742.28466796875,0
1288.5310000000009,-0.016430113464593887,0.011555434204638004,-0.00038287678034976125,0.0,0.0,0.0,0.0,0.001742392429150641,0.00405652541667223,0.0018360521644353867,1.000505805015564,0.0,0.0,0.0,-4.107421875,1.0983171463012695,3.729429244995117,743.4515991210938,0
1298.442000000001,-0.016229817643761635,0.011482000350952148,-0.000324154068948701,0.0,0.0,0.0,0.0,-0.0012330716708675027,-0.004435173701494932,0.002206269884482026,1.0007003545761108,0.0,0.0,0.0,-4.103949546813965,1.0803344249725342,3.7678279876708984,742.822998046875,0
1308.3570000000018,-0.016365952789783478,0.011423756368458271,-0.0002720962220337242,0.0,0.0,0.0,0.0,-0.0007640834664925933,-0.004080700222402811,0.0025270890910178423,0.999813973903656,0.0,0.0,0.0,-4.10966157913208,1.075615406036377,3.7727856636047363,743.8569946289062,0
1318.2700000000004,-0.016315679997205734,0.011391084641218185,-0.00023169690393842757,0.0,0.0,0.0,0.0,-0.002009997610002756,0.0015855917008593678,-0.002624769229441881,1.000854253768921,0.0,0.0,0.0,-4.105722904205322,1.077179193496704,3.7742719650268555,743.14404296875,0
1328.1820000000007,-0.016410406678915024,0.011379782110452652,-0.0002146193291991949,0.0,0.0,0.0,0.0,0.0028462817426770926,-0.0003553645801730454,-0.0008012970793060958,1.0008885860443115,0.0,0.0,0.0,-4.1117167472839355,1.084559440612793,3.7680141925811768,744.2288818359375,0
1338.0990000000002,-0.016322419047355652,0.011343855410814285,-0.00015402672579512,0.0,0.0,0.0,0.0,0.00401059165596962,-0.0006846368196420372,-0.0011800555512309074,0.9993350505828857,0.0,0.0,0.0,-4.107658386230469,1.0830214023590088,3.767457962036133,743.4943237304688,0
1348.0080000000016,-0.016389604657888412,0.01136533822864294,-0.0001562603865750134,0.0,0.0,0.0,0.0,-0.0017143184086307883,0.0013085862156003714,0.0021395478397607803,0.9972763657569885,0.0,0.0,0.0,-4.112179756164551,1.0835868120193481,3.767564058303833,744.312744140625,0
1357.9190000000017,-0.0163107980042696,0.01134426984935999,-9.45825595408678e-05,0.0,0.0,0.0,0.0,0.0006875434191897511,-0.0009632317232899368,6.260020654735854e-06,0.9987016916275024,0.0,0.0,0.0,-4.107838153839111,1.0829946994781494,3.761854410171509,743.5269165039062,0
1367.8250000000007,-0.01633761264383793,0.011387962847948074,-0.00014136958634480834,0.0,0.0,0.0,0.0,0.0017010826850309968,0.004742700606584549,-0.0027547760400921106,1.0011063814163208,0.0,0.0,0.0,-4.111652851104736,1.0929629802703857,3.76023530960083,744.2174072265625,0
1377.7450000000008,-0.016332555562257767,0.011367571540176868,-0.00010619630484143272,0.0,0.0,0.0,0.0,-0.0016552334418520331,0.004715723916888237,0.001736592734232545,0.9998255968093872,0.0,0.0,0.0,-4.102293968200684,1.08236563205719,3.762136220932007,742.5233764648438,0
1387.6490000000013,-0.016356637701392174,0.011399389244616032,-0.00016773614333942533,0.0,0.0,0.0,0.0,0.0014394483296200633,0.0009131151018664241,0.00019961832731496543,0.9997768998146057,0.0,0.0,0.0,-4.108553886413574,1.089129090309143,3.763064384460449,743.6564331054688,0
1397.5740000000005,-0.016380304470658302,0.01140456274151802,-0.000134267786052078,0.0,0.0,0.0,0.0,0.003736242651939392,0.0008808424463495612,6.725730781909078e-05,1.001875638961792,0.0,0.0,0.0,-4.104503154754639,1.0894359350204468,3.7603273391723633,742.9232177734375,0
1407.4770000000008,-0.016364900395274162,0.011516871862113476,-0.00022581571829505265,0.0,0.0,0.0,0.0,-0.0019644140265882015,-0.0017874845070764422,-0.00045501175918616354,0.9998896718025208,0.0,0.0,0.0,-4.110393524169922,1.1065770387649536,3.767332077026367,743.9894409179688,0
1417.3950000000004,-0.01634977199137211,0.011482566595077515,-0.00020370562560856342,0.0,0.0,0.0,0.0,-0.001324910786934197,-0.0010759729193523526,-0.0036798487417399883,0.9976539611816406,0.0,0.0,0.0,-4.105635166168213,1.112663984298706,3.7640280723571777,743.1281127929688,0
1427.2970000000005,-0.016298098489642143,0.011495652608573437,-0.000275990430964157,0.0,0.0,0.0,0.0,0.0012346464209258556,0.0035111550241708755,0.0010321997106075287,0.9990994930267334,0.0,0.0,0.0,-4.111745834350586,1.1174396276474,3.773491382598877,744.2341918945312,0
1437.2220000000016,-0.01635666750371456,0.011503728106617928,-0.0002506169257685542,0.0,0.0,0.0,0.0,0.0006924155168235302,0.005654471926391125,-1.0378978458902566e-06,1.0006377696990967,0.0,0.0,0.0,-4.102819442749023,1.1074371337890625,3.7518720626831055,742.6184692382812,0
1447.1200000000008,-0.016327427700161934,0.011535821482539177,-0.00028248768649064004,0.0,0.0,0.0,0.0,-0.002544473623856902,0.0004253856895957142,0.00022273215290624648,1.0001810789108276,0.0,0.0,0.0,-4.115869998931885,1.1173841953277588,3.7564010620117188,744.9806518554688,0
1457.041000000001,-0.01633554883301258,0.011497904546558857,-0.0002622661704663187,0.0,0.0,0.0,0.0,0.0005927199381403625,0.0014502521371468902,0.0016329269856214523,1.0016529560089111,0.0,0.0,0.0,-4.106657981872559,1.1190180778503418,3.73500919342041,743.3132934570312,0
1466.9430000000011,-0.016333458945155144,0.011474895291030407,-0.0002786846016533673,0.0,0.0,0.0,0.0,0.002224974101409316,-0.003321440890431404,-0.00018733237811829895,1.002153992652893,0.0,0.0,0.0,-4.112800121307373,1.1165591478347778,3.7364859580993652,744.4249877929688,0
1476.8600000000006,-0.016341470181941986,0.011462828144431114,-0.00023276492720469832,0.0,0.0,0.0,0.0,0.0015866280300542712,-7.950266444822773e-05,-0.0008256006985902786,1.0021586418151855,0.0,0.0,0.0,-4.103973865509033,1.1151891946792603,3.7256932258605957,742.827392578125,0
1486.7720000000008,-0.016319457441568375,0.011455233208835125,-0.0002717945317272097,0.0,0.0,0.0,0.0,0.0006244184914976358,-0.00014989852206781507,0.0036701387725770473,1.0000803470611572,0.0,0.0,0.0,-4.11400032043457,1.1166355609893799,3.7301979064941406,744.6422729492188,0
1496.6820000000007,-0.01629054546356201,0.011457724496722221,-0.00022374109539669007,0.0,0.0,0.0,0.0,0.0019370814552530646,0.0043700519017875195,0.0025647245347499847,0.9994943737983704,0.0,0.0,0.0,-4.109461784362793,1.1146162748336792,3.7269721031188965,743.82080078125,0
1506.594000000001,-0.01629544422030449,0.011551069095730782,-0.00028817300335504115,0.0,0.0,0.0,0.0,0.002336881123483181,-0.00016461752238683403,-9.008878987515345e-05,0.999534547328949,0.0,0.0,0.0,-4.105541706085205,1.1058059930801392,3.72173810005188,743.1112060546875,0
1516.5120000000006,-0.016264818608760834,0.011515825986862183,-0.00027313039754517376,0.0,0.0,0.0,0.0,-0.0008482102421112359,0.0015283444663509727,0.0007515585166402161,0.9994824528694153,0.0,0.0,0.0,-4.094881534576416,1.0906269550323486,3.732403516769409,741.1817016601562,0
1526.4180000000015,-0.01634034514427185,0.011499716900289059,-0.000288330833427608,0.0,0.0,0.0,0.0,0.001565005979500711,0.001671169069595635,0.0009163025533780456,0.9999899864196777,0.0,0.0,0.0,-4.102579593658447,1.0870112180709839,3.719776153564453,742.5750732421875,0
1536.3370000000014,-0.01632476970553398,0.01151362620294094,-0.00024821728584356606,0.0,0.0,0.0,0.0,-0.007074516266584396,0.0005564308376051486,0.0004645673034247011,0.9985361099243164,0.0,0.0,0.0,-4.089921951293945,1.0892798900604248,3.7286312580108643,740.2840576171875,0
1546.2400000000016,-0.016369424760341644,0.011554530821740627,-0.0002898680104408413,0.0,0.0,0.0,0.0,0.003067249897867441,0.007538526318967342,-0.0056493631564080715,0.9995947480201721,0.0,0.0,0.0,-4.096383571624756,1.0984771251678467,3.7297115325927734,741.4535522460938,0
1556.1600000000017,-0.016246676445007324,0.011495175771415234,-0.0002564342867117375,0.0,0.0,0.0,0.0,0.0026064557023346424,0.0023007295094430447,0.004068128298968077,0.9983160495758057,0.0,0.0,0.0,-4.090559482574463,1.0922678709030151,3.7550179958343506,740.3994140625,0
1566.0680000000011,-0.016311530023813248,0.011517045088112354,-0.00027434606454335153,0.0,0.0,0.0,0.0,0.0022110214922577143,0.008219502866268158,-0.0025942500215023756,1.0012668371200562,0.0,0.0,0.0,-4.097496032714844,1.0930564403533936,3.741997241973877,741.6548461914062,0
1575.9830000000002,-0.01615005172789097,0.011422975920140743,-0.00024603979545645416,0.0,0.0,0.0,0.0,0.0013545053079724312,8.059714309638366e-05,-0.0007008593529462814,1.0015134811401367,0.0,0.0,0.0,-4.095616817474365,1.072585940361023,3.775402784347534,741.3148193359375,0
1585.8880000000008,-0.01617640256881714,0.011476186104118824,-0.00029635874670930207,0.0,0.0,0.0,0.0,0.0009686919511295855,-0.003149105468764901,0.0011282811174169183,0.999962329864502,0.0,0.0,0.0,-4.107485771179199,1.083236575126648,3.765906810760498,743.4630737304688,0
1595.804,-0.016220686957240105,0.011475619859993458,-0.0002857510989997536,0.0,0.0,0.0,0.0,0.0018378401873633265,6.791210762457922e-05,-0.0030226092785596848,0.9993014931678772,0.0,0.0,0.0,-4.102269649505615,1.0793179273605347,3.762557029724121,742.5189208984375,0
1605.7120000000014,-0.016282059252262115,0.0115025220438838,-0.00030352812609635293,0.0,0.0,0.0,0.0,-0.0034488884266465902,0.0018216236494481564,0.00042924590525217354,0.9993258118629456,0.0,0.0,0.0,-4.111837387084961,1.0861575603485107,3.763990640640259,744.2507934570312,0
1615.6370000000006,-0.016254469752311707,0.011480199173092842,-0.0002816063060890883,0.0,0.0,0.0,0.0,0.0003360827104188502,0.0016519244527444243,0.0016298701521009207,0.999087929725647,0.0,0.0,0.0,-4.108660697937012,1.0857067108154297,3.7524750232696533,743.6758422851562,0
1625.5340000000015,-0.016310352832078934,0.011518746614456177,-0.0003025850164704025,0.0,0.0,0.0,0.0,-4.1497631173115224e-05,0.002920760540291667,-0.00023275559942703694,0.9986516833305359,0.0,0.0,0.0,-4.117099761962891,1.0894734859466553,3.754206895828247,745.2032470703125,0
1635.4590000000007,-0.01632268726825714,0.01149152871221304,-0.0002953580114990473,0.0,0.0,0.0,0.0,0.005148031748831272,0.001419030362740159,-0.002427357481792569,1.0000674724578857,0.0,0.0,0.0,-4.113178253173828,1.0909240245819092,3.746656894683838,744.4934692382812,0
1645.3610000000008,-0.01636974699795246,0.011540114879608154,-0.00032809723052196205,0.0,0.0,0.0,0.0,-4.41303882325883e-06,0.000955345225520432,-0.001868875348009169,1.0000451803207397,0.0,0.0,0.0,-4.12214994430542,1.0919617414474487,3.7354001998901367,746.1173706054688,0
1655.2830000000013,-0.01631997898221016,0.01154901273548603,-0.0002890961186494678,0.0,0.0,0.0,0.0,-0.0026030971202999353,-0.0028733760118484497,-0.0017232258105650544,1.000840663909912,0.0,0.0,0.0,-4.108869552612305,1.0843379497528076,3.7544846534729004,743.7135009765625,0
1665.1820000000007,-0.01638239063322544,0.011534592136740685,-0.0003211555304005742,0.0,0.0,0.0,0.0,0.0006642446969635785,0.0019707251340150833,-0.0064391824416816235,0.997945249080658,0.0,0.0,0.0,-4.114403247833252,1.0811041593551636,3.758596658706665,744.7151489257812,0
1675.1090000000004,-0.01625487580895424,0.011481499299407005,-0.00028465321520343423,0.0,0.0,0.0,0.0,0.00033682078355923295,0.0011718182358890772,-0.003930871840566397,0.999693751335144,0.0,0.0,0.0,-4.107503414154053,1.0677988529205322,3.798574686050415,743.4663696289062,0
1685.0110000000004,-0.016314947977662086,0.011472007259726524,-0.0003108737582806498,0.0,0.0,0.0,0.0,8.43463021737989e-06,-0.0013126492267474532,0.0011420781956985593,0.9980133771896362,0.0,0.0,0.0,-4.1129536628723145,1.068224549293518,3.793245792388916,744.4528198242188,0
1694.9350000000013,-0.016294237226247787,0.011476164683699608,-0.00028216131613589823,0.0,0.0,0.0,0.0,-0.0012272916501387954,0.0008095788070932031,-0.0034316082019358873,1.0002473592758179,0.0,0.0,0.0,-4.104152679443359,1.061732292175293,3.8137054443359375,742.8597412109375,0
1704.8330000000005,-0.016306106001138687,0.01154694240540266,-0.0003424302558414638,0.0,0.0,0.0,0.0,0.0016766272019594908,0.0020380807109177113,-0.0034656240604817867,1.0007389783859253,0.0,0.0,0.0,-4.100070476531982,1.0573400259017944,3.8015120029449463,742.120849609375,0
1714.75,-0.016264021396636963,0.011549143120646477,-0.0003073968109674752,0.0,0.0,0.0,0.0,-0.0014871148159727454,-0.003777233185246587,-0.0016623542178422213,1.0009212493896484,0.0,0.0,0.0,-4.096043109893799,1.060347080230713,3.797947883605957,741.3919067382812,0
1724.652,-0.016331829130649567,0.011551708914339542,-0.00031104765366762877,0.0,0.0,0.0,0.0,0.0020066809374839067,-0.0033925012685358524,0.001841824734583497,0.9990682005882263,0.0,0.0,0.0,-4.0926361083984375,1.0592845678329468,3.7973976135253906,740.7752685546875,0
1734.5780000000013,-0.01635163277387619,0.011589772999286652,-0.0003774127399083227,0.0,0.0,0.0,0.0,0.0019160208757966757,0.0003176483151037246,0.0027276829350739717,0.9978391528129578,0.0,0.0,0.0,-4.103648662567139,1.072020411491394,3.8026387691497803,742.7685546875,0
1744.4760000000006,-0.016422700136899948,0.01159323938190937,-0.00038598955143243074,0.0,0.0,0.0,0.0,-0.0008427074644714594,0.0035453864838927984,0.0031119873747229576,1.000084400177002,0.0,0.0,0.0,-4.099338054656982,1.071279764175415,3.8034708499908447,741.98828125,0
1754.407000000001,-0.016557110473513603,0.011571498587727547,-0.0004444019286893308,0.0,0.0,0.0,0.0,0.0023239164147526026,0.001330436673015356,-0.0007184456335380673,1.002288579940796,0.0,0.0,0.0,-4.104521751403809,1.05666983127594,3.788269281387329,742.9265747070312,0
1764.3060000000005,-0.016557110473513603,0.011571498587727547,-0.0004444019286893308,0.0,0.0,0.0,0.0,-0.0015572424745187163,-0.000674544193316251,-0.001197615172713995,1.0015411376953125,0.0,0.0,0.0,-4.104521751403809,1.05666983127594,3.788269281387329,742.9265747070312,0
1774.2250000000004,-0.016683652997016907,0.011616617441177368,-0.0004946261178702116,0.0,0.0,0.0,0.0,-0.0014606602489948273,7.2138004725275096e-06,-0.0029023922979831696,1.0006545782089233,0.0,0.0,0.0,-4.11016845703125,1.0745991468429565,3.7959694862365723,743.94873046875,0
1784.1240000000016,-0.016683652997016907,0.011616617441177368,-0.0004946261178702116,0.0,0.0,0.0,0.0,0.001961478963494301,-0.0008053304045461118,0.0020175017416477203,0.9979132413864136,0.0,0.0,0.0,-4.11016845703125,1.0745991468429565,3.7959694862365723,743.94873046875,0
1794.0510000000013,-0.016767269000411034,0.011686645448207855,-0.000596585450693965,0.0,0.0,0.0,0.0,0.0006563949282281101,-0.0026681250892579556,0.0005446505965664983,0.9969388246536255,0.0,0.0,0.0,-4.117482662200928,1.1029064655303955,3.8209476470947266,745.2725219726562,0
1803.9500000000007,-0.016767269000411034,0.011686645448207855,-0.000596585450693965,0.0,0.0,0.0,0.0,0.0001598003727849573,-0.0013728884514421225,0.0026828583795577288,0.997427761554718,0.0,0.0,0.0,-4.117482662200928,1.1029064655303955,3.8209476470947266,745.2725219726562,0
1813.880000000001,-0.01685648411512375,0.011747627519071102,-0.0007022456265985966,0.0,0.0,0.0,0.0,-0.0019024107605218887,0.0010903702350333333,-0.003584287827834487,0.9982659220695496,0.0,0.0,0.0,-4.107471942901611,1.0996174812316895,3.8417980670928955,743.4606323242188,0
1823.7760000000017,-0.01685648411512375,0.011747627519071102,-0.0007022456265985966,0.0,0.0,0.0,0.0,0.00011595488467719406,0.003385868389159441,-0.0004170283500570804,1.0008636713027954,0.0,0.0,0.0,-4.107471942901611,1.0996174812316895,3.8417980670928955,743.4606323242188,0
1833.6990000000005,-0.016905492171645164,0.011782883666455746,-0.000761486473493278,0.0,0.0,0.0,0.0,0.00040786067256703973,-0.0025004008784890175,-0.0009821428684517741,1.000734567642212,0.0,0.0,0.0,-4.11630916595459,1.1121811866760254,3.85288667678833,745.0601806640625,0
1843.6020000000008,-0.01698101870715618,0.011800621636211872,-0.0007939764764159918,0.0,0.0,0.0,0.0,-0.0013544862158596516,0.0017873233882710338,0.001686519361101091,0.9989756345748901,0.0,0.0,0.0,-4.112819194793701,1.118869662284851,3.846933603286743,744.428466796875,0
1853.5210000000006,-0.017071856185793877,0.011784115806221962,-0.0008395160548388958,0.0,0.0,0.0,0.0,-0.0029636286199092865,0.0001803157210815698,-0.002475147834047675,1.000575304031372,0.0,0.0,0.0,-4.117715358734131,1.1010907888412476,3.835418462753296,745.314697265625,0
1863.4230000000007,-0.017155764624476433,0.011796965263783932,-0.0008720764890313148,0.0,0.0,0.0,0.0,0.0023884426336735487,0.0014248276129364967,0.0009173221769742668,0.9991737604141235,0.0,0.0,0.0,-4.113552093505859,1.102221131324768,3.830763101577759,744.5610961914062,0
1873.3420000000006,-0.017175082117319107,0.011851332150399685,-0.0009357468225061893,0.0,0.0,0.0,0.0,0.0013373602414503694,-0.0034100788179785013,-0.0007315968978218734,1.0004061460494995,0.0,0.0,0.0,-4.1246514320373535,1.1251362562179565,3.852747678756714,746.5701293945312,0
1883.2450000000008,-0.01726221852004528,0.011866563931107521,-0.0009718294022604823,0.0,0.0,0.0,0.0,0.0021915906108915806,-0.004986626096069813,0.00530510488897562,1.0007774829864502,0.0,0.0,0.0,-4.120266914367676,1.1233561038970947,3.8473799228668213,745.7764892578125,0
1893.1710000000003,-0.01729273796081543,0.011909120716154575,-0.001037339330650866,0.0,0.0,0.0,0.0,-0.00027019972912967205,0.0048615713603794575,0.0020317421294748783,0.9992274045944214,0.0,0.0,0.0,-4.127655506134033,1.1383697986602783,3.8649585247039795,747.1138305664062,0
1903.0660000000007,-0.017379706725478172,0.011927447281777859,-0.001076052081771195,0.0,0.0,0.0,0.0,-0.0035140919499099255,-0.003085698466747999,0.0014453449985012412,1.0003818273544312,0.0,0.0,0.0,-4.124814510345459,1.1336596012115479,3.8550479412078857,746.5996704101562,0
1912.987000000001,-0.017379771918058395,0.011967661790549755,-0.0011684057535603642,0.0,0.0,0.0,0.0,0.0005896418006159365,0.004486218094825745,0.002931599970906973,1.0003572702407837,0.0,0.0,0.0,-4.132959842681885,1.1515471935272217,3.882050037384033,748.0739135742188,0
1922.8920000000016,-0.01746627688407898,0.011991573497653008,-0.0012123637134209275,0.0,0.0,0.0,0.0,-0.0005851546302437782,0.00185373704880476,-0.0021944413892924786,1.0002540349960327,0.0,0.0,0.0,-4.130031585693359,1.1527466773986816,3.871971607208252,747.5438842773438,0
1932.817000000001,-0.017556004226207733,0.012016885913908482,-0.0012556558940559626,0.0,0.0,0.0,0.0,-0.002878679661080241,0.0008737265598028898,-0.00017402187222614884,0.9987547397613525,0.0,0.0,0.0,-4.1240315437316895,1.1442451477050781,3.856421709060669,746.4578857421875,0
1942.7180000000008,-0.017649004235863686,0.012044410221278667,-0.001299079041928053,0.0,0.0,0.0,0.0,-0.0007059693452902138,0.0012327504809945822,-0.001246053259819746,1.001809000968933,0.0,0.0,0.0,-4.119822025299072,1.1406916379928589,3.8496036529541016,745.6959838867188,0
1952.6380000000008,-0.017746074125170708,0.012073826044797897,-0.0013428360689431429,0.0,0.0,0.0,0.0,-0.00070353684714064,-0.002242697635665536,-0.0019064312800765038,0.9995909929275513,0.0,0.0,0.0,-4.114756107330322,1.142362117767334,3.8485724925994873,744.779052734375,0
1962.5390000000007,-0.017847321927547455,0.012104789726436138,-0.0013860254548490047,0.0,0.0,0.0,0.0,-0.0002934479562100023,1.564243393659126e-05,-0.0006883210153318942,0.9999476075172424,0.0,0.0,0.0,-4.11090612411499,1.1416378021240234,3.8457093238830566,744.0822143554688,0
1972.4580000000005,-0.017952345311641693,0.012137125246226788,-0.0014288118109107018,0.0,0.0,0.0,0.0,0.0016459652688354254,0.0021343824919313192,0.0004755565314553678,1.0001662969589233,0.0,0.0,0.0,-4.106695652008057,1.141903281211853,3.8445513248443604,743.3201293945312,0
1982.3610000000008,-0.01806093007326126,0.012170192785561085,-0.0014713688287883997,0.0,0.0,0.0,0.0,-0.000322425999911502,0.00015354792412836105,-0.0018323685508221388,0.9992048740386963,0.0,0.0,0.0,-4.102575302124023,1.1447354555130005,3.8418824672698975,742.5742797851562,0
1992.2850000000017,-0.018173206597566605,0.012203695252537727,-0.0015137980226427317,0.0,0.0,0.0,0.0,-0.0010775263654068112,-0.0017951785121113062,-0.0002681875484995544,1.0000767707824707,0.0,0.0,0.0,-4.098960876464844,1.1402480602264404,3.835193157196045,741.9199829101562,0
2002.1850000000013,-0.018289227038621902,0.012237793765962124,-0.0015566671499982476,0.0,0.0,0.0,0.0,-2.6375799279776402e-05,-0.001399766537360847,-0.00010871457197936252,1.0003435611724854,0.0,0.0,0.0,-4.094470977783203,1.1449965238571167,3.8331515789031982,741.1073608398438,0
2012.1050000000014,-0.01840846985578537,0.01227219682186842,-0.00159953732509166,0.0,0.0,0.0,0.0,0.0015646308893337846,0.0015334555646404624,0.00037085480289533734,1.0002844333648682,0.0,0.0,0.0,-4.089676856994629,1.1392561197280884,3.8370625972747803,740.2396850585938,0
2022.0130000000008,-0.018530772998929024,0.012307067401707172,-0.0016420510364696383,0.0,0.0,0.0,0.0,-0.003023037686944008,-0.0011349361157044768,0.0020671640522778034,0.9980137348175049,0.0,0.0,0.0,-4.085948944091797,1.1336356401443481,3.8223648071289062,739.5648803710938,0
2031.929,-0.018656542524695396,0.012342225760221481,-0.001684773713350296,0.0,0.0,0.0,0.0,-0.0003232636081520468,-0.004350303206592798,-0.004983293823897839,0.9996245503425598,0.0,0.0,0.0,-4.082382678985596,1.1370280981063843,3.8190455436706543,738.91943359375,0
2041.8320000000003,-0.018785661086440086,0.012377865612506866,-0.0017284649657085538,0.0,0.0,0.0,0.0,-0.0012196637690067291,-4.234614607412368e-05,0.003214129013940692,1.0005229711532593,0.0,0.0,0.0,-4.0789875984191895,1.1378231048583984,3.820779323577881,738.3048706054688,0
2051.755000000001,-0.01891830749809742,0.012414922937750816,-0.0017727309605106711,0.0,0.0,0.0,0.0,-0.0011952975764870644,0.0019325604662299156,0.005442786496132612,1.0005282163619995,0.0,0.0,0.0,-4.074352264404297,1.137519359588623,3.8236618041992188,737.4658813476562,0
2061.661,-0.019055278971791267,0.012452788650989532,-0.0018165326910093427,0.0,0.0,0.0,0.0,0.0032972334884107113,0.003128754673525691,-0.0005210972158238292,0.9986577033996582,0.0,0.0,0.0,-4.070300102233887,1.1388980150222778,3.818507432937622,736.7323608398438,0
2071.5790000000015,-0.01934107393026352,0.01252768561244011,-0.001904366770759225,0.0,0.0,0.0,0.0,-0.0007905595120973885,-0.00275677302852273,-0.0011085207806900144,1.0004830360412598,0.0,0.0,0.0,-4.063305377960205,1.1312034130096436,3.8011748790740967,735.46630859375,0
2081.4800000000014,-0.01934107393026352,0.01252768561244011,-0.001904366770759225,0.0,0.0,0.0,0.0,0.0005658097798004746,0.0075409566052258015,-0.0013653779169544578,1.0009654760360718,0.0,0.0,0.0,-4.063305377960205,1.1312034130096436,3.8011748790740967,735.46630859375,0
2091.4040000000005,-0.019639315083622932,0.012600134126842022,-0.0019924768712371588,0.0,0.0,0.0,0.0,-0.00018485818873159587,0.001590331899933517,-0.000180304137757048,0.997914731502533,0.0,0.0,0.0,-4.054198265075684,1.1256269216537476,3.779134511947632,733.8179321289062,0
2101.309000000001,-0.019639315083622932,0.012600134126842022,-0.0019924768712371588,0.0,0.0,0.0,0.0,0.0014013831969350576,0.005351160652935505,-0.00012410443741828203,1.0000910758972168,0.0,0.0,0.0,-4.054198265075684,1.1256269216537476,3.779134511947632,733.8179321289062,0
2111.228000000001,-0.01995033770799637,0.01267299521714449,-0.0020822989754378796,0.0,0.0,0.0,0.0,-0.001309998449869454,0.0011546032037585974,0.0014796715695410967,0.9999440908432007,0.0,0.0,0.0,-4.045124053955078,1.1217819452285767,3.760810375213623,732.175537109375,0
2121.138000000001,-0.01995033770799637,0.01267299521714449,-0.0020822989754378796,0.0,0.0,0.0,0.0,0.0002454825153108686,0.002123686019331217,-0.0012264277320355177,1.0026963949203491,0.0,0.0,0.0,-4.045124053955078,1.1217819452285767,3.760810375213623,732.175537109375,0
2131.0520000000015,-0.020274566486477852,0.01274874433875084,-0.0021694584283977747,0.0,0.0,0.0,0.0,0.0022682908456772566,0.0025235037319362164,-0.002514404244720936,0.9993895888328552,0.0,0.0,0.0,-4.037901878356934,1.1165369749069214,3.7453322410583496,730.8682250976562,0
2140.952000000001,-0.020274566486477852,0.01274874433875084,-0.0021694584283977747,0.0,0.0,0.0,0.0,-0.0006389128975570202,0.0003720241948030889,-0.00495331222191453,1.0006438493728638,0.0,0.0,0.0,-4.037901878356934,1.1165369749069214,3.7453322410583496,730.8682250976562,0
2150.8740000000016,-0.020611515268683434,0.012830213643610477,-0.00225294241681695,0.0,0.0,0.0,0.0,0.002634854754433036,0.0008379124337807298,-0.0009432954248040915,1.001744270324707,0.0,0.0,0.0,-4.030425548553467,1.1045130491256714,3.7312355041503906,729.5150146484375,0
