timestamp,stateEstimate.x,stateEstimate.y,stateEstimate.z,controller.cmd_thrust,controller.cmd_roll,controller.cmd_pitch,controller.cmd_yaw,controller.r_roll,controller.r_pitch,controller.r_yaw,controller.accelz,controller.actuatorThrust,controller.roll,controller.pitch,controller.yaw,controller.rollRate,controller.pitchRate,controller.yawRate,controller.ctr_yaw
0.0,-9.898861753754318e-05,-6.504281918751076e-05,6.379007390933111e-05,0.0,0.0,0.0,0.0,0.0019038147293031216,-0.0005197793943807483,-0.0005078887334093451,0.9992433190345764,0.0,0.0,0.0,0.4822944104671478,1.5890183448791504,5.069616317749023,-87.2962417602539,0
9.92699999999968,-0.00011876474309246987,-7.702616130700335e-05,9.127939847530797e-05,0.0,0.0,0.0,0.0,-0.0017991208005696535,-0.0007470492273569107,0.0011642547324299812,0.998813807964325,0.0,0.0,0.0,0.4822423756122589,1.5866786241531372,5.073939800262451,-87.28682708740234,0
19.83599999999933,-0.0001771550450939685,-9.553595737088472e-05,9.551243419991806e-05,0.0,0.0,0.0,0.0,0.00242207502014935,-0.002067930530756712,0.002074049785733223,0.9976568222045898,0.0,0.0,0.0,0.4827331006526947,1.585404396057129,5.064215660095215,-87.37565612792969,0
29.756999999999607,-0.00020865182159468532,-0.00011601549340412021,0.00010706855391617864,0.0,0.0,0.0,0.0,0.0009861838771030307,-0.002424929291009903,0.004034047480672598,0.9992927312850952,0.0,0.0,0.0,0.4815055727958679,1.5808863639831543,5.061818599700928,-87.1534652709961,0
39.66200000000026,-0.00027064551250077784,-0.00013522428344003856,0.0001090189180104062,0.0,0.0,0.0,0.0,-0.0022320726420730352,-0.0005298815667629242,0.00018911667575594038,1.0003784894943237,0.0,0.0,0.0,0.4815438389778137,1.5825424194335938,5.068260669708252,-87.16038513183594,0
49.576999999999316,-0.0002471113984938711,-0.00014743945212103426,0.00013649013999383897,0.0,0.0,0.0,0.0,-0.0006080602761358023,-0.0007939553470350802,0.00037634302861988544,0.9996922016143799,0.0,0.0,0.0,0.48168376088142395,1.5866665840148926,5.061692714691162,-87.18572235107422,0
59.48099999999977,-0.00030763563700020313,-0.0001660374691709876,0.00013957858027424663,0.0,0.0,0.0,0.0,0.0014646159252151847,-0.002644742140546441,-0.0018145699286833405,0.998430609703064,0.0,0.0,0.0,0.4826100468635559,1.5857244729995728,5.069051265716553,-87.35337829589844,0
69.40400000000045,-0.00026864768005907536,-0.00017848848074208945,0.0001684507296886295,0.0,0.0,0.0,0.0,-0.0016092044534161687,0.002414837246760726,-0.0007288734195753932,0.9999657273292542,0.0,0.0,0.0,0.4820001721382141,1.5827152729034424,5.0764970779418945,-87.24298858642578,0
79.30099999999948,-0.00022101865033619106,-4.920858555124141e-05,2.8337994081084616e-05,0.0,0.0,0.0,0.0,-0.0006227902485989034,0.0007960399962030351,0.0014600303256884217,1.0004113912582397,0.0,0.0,0.0,0.484082967042923,1.6213266849517822,5.093867778778076,-87.61997985839844,0
89.21999999999935,-0.00013218294770922512,-9.942501492332667e-05,7.622235716553405e-05,0.0,0.0,0.0,0.0,0.0008403063402511179,0.00011482156696729362,-0.0024249954149127007,1.0004866123199463,0.0,0.0,0.0,0.4837638735771179,1.617003083229065,5.0892558097839355,-87.56222534179688,0
99.1260000000002,-0.00016907225653994828,-0.00010104184184456244,4.1074599721468985e-05,0.0,0.0,0.0,0.0,-0.0024992614053189754,0.004838933702558279,-0.003060920862480998,1.0003257989883423,0.0,0.0,0.0,0.49144792556762695,1.622183084487915,5.084039211273193,-88.95304870605469,0
109.04299999999967,-0.0001175103461719118,-0.00011932764027733356,0.00010558313806541264,0.0,0.0,0.0,0.0,0.0017775221494957805,-0.0030684135854244232,-0.0012417166726663709,0.998477041721344,0.0,0.0,0.0,0.49098047614097595,1.6163687705993652,5.070816993713379,-88.86844635009766,0
118.95100000000093,-0.00017325894441455603,-0.00013330054935067892,0.00010874294093810022,0.0,0.0,0.0,0.0,-0.0011938185198232532,-0.0042901537381112576,0.0012838029069826007,1.0006173849105835,0.0,0.0,0.0,0.48975670337677,1.618000864982605,5.065070152282715,-88.64693450927734,0
128.8700000000008,-0.0001301052834605798,-0.00013767866767011583,0.00016213841445278376,0.0,0.0,0.0,0.0,-7.111631566658616e-05,0.001551488065160811,-0.002119729295372963,1.0016121864318848,0.0,0.0,0.0,0.4887171983718872,1.6148923635482788,5.064651966094971,-88.45878601074219,0
138.77399999999943,-8.566687029087916e-05,-4.342576357885264e-05,4.2123592720599845e-05,0.0,0.0,0.0,0.0,-0.0017961033154278994,-0.002025585388764739,-0.0008950894116424024,0.999977171421051,0.0,0.0,0.0,0.4875496029853821,1.6151793003082275,5.065522193908691,-88.24745178222656,0
148.70100000000093,-4.228204124956392e-05,-9.424801100976765e-05,6.219911301741377e-05,0.0,0.0,0.0,0.0,-0.0029090563766658306,-0.0008697538869455457,0.0018806752050295472,1.000365972518921,0.0,0.0,0.0,0.4952422082424164,1.6081725358963013,5.091999530792236,-89.63982391357422,0
158.60100000000057,-9.920724551193416e-05,-0.0001147941657109186,5.574162059929222e-05,0.0,0.0,0.0,0.0,0.0003935879503842443,-0.0035685584880411625,0.0008468371815979481,0.9988980293273926,0.0,0.0,0.0,0.5002710819244385,1.6093944311141968,5.076513767242432,-90.55005645751953,0
168.52200000000084,-8.451398753095418e-05,-0.00013446742377709597,9.796515223570168e-05,0.0,0.0,0.0,0.0,0.0019247995223850012,-0.000256160186836496,0.0019584691617637873,0.9983428120613098,0.0,0.0,0.0,0.5001971125602722,1.6106916666030884,5.072585105895996,-90.53666687011719,0
178.4339999999993,-9.897418931359425e-05,-8.788773266132921e-05,7.723378075752407e-05,0.0,0.0,0.0,0.0,-0.002123785438016057,0.002029644325375557,0.0028535653837025166,1.00007164478302,0.0,0.0,0.0,0.5007003545761108,1.6077529191970825,5.077260494232178,-90.62775421142578,0
188.34900000000016,-2.0236222553648986e-05,-0.00015419567353092134,0.00011519350664457306,0.0,0.0,0.0,0.0,0.001541652949526906,5.553724258788861e-05,-0.001073296763934195,1.0020986795425415,0.0,0.0,0.0,0.5004803538322449,1.603912115097046,5.067750453948975,-90.58793640136719,0
198.26300000000083,-6.602138455491513e-05,-0.00014876213390380144,0.00010953354649245739,0.0,0.0,0.0,0.0,-0.0029384978115558624,-0.00017612335796002299,-0.0001401837944285944,1.0022850036621094,0.0,0.0,0.0,0.501478910446167,1.597276210784912,5.062655448913574,-90.7686767578125,0
208.1790000000001,-5.397431232267991e-05,-0.00018807010201271623,0.00013745496107731014,0.0,0.0,0.0,0.0,0.00012012114893877879,0.002413986250758171,0.0019450908293947577,1.0015842914581299,0.0,0.0,0.0,0.5009685158729553,1.6070512533187866,5.058218002319336,-90.67630004882812,0
218.07999999999993,-5.862864418304525e-05,-0.00012105713540222496,0.00013030691479798406,0.0,0.0,0.0,0.0,0.00032814068254083395,0.0025216734502464533,-0.0003264264087192714,1.0002588033676147,0.0,0.0,0.0,0.5005097985267639,1.6024192571640015,5.045236587524414,-90.59326934814453,0
227.996000000001,-0.00010236390517093241,-0.00012683469685725868,0.00015372711641248316,0.0,0.0,0.0,0.0,0.002766996854916215,0.0030243503861129284,-0.0011278772726655006,1.0002968311309814,0.0,0.0,0.0,0.49940332770347595,1.5987600088119507,5.028573989868164,-90.39299774169922,0
237.91300000000047,-0.0001625341537874192,-0.0001411100965924561,0.00016556626360397786,0.0,0.0,0.0,0.0,-0.0002905125729739666,-0.0022574961185455322,-0.0002442340482957661,0.9989179968833923,0.0,0.0,0.0,0.498805969953537,1.5929707288742065,5.014908790588379,-90.28487396240234,0
247.8209999999999,-0.00021320302039384842,-0.00016796213458292186,0.00017047491564881057,0.0,0.0,0.0,0.0,-0.0016104549868032336,0.0005845854175277054,0.0038850975688546896,0.9983701109886169,0.0,0.0,0.0,0.4978161156177521,1.5885343551635742,5.010026931762695,-90.10570526123047,0
257.7330000000002,-0.0002778488560579717,-0.00018587752128951252,0.00018111341341864318,0.0,0.0,0.0,0.0,-0.003046258119866252,7.457160972990096e-05,0.0005021579563617706,1.0015500783920288,0.0,0.0,0.0,0.4979565143585205,1.5864921808242798,5.0012617111206055,-90.13111877441406,0
267.64500000000044,-0.00022729930060449988,-0.0001941551745403558,0.00022862310288473964,0.0,0.0,0.0,0.0,0.0009053436224348843,0.0004446016391739249,-0.0010031716665253043,0.9992076754570007,0.0,0.0,0.0,0.49711182713508606,1.5935097932815552,4.995386600494385,-89.97823333740234,0
277.5589999999993,-0.00029126161825843155,-0.000214666360989213,0.00024260621285066009,0.0,0.0,0.0,0.0,-0.0019764369353652,-0.0011610417859628797,-0.00020270571985747665,0.999656617641449,0.0,0.0,0.0,0.49599090218544006,1.5881048440933228,4.991621017456055,-89.77533721923828,0
287.47700000000077,-0.00024105921329464763,-0.00022872575209476054,0.0002843985566869378,0.0,0.0,0.0,0.0,0.0008022208930924535,0.0007088822894729674,0.0020140281412750483,1.0008834600448608,0.0,0.0,0.0,0.4942981004714966,1.5907769203186035,4.994190216064453,-89.46894073486328,0
297.380000000001,-0.0001509140565758571,-3.46484303008765e-05,0.00010282003495376557,0.0,0.0,0.0,0.0,-0.0012246544938534498,-0.001217857701703906,-0.0043662129901349545,1.0005377531051636,0.0,0.0,0.0,0.4942982494831085,1.6454488039016724,5.023770332336426,-89.4689712524414,0
307.29399999999987,-0.0001334099069936201,-5.74682344449684e-05,0.0001434087462257594,0.0,0.0,0.0,0.0,0.0032762496266514063,-0.0011562237050384283,0.0010184090351685882,1.0001792907714844,0.0,0.0,0.0,0.49308136105537415,1.6515462398529053,5.02604866027832,-89.24870300292969,0
317.2029999999995,-0.00019350217189639807,-6.803067662985995e-05,0.00015233733574859798,0.0,0.0,0.0,0.0,-0.004299286287277937,-0.00036838967935182154,-0.00021740392548963428,1.000761866569519,0.0,0.0,0.0,0.49222952127456665,1.648374080657959,5.024733543395996,-89.09452056884766,0
327.1260000000002,-0.00016477001190651208,-9.238401980837807e-05,0.0001819920726120472,0.0,0.0,0.0,0.0,-0.0002561001165304333,-0.0010852293344214559,-0.004384465515613556,1.000950813293457,0.0,0.0,0.0,0.4916447401046753,1.653762698173523,5.02017879486084,-88.98867797851562,0
337.03199999999924,-0.00022687559248879552,-0.00010428112000226974,0.00019382504979148507,0.0,0.0,0.0,0.0,0.00010841731273103505,-0.002110581612214446,-0.00208434765227139,0.9999050498008728,0.0,0.0,0.0,0.49008306860923767,1.6517618894577026,5.023080825805664,-88.70600891113281,0
346.9470000000001,-0.00018827480380423367,-0.00012162324856035411,0.00022921182971913368,0.0,0.0,0.0,0.0,-0.0032453928142786026,0.00426613399758935,-0.0025636388454586267,1.0012826919555664,0.0,0.0,0.0,0.4896823763847351,1.6478683948516846,5.026128768920898,-88.63348388671875,0
356.853000000001,-0.0001430956181138754,1.3217317246017046e-05,8.780819916864857e-05,0.0,0.0,0.0,0.0,0.002496022265404463,0.0020502943079918623,0.0008948809700086713,0.9996423125267029,0.0,0.0,0.0,0.4906977415084839,1.6907404661178589,5.0336761474609375,-88.81726837158203,0
366.77299999999923,-0.00012115667050238699,-2.4067223421297967e-05,0.00011115703819086775,0.0,0.0,0.0,0.0,0.0004617955128196627,0.0014024716801941395,-0.0001266142207896337,0.9975355863571167,0.0,0.0,0.0,0.490255206823349,1.6843986511230469,5.029078483581543,-88.73716735839844,0
376.6890000000003,-0.00011583103332668543,5.399799192673527e-05,6.694473995594308e-05,0.0,0.0,0.0,0.0,0.0017962196143344045,-0.0013751894002780318,0.0017204517498612404,0.9967746138572693,0.0,0.0,0.0,0.48887571692466736,1.6780202388763428,5.023234844207764,-88.48747253417969,0
386.59599999999955,-0.00010659054532879964,1.6431804397143424e-05,8.044816058827564e-05,0.0,0.0,0.0,0.0,0.0012362052220851183,0.0015120565658435225,-0.00011743372306227684,1.0000003576278687,0.0,0.0,0.0,0.48828908801078796,1.6711801290512085,5.016296863555908,-88.38129425048828,0
396.505000000001,-0.00016082124784588814,7.72411840443965e-06,7.101878145476803e-05,0.0,0.0,0.0,0.0,0.001393840997479856,0.005058914888650179,-0.0024989191442728043,0.9997684359550476,0.0,0.0,0.0,0.488079696893692,1.6639223098754883,5.008766174316406,-88.34339904785156,0
406.4300000000003,-0.00010285789903718978,-2.752812360995449e-05,0.00012140801118221134,0.0,0.0,0.0,0.0,0.0014447432477027178,0.0006008071359246969,0.001439479412510991,0.9986152648925781,0.0,0.0,0.0,0.48713910579681396,1.661453127861023,4.993936061859131,-88.17314910888672,0
416.3289999999997,-0.00016098201740533113,-3.7783865991514176e-05,0.00012442834849935025,0.0,0.0,0.0,0.0,-0.00014861773524899036,-0.0038273106329143047,-0.0011212858371436596,0.999391496181488,0.0,0.0,0.0,0.4872015416622162,1.6600415706634521,4.985964298248291,-88.1844482421875,0
426.2520000000004,-0.00011514400830492377,-0.00010182470578001812,0.0001123569963965565,0.0,0.0,0.0,0.0,-1.5825060472707264e-05,0.004430872853845358,-0.0024127732031047344,0.9985408782958984,0.0,0.0,0.0,0.48710867762565613,1.6572996377944946,4.982275009155273,-88.16764068603516,0
436.16699999999946,-0.00011571694631129503,-5.692224658560008e-05,3.113184720859863e-05,0.0,0.0,0.0,0.0,-7.232977077364922e-05,0.003119097091257572,0.0009616852039471269,0.998729944229126,0.0,0.0,0.0,0.4871789515018463,1.6581025123596191,4.976908206939697,-88.18035888671875,0
446.08200000000033,-9.846688044490293e-05,-6.44082683720626e-05,7.649220060557127e-05,0.0,0.0,0.0,0.0,-0.00021486717741936445,0.0002669132954906672,0.002500438829883933,0.9999070167541504,0.0,0.0,0.0,0.48693743348121643,1.6555750370025635,4.96481466293335,-88.13664245605469,0
455.98199999999997,-0.00016059665358625352,-7.780231680953875e-05,7.376569556072354e-05,0.0,0.0,0.0,0.0,0.0002762602816801518,0.004417985212057829,-0.0005960217677056789,0.9985801577568054,0.0,0.0,0.0,0.4867291748523712,1.657243013381958,4.962410926818848,-88.09895324707031,0
465.89700000000084,-0.00022574886679649353,-9.071202657651156e-05,7.076538167893887e-05,0.0,0.0,0.0,0.0,-0.003165396163240075,-0.001272086868993938,-0.00012095376587240025,0.9977356195449829,0.0,0.0,0.0,0.48598340153694153,1.654585599899292,4.946935653686523,-87.96395874023438,0
495.6370000000006,-0.00016705183952581137,-2.249604949611239e-05,-3.634940003394149e-05,0.0,0.0,0.0,0.0,-0.0016815251437947154,0.0020556107629090548,0.0050680069252848625,0.999041736125946,0.0,0.0,0.0,0.481523334980011,1.6487747430801392,4.98541784286499,-87.15667724609375,0
505.5480000000007,-0.0001339488080702722,-3.5207936889491975e-05,1.5502559108426794e-05,0.0,0.0,0.0,0.0,0.0014823941746726632,-0.0026828180998563766,0.0031382739543914795,1.000519871711731,0.0,0.0,0.0,0.4817737638950348,1.6491905450820923,4.9799418449401855,-87.2020034790039,0
515.4560000000001,-0.00019385188352316618,-4.463834557100199e-05,8.206869097193703e-06,0.0,0.0,0.0,0.0,-0.0037008256185799837,-0.002468509366735816,-0.0019844607450067997,0.9988492131233215,0.0,0.0,0.0,0.48114004731178284,1.6473366022109985,4.983376502990723,-87.0873031616211,0
525.3829999999998,-0.00016081077046692371,-4.0339698898606e-05,5.863812839379534e-05,0.0,0.0,0.0,0.0,-0.0016062789363786578,-0.0005525150918401778,0.0004917769692838192,0.9984418153762817,0.0,0.0,0.0,0.47996607422828674,1.6547768115997314,4.977236747741699,-86.87481689453125,0
535.2970000000005,-0.00022490402625408024,-6.149472028482705e-05,2.37317963183159e-05,0.0,0.0,0.0,0.0,-0.0018715314799919724,-0.006005413830280304,0.00047272350639104843,1.0000516176223755,0.0,0.0,0.0,0.48033714294433594,1.65775465965271,4.977451324462891,-86.94198608398438,0
545.1910000000007,-0.00016623103874735534,-0.00010436963202664629,6.330331962089986e-05,0.0,0.0,0.0,0.0,-0.0038184192962944508,-0.007578560151159763,-0.0014352872967720032,0.9999233484268188,0.0,0.0,0.0,0.4804374575614929,1.6591682434082031,4.978097438812256,-86.96013641357422,0
555.1080000000002,-0.0001476997131248936,2.1382197701314e-06,6.07242327532731e-06,0.0,0.0,0.0,0.0,0.0005738106556236744,0.0010290831560268998,-0.0023209145292639732,0.9990416169166565,0.0,0.0,0.0,0.48029300570487976,1.664710283279419,4.984489440917969,-86.93399047851562,0
565.0210000000006,-0.0001320434093941003,-2.0000075892312452e-05,3.352050043758936e-05,0.0,0.0,0.0,0.0,0.00328633189201355,-0.005850345827639103,-0.00112257432192564,0.9998936057090759,0.0,0.0,0.0,0.47936463356018066,1.6631122827529907,4.98328161239624,-86.76596069335938,0
574.9349999999995,-0.000194890599232167,-2.7757892894442193e-05,2.789647624013014e-05,0.0,0.0,0.0,0.0,0.0012609382392838597,8.99963706615381e-05,-0.0005376186454668641,1.0000171661376953,0.0,0.0,0.0,0.47998106479644775,1.6583338975906372,4.980292797088623,-86.87752532958984,0
584.844000000001,-0.00015303812688216567,-4.943021485814825e-05,5.116519969305955e-05,0.0,0.0,0.0,0.0,0.0044768876396119595,-6.582921741937753e-06,-0.0005568811320699751,1.0007693767547607,0.0,0.0,0.0,0.4795919954776764,1.6540063619613647,4.974531173706055,-86.80711364746094,0
594.759,-0.00021694530732929707,-6.156954623293132e-05,4.78354595543351e-05,0.0,0.0,0.0,0.0,0.002285127528011799,-0.002603183500468731,-0.004848876968026161,1.0018178224563599,0.0,0.0,0.0,0.47918128967285156,1.6458789110183716,4.967247009277344,-86.73277282714844,0
604.6710000000003,-0.00015077473653946072,-6.015056715114042e-05,9.621307253837585e-05,0.0,0.0,0.0,0.0,0.003967516589909792,0.0013024036306887865,0.0014810110442340374,1.0006415843963623,0.0,0.0,0.0,0.4776774048805237,1.6408816576004028,4.965292930603027,-86.46055603027344,0
614.5840000000007,-0.00013419325114227831,3.534298230079003e-05,7.342959179368336e-06,0.0,0.0,0.0,0.0,-0.0007662760326638818,-0.001914532738737762,0.0025759220588952303,1.0003407001495361,0.0,0.0,0.0,0.4779788553714752,1.635452389717102,4.962406158447266,-86.51512145996094,0
624.491,-8.321173663716763e-05,1.4222493518900592e-05,6.178198964335024e-05,0.0,0.0,0.0,0.0,-0.004848989192396402,-0.001309078885242343,-0.00033918148255907,0.9985048174858093,0.0,0.0,0.0,0.4784048795700073,1.6411432027816772,4.956087589263916,-86.59223175048828,0
634.4040000000005,-0.00014443178952205926,7.466978786396794e-06,6.440308061428368e-05,0.0,0.0,0.0,0.0,-0.0025609841104596853,0.0016764785395935178,0.0008520442061126232,0.9996053576469421,0.0,0.0,0.0,0.47793301939964294,1.6524678468704224,4.957206726074219,-86.50682067871094,0
644.3250000000007,-0.00013066790415905416,-1.273530870093964e-05,7.996396016096696e-05,0.0,0.0,0.0,0.0,-0.0021273267921060324,-0.00021545148047152907,-0.004393755923956633,1.001452922821045,0.0,0.0,0.0,0.4781532883644104,1.6550483703613281,4.950371265411377,-86.54669189453125,0
654.2330000000002,-0.00019156327471137047,-2.0961708287359215e-05,8.293639257317409e-05,0.0,0.0,0.0,0.0,-0.004116192925721407,-0.0020174349192529917,-0.004345072899013758,1.001212239265442,0.0,0.0,0.0,0.47666099667549133,1.6585493087768555,4.939774036407471,-86.2765884399414,0
664.1540000000005,-0.00011402141535654664,-6.989107350818813e-05,7.347710925387219e-05,0.0,0.0,0.0,0.0,-0.0011095198569819331,-0.001365412026643753,-0.00024331141321454197,1.000994324684143,0.0,0.0,0.0,0.4748001992702484,1.654434323310852,4.942974090576172,-85.93977355957031,0
674.0650000000005,-7.107103010639548e-05,7.871198613429442e-05,-2.0539409888442606e-05,0.0,0.0,0.0,0.0,0.0010757179697975516,-0.0006691699963994324,0.002492719329893589,0.9990401268005371,0.0,0.0,0.0,0.4696539342403412,1.70573091506958,4.964083671569824,-85.00829315185547,0
683.969000000001,-6.35538381175138e-05,6.441650475608185e-05,7.510057002946269e-06,0.0,0.0,0.0,0.0,0.0008164928876794875,0.001334343571215868,-0.0029807284008711576,0.9989328980445862,0.0,0.0,0.0,0.4696279764175415,1.7052865028381348,4.955483913421631,-85.00359344482422,0
693.8950000000004,-9.14293632376939e-05,0.00010427864617668092,-9.46486852626549e-06,0.0,0.0,0.0,0.0,0.0008705633226782084,-0.0021391960326582193,0.004653933458030224,0.9998624920845032,0.0,0.0,0.0,0.46239224076271057,1.7104778289794922,4.949509143829346,-83.69390869140625,0
703.7919999999995,-6.848303019069135e-05,6.687345739919692e-05,5.1453503147058655e-06,0.0,0.0,0.0,0.0,-0.0011318342294543982,0.0030372098553925753,-0.0033649408724159002,0.9990389347076416,0.0,0.0,0.0,0.46184012293815613,1.7056598663330078,4.940817356109619,-83.59397888183594,0
713.710000000001,-0.00014109091716818511,5.356690599001013e-05,3.130330878775567e-05,0.0,0.0,0.0,0.0,-0.0012114486889913678,0.00379444332793355,0.0016039618058130145,0.99919193983078,0.0,0.0,0.0,0.46061235666275024,1.7062445878982544,4.935313701629639,-83.37174987792969,0
723.612000000001,-0.00010795494017656893,2.7629750547930598e-05,6.720554665662348e-05,0.0,0.0,0.0,0.0,0.0010396814905107021,-0.002602974884212017,-0.0016369702061638236,0.9977824687957764,0.0,0.0,0.0,0.46070098876953125,1.7038370370864868,4.92680549621582,-83.3877944946289,0
733.5339999999997,-0.00016647344455122948,2.285951813973952e-05,6.984392530284822e-05,0.0,0.0,0.0,0.0,-0.0031313837971538305,-0.011057657189667225,0.0020572589710354805,1.0003799200057983,0.0,0.0,0.0,0.4598117768764496,1.7000898122787476,4.922637939453125,-83.22685241699219,0
743.4339999999993,-0.0001236907410202548,-1.017662634694716e-05,8.102636638795957e-05,0.0,0.0,0.0,0.0,-0.002584687201306224,0.0016559569630771875,0.0014841012889519334,0.9989383816719055,0.0,0.0,0.0,0.4601745903491974,1.6916865110397339,4.935860633850098,-83.29251861572266,0
753.3590000000004,-0.00015890516806393862,2.731155473156832e-05,8.454750786768273e-05,0.0,0.0,0.0,0.0,0.0012468607164919376,0.002731995889917016,0.0014122845605015755,0.9991539716720581,0.0,0.0,0.0,0.45868155360221863,1.6955052614212036,4.934736251831055,-83.02227020263672,0
763.2690000000002,-0.00011786213144659996,-2.0460151972656604e-06,0.00011803433153545484,0.0,0.0,0.0,0.0,-0.0016463816864416003,0.0022472168784588575,0.0006135405274108052,0.9985606670379639,0.0,0.0,0.0,0.4659246802330017,1.6913418769836426,4.949158191680908,-84.33329010009766,0
773.1839999999993,-0.00011276457371423021,7.237934187287465e-05,7.51846018829383e-05,0.0,0.0,0.0,0.0,0.003242463804781437,-0.0005162245943211019,-0.0025444633793085814,0.9998831748962402,0.0,0.0,0.0,0.46473783254623413,1.6937651634216309,4.9269118309021,-84.11847686767578,0
783.0879999999997,-0.00016168456932064146,5.101331771584228e-05,5.821685044793412e-05,0.0,0.0,0.0,0.0,0.000908148824237287,0.0008751085260882974,-0.0025906169321388006,1.0002192258834839,0.0,0.0,0.0,0.46431419253349304,1.6867462396621704,4.926168441772461,-84.04180145263672,0
793.0040000000008,-0.00016632219194434583,0.00011792364966822788,2.3647058696951717e-05,0.0,0.0,0.0,0.0,-0.004060659557580948,-0.005662312265485525,0.002684234641492367,1.0001335144042969,0.0,0.0,0.0,0.46438929438591003,1.6813368797302246,4.922259330749512,-84.05538940429688,0
802.9159999999993,-0.0001897113397717476,8.628860814496875e-05,1.1282758350716904e-05,0.0,0.0,0.0,0.0,0.001018436043523252,0.003079649992287159,-0.0014775034505873919,1.0004115104675293,0.0,0.0,0.0,0.46455663442611694,1.6837148666381836,4.9138875007629395,-84.08567810058594,0
812.8250000000007,-0.00023382200743071735,0.0001228351757163182,1.594816058059223e-05,0.0,0.0,0.0,0.0,-0.0014009409351274371,0.0033775100018829107,0.0010406592627987266,1.0003188848495483,0.0,0.0,0.0,0.46379250288009644,1.6855319738388062,4.909904479980469,-83.9473648071289,0
822.746000000001,-0.0002072894130833447,6.611041317228228e-05,1.4201288649928756e-05,0.0,0.0,0.0,0.0,-0.0004400446196086705,-0.00043527630623430014,-0.0018569824751466513,1.0014210939407349,0.0,0.0,0.0,0.4641065299510956,1.68540358543396,4.891252040863037,-84.00420379638672,0
832.6470000000008,-0.0002702489437069744,5.347422484192066e-05,5.246125510893762e-06,0.0,0.0,0.0,0.0,0.004978795535862446,0.0005359452916309237,-0.0026538625825196505,1.0013227462768555,0.0,0.0,0.0,0.4632086157798767,1.684749722480774,4.884222984313965,-83.8416748046875,0
842.5589999999993,-0.00016947073163464665,-7.811183422745671e-06,5.1727234676945955e-05,0.0,0.0,0.0,0.0,0.00022666189761366695,-0.0010579255176708102,-0.0016211660113185644,1.000199556350708,0.0,0.0,0.0,0.46202704310417175,1.6797707080841064,4.8813066482543945,-83.62781524658203,0
852.4740000000002,-0.00023122401034925133,-1.6826032151584513e-05,5.450542812468484e-05,0.0,0.0,0.0,0.0,0.003042516764253378,-0.0019145162077620625,0.00030309136491268873,1.0007960796356201,0.0,0.0,0.0,0.4606410562992096,1.6713193655014038,4.8813090324401855,-83.37694549560547,0
862.3850000000002,-0.00015625040396116674,-5.5139091273304075e-05,8.160184370353818e-05,0.0,0.0,0.0,0.0,0.0009051412926055491,0.0038517555221915245,-0.0010686360765248537,0.9987585544586182,0.0,0.0,0.0,0.45838212966918945,1.6697429418563843,4.873627185821533,-82.96807098388672,0
872.3040000000001,-0.0002126987965311855,-5.963860894553363e-05,7.879874465288594e-05,0.0,0.0,0.0,0.0,0.0018562354380264878,0.005000037606805563,-0.0009460161672905087,0.9996676445007324,0.0,0.0,0.0,0.4587862491607666,1.6673243045806885,4.867163181304932,-83.04122161865234,0
882.2109999999993,-0.00016492069698870182,-0.00010582841787254438,0.00011791030556196347,0.0,0.0,0.0,0.0,-0.004026342649012804,0.00198901048861444,-0.0008328139083459973,1.0017571449279785,0.0,0.0,0.0,0.4577972888946533,1.6607551574707031,4.850653171539307,-82.86222076416016,0
892.1239999999998,-0.00023148512991610914,-0.00011988800542894751,0.00012470726505853236,0.0,0.0,0.0,0.0,0.0004450539709068835,0.0037139286287128925,0.0017725324723869562,0.9999158382415771,0.0,0.0,0.0,0.4581954777240753,1.6553875207901,4.8337860107421875,-82.93429565429688,0
902.0349999999999,-0.0001964264956768602,-0.0001300417206948623,0.00017261289758607745,0.0,0.0,0.0,0.0,0.000529829238075763,-0.0003420079010538757,-0.0039917100220918655,1.000730037689209,0.0,0.0,0.0,0.45961546897888184,1.6519207954406738,4.82539701461792,-83.1913070678711,0
911.9470000000001,-0.00026555111980997026,-0.00014320528134703636,0.0001838764874264598,0.0,0.0,0.0,0.0,-0.0007934425957500935,-0.005169562995433807,0.001912773004733026,0.9981356859207153,0.0,0.0,0.0,0.45748695731163025,1.6472368240356445,4.822845458984375,-82.80604553222656,0
921.8590000000004,-0.00022033409914001822,-0.00015968542720656842,0.00022016486036591232,0.0,0.0,0.0,0.0,0.0013345740735530853,0.002478900598362088,-0.001640803413465619,1.0000369548797607,0.0,0.0,0.0,0.46370232105255127,1.6438554525375366,4.845712661743164,-83.93104553222656,0
931.7739999999994,-0.00016744190361350775,-2.0609484636224806e-05,6.007307820254937e-05,0.0,0.0,0.0,0.0,-0.0011516340309754014,0.0014357318868860602,-0.0011350020067766309,1.0007978677749634,0.0,0.0,0.0,0.46971991658210754,1.675207495689392,4.859033584594727,-85.0202407836914,0
941.6839999999993,-0.00018684862880036235,-6.298522202996537e-05,5.1785638788715005e-05,0.0,0.0,0.0,0.0,0.0021809895988553762,0.000505786039866507,-0.001424063346348703,1.0003212690353394,0.0,0.0,0.0,0.46851328015327454,1.677303433418274,4.859946250915527,-84.80183410644531,0
951.598,-0.0002546848845668137,-7.369653030764312e-05,5.2888208301737905e-05,0.0,0.0,0.0,0.0,0.0006005850154906511,-0.0013619159581139684,-0.00037139817140996456,0.9984134435653687,0.0,0.0,0.0,0.468497097492218,1.674781084060669,4.851484298706055,-84.79890441894531,0
961.509,-0.00019404366321396083,-0.00010461407509865239,8.435257768724114e-05,0.0,0.0,0.0,0.0,-0.0030066261533647776,-0.0005120697896927595,0.0013141802046447992,0.9992353320121765,0.0,0.0,0.0,0.46799567341804504,1.6706823110580444,4.84774112701416,-84.7081527709961,0
971.4249999999993,-0.00019762571901082993,-6.182771903695539e-05,-3.62845603376627e-05,0.0,0.0,0.0,0.0,-0.00174602004699409,0.00033391854958608747,0.0009157491149380803,0.998720109462738,0.0,0.0,0.0,0.46766868233680725,1.6764577627182007,4.844943523406982,-84.64897155761719,0
981.335000000001,-0.00011336930037941784,-9.825523738982156e-05,3.495133569231257e-05,0.0,0.0,0.0,0.0,-0.001208196161314845,-0.001171356881968677,0.0023353404831141233,0.9963771104812622,0.0,0.0,0.0,0.466361939907074,1.6789634227752686,4.838347911834717,-84.41243743896484,0
991.2569999999996,-0.00013984309043735266,-6.771307380404323e-05,-1.0975452823913656e-05,0.0,0.0,0.0,0.0,-0.0010001540649682283,0.0025900595355778933,0.002908560214564204,0.9978364706039429,0.0,0.0,0.0,0.46684762835502625,1.6771788597106934,4.837019443511963,-84.5003433227539,0
1001.1630000000005,-0.00013914250303059816,-7.55127621232532e-05,3.217810808564536e-05,0.0,0.0,0.0,0.0,-0.0027808973100036383,0.0010078984778374434,0.0005055446526966989,0.9990375638008118,0.0,0.0,0.0,0.4659268856048584,1.6828371286392212,4.831138610839844,-84.33369445800781,0
1011.0720000000001,-0.00020772818243131042,-9.131361002800986e-05,2.5943980290321633e-05,0.0,0.0,0.0,0.0,0.0017085777362808585,0.004918062128126621,0.0005008203443139791,0.9981090426445007,0.0,0.0,0.0,0.46532246470451355,1.6812547445297241,4.820498466491699,-84.22428894042969,0
1020.9840000000004,-0.0001702571171335876,-9.831990610109642e-05,6.978782039368525e-05,0.0,0.0,0.0,0.0,-0.0012438212288543582,4.089755384484306e-05,0.0005821876111440361,0.9994500875473022,0.0,0.0,0.0,0.46594229340553284,1.6761012077331543,4.8083906173706055,-84.33647918701172,0
1030.8999999999996,-0.00015231271390803158,2.0238494471414015e-06,-1.5623129002051428e-05,0.0,0.0,0.0,0.0,0.0014870745362713933,0.0020411566365510225,0.004712878260761499,1.0005974769592285,0.0,0.0,0.0,0.46435487270355225,1.6728962659835815,4.804879188537598,-84.04916381835938,0
1040.8250000000007,-3.456063132034615e-05,8.408422581851482e-05,-7.1988622948993e-05,0.0,0.0,0.0,0.0,0.0023267283104360104,0.002921417122706771,0.004001270048320293,1.0011576414108276,0.0,0.0,0.0,0.46404802799224854,1.6707937717437744,4.795440673828125,-83.99361419677734,0
1050.7309999999998,-0.00010418141027912498,7.456602179445326e-05,-8.445769344689324e-05,0.0,0.0,0.0,0.0,-0.00036885126610286534,-0.0014585868921130896,0.0009726802236400545,1.0005474090576172,0.0,0.0,0.0,0.4642263650894165,1.668221354484558,4.778224468231201,-84.02589416503906,0
1060.634,-0.00010682707943487912,4.3971260311082006e-05,-7.200989057309926e-05,0.0,0.0,0.0,0.0,-0.00432489113882184,-0.0007416652515530586,-0.0009330795728601515,0.998450756072998,0.0,0.0,0.0,0.4649469554424286,1.663051962852478,4.778199672698975,-84.15632629394531,0
1070.5509999999995,-0.00015465889009647071,7.887521496741101e-05,-8.430102025158703e-05,0.0,0.0,0.0,0.0,0.0016398855950683355,0.0020548950415104628,0.00021201185882091522,0.999641478061676,0.0,0.0,0.0,0.4654642939567566,1.6678444147109985,4.77039909362793,-84.24996185302734,0
1080.4680000000008,-0.00012339145177975297,3.283258411101997e-05,-6.44634201307781e-05,0.0,0.0,0.0,0.0,-0.0019486889941617846,-0.0007947331760078669,-0.0018338575027883053,0.9988490343093872,0.0,0.0,0.0,0.46330636739730835,1.6669282913208008,4.759810447692871,-83.85936737060547,0
1090.375,-0.0001540925877634436,8.777969924267381e-05,-9.022994345286861e-05,0.0,0.0,0.0,0.0,0.0024566969368606806,0.006370035465806723,0.0007931746076792479,1.0009976625442505,0.0,0.0,0.0,0.46212834119796753,1.6664714813232422,4.754581928253174,-83.64615631103516,0
1100.2919999999995,-0.00012376578524708748,1.519882607681211e-05,-4.728402564069256e-05,0.0,0.0,0.0,0.0,-0.0003948900557588786,-0.004173375200480223,0.0013725702883675694,1.002304196357727,0.0,0.0,0.0,0.46217021346092224,1.6625300645828247,4.746336936950684,-83.65372467041016,0
1110.2119999999995,-0.0001336536806775257,-1.9132994566462003e-05,-3.586361708585173e-05,0.0,0.0,0.0,0.0,0.0018261208897456527,0.002959274221211672,-0.002766852965578437,0.9993763566017151,0.0,0.0,0.0,0.4621785879135132,1.6635404825210571,4.7430338859558105,-83.65524291992188,0
1120.1129999999994,-0.0002108199696522206,-3.1848743674345315e-05,-3.885872138198465e-05,0.0,0.0,0.0,0.0,0.00025249828468076885,0.00019396017887629569,0.003851148998364806,0.9999628663063049,0.0,0.0,0.0,0.462402880191803,1.6585980653762817,4.739738464355469,-83.69583892822266,0
1130.0220000000008,-0.00020403850066941231,7.383517367998138e-05,-8.553865336580202e-05,0.0,0.0,0.0,0.0,0.0005601673037745059,-0.0025074323639273643,-0.0007501511136069894,1.000902771949768,0.0,0.0,0.0,0.4612416923046112,1.6525315046310425,4.7284345626831055,-83.48566436767578,0
1139.9339999999993,-0.0002827316347975284,6.753506022505462e-05,-9.15672499104403e-05,0.0,0.0,0.0,0.0,0.0018880736315622926,0.0011036117793992162,-0.0021851779893040657,0.9996563792228699,0.0,0.0,0.0,0.46076518297195435,1.6546571254730225,4.732316970825195,-83.39942169189453,0
1149.8580000000002,-0.0003244593390263617,0.00013599905651062727,-9.778013918548822e-05,0.0,0.0,0.0,0.0,0.0005090688355267048,-0.0010954673634842038,-0.0007434656727127731,0.9975850582122803,0.0,0.0,0.0,0.4602605402469635,1.6482336521148682,4.729872703552246,-83.3080825805664,0
1159.7610000000004,-0.0004087449051439762,0.00013222343113739043,-0.00010353766265325248,0.0,0.0,0.0,0.0,-0.0010813337285071611,0.002692760666832328,0.005170222371816635,0.9985962510108948,0.0,0.0,0.0,0.459902286529541,1.6436033248901367,4.728265285491943,-83.24323272705078,0
1169.6759999999995,-0.0004971507005393505,0.00012842043361160904,-0.0001107541611418128,0.0,0.0,0.0,0.0,0.001884282217361033,-0.0038494139444082975,0.002068211790174246,1.0005773305892944,0.0,0.0,0.0,0.460362046957016,1.6415307521820068,4.733144760131836,-83.32644653320312,0
1179.5910000000003,-0.0005894494825042784,0.00012487095955293626,-0.00011863725376315415,0.0,0.0,0.0,0.0,-0.004318820312619209,-0.0020114202052354813,0.0010579247027635574,1.0002471208572388,0.0,0.0,0.0,0.4610725939273834,1.6442999839782715,4.7379150390625,-83.4550552368164,0
1189.4979999999996,-0.0005944339791312814,0.0002500834234524518,-0.0001462258369429037,0.0,0.0,0.0,0.0,0.00035307378857396543,-0.0010878865141421556,-0.0015460510039702058,0.9994791150093079,0.0,0.0,0.0,0.46205732226371765,1.6818020343780518,4.77658748626709,-83.63330078125,0
1199.4150000000009,-0.0006851432844996452,0.0002535414241719991,-0.00015483664174098521,0.0,0.0,0.0,0.0,-0.0008088260074146092,-0.0013124683173373342,-0.001520276884548366,0.999261200428009,0.0,0.0,0.0,0.46172162890434265,1.6809839010238647,4.77719259262085,-83.57254028320312,0
1209.3220000000001,-0.0007133119506761432,0.00028991050203330815,-0.00023161023273132741,0.0,0.0,0.0,0.0,0.00021110793750267476,-0.0009242267697118223,-0.0007144631235860288,1.0014387369155884,0.0,0.0,0.0,0.46095338463783264,1.6792113780975342,4.7720255851745605,-83.43347930908203,0
1219.2350000000006,-0.000803898845333606,0.0002954402007162571,-0.00024576106807217,0.0,0.0,0.0,0.0,0.0036144994664937258,0.0007570557645522058,-0.00022784854809287935,1.0018868446350098,0.0,0.0,0.0,0.45914140343666077,1.6745208501815796,4.7675042152404785,-83.10549926757812,0
1229.1470000000008,-0.0008283475763164461,0.00033824608544819057,-0.00031417806167155504,0.0,0.0,0.0,0.0,-0.001776876044459641,0.002770101884379983,0.0028632914181798697,1.0000362396240234,0.0,0.0,0.0,0.45847776532173157,1.667786717414856,4.761950969696045,-82.98538970947266,0
1239.0599999999995,-0.0009175139712169766,0.0003487367939669639,-0.00032960737007670105,0.0,0.0,0.0,0.0,-0.0011425797129049897,0.0045549566857516766,-0.000561060500331223,0.9977739453315735,0.0,0.0,0.0,0.4577226936817169,1.6624388694763184,4.757877349853516,-82.84872436523438,0
1248.9750000000004,-0.001009952975437045,0.0003582686767913401,-0.0003448812058195472,0.0,0.0,0.0,0.0,-0.002832946600392461,-0.0019098054617643356,-0.0003404726448934525,0.9980957508087158,0.0,0.0,0.0,0.4576990604400635,1.6649686098098755,4.7564287185668945,-82.84443664550781,0
1258.8899999999994,-0.0011058453237637877,0.0003666504053398967,-0.0003615177411120385,0.0,0.0,0.0,0.0,0.002058975398540497,0.00047893772716633976,0.003008991712704301,0.9991288781166077,0.0,0.0,0.0,0.4582144618034363,1.6657301187515259,4.748339653015137,-82.93772888183594,0
1268.8019999999997,-0.0010830367682501674,0.00039188750088214874,-0.0004998060176149011,0.0,0.0,0.0,0.0,-0.0014866796554997563,0.002424666890874505,-0.0005291367415338755,1.0002995729446411,0.0,0.0,0.0,0.4692091643810272,1.6776599884033203,4.799767971038818,-84.92778778076172,0
1278.7109999999993,-0.0011749068507924676,0.0003984555369243026,-0.0005277201998978853,0.0,0.0,0.0,0.0,0.0016017042798921466,-0.0005219417507760227,-0.00021265326358843595,1.0006439685821533,0.0,0.0,0.0,0.47054970264434814,1.6770060062408447,4.798390865325928,-85.17042541503906,0
1288.6229999999996,-0.0011148895137012005,0.0005155103863216937,-0.0006005847826600075,0.0,0.0,0.0,0.0,0.000547389208804816,-0.003865539561957121,0.003365055425092578,1.000595211982727,0.0,0.0,0.0,0.4698205590248108,1.7297487258911133,4.849161624908447,-85.0384521484375,0
1298.5349999999999,-0.001202798099257052,0.0005304433288984001,-0.0006316211074590683,0.0,0.0,0.0,0.0,0.0009866184554994106,0.006775696761906147,0.003499974962323904,0.9998524188995361,0.0,0.0,0.0,0.4711739718914032,1.730800986289978,4.851809024810791,-85.2834243774414,0
1308.4470000000001,-0.001295285765081644,0.0005463470006361604,-0.0006622089422307909,0.0,0.0,0.0,0.0,0.0032713650725781918,0.0018961806781589985,-0.0011146272299811244,1.0013900995254517,0.0,0.0,0.0,0.4706450402736664,1.7275795936584473,4.848161220550537,-85.18768310546875,0
1318.3600000000006,-0.0013923610094934702,0.0005624552140943706,-0.0006921995664015412,0.0,0.0,0.0,0.0,0.00177768396679312,-0.0009119866299442947,0.0003146565577480942,1.000670075416565,0.0,0.0,0.0,0.4701988995075226,1.7315858602523804,4.8225626945495605,-85.10693359375,0
1328.2759999999998,-0.0014932174235582352,0.000577342405449599,-0.0007211075280793011,0.0,0.0,0.0,0.0,0.0026251408271491528,0.00029685310437344015,0.002558501437306404,0.9980786442756653,0.0,0.0,0.0,0.4698774516582489,1.7236170768737793,4.810000896453857,-85.04875946044922,0
1338.192000000001,-0.00170494569465518,0.0006028714124113321,-0.0007788988295942545,0.0,0.0,0.0,0.0,0.0005482958513312042,0.00417864415794611,-0.0006200050702318549,1.0012478828430176,0.0,0.0,0.0,0.46944659948349,1.7172855138778687,4.813462734222412,-84.97076416015625,0
1348.1059999999998,-0.00170494569465518,0.0006028714124113321,-0.0007788988295942545,0.0,0.0,0.0,0.0,0.0017735033761709929,-0.0009838161058723927,-0.0006432015798054636,0.9984016418457031,0.0,0.0,0.0,0.46944659948349,1.7172855138778687,4.813462734222412,-84.97076416015625,0
1358.0159999999996,-0.001925725257024169,0.0006259978981688619,-0.0008378790225833654,0.0,0.0,0.0,0.0,0.00029302554321475327,-0.00461337435990572,-0.0002289769472554326,0.9976063966751099,0.0,0.0,0.0,0.46842432022094727,1.706313133239746,4.796030521392822,-84.78573608398438,0
1367.9259999999995,-0.00018944873590953648,-0.00039910481427796185,0.0003363701980561018,0.0,0.0,0.0,0.0,0.0006864810129627585,-0.005879795178771019,-1.2751987014780752e-05,0.999872624874115,0.0,0.0,0.0,0.4623340964317322,1.5385586023330688,5.0986738204956055,-83.68338775634766,0
1377.835000000001,-0.00022919954790268093,-0.00042939206468872726,0.00034410576336085796,0.0,0.0,0.0,0.0,0.0027209939435124397,-0.0036371462047100067,0.0030593809206038713,0.9992916584014893,0.0,0.0,0.0,0.46056631207466125,1.5363329648971558,5.092317581176758,-83.36341857910156,0
1387.7479999999996,-0.00022385870397556573,-0.00042876636143773794,0.00045252032577991486,0.0,0.0,0.0,0.0,0.0007095207693055272,-0.00019348537898622453,-0.005115641746670008,0.9993715882301331,0.0,0.0,0.0,0.46874380111694336,1.5421884059906006,5.105153560638428,-84.84355926513672,0
1397.6679999999997,-0.00026659652939997613,-0.00045858038356527686,0.00046468264190480113,0.0,0.0,0.0,0.0,-0.0004009579715784639,-1.3931751709606033e-05,0.0009737779619172215,1.0010619163513184,0.0,0.0,0.0,0.46828773617744446,1.5407569408416748,5.092961311340332,-84.7610092163086,0
1407.58,-0.0002691216068342328,-0.0004685556050390005,0.0005351253785192966,0.0,0.0,0.0,0.0,0.0010181661928072572,0.0021391131449490786,-0.0024985659401863813,1.0000197887420654,0.0,0.0,0.0,0.47334909439086914,1.5465909242630005,5.095334529876709,-85.6771240234375,0
1417.4969999999994,-0.0003146404924336821,-0.000498323526699096,0.0005513535579666495,0.0,0.0,0.0,0.0,0.003084615571424365,0.0015966198407113552,-0.0007040004711598158,1.0009241104125977,0.0,0.0,0.0,0.47282692790031433,1.5429285764694214,5.071536064147949,-85.58261108398438,0
1427.402,-0.000302527827443555,-0.000508238619659096,0.0006218415219336748,0.0,0.0,0.0,0.0,-0.0038929057773202658,-0.003505607834085822,0.0012993344571441412,1.0006897449493408,0.0,0.0,0.0,0.4716030955314636,1.5356471538543701,5.064938545227051,-85.3611068725586,0
1437.321,-0.00034841502201743424,-0.0005379044450819492,0.0006426697946153581,0.0,0.0,0.0,0.0,0.0032437508925795555,0.0031424134504050016,-0.0014356821775436401,0.9994741678237915,0.0,0.0,0.0,0.4717977046966553,1.5346564054489136,5.058981895446777,-85.39632415771484,0
1447.2250000000004,-0.00032217783154919744,-0.000549128046259284,0.0007121426751837134,0.0,0.0,0.0,0.0,-2.3708042135694996e-05,0.0035536682698875666,-0.0017513984348624945,0.9990118741989136,0.0,0.0,0.0,0.4792371094226837,1.5355948209762573,5.062643527984619,-86.74287414550781,0
1457.1499999999996,-0.00036985939368605614,-0.0005807933048345149,0.0007360079907812178,0.0,0.0,0.0,0.0,-0.0009211153956130147,3.694524639286101e-05,-0.0006068124203011394,1.0010372400283813,0.0,0.0,0.0,0.4786771833896637,1.533939242362976,5.063076019287109,-86.64151763916016,0
1467.0529999999999,-0.0003396589308977127,-0.0005992167280055583,0.0007963704410940409,0.0,0.0,0.0,0.0,0.0012160207843407989,0.0055650267750024796,0.0011873366311192513,1.0004808902740479,0.0,0.0,0.0,0.47697022557258606,1.5301810503005981,5.046620845794678,-86.33256530761719,0
1476.9770000000008,-0.0003876789123751223,-0.0006302042747847736,0.0008247010409832001,0.0,0.0,0.0,0.0,-0.0031152633018791676,-0.002448422135785222,0.00021420815028250217,0.9997423887252808,0.0,0.0,0.0,0.4768906235694885,1.5293598175048828,5.037440299987793,-86.31815338134766,0
1486.8739999999998,-0.00037522922502830625,-0.000652727612759918,0.0008781718206591904,0.0,0.0,0.0,0.0,-0.0022108431439846754,-0.002646352630108595,-0.0008686044020578265,0.9999995827674866,0.0,0.0,0.0,0.48420941829681396,1.5285706520080566,5.053065299987793,-87.64286804199219,0
1496.7999999999993,-0.0004240501148160547,-0.000683081685565412,0.0009092068066820502,0.0,0.0,0.0,0.0,0.00011796974285971373,0.00202998798340559,0.0018155646976083517,1.0014415979385376,0.0,0.0,0.0,0.48265427350997925,1.528220534324646,5.047906875610352,-87.36138916015625,0
1506.7070000000003,-0.0004431866982486099,-0.0006809192127548158,0.0009943083859980106,0.0,0.0,0.0,0.0,0.0006475614500232041,0.003187822876498103,-0.000502006325405091,1.0006624460220337,0.0,0.0,0.0,0.482759565114975,1.5272413492202759,5.040837287902832,-87.38044738769531,0
1516.6260000000002,-0.0004945885739289224,-0.0007118157809600234,0.001031614257954061,0.0,0.0,0.0,0.0,0.0003776437370106578,-0.004165853373706341,-0.0007318143616430461,1.0003182888031006,0.0,0.0,0.0,0.4822085499763489,1.5236384868621826,5.033822536468506,-87.28070068359375,0
1526.5300000000007,-0.0004814022686332464,-0.0007549045840278268,0.0010795874986797571,0.0,0.0,0.0,0.0,0.0010998970828950405,-0.00364313879981637,-0.001157284015789628,0.9998822808265686,0.0,0.0,0.0,0.4882999658584595,1.5079283714294434,5.064228534698486,-88.38327026367188,0
1536.451000000001,-0.0005328377592377365,-0.0007907967083156109,0.0011183014139533043,0.0,0.0,0.0,0.0,-0.0016805807827040553,-0.0010762781603261828,0.0013518071500584483,0.9987132549285889,0.0,0.0,0.0,0.4866809844970703,1.5052950382232666,5.068636417388916,-88.09022521972656,0
1546.348,-0.0005234474083408713,-0.0008356599137187004,0.001171748386695981,0.0,0.0,0.0,0.0,-0.0006668274290859699,0.0001805361534934491,-0.002293945290148258,0.9979730248451233,0.0,0.0,0.0,0.48605042695999146,1.511944055557251,5.058931827545166,-87.9760971069336,0
1556.2759999999998,-0.0005751472199335694,-0.0008740503108128905,0.0012100551975890994,0.0,0.0,0.0,0.0,-0.0009470817749388516,0.001818825607188046,-0.0008386461995542049,1.000204086303711,0.0,0.0,0.0,0.4854234457015991,1.512482762336731,5.056904315948486,-87.86260986328125,0
1566.1800000000003,-0.0005643183249048889,-0.0009232900920324028,0.0012630110140889883,0.0,0.0,0.0,0.0,-0.0021756798960268497,0.0011405490804463625,0.0009099030285142362,1.0009957551956177,0.0,0.0,0.0,0.48526954650878906,1.511834740638733,5.044564723968506,-87.83475494384766,0
1576.0959999999995,-0.0006153168505989015,-0.0009644008241593838,0.0013029207475483418,0.0,0.0,0.0,0.0,0.003927708137780428,-0.0001868882536655292,-0.0034138737246394157,0.9990707635879517,0.0,0.0,0.0,0.4851747751235962,1.5099477767944336,5.042461395263672,-87.81759643554688,0
1586.0,-0.0005991347134113312,-0.001016054069623351,0.001360153080895543,0.0,0.0,0.0,0.0,0.004277209285646677,-0.0043990532867610455,0.0029036642517894506,0.999386191368103,0.0,0.0,0.0,0.484182745218277,1.501829743385315,5.041520118713379,-87.6380386352539,0
1595.9249999999993,-0.0006486093625426292,-0.0010606774594634771,0.0014007905265316367,0.0,0.0,0.0,0.0,0.0006927319918759167,0.0023535629734396935,0.0005038221133872867,0.9994595050811768,0.0,0.0,0.0,0.48415589332580566,1.495782732963562,5.047413349151611,-87.63318634033203,0
1605.8230000000003,-0.0006346154841594398,-0.0011123198783025146,0.0014598688576370478,0.0,0.0,0.0,0.0,-0.00261168135330081,-0.00477705430239439,0.0013806901406496763,1.0012961626052856,0.0,0.0,0.0,0.4836510121822357,1.4928849935531616,5.046055316925049,-87.54180145263672,0
1615.7520000000004,-0.0006346154841594398,-0.0011123198783025146,0.0014598688576370478,0.0,0.0,0.0,0.0,-0.0006714228657074273,-0.0035383969079703093,-0.0009434942621737719,0.9995934963226318,0.0,0.0,0.0,0.4836510121822357,1.4928849935531616,5.046055316925049,-87.54180145263672,0
1625.6499999999996,-0.00012177348253317177,-3.0035795134608634e-05,0.00015103822806850076,0.0,0.0,0.0,0.0,0.0003776645171456039,0.0001801755715860054,-0.0016514918534085155,0.9975606799125671,0.0,0.0,0.0,0.4830995202064514,1.665820837020874,5.129593372344971,-87.44197845458984,0
1635.5789999999997,-0.00012177348253317177,-3.0035795134608634e-05,0.00015103822806850076,0.0,0.0,0.0,0.0,0.001799740013666451,0.002864960115402937,-0.0015383620047941804,0.997814416885376,0.0,0.0,0.0,0.4830995202064514,1.665820837020874,5.129593372344971,-87.44197845458984,0
1645.473,-5.380832590162754e-05,-5.264247738523409e-05,0.00014752022980246693,0.0,0.0,0.0,0.0,0.0009535693097859621,-0.004535529762506485,-0.003675818908959627,1.0016205310821533,0.0,0.0,0.0,0.4820825159549713,1.6673601865768433,5.128320693969727,-87.25788879394531,0
1655.4050000000007,-0.00011650107626337558,-7.482094952138141e-05,0.00014482992992270738,0.0,0.0,0.0,0.0,-0.0008536752429790795,0.0016952091827988625,-0.0063435169868171215,0.9995637536048889,0.0,0.0,0.0,0.480359822511673,1.658577561378479,5.112051010131836,-86.94608306884766,0
1665.3089999999993,-6.889830547152087e-05,-8.641473687021062e-05,0.00015197508037090302,0.0,0.0,0.0,0.0,-0.0003454518155194819,-4.6691558964084834e-05,0.0014471200993284583,0.9984049201011658,0.0,0.0,0.0,0.480359822511673,1.658577561378479,5.112051010131836,-86.94608306884766,0
1675.232,-0.00014003233809489757,-0.00011258789891144261,0.0001501074875704944,0.0,0.0,0.0,0.0,0.004624295514076948,0.0042424011044204235,0.0005377492634579539,1.0002692937850952,0.0,0.0,0.0,0.47926196455955505,1.6495360136032104,5.096749782562256,-86.74736785888672,0
1685.1309999999994,-6.722161924699321e-05,-0.00010025247320299968,0.00018895405810326338,0.0,0.0,0.0,0.0,8.070621697697788e-05,0.0018201891798526049,-0.0034545885864645243,0.998767614364624,0.0,0.0,0.0,0.4849875271320343,1.6529366970062256,5.105337619781494,-87.7837142944336,0
1695.049000000001,-0.00010435996227897704,-0.00011354372691130266,0.00019047781825065613,0.0,0.0,0.0,0.0,0.0015612345887348056,-0.0003142013738397509,0.002279685577377677,0.9981949329376221,0.0,0.0,0.0,0.4845486879348755,1.6408799886703491,5.090867519378662,-87.70428466796875,0
1704.9500000000007,-1.3983225471747573e-05,-1.628320933377836e-05,7.381341129075736e-05,0.0,0.0,0.0,0.0,-0.0020385226234793663,0.0007970025180839002,-0.0023676904384046793,0.999688982963562,0.0,0.0,0.0,0.4837600290775299,1.6435147523880005,5.09028434753418,-87.5615234375,0
1714.875,-4.9700123781803995e-05,-2.5502004064037465e-05,6.700058293063194e-05,0.0,0.0,0.0,0.0,0.0005842608516104519,-0.0012616192689165473,0.002455746056511998,1.0004425048828125,0.0,0.0,0.0,0.48396700620651245,1.6397767066955566,5.079736709594727,-87.59899139404297,0
1724.7749999999996,1.0893516446230933e-05,8.057096420088783e-05,-2.5425040803384036e-05,0.0,0.0,0.0,0.0,-0.0002430887834634632,0.0014580610441043973,-0.003218256402760744,1.0003719329833984,0.0,0.0,0.0,0.48205289244651794,1.6395596265792847,5.078985691070557,-87.25252532958984,0
1734.696,-3.220410508220084e-05,7.242211722768843e-05,-3.852496593026444e-05,0.0,0.0,0.0,0.0,-0.0003395800304133445,0.003962804563343525,0.0009911316446959972,0.9988943934440613,0.0,0.0,0.0,0.48157456517219543,1.6367554664611816,5.083446502685547,-87.16595458984375,0
1744.6059999999998,-2.555853279773146e-05,0.00011093515058746561,-0.00011024057312170044,0.0,0.0,0.0,0.0,0.0010774219408631325,0.0035261735320091248,0.0008282813359983265,0.9996438026428223,0.0,0.0,0.0,0.4821157157421112,1.6378958225250244,5.073790550231934,-87.26390075683594,0
1754.5239999999994,-6.944770575501025e-05,0.00010214091162197292,-0.0001265824248548597,0.0,0.0,0.0,0.0,-0.0016419878229498863,0.0017217890126630664,0.00042348611168563366,0.9995782375335693,0.0,0.0,0.0,0.48192867636680603,1.6306415796279907,5.057760715484619,-87.23004150390625,0
1764.4269999999997,1.9561628505471162e-05,0.00012926892668474466,-0.00014810373249929398,0.0,0.0,0.0,0.0,0.002291934797540307,0.0051009319722652435,0.0001120809101848863,1.000357747077942,0.0,0.0,0.0,0.4822828471660614,1.6291667222976685,5.047807216644287,-87.29415893554688,0
1774.3430000000008,-2.6801817512023263e-05,0.00012059210712322965,-0.0001651108468649909,0.0,0.0,0.0,0.0,-0.0020331693813204765,-0.004070293623954058,0.002002169843763113,1.0004438161849976,0.0,0.0,0.0,0.48138582706451416,1.6256593465805054,5.032008171081543,-87.13179016113281,0
1784.2510000000002,2.923076317529194e-05,0.00012738180521409959,-0.00017666989879217,0.0,0.0,0.0,0.0,0.00044912812882103026,-0.001941467053256929,5.501866326085292e-05,0.999441921710968,0.0,0.0,0.0,0.4822506010532379,1.6252591609954834,5.031004905700684,-87.28831481933594,0
1794.1730000000007,-2.0392533770063892e-05,0.00011722405906766653,-0.00019273256475571543,0.0,0.0,0.0,0.0,-0.00046067393850535154,0.004625197499990463,0.004260464105755091,0.9998124241828918,0.0,0.0,0.0,0.48241984844207764,1.6163052320480347,5.0260467529296875,-87.3189468383789,0
1804.085000000001,1.1810932846856304e-05,0.00012486681225709617,-0.00019626201537903398,0.0,0.0,0.0,0.0,-3.483302498352714e-05,0.0041640205308794975,-0.002721053082495928,1.0010250806808472,0.0,0.0,0.0,0.4835723638534546,1.6219274997711182,5.013854503631592,-87.52755737304688,0
1813.9979999999996,-4.065153916599229e-05,0.00011264979548286647,-0.00021102135360706598,0.0,0.0,0.0,0.0,-0.0006495307316072285,-0.0028218189254403114,-0.001958441687747836,0.9986876845359802,0.0,0.0,0.0,0.48284366726875305,1.6180998086929321,5.013505935668945,-87.39567565917969,0
1823.8989999999994,-9.326890722149983e-05,0.00011029754386981949,-0.00017832637240644544,0.0,0.0,0.0,0.0,0.002543667098507285,0.0002987358020618558,-0.0010980862425640225,0.9990880489349365,0.0,0.0,0.0,0.48185402154922485,1.6207056045532227,5.018733978271484,-87.2165298461914,0
1833.817000000001,-0.00015141855692490935,9.75329166976735e-05,-0.00018944167823065072,0.0,0.0,0.0,0.0,0.0010851995320990682,0.0021881028078496456,-0.00019758073904085904,0.9997739791870117,0.0,0.0,0.0,0.4802563488483429,1.615212321281433,5.010795593261719,-86.92735290527344,0
1843.7240000000002,-9.716962813399732e-05,9.680604125605896e-05,-0.0001504084502812475,0.0,0.0,0.0,0.0,-0.003887016326189041,-0.0014242586912587285,0.0006528542144224048,0.9984971284866333,0.0,0.0,0.0,0.4798109829425812,1.610643744468689,5.002481460571289,-86.84674835205078,0
1853.643,-0.0001565660786582157,8.330609853146598e-05,-0.00015818106476217508,0.0,0.0,0.0,0.0,0.0013887766981497407,0.0009037043200805783,0.0001828691310947761,0.9981727600097656,0.0,0.0,0.0,0.47979071736335754,1.614320993423462,5.003501892089844,-86.84307861328125,0
1863.549000000001,-0.00011515694495756179,7.738466956652701e-05,-0.00013460172340273857,0.0,0.0,0.0,0.0,-0.0005986114265397191,-0.005306408740580082,-0.0012318441877141595,0.9979891777038574,0.0,0.0,0.0,0.4789200723171234,1.6105248928070068,4.986095905303955,-86.68548583984375,0
1873.4629999999997,-0.00017399221542291343,6.357960228342563e-05,-0.00014302376075647771,0.0,0.0,0.0,0.0,0.0014538282994180918,0.003651868784800172,0.00047622437705285847,0.9981303215026855,0.0,0.0,0.0,0.47821348905563354,1.611910343170166,4.985135078430176,-86.55758666992188,0
1883.3770000000004,-8.378409256692976e-05,6.226490222616121e-05,-0.00010652103810571134,0.0,0.0,0.0,0.0,-0.002152597764506936,-0.0009377459646202624,-0.0004254824889358133,1.002303957939148,0.0,0.0,0.0,0.4782886207103729,1.6072063446044922,4.98429012298584,-86.5711898803711,0
1893.2890000000007,-0.0001389764220220968,4.6483772166538984e-05,-0.00011357705807313323,0.0,0.0,0.0,0.0,-0.0012386315502226353,-0.007792954333126545,0.0019032710697501898,1.0018211603164673,0.0,0.0,0.0,0.47802597284317017,1.6058217287063599,4.978508949279785,-86.52365112304688,0
1903.1990000000005,-0.0001049269994837232,3.534054121701047e-05,-3.40349470207002e-05,0.0,0.0,0.0,0.0,-0.0024478205014020205,0.004035918507725,-0.005005784798413515,0.9996157288551331,0.0,0.0,0.0,0.4784347116947174,1.6032284498214722,4.9746809005737305,-86.59762573242188,0
1913.1110000000008,-0.00015838490799069405,2.068104913632851e-05,-3.193301017745398e-05,0.0,0.0,0.0,0.0,0.0023147298488765955,-0.0020783469080924988,0.0006389067275449634,0.9993436336517334,0.0,0.0,0.0,0.4779045283794403,1.6111252307891846,4.9744977951049805,-86.50166320800781,0
1923.0259999999998,-8.596224506618455e-05,2.9926522984169424e-05,4.47189413534943e-05,0.0,0.0,0.0,0.0,-0.00018423181609250605,0.000941468111705035,-0.0029356596060097218,0.9987894296646118,0.0,0.0,0.0,0.484625905752182,1.5981621742248535,4.979662895202637,-87.71825408935547,0
1932.938,-0.00013756609405390918,1.758236248861067e-05,5.1709797844523564e-05,0.0,0.0,0.0,0.0,0.002088783774524927,0.0011175345862284303,0.0002403090475127101,0.9997748136520386,0.0,0.0,0.0,0.4845391511917114,1.5970195531845093,4.983264446258545,-87.70254516601562,0
1942.8520000000008,-7.022577483439818e-05,1.973536745936144e-05,0.00010711823415476829,0.0,0.0,0.0,0.0,0.0005586713668890297,0.0020590464118868113,0.0010918406769633293,0.9988429546356201,0.0,0.0,0.0,0.48408108949661255,1.5906609296798706,4.970656394958496,-87.61963653564453,0
1952.7669999999998,-0.00011930983600905165,6.884994036226999e-06,0.000116469178465195,0.0,0.0,0.0,0.0,-0.001382618211209774,-0.0003264478291384876,-0.001102812122553587,1.0006650686264038,0.0,0.0,0.0,0.4830275774002075,1.5921273231506348,4.961435317993164,-87.428955078125,0
1962.683000000001,-8.93340038601309e-05,-2.3303842681343667e-05,0.00013957862392999232,0.0,0.0,0.0,0.0,0.0015199694316834211,-0.0032408914994448423,0.0008015352068468928,0.9990949630737305,0.0,0.0,0.0,0.48235949873924255,1.590805172920227,4.953221797943115,-87.30802154541016,0
1972.5920000000006,-0.0001434765144949779,-3.968395321862772e-05,0.00014948906027711928,0.0,0.0,0.0,0.0,0.003341111121699214,0.001578638912178576,-6.251835293369368e-05,0.9994471669197083,0.0,0.0,0.0,0.48209843039512634,1.5928542613983154,4.95342493057251,-87.26078033447266,0
1982.509,-0.00010770343214971945,-6.020362343406305e-05,0.0001768303191056475,0.0,0.0,0.0,0.0,0.00020510100875981152,-0.0019835380371659994,-0.00010603890405036509,1.001410722732544,0.0,0.0,0.0,0.4815310835838318,1.588379979133606,4.949878692626953,-87.1580810546875,0
1992.411,-0.00016547807899769396,-7.811846444383264e-05,0.00018790176545735449,0.0,0.0,0.0,0.0,-0.002006445312872529,-0.0039036311209201813,0.0007192518096417189,0.9998464584350586,0.0,0.0,0.0,0.4806486666202545,1.5918294191360474,4.945713996887207,-86.99836730957031,0
2002.3359999999993,-6.280733941821381e-05,4.1374241845915094e-05,0.00010428004316054285,0.0,0.0,0.0,0.0,-0.000681909266859293,-0.0007322361343540251,-0.0016226480947807431,0.9992839694023132,0.0,0.0,0.0,0.4789653420448303,1.6325241327285767,4.967458724975586,-86.69368743896484,0
2012.2360000000008,-0.00011935935617657378,3.09952738462016e-05,0.00011069749598391354,0.0,0.0,0.0,0.0,0.0011767629766836762,-0.001612987369298935,-0.002026108792051673,1.0007907152175903,0.0,0.0,0.0,0.47833913564682007,1.6344976425170898,4.970649719238281,-86.58032989501953,0
2022.1560000000009,-9.369724284624681e-05,1.2493958820414264e-05,0.0001391611440340057,0.0,0.0,0.0,0.0,0.000681768695358187,0.0025364726316183805,0.00046831343206577003,0.9986581802368164,0.0,0.0,0.0,0.47785669565200806,1.6301065683364868,4.964936256408691,-86.49301147460938,0
2032.0650000000005,-7.809085218468681e-05,9.33754417928867e-05,6.705526175210252e-05,0.0,0.0,0.0,0.0,-0.00011676369467750192,-0.0005704885115846992,-0.0013379105366766453,0.9990716576576233,0.0,0.0,0.0,0.47690704464912415,1.6276097297668457,4.956336975097656,-86.32112121582031,0
2042.0010000000002,-5.9337278798921034e-05,4.2361087253084406e-05,7.203232235042378e-05,0.0,0.0,0.0,0.0,0.0012660189531743526,0.006600223947316408,-0.0012739410158246756,0.9989165663719177,0.0,0.0,0.0,0.4767340123653412,1.630518913269043,4.94801139831543,-86.28980255126953,0
2051.897000000001,-0.00012337589578237385,2.1419828044599853e-05,6.912969547556713e-05,0.0,0.0,0.0,0.0,0.0028467178344726562,0.0023819769266992807,-0.0005963084404356778,0.9975809454917908,0.0,0.0,0.0,0.47658100724220276,1.6243573427200317,4.946638107299805,-86.26211547851562,0
2061.8140000000003,-9.096425492316484e-05,-2.7695145035977475e-05,8.937497477745637e-05,0.0,0.0,0.0,0.0,-0.002986529842019081,-0.00020430059521459043,0.0021253791637718678,0.9995653033256531,0.0,0.0,0.0,0.47463810443878174,1.6260932683944702,4.933769226074219,-85.91044616699219,0
2071.7160000000003,-7.961449591675773e-05,5.287695603328757e-05,4.0302929846802726e-05,0.0,0.0,0.0,0.0,0.0001150543539552018,-0.001868328545242548,0.0028316082898527384,0.9988955855369568,0.0,0.0,0.0,0.47493600845336914,1.6290156841278076,4.930538177490234,-85.96436309814453,0
2081.6460000000006,-2.5125129468506202e-05,1.9491910279612057e-05,8.137069380609319e-05,0.0,0.0,0.0,0.0,-0.0009902467718347907,0.0007313734968192875,-0.00436623627319932,1.000266194343567,0.0,0.0,0.0,0.48174622654914856,1.6217440366744995,4.938313007354736,-87.19702911376953,0
2091.5409999999993,-5.244939893600531e-05,2.3127366148401052e-05,3.271381865488365e-05,0.0,0.0,0.0,0.0,0.001745530404150486,0.0037275534123182297,-0.0010442014317959547,1.0021779537200928,0.0,0.0,0.0,0.4815800189971924,1.623384714126587,4.9317731857299805,-87.16693878173828,0
2101.4590000000007,-3.519705205690116e-05,8.390394214075059e-06,6.656556797679514e-05,0.0,0.0,0.0,0.0,0.0032971606124192476,-0.002530589932575822,0.0032677617855370045,1.0007282495498657,0.0,0.0,0.0,0.4875507354736328,1.6168217658996582,4.940058708190918,-88.24765014648438,0
2111.362000000001,-9.642091754358262e-05,-1.8798173186951317e-06,6.664857210125774e-05,0.0,0.0,0.0,0.0,-0.0011008228175342083,0.00047641704441048205,-9.725845302455127e-05,0.9993101954460144,0.0,0.0,0.0,0.48642498254776,1.6110605001449585,4.921172618865967,-88.04389190673828,0
2121.2980000000007,-6.924042827449739e-05,-1.4840234143775888e-05,9.608871914679185e-05,0.0,0.0,0.0,0.0,0.0006153510767035186,-0.0019463436910882592,0.001886269892565906,0.9993734359741211,0.0,0.0,0.0,0.48572370409965515,1.6151288747787476,4.929109573364258,-87.91696166992188,0
2131.1890000000003,-0.000132599234348163,-2.625863635330461e-05,9.924532059812918e-05,0.0,0.0,0.0,0.0,-0.002667281311005354,0.002377619966864586,0.00020627952471841127,1.0003015995025635,0.0,0.0,0.0,0.48511090874671936,1.6129359006881714,4.919323921203613,-87.80604553222656,0
2141.108,-7.516430923715234e-05,-7.650555926375091e-05,8.71093143359758e-05,0.0,0.0,0.0,0.0,-0.0021072032395750284,0.001157146878540516,-0.0013050619745627046,1.0007892847061157,0.0,0.0,0.0,0.4839010536670685,1.6162190437316895,4.919181823730469,-87.58705139160156,0
