timestamp,stateEstimate.x,stateEstimate.y,stateEstimate.z,controller.cmd_thrust,controller.cmd_roll,controller.cmd_pitch,controller.cmd_yaw,controller.r_roll,controller.r_pitch,controller.r_yaw,controller.accelz,controller.actuatorThrust,controller.roll,controller.pitch,controller.yaw,controller.rollRate,controller.pitchRate,controller.yawRate,controller.ctr_yaw
0.0,-0.00016337493434548378,0.00012408006296027452,-0.0001417686144122854,0.0,0.0,0.0,0.0,-0.0028770228382200003,-0.0006957316654734313,-0.0027001022826880217,0.9998769760131836,0.0,0.0,0.0,0.5117621421813965,-2.8803908824920654,6.6828460693359375,-92.62996673583984,0
9.895999999998821,-6.3697574660182e-05,0.00010691450006561354,-8.744285878492519e-05,0.0,0.0,0.0,0.0,0.0013224579161033034,-0.00014141078281681985,-0.001884457771666348,0.9988017678260803,0.0,0.0,0.0,0.5047945380210876,-2.8870208263397217,6.705227375030518,-91.36882019042969,0
19.8179999999993,-0.00013648811727762222,0.00014389878197107464,-2.086767926812172e-05,0.0,0.0,0.0,0.0,0.0023865492548793554,0.0007930900901556015,-0.0009152318816632032,0.9990510940551758,0.0,0.0,0.0,0.5038025975227356,-2.872469425201416,6.692523002624512,-91.18927001953125,0
29.71600000000035,-0.00022787367925047874,0.00017796768224798143,-3.374810330569744e-05,0.0,0.0,0.0,0.0,-0.0008085072040557861,-0.0029277359135448933,0.0015427923062816262,0.9984601140022278,0.0,0.0,0.0,0.5009346008300781,-2.8743538856506348,6.671118259429932,-90.67015838623047,0
39.64499999999862,-0.00023486695135943592,0.00022302432626020163,1.8534514310886152e-05,0.0,0.0,0.0,0.0,-0.0015511319506913424,0.0006023104069754481,-0.0024996765423566103,1.0001600980758667,0.0,0.0,0.0,0.5009346008300781,-2.8743538856506348,6.671118259429932,-90.67015838623047,0
49.54099999999926,-4.307314884499647e-05,8.010557939996943e-05,5.93809163547121e-05,0.0,0.0,0.0,0.0,-0.002684477949514985,0.0039952718652784824,0.003369948361068964,0.9983042478561401,0.0,0.0,0.0,0.5118253231048584,-2.901181936264038,6.719922065734863,-92.64140319824219,0
59.46799999999894,-0.00014559677219949663,7.931095751700923e-05,0.00015763600822538137,0.0,0.0,0.0,0.0,0.0016338764689862728,0.0016025553923100233,-0.001147758332081139,0.9978294968605042,0.0,0.0,0.0,0.5172795653343201,-2.904196262359619,6.692193984985352,-93.62863159179688,0
69.37299999999959,-3.61593411071226e-05,-1.0912598327195155e-06,0.00017834546451922506,0.0,0.0,0.0,0.0,0.002415227238088846,0.004166970029473305,-0.0005078149260953069,1.0001819133758545,0.0,0.0,0.0,0.5256946086883545,-2.9206361770629883,6.709985733032227,-95.15177154541016,0
79.29799999999886,-0.0001293664681725204,-2.5239845854230225e-05,0.00023994926596060395,0.0,0.0,0.0,0.0,-0.0019530326826497912,-0.0019417842850089073,-0.0002234850253444165,1.0011274814605713,0.0,0.0,0.0,0.5247138142585754,-2.9185802936553955,6.706639766693115,-94.97425079345703,0
89.19499999999971,-6.545772339450195e-05,-8.14493396319449e-05,0.000253442267421633,0.0,0.0,0.0,0.0,0.003036747220903635,-0.0012772493064403534,-0.0037208576686680317,0.9989473819732666,0.0,0.0,0.0,0.5363875031471252,-2.9313743114471436,6.707767963409424,-97.08720397949219,0
99.11399999999958,-0.00013632290938403457,-7.628667663084343e-05,0.00030268303817138076,0.0,0.0,0.0,0.0,-0.0017043084371834993,-0.0009011543588712811,0.003087968099862337,0.997889518737793,0.0,0.0,0.0,0.5362080931663513,-2.9257662296295166,6.708712577819824,-97.05473327636719,0
109.01499999999942,-0.00018332694889977574,-6.865781324449927e-05,0.0003149632248096168,0.0,0.0,0.0,0.0,0.00018745908164419234,-0.0011524586006999016,0.00016736365796532482,0.9992130398750305,0.0,0.0,0.0,0.5356538891792297,-2.9274587631225586,6.712703227996826,-96.95441436767578,0
118.9390000000003,-0.00019690892077051103,-2.6146282834815793e-05,0.0002934613439720124,0.0,0.0,0.0,0.0,-0.0003729308082256466,0.0003748423478100449,-0.0007528942078351974,1.0017473697662354,0.0,0.0,0.0,0.5354950428009033,-2.9225316047668457,6.702479362487793,-96.9256591796875,0
128.84599999999955,-9.186220268020406e-05,-0.0001173448545159772,0.00032439117785543203,0.0,0.0,0.0,0.0,0.00020319962641224265,-0.003717119572684169,0.0004916228353977203,1.0000903606414795,0.0,0.0,0.0,0.5437166690826416,-2.9400362968444824,6.714712619781494,-98.4137954711914,0
138.7569999999996,-6.0264294006628916e-05,-2.5305318558821455e-05,0.0002805468102451414,0.0,0.0,0.0,0.0,3.6709931009681895e-05,-0.00015030858048703521,0.0002748082624748349,0.9994116425514221,0.0,0.0,0.0,0.542976975440979,-2.935295343399048,6.719336986541748,-98.27989959716797,0
148.66399999999885,-6.0449012380559e-05,-4.086840999661945e-05,0.00028587208362296224,0.0,0.0,0.0,0.0,0.00016958055493887514,0.0018245787359774113,0.003155661281198263,0.9999075531959534,0.0,0.0,0.0,0.5312670469284058,-2.929537296295166,6.718990802764893,-96.16038513183594,0
158.58799999999974,-9.080691961571574e-05,-1.633095416764263e-05,0.00028339968412183225,0.0,0.0,0.0,0.0,0.003563069738447666,0.002386924112215638,-0.0011622135061770678,0.9998887777328491,0.0,0.0,0.0,0.5296412110328674,-2.927745819091797,6.710107326507568,-95.8661117553711,0
168.48599999999897,-0.00011420075315982103,-4.804885611520149e-05,0.00026318588061258197,0.0,0.0,0.0,0.0,-0.0003180155763402581,-0.00040827467455528677,0.0002831190649885684,0.9990972280502319,0.0,0.0,0.0,0.5359460115432739,-2.935980796813965,6.70680570602417,-97.00728607177734,0
178.42000000000007,-7.994210318429396e-05,2.2803757019573823e-05,0.00018232468573842198,0.0,0.0,0.0,0.0,-0.0020227651111781597,-4.766512938658707e-05,-0.0013224650174379349,1.000085473060608,0.0,0.0,0.0,0.5347689986228943,-2.9345171451568604,6.692919731140137,-96.79425048828125,0
188.3109999999997,-0.00012266550038475543,3.538792225299403e-05,0.0001792498369468376,0.0,0.0,0.0,0.0,0.0031217560172080994,0.0008932974888011813,0.00035039964132010937,1.0004041194915771,0.0,0.0,0.0,0.5346100330352783,-2.932605266571045,6.698169231414795,-96.76547241210938,0
198.23499999999876,-0.00011841567174997181,6.925354682607576e-05,0.00010892862337641418,0.0,0.0,0.0,0.0,-4.611366966855712e-05,-0.004990836139768362,-0.00040610620635561645,0.9983089566230774,0.0,0.0,0.0,0.5343138575553894,-2.9282326698303223,6.690767288208008,-96.71186828613281,0
208.14400000000023,-5.396597771323286e-05,2.719856820476707e-05,0.00013100214709993452,0.0,0.0,0.0,0.0,0.0011173540260642767,0.0012458313722163439,0.0006151573616079986,0.998386025428772,0.0,0.0,0.0,0.5397229790687561,-2.936124801635742,6.716837406158447,-97.69092559814453,0
218.0550000000003,-7.392982661258429e-05,1.2322816473897547e-05,6.123424100223929e-05,0.0,0.0,0.0,0.0,-0.0009918921859934926,-7.427602668030886e-06,-0.0024370704777538776,1.001078486442566,0.0,0.0,0.0,0.5390775203704834,-2.9279537200927734,6.713801383972168,-97.57410430908203,0
227.95999999999913,-4.7880577767500654e-05,1.2019773748761509e-05,7.214041397674009e-05,0.0,0.0,0.0,0.0,0.0015005392488092184,-0.0019412906840443611,0.0054994444362819195,1.0010595321655273,0.0,0.0,0.0,0.529508650302887,-2.9271411895751953,6.7102508544921875,-95.84211730957031,0
237.8829999999998,-9.713562758406624e-05,-2.2591118977288716e-05,3.852114241453819e-05,0.0,0.0,0.0,0.0,0.0020506223663687706,0.0001607557205716148,0.003391612321138382,0.9997994303703308,0.0,0.0,0.0,0.529582142829895,-2.925070285797119,6.703786373138428,-95.85541534423828,0
247.78399999999965,-4.6947265218477696e-05,-2.8191027013235725e-05,6.122126069385558e-05,0.0,0.0,0.0,0.0,0.0003864784666802734,-0.002738567069172859,0.0017979830736294389,0.9971832036972046,0.0,0.0,0.0,0.5424069762229919,-2.9285123348236084,6.7111711502075195,-98.1767349243164,0
257.7079999999987,-2.648694317031186e-05,3.7694877391913906e-05,4.79373875350575e-06,0.0,0.0,0.0,0.0,0.0031371251679956913,0.0009925573831424117,0.0009199983323924243,0.9991536140441895,0.0,0.0,0.0,0.5425328612327576,-2.92789888381958,6.717015266418457,-98.19952392578125,0
267.6080000000002,-5.98683618591167e-05,5.01385802635923e-05,-8.065002475632355e-06,0.0,0.0,0.0,0.0,0.0036548126954585314,0.0011948173632845283,0.0001866072416305542,0.9994205832481384,0.0,0.0,0.0,0.5432249903678894,-2.927583932876587,6.706848621368408,-98.32479858398438,0
277.53399999999965,-5.433619298855774e-05,7.765545160509646e-05,-7.771106902509928e-05,0.0,0.0,0.0,0.0,-0.00038970651803538203,-0.0011459658853709698,-0.0006450742948800325,1.0003515481948853,0.0,0.0,0.0,0.542473316192627,-2.9294300079345703,6.701074123382568,-98.1887435913086,0
287.4319999999989,-7.275847747223452e-05,0.000123044170322828,-5.977219916530885e-05,0.0,0.0,0.0,0.0,0.000625621119979769,-0.002527969190850854,0.002113036811351776,0.9986147880554199,0.0,0.0,0.0,0.5433225631713867,-2.9309263229370117,6.699270725250244,-98.34245300292969,0
297.3629999999994,-9.368152677780017e-05,0.00015558779705315828,-9.183437941828743e-05,0.0,0.0,0.0,0.0,0.0026817144826054573,1.5819803593331017e-05,-0.0016658568056300282,0.9985612034797668,0.0,0.0,0.0,0.535711944103241,-2.923103094100952,6.70013952255249,-96.96492004394531,0
307.2559999999994,-4.356338831712492e-05,0.00012168262037448585,-9.74232898443006e-05,0.0,0.0,0.0,0.0,0.0014030669117346406,-0.0017795285675674677,-0.0015765511197969317,0.997460663318634,0.0,0.0,0.0,0.5460145473480225,-2.926161050796509,6.714611530303955,-98.82971954345703,0
317.1849999999995,-0.00011015807103831321,9.722175309434533e-05,-0.00010390137322247028,0.0,0.0,0.0,0.0,-0.0003780807019211352,-0.0029972295742481947,-0.00298143457621336,1.0022733211517334,0.0,0.0,0.0,0.5453216433525085,-2.9298784732818604,6.7196807861328125,-98.70429229736328,0
327.08100000000013,-3.3648841053945944e-05,7.69969483371824e-05,-8.408037683693692e-05,0.0,0.0,0.0,0.0,0.0025016111321747303,-0.004876221530139446,0.0004434404254425317,1.0010991096496582,0.0,0.0,0.0,0.5357854962348938,-2.935305595397949,6.720520973205566,-96.97823333740234,0
337.0010000000002,-0.0001327153731836006,4.103742685401812e-05,-4.150008680881001e-05,0.0,0.0,0.0,0.0,0.0032124491408467293,0.00446646474301815,0.002745646284893155,0.9990105032920837,0.0,0.0,0.0,0.5356246829032898,-2.934586763381958,6.7179856300354,-96.9491195678711,0
346.91200000000026,-0.00022304285084828734,5.757384133175947e-05,-6.085922723286785e-05,0.0,0.0,0.0,0.0,0.001418938278220594,-0.0014583520824089646,0.0016018389724195004,0.997140645980835,0.0,0.0,0.0,0.5357103943824768,-2.9391465187072754,6.71024751663208,-96.96464538574219,0
356.83100000000013,-0.0002287335373694077,9.663309901952744e-05,-2.0587800463545136e-05,0.0,0.0,0.0,0.0,0.0002809443976730108,-0.0007510147406719625,0.0026797147002071142,0.9992879033088684,0.0,0.0,0.0,0.5357103943824768,-2.9391465187072754,6.71024751663208,-96.96464538574219,0
366.741,-0.0002851668687071651,0.00010974298493238166,-2.9930479286122136e-05,0.0,0.0,0.0,0.0,-0.00046650777221657336,-0.0004543871618807316,-0.0030956133268773556,0.9998310804367065,0.0,0.0,0.0,0.5349521636962891,-2.9460668563842773,6.707658290863037,-96.82740783691406,0
376.65300000000025,-0.00033985445043072104,0.00014796247705817223,-2.0990328266634606e-05,0.0,0.0,0.0,0.0,0.0005201012245379388,-0.003809116082265973,-0.0019514146260917187,1.0014399290084839,0.0,0.0,0.0,0.5338767766952515,-2.938974142074585,6.707746982574463,-96.63276672363281,0
386.5550000000003,-0.0001032852815114893,-1.2677567610808183e-05,8.19344277260825e-05,0.0,0.0,0.0,0.0,0.0013394984416663647,0.00438839802518487,0.0021306800190359354,0.9986254572868347,0.0,0.0,0.0,0.5448629260063171,-2.979522228240967,6.77793550491333,-98.62127685546875,0
396.48099999999977,-0.00018457311671227217,-3.5034910979447886e-05,0.00013760467118117958,0.0,0.0,0.0,0.0,0.004623998887836933,-0.00017577903054188937,-0.0016912274295464158,0.9988301396369934,0.0,0.0,0.0,0.5436387658119202,-2.9757144451141357,6.770850658416748,-98.39970397949219,0
406.3829999999998,-8.292232814710587e-05,-0.0001031887368299067,0.00017938794917427003,0.0,0.0,0.0,0.0,0.0022614765912294388,-0.0028393843676894903,-0.0008176136179827154,0.9978294968605042,0.0,0.0,0.0,0.5533912777900696,-2.9981586933135986,6.788696765899658,-100.16492462158203,0
416.3079999999991,-9.628981933929026e-05,-3.116451989626512e-05,0.00020223988394718617,0.0,0.0,0.0,0.0,-0.0014847808051854372,0.0026040393859148026,0.0020782349165529013,0.9997833371162415,0.0,0.0,0.0,0.5519927144050598,-3.000389337539673,6.7825212478637695,-99.91178131103516,0
426.2079999999987,-0.00013800892338622361,-3.1294468499254435e-05,0.00020850500732194632,0.0,0.0,0.0,0.0,-0.0020630720537155867,-0.0039454493671655655,0.0012348187156021595,0.9987159371376038,0.0,0.0,0.0,0.5513538718223572,-3.001516819000244,6.7740373611450195,-99.796142578125,0
436.128999999999,-0.0001403503556502983,8.507930033374578e-05,0.00023831830185372382,0.0,0.0,0.0,0.0,0.00030787335708737373,-0.0006666268454864621,0.0008097555837593973,0.9994207620620728,0.0,0.0,0.0,0.5523356199264526,-2.9890687465667725,6.780137538909912,-99.97383880615234,0
446.02700000000004,-9.340669203083962e-05,1.3786172530672047e-05,0.00024180172476917505,0.0,0.0,0.0,0.0,0.0018001364078372717,-0.003964026924222708,-0.000903423351701349,0.9973928332328796,0.0,0.0,0.0,0.5614245533943176,-3.0024914741516113,6.793061256408691,-101.61894989013672,0
455.9459999999999,-0.000102386882645078,8.376818004762754e-05,0.00025551722501404583,0.0,0.0,0.0,0.0,-0.0015827477909624577,-0.005732554476708174,0.0042784204706549644,0.9994904398918152,0.0,0.0,0.0,0.5608582496643066,-2.9989423751831055,6.788193702697754,-101.5164566040039,0
465.85699999999997,-7.990388257894665e-05,2.9309174351510592e-05,0.0002489872567821294,0.0,0.0,0.0,0.0,-0.002829604549333453,0.0013721161521971226,-0.0010009006364271045,1.0016934871673584,0.0,0.0,0.0,0.5598174929618835,-2.9986627101898193,6.790668964385986,-101.32807159423828,0
505.5029999999988,-0.00014133831427898258,1.9413633708609268e-05,0.00027204304933547974,0.0,0.0,0.0,0.0,0.0013249943731352687,-0.004778352100402117,0.003538932651281357,1.0006535053253174,0.0,0.0,0.0,0.5523725152015686,-3.004317283630371,6.789511203765869,-99.98052215576172,0
515.4290000000001,-0.00018379604443907738,4.378294761409052e-05,0.00030709628481417894,0.0,0.0,0.0,0.0,-0.001821233774535358,0.00031898164888843894,0.001994228223338723,0.9997175335884094,0.0,0.0,0.0,0.5511448383331299,-3.004784107208252,6.785792827606201,-99.75831604003906,0
525.3289999999997,-0.0002235541760455817,4.365203858469613e-05,0.0003175702877342701,0.0,0.0,0.0,0.0,-0.0030727137345820665,-0.0032346490770578384,-0.0016512766014784575,0.9977484941482544,0.0,0.0,0.0,0.5510709881782532,-3.003908395767212,6.782435417175293,-99.74494934082031,0
535.2559999999994,-0.00024268700508400798,5.428828808362596e-05,0.0002948257315438241,0.0,0.0,0.0,0.0,-0.0007062590448185802,-0.0023125065490603447,0.0015711237210780382,0.9989791512489319,0.0,0.0,0.0,0.5511218309402466,-2.9991981983184814,6.784804821014404,-99.754150390625,0
545.1589999999997,-0.00012293923646211624,-6.0776437749154866e-05,0.0003357394889462739,0.0,0.0,0.0,0.0,0.0008602304151281714,-0.0005352466250769794,-0.0021523693576455116,1.0019837617874146,0.0,0.0,0.0,0.5402325987815857,-3.011482000350952,6.820077896118164,-97.78317260742188,0
555.0730000000003,-8.633903780719265e-05,1.5965173588483594e-05,0.0002911437477450818,0.0,0.0,0.0,0.0,-0.0013696713140234351,0.00123992667067796,0.0007976022316142917,1.0004955530166626,0.0,0.0,0.0,0.5396692752838135,-3.0083060264587402,6.814627170562744,-97.68120574951172,0
564.9889999999996,-6.341833068290725e-05,-2.9886494303354993e-05,0.00028494783327914774,0.0,0.0,0.0,0.0,0.0008448828011751175,0.0007120654918253422,0.00023559016699437052,0.9984703660011292,0.0,0.0,0.0,0.5322827100753784,-3.0143868923187256,6.818103790283203,-96.34423828125,0
574.8959999999988,-7.72380008129403e-06,4.4777731091016904e-05,0.00020517541270237416,0.0,0.0,0.0,0.0,0.0005052764317952096,-0.002726316684857011,-0.0034108224790543318,0.9982329607009888,0.0,0.0,0.0,0.5305148363113403,-3.010674238204956,6.815730094909668,-96.02424621582031,0
584.8119999999999,-3.150188422296196e-05,4.6678775106556714e-05,0.00020297976152505726,0.0,0.0,0.0,0.0,0.0006316673825494945,0.0011320351622998714,-0.004664206877350807,0.9986355304718018,0.0,0.0,0.0,0.5295519828796387,-3.0128695964813232,6.807046890258789,-95.84996032714844,0
594.7299999999996,-1.2882779628853314e-05,6.02784966758918e-05,0.0001291515800403431,0.0,0.0,0.0,0.0,0.0009938650764524937,0.002938806312158704,-0.0007243577274493873,0.9979192614555359,0.0,0.0,0.0,0.5280749201774597,-3.0150725841522217,6.796125411987305,-95.58260345458984,0
604.6299999999992,4.0643801185069606e-05,6.347743692458607e-06,0.0001278412964893505,0.0,0.0,0.0,0.0,0.0006438582786358893,0.0015050789806991816,-0.00047900486970320344,0.9969772696495056,0.0,0.0,0.0,0.5391640663146973,-3.0225982666015625,6.808863162994385,-97.58976745605469,0
614.5429999999997,5.352740845410153e-05,2.326411777175963e-05,4.847273157793097e-05,0.0,0.0,0.0,0.0,-0.00042941205902025104,-0.0030462101567536592,-0.004304968286305666,0.9991186857223511,0.0,0.0,0.0,0.5377418994903564,-3.018472671508789,6.799380779266357,-97.33235168457031,0
624.4549999999999,2.4266273612738587e-06,4.624703069566749e-05,3.0247005270211957e-05,0.0,0.0,0.0,0.0,0.0006416336400434375,0.001264545600861311,0.0023256137501448393,0.9980323910713196,0.0,0.0,0.0,0.5284469723701477,-3.010540723800659,6.794553279876709,-95.64996337890625,0
634.3709999999992,1.54896351887146e-05,5.9100533690070733e-05,-6.350647890940309e-05,0.0,0.0,0.0,0.0,-0.0006563679780811071,-0.0044342027977108955,0.0013543815584853292,1.0006346702575684,0.0,0.0,0.0,0.5272480249404907,-3.0062763690948486,6.796257495880127,-95.43293762207031,0
644.2780000000002,-8.73851263349934e-07,2.5549963538651355e-05,-0.00011354994057910517,0.0,0.0,0.0,0.0,-6.270818266784772e-05,0.0006503055919893086,0.000491742102894932,0.9994468688964844,0.0,0.0,0.0,0.538077712059021,-3.0087172985076904,6.792380332946777,-97.39314270019531,0
654.1919999999991,-2.45287264988292e-06,4.903196531813592e-05,-0.00017431515152566135,0.0,0.0,0.0,0.0,-0.001721830340102315,-0.0009503787150606513,-0.0021718237549066544,0.9987890720367432,0.0,0.0,0.0,0.5373095870018005,-3.0070371627807617,6.785911560058594,-97.25410461425781,0
664.116,-3.301851393189281e-05,4.939557402394712e-05,-0.0002049699251074344,0.0,0.0,0.0,0.0,-0.0012493268586695194,0.00212462292984128,-0.003798697842285037,1.0012505054473877,0.0,0.0,0.0,0.5360147953033447,-2.999607801437378,6.767969608306885,-97.01974487304688,0
674.009,-3.899844887200743e-05,6.54740069876425e-05,-0.0002687385131139308,0.0,0.0,0.0,0.0,-0.0009550554095767438,0.0003952851693611592,-0.002746416023001075,1.001611351966858,0.0,0.0,0.0,0.5358638167381287,-2.986140727996826,6.761972427368164,-96.9924087524414,0
683.9309999999987,-7.047265535220504e-05,6.913744437042624e-05,-0.00030195494764484465,0.0,0.0,0.0,0.0,0.0002942430437542498,-0.0019953446462750435,0.0020320008043199778,1.0002398490905762,0.0,0.0,0.0,0.5354132652282715,-2.980468988418579,6.759670257568359,-96.9108657836914,0
693.8320000000003,-0.00010290227510267869,9.663247328717262e-05,-0.0003153319121338427,0.0,0.0,0.0,0.0,0.003726077964529395,-0.0045418101362884045,-0.00289866398088634,1.0012189149856567,0.0,0.0,0.0,0.5354047417640686,-2.9783565998077393,6.7457685470581055,-96.90931701660156,0
703.7510000000002,-0.000136462040245533,9.95375812635757e-05,-0.00034436260466463864,0.0,0.0,0.0,0.0,0.0006864398601464927,0.0035809162072837353,-0.00025309406919404864,0.9984040260314941,0.0,0.0,0.0,0.5345197916030884,-2.9771955013275146,6.7432684898376465,-96.7491455078125,0
713.6620000000003,-0.00017979953554458916,0.00010834601562237367,-0.0003550170222297311,0.0,0.0,0.0,0.0,0.00014047771401237696,-0.001180973369628191,-0.00012815531226806343,1.0015370845794678,0.0,0.0,0.0,0.5332283973693848,-2.981523275375366,6.748371124267578,-96.5154037475586,0
723.5839999999989,-0.00021843664580956101,0.00011157312110299245,-0.0003822013968601823,0.0,0.0,0.0,0.0,-0.000645872438326478,-0.0010805983329191804,0.0019274979131296277,1.0002363920211792,0.0,0.0,0.0,0.5326510071754456,-2.976703643798828,6.742635250091553,-96.41089630126953,0
733.4839999999986,-0.0003035099362023175,0.00014637062849942595,-0.0003074252454098314,0.0,0.0,0.0,0.0,0.003067311830818653,0.0023483512923121452,0.003589649684727192,0.9991728663444519,0.0,0.0,0.0,0.532196581363678,-2.9746384620666504,6.741082668304443,-96.3286361694336,0
743.4110000000001,-0.0003528268716763705,0.00015318430087063462,-0.0003250006993766874,0.0,0.0,0.0,0.0,0.00038127321749925613,0.0010048606200143695,0.00019261286070104688,0.9986722469329834,0.0,0.0,0.0,0.5326219797134399,-2.9756736755371094,6.728471279144287,-96.4056396484375,0
753.3099999999995,-0.00046559449401684105,0.0001624456635909155,-0.0002448742452543229,0.0,0.0,0.0,0.0,-0.0029250546358525753,-0.00290878489613533,0.0022394200786948204,1.0012456178665161,0.0,0.0,0.0,0.5319321155548096,-2.96695613861084,6.721436500549316,-96.28076171875,0
763.232,-0.0005273420829325914,0.00016785641491878778,-0.00025559161440469325,0.0,0.0,0.0,0.0,0.0008033886551856995,-0.0016033471329137683,-0.0014904787531122565,0.9989247918128967,0.0,0.0,0.0,0.5314913988113403,-2.9663615226745605,6.708942413330078,-96.20100402832031,0
773.128999999999,-0.0006426118779927492,0.00020871373999398202,-0.00016184683772735298,0.0,0.0,0.0,0.0,0.0013561476953327656,0.0028956581372767687,-0.001354580163024366,1.0014630556106567,0.0,0.0,0.0,0.5310201644897461,-2.9640414714813232,6.70692777633667,-96.1156997680664,0
783.0479999999989,-0.0007140982779674232,0.00021573880803771317,-0.00016417703591287136,0.0,0.0,0.0,0.0,0.000998600502498448,0.00035227241460233927,0.0006313245394267142,1.002004861831665,0.0,0.0,0.0,0.5307732224464417,-2.9650626182556152,6.704641819000244,-96.07100677490234,0
792.9529999999995,-0.0007647937163710594,0.0002787881239783019,-0.00016187396249733865,0.0,0.0,0.0,0.0,-0.003953860606998205,0.0019042519852519035,-0.0028475397266447544,0.9984323382377625,0.0,0.0,0.0,0.5297502279281616,-2.967238187789917,6.691187858581543,-95.88584899902344,0
802.8799999999992,-0.000837427971418947,0.00028830382507294416,-0.00016157279605977237,0.0,0.0,0.0,0.0,0.001158753177151084,-0.0013688347535207868,-0.0029446722473949194,0.9992461800575256,0.0,0.0,0.0,0.5293077826499939,-2.9612836837768555,6.6854352951049805,-95.8057632446289,0
812.7849999999999,-0.000863788416609168,0.00034761097049340606,-0.0001875584857771173,0.0,0.0,0.0,0.0,0.0012880336726084352,-0.0016135871410369873,0.0014752924907952547,1.0003560781478882,0.0,0.0,0.0,0.5281895995140076,-2.9589600563049316,6.680627822875977,-95.60336303710938,0
822.7009999999991,-0.0009362797136418521,0.00036293722223490477,-0.00019016129954252392,0.0,0.0,0.0,0.0,-0.0015473486855626106,-0.001576378708705306,0.00035622171708382666,0.9999500513076782,0.0,0.0,0.0,0.5276619791984558,-2.9590811729431152,6.685898780822754,-95.50785827636719,0
832.607,-0.0009609985863789916,0.0004209120525047183,-0.00022339531278703362,0.0,0.0,0.0,0.0,0.0003058438887819648,-0.00504310941323638,0.0007647314923815429,0.9975805282592773,0.0,0.0,0.0,0.5259984135627747,-2.958784818649292,6.6800665855407715,-95.2067642211914,0
842.5349999999999,-0.0010346418712288141,0.0004414543218445033,-0.0002284953516209498,0.0,0.0,0.0,0.0,0.002148086903616786,-0.0003906738420482725,0.005246975924819708,0.9982699155807495,0.0,0.0,0.0,0.5260026454925537,-2.9514007568359375,6.686872482299805,-95.20752716064453,0
852.4249999999993,-0.0010013094870373607,0.0005722860805690289,-0.0002781544462777674,0.0,0.0,0.0,0.0,-0.0008012217003852129,-0.0034869990777224302,0.001075717038474977,0.9995052814483643,0.0,0.0,0.0,0.5175822377204895,-2.9016895294189453,6.7248358726501465,-93.68341827392578,0
862.3599999999988,-0.001071602338925004,0.0006019291467964649,-0.0002900978724937886,0.0,0.0,0.0,0.0,-0.002245259005576372,-4.505128163145855e-05,-0.0018737460486590862,0.9994926452636719,0.0,0.0,0.0,0.5166857242584229,-2.899078845977783,6.728487491607666,-93.5211410522461,0
872.25,-0.0010742245940491557,0.0006458716234192252,-0.0003729943709913641,0.0,0.0,0.0,0.0,0.0007893876754678786,0.0037911469116806984,0.0024463061708956957,0.9988998174667358,0.0,0.0,0.0,0.510909378528595,-2.8872456550598145,6.749270915985107,-92.47561645507812,0
882.1739999999991,-0.0011419715592637658,0.0006771814660169184,-0.00039060215931385756,0.0,0.0,0.0,0.0,-0.001246235566213727,0.0001714169920887798,0.0009097529109567404,1.0007048845291138,0.0,0.0,0.0,0.5114827156066895,-2.883416175842285,6.731832504272461,-92.57938385009766,0
892.0820000000003,-0.001184240449219942,0.0007025125087238848,-0.0004502537485677749,0.0,0.0,0.0,0.0,-0.000770519720390439,-0.0028240331448614597,0.0006584731163457036,0.9997887015342712,0.0,0.0,0.0,0.5115099549293518,-2.875192165374756,6.726993083953857,-92.58432006835938,0
901.9959999999992,-0.0012510719243437052,0.0007365862838923931,-0.00047042861115187407,0.0,0.0,0.0,0.0,-0.000977128860540688,-0.0016054502921178937,-0.002465240890160203,0.9994933009147644,0.0,0.0,0.0,0.5116095542907715,-2.8771121501922607,6.708486557006836,-92.60234832763672,0
911.9009999999998,-0.0013187469448894262,0.0007712326478213072,-0.0004904452944174409,0.0,0.0,0.0,0.0,-0.0006828791229054332,0.0017147451872006059,0.0033282788936048746,1.000174641609192,0.0,0.0,0.0,0.5107873678207397,-2.875549554824829,6.702279090881348,-92.45353698730469,0
921.8149999999987,-0.0013885090593248606,0.0008052760385908186,-0.0005102249560877681,0.0,0.0,0.0,0.0,0.0015450010541826487,-0.0001516831252956763,0.0008267026860266924,0.9991474747657776,0.0,0.0,0.0,0.5111111402511597,-2.8748831748962402,6.697744369506836,-92.51213073730469,0
931.7240000000002,-0.001461012288928032,0.0008384484681300819,-0.0005300258635543287,0.0,0.0,0.0,0.0,-0.0006305924034677446,0.0011830419534817338,0.0028741476126015186,0.9986333250999451,0.0,0.0,0.0,0.5112125873565674,-2.8641469478607178,6.691508769989014,-92.5304946899414,0
941.6449999999986,-0.00013541843509301543,1.8964443370350637e-05,0.00044493997120298445,0.0,0.0,0.0,0.0,-0.0023786642123013735,0.002077314769849181,0.005125503055751324,0.9979611039161682,0.0,0.0,0.0,0.5012633204460144,-3.004716157913208,6.887450695037842,-90.72965240478516,0
951.5540000000001,-0.00015599364996887743,1.6810141460155137e-05,0.0004526408447418362,0.0,0.0,0.0,0.0,0.0008607733761891723,-0.0024136947467923164,0.0009428014163859189,0.9979875683784485,0.0,0.0,0.0,0.5019945502281189,-3.002204179763794,6.884699821472168,-90.86202239990234,0
961.4619999999995,-0.00013353826943784952,-4.662237552111037e-05,0.0004019377811346203,0.0,0.0,0.0,0.0,0.002841625828295946,0.000739347015041858,0.00026796269230544567,0.9993801712989807,0.0,0.0,0.0,0.5091241598129272,-3.0196707248687744,6.882142066955566,-92.1524887084961,0
971.3709999999992,-0.0001585459685884416,-5.297981624607928e-05,0.0004028172406833619,0.0,0.0,0.0,0.0,0.00028077748720534146,-0.0031231138855218887,-0.005073085892945528,1.000760793685913,0.0,0.0,0.0,0.5098133683204651,-3.01423716545105,6.876624584197998,-92.2772445678711,0
981.2879999999986,-0.0001860658812802285,-5.953529762336984e-05,0.0004033077566418797,0.0,0.0,0.0,0.0,0.004033511970192194,-0.0033121153246611357,-0.0011789585696533322,1.0015875101089478,0.0,0.0,0.0,0.5092865228652954,-3.014237403869629,6.8665361404418945,-92.18187713623047,0
991.1970000000001,-0.000215199266676791,-6.593576108571142e-05,0.0004045612004119903,0.0,0.0,0.0,0.0,-0.0015185625525191426,-0.0008107192697934806,-0.004342356696724892,0.9991768002510071,0.0,0.0,0.0,0.5096535086631775,-3.0122697353363037,6.868380069732666,-92.24829864501953,0
1001.1119999999992,-0.00018386058218311518,-0.00012294058979023248,0.00036714234738610685,0.0,0.0,0.0,0.0,-5.065476943855174e-05,0.0002128692140104249,-0.0008947465685196221,0.9995685815811157,0.0,0.0,0.0,0.5245336294174194,-3.034329414367676,6.882805347442627,-94.94163513183594,0
1011.021999999999,-0.00021360814571380615,-0.00013287068577483296,0.0003670367004815489,0.0,0.0,0.0,0.0,-0.0007128338329494,-0.006981317885220051,-0.0008503019926138222,0.9992075562477112,0.0,0.0,0.0,0.5239225029945374,-3.0253102779388428,6.879556179046631,-94.83100891113281,0
1020.9329999999991,-0.00021280444343574345,-0.00016483025683555752,0.0003500874445308,0.0,0.0,0.0,0.0,0.0034720920957624912,0.0020246843341737986,-0.00261769350618124,1.0007044076919556,0.0,0.0,0.0,0.5334508419036865,-3.030442476272583,6.889347076416016,-96.5556640625,0
1030.8449999999993,-0.000244588969508186,-0.00017693340487312526,0.0003486124041955918,0.0,0.0,0.0,0.0,0.0010729010682553053,0.0017720500472933054,-0.00032302935142070055,0.9980730414390564,0.0,0.0,0.0,0.5324368476867676,-3.030027151107788,6.8748250007629395,-96.37213134765625,0
1040.7649999999994,-0.00019981159130111337,-0.0001933247403940186,0.0003710330056492239,0.0,0.0,0.0,0.0,0.0022502338979393244,0.00609248923137784,-0.0008625696646049619,0.9987702369689941,0.0,0.0,0.0,0.5452969670295715,-3.039034128189087,6.887524604797363,-98.69983673095703,0
1050.6679999999997,-0.00023037973733153194,-0.00020558924006763846,0.00037072887062095106,0.0,0.0,0.0,0.0,-0.002516997279599309,-0.003760335734114051,0.001290127169340849,0.9995492100715637,0.0,0.0,0.0,0.5441272258758545,-3.0448191165924072,6.876782417297363,-98.48811340332031,0
1060.583999999999,-0.00020579248666763306,-0.00022508219990413636,0.00038580934051424265,0.0,0.0,0.0,0.0,-0.0020906010176986456,-0.004196174908429384,0.001796299940906465,0.9991044402122498,0.0,0.0,0.0,0.5573096871376038,-3.053189516067505,6.8826751708984375,-100.87415313720703,0
1070.4979999999996,-0.0002351795556023717,-0.00024011757341213524,0.0003852688823826611,0.0,0.0,0.0,0.0,0.0010455044684931636,-0.004873950965702534,-0.003467528847977519,0.9995128512382507,0.0,0.0,0.0,0.5583863854408264,-3.0509543418884277,6.883141994476318,-101.06904602050781,0
1080.4169999999995,-0.00026488685398362577,-0.00025564624229446054,0.00038426590617746115,0.0,0.0,0.0,0.0,0.0016816012794151902,0.002941286889836192,-0.0011117217363789678,0.9996851086616516,0.0,0.0,0.0,0.5568503737449646,-3.0476973056793213,6.88091516494751,-100.79102325439453,0
1090.3220000000001,-0.00029546587029471993,-0.000270232034381479,0.00038274587132036686,0.0,0.0,0.0,0.0,-0.0003369079786352813,-0.0042164684273302555,0.00023609654454048723,0.9989926218986511,0.0,0.0,0.0,0.5563639402389526,-3.0479071140289307,6.882102012634277,-100.70297241210938,0
1100.2339999999986,-0.00032760718022473156,-0.00028354671667329967,0.00038104242412373424,0.0,0.0,0.0,0.0,-0.0012657924089580774,0.0008813347085379064,-0.003322878386825323,0.9995461106300354,0.0,0.0,0.0,0.5556780099868774,-3.0448336601257324,6.8777031898498535,-100.57882690429688,0
1110.1440000000002,-0.00036154885310679674,-0.0002972600923385471,0.0003793519572354853,0.0,0.0,0.0,0.0,0.00037220929516479373,-0.00023463489196728915,-0.002245138632133603,0.9991071820259094,0.0,0.0,0.0,0.5557872653007507,-3.0360300540924072,6.879082679748535,-100.59860229492188,0
1120.0649999999987,-0.0002891745534725487,-0.00031197784119285643,0.00043917857692576945,0.0,0.0,0.0,0.0,-0.0022421248722821474,-0.0016073944279924035,0.0023261727765202522,0.998206377029419,0.0,0.0,0.0,0.5482304692268372,-3.0343613624572754,6.919162273406982,-99.2308120727539,0
1129.9669999999987,-0.0002643698244355619,-0.00032280871528200805,0.00048269768012687564,0.0,0.0,0.0,0.0,0.0038594971410930157,0.002507222583517432,-0.00034269894240424037,0.998923122882843,0.0,0.0,0.0,0.5376748442649841,-3.02622127532959,6.937471389770508,-97.3202133178711,0
1139.8779999999988,-0.000287596951238811,-0.00034009211231023073,0.00048684905050322413,0.0,0.0,0.0,0.0,0.0011413447791710496,0.00237836129963398,-0.0011931443586945534,1.0001776218414307,0.0,0.0,0.0,0.536766529083252,-3.026994466781616,6.926432132720947,-97.15580749511719,0
1149.7909999999993,-0.00018355148495174944,-6.91456298227422e-05,0.00013867933012079448,0.0,0.0,0.0,0.0,0.002177332527935505,-0.00023614949896000326,0.0017021297244355083,1.000672459602356,0.0,0.0,0.0,0.5337414145469666,-2.976706027984619,6.946822166442871,-96.6082534790039,0
1159.7079999999987,-0.00012368187890388072,6.580451008630916e-05,4.6451885282294825e-05,0.0,0.0,0.0,0.0,0.0016350394580513239,-0.0028153604362159967,0.001486559514887631,1.000321865081787,0.0,0.0,0.0,0.5329577922821045,-2.9712729454040527,6.93720817565918,-96.46642303466797,0
1169.6149999999998,-1.3339435099624097e-05,2.010877778957365e-06,7.945149263832718e-05,0.0,0.0,0.0,0.0,-0.0012990835821256042,0.0019518350018188357,-0.0018623099895194173,0.9992520809173584,0.0,0.0,0.0,0.545401394367218,-2.9777557849884033,6.964358806610107,-98.71873474121094,0
1179.530999999999,-4.8321820941055194e-05,1.1992581676167902e-05,0.00014183884195517749,0.0,0.0,0.0,0.0,-0.0028936362359672785,-0.0033220502082258463,0.0011697235750034451,1.0007668733596802,0.0,0.0,0.0,0.5440306663513184,-2.978599786758423,6.958250999450684,-98.47063446044922,0
1189.4390000000003,-6.321396540442947e-06,-2.5158464268315583e-05,0.00013469302211888134,0.0,0.0,0.0,0.0,0.0008495108922943473,-0.0013062393991276622,8.726349187782034e-05,1.0009058713912964,0.0,0.0,0.0,0.5532557368278503,-2.982130527496338,6.961275100708008,-100.14039611816406,0
1199.3539999999994,-3.515527714625932e-05,-3.7330403301893966e-06,0.0001819510362111032,0.0,0.0,0.0,0.0,0.0015529247466474771,0.0019177921349182725,-0.002312402008101344,1.0005736351013184,0.0,0.0,0.0,0.5526934266090393,-2.977752447128296,6.953253746032715,-100.03861236572266,0
1209.262999999999,-2.333335214643739e-05,-1.366438482364174e-05,0.00018448301125317812,0.0,0.0,0.0,0.0,-0.002056049881502986,-0.004856014158576727,0.0045801992528140545,1.0006731748580933,0.0,0.0,0.0,0.5426340699195862,-2.9724843502044678,6.953159809112549,-98.21784210205078,0
1219.1759999999995,-7.171317702159286e-05,-3.045355754238699e-07,0.00025834570988081396,0.0,0.0,0.0,0.0,0.0008947293390519917,-0.0028245244175195694,0.00031599256908521056,0.9994863867759705,0.0,0.0,0.0,0.5424681305885315,-2.963890552520752,6.949711322784424,-98.18780517578125,0
1229.0879999999997,-8.797682676231489e-05,-4.17340061176219e-07,0.0002667662047315389,0.0,0.0,0.0,0.0,0.0006930915405973792,-0.0023441477678716183,-0.0027271800208836794,0.9983585476875305,0.0,0.0,0.0,0.54204261302948,-2.9599721431732178,6.950510501861572,-98.11079406738281,0
1239.0049999999992,-0.00012265991244930774,1.0430619113321882e-05,0.0003182200307492167,0.0,0.0,0.0,0.0,-0.0037697614170610905,-9.830049384618178e-05,-0.0006985118379816413,0.9989932775497437,0.0,0.0,0.0,0.542298436164856,-2.958812952041626,6.951437950134277,-98.15709686279297,0
1248.9179999999997,-6.607874820474535e-05,-7.494486635550857e-05,0.00030407524900510907,0.0,0.0,0.0,0.0,-0.000542418856639415,-0.0006181985954754055,0.0013449921971186996,0.9990419149398804,0.0,0.0,0.0,0.5520572662353516,-2.968108892440796,6.955118179321289,-99.92346954345703,0
1258.8279999999995,-5.4521333368029445e-05,-4.830682883039117e-06,0.00032063384423963726,0.0,0.0,0.0,0.0,-0.003067813813686371,0.0024748793803155422,0.004345330409705639,0.9999988675117493,0.0,0.0,0.0,0.5514238476753235,-2.9531784057617188,6.944316387176514,-99.8088150024414,0
1268.7379999999994,-2.9623915906995535e-05,-6.67413478367962e-05,0.0002975677198264748,0.0,0.0,0.0,0.0,0.002133929869160056,-0.0031541127245873213,0.001443046610802412,1.000699520111084,0.0,0.0,0.0,0.5616057515144348,-2.9592299461364746,6.944040298461914,-101.6517562866211,0
1278.652,-2.7568981749936938e-05,-1.475984481658088e-05,0.0003127187374047935,0.0,0.0,0.0,0.0,-5.312173379934393e-05,-0.0015481567243114114,-0.0003961961774621159,0.9986048936843872,0.0,0.0,0.0,0.5611941814422607,-2.950197458267212,6.947231292724609,-101.57726287841797,0
1288.5679999999993,-8.01875939941965e-05,-4.04552229156252e-05,0.00027445764862932265,0.0,0.0,0.0,0.0,-0.0006526478100568056,-0.0052336836233735085,0.0007349334191530943,0.9970608353614807,0.0,0.0,0.0,0.5684570074081421,-2.9573473930358887,6.948741912841797,-102.891845703125,0
1298.4719999999998,-7.379827002296224e-05,1.5950250599416904e-05,0.00027697713812813163,0.0,0.0,0.0,0.0,-0.0004739125433843583,-0.002731666434556246,-0.0004302328161429614,0.9972167015075684,0.0,0.0,0.0,0.5680580735206604,-2.952463388442993,6.9453582763671875,-102.81964111328125,0
1308.387999999999,-9.231735748471692e-05,1.756145320541691e-05,0.0002776543260551989,0.0,0.0,0.0,0.0,-0.002873291727155447,0.004592683166265488,-0.003829484572634101,0.9975711107254028,0.0,0.0,0.0,0.567342221736908,-2.946671724319458,6.9499664306640625,-102.69007873535156,0
1318.2969999999987,-0.00010785308404592797,1.1480846296763048e-05,0.0002684977080207318,0.0,0.0,0.0,0.0,-0.002108233980834484,-0.0016322965966537595,-0.004450713749974966,0.9992127418518066,0.0,0.0,0.0,0.5664130449295044,-2.9473023414611816,6.950207233428955,-102.52188110351562,0
1328.214,-9.919192234519869e-05,-1.8795180949382484e-05,0.000252230471232906,0.0,0.0,0.0,0.0,0.001285101636312902,0.001051048282533884,0.00010299563291482627,1.0001838207244873,0.0,0.0,0.0,0.5707083940505981,-2.9480087757110596,6.942253589630127,-103.29935455322266,0
1338.1209999999992,-9.301946556661278e-05,1.6154675904545e-05,0.00019226211588829756,0.0,0.0,0.0,0.0,0.0015767125878483057,-7.973182073328644e-05,-6.136140291346237e-05,1.000089168548584,0.0,0.0,0.0,0.5603427886962891,-2.9320030212402344,6.950212001800537,-101.42316436767578,0
1348.0370000000003,-1.686891664576251e-05,-3.523280975059606e-05,0.00019155630434397608,0.0,0.0,0.0,0.0,0.0009625208913348615,-0.0063550774939358234,0.002144205616787076,0.9968261122703552,0.0,0.0,0.0,0.5682023763656616,-2.941842794418335,6.959528923034668,-102.84576416015625,0
1357.946,4.7089244617382064e-05,4.716305193142034e-05,6.41232545603998e-05,0.0,0.0,0.0,0.0,-0.0022894060239195824,-0.0024723317474126816,0.003441761014983058,0.9998250007629395,0.0,0.0,0.0,0.5688470602035522,-2.9293432235717773,6.970451831817627,-102.96245574951172,0
1367.8629999999994,-7.415405434585409e-06,6.123167258920148e-05,4.101769081898965e-05,0.0,0.0,0.0,0.0,0.004629064351320267,-0.0004176488146185875,-0.0032870941795408726,0.9991724491119385,0.0,0.0,0.0,0.5688470602035522,-2.9293432235717773,6.970451831817627,-102.96245574951172,0
1377.7699999999986,2.6628142222762108e-05,0.00010294708044966683,-4.2455856601009145e-05,0.0,0.0,0.0,0.0,-0.0008020589593797922,0.0013128271093592048,0.00021059662685729563,0.9966018795967102,0.0,0.0,0.0,0.5687636733055115,-2.930777072906494,6.966155529022217,-102.94735717773438,0
1387.691999999999,1.3281532119435724e-05,0.00010689959890441969,-7.080924115143716e-05,0.0,0.0,0.0,0.0,-4.4536882342072204e-05,0.002467927522957325,0.001497794990427792,0.9985185265541077,0.0,0.0,0.0,0.5674048662185669,-2.931293487548828,6.962283134460449,-102.70140838623047,0
1397.5990000000002,2.4368542653974146e-05,0.00014133172226138413,-0.00011992427607765421,0.0,0.0,0.0,0.0,-0.0010584949050098658,-0.0013418322196230292,0.0032276299316436052,1.0006769895553589,0.0,0.0,0.0,0.5671481490135193,-2.9315025806427,6.94819974899292,-102.65494537353516,0
1407.509,7.36242946004495e-05,0.00010630460747051984,-0.0001476800098316744,0.0,0.0,0.0,0.0,-0.0007570396410301328,0.0004023679066449404,-0.003451477736234665,1.0000337362289429,0.0,0.0,0.0,0.5779291987419128,-2.935305595397949,6.953890323638916,-104.6063461303711,0
1417.4210000000003,1.6139007129822858e-05,1.9992136003565975e-05,-0.00018497194105293602,0.0,0.0,0.0,0.0,0.0011765214148908854,0.0048470934852957726,-0.002862944733351469,0.9988187551498413,0.0,0.0,0.0,0.577087938785553,-2.927281379699707,6.942072868347168,-104.45405578613281,0
1427.3369999999995,3.566907980712131e-05,1.3208484233473428e-05,-0.000201777700567618,0.0,0.0,0.0,0.0,0.0007185136200860143,0.0013266924070194364,-0.0009952234104275703,0.9998875856399536,0.0,0.0,0.0,0.5672592520713806,-2.920356035232544,6.942134857177734,-102.67505645751953,0
1437.2429999999986,-6.692579290756839e-07,-1.0360157830291428e-05,-0.00022093819279689342,0.0,0.0,0.0,0.0,0.0015188739635050297,-0.006402701139450073,0.0017451564781367779,0.9984843134880066,0.0,0.0,0.0,0.5661296248435974,-2.916637420654297,6.939877986907959,-102.4705810546875,0
1447.1599999999999,2.9295051717781462e-05,5.027839051763294e-06,-0.00020971220510546118,0.0,0.0,0.0,0.0,0.0025134680327028036,0.0010028474498540163,0.0011278182500973344,0.9988446235656738,0.0,0.0,0.0,0.5756679177284241,-2.9132659435272217,6.936501502990723,-104.1970443725586,0
1457.0689999999995,1.3757825172433513e-06,-3.951902726839762e-06,-0.0002305589005118236,0.0,0.0,0.0,0.0,0.00034023725311271846,-0.001985330367460847,0.0033373022451996803,0.9989445209503174,0.0,0.0,0.0,0.5758799314498901,-2.9145355224609375,6.9366068840026855,-104.23540496826172,0
1466.9789999999994,-1.955329571501352e-05,-1.051077833835734e-05,-0.0002600446459837258,0.0,0.0,0.0,0.0,-0.0024416211526840925,-0.0016702802386134863,0.003507064189761877,0.9999773502349854,0.0,0.0,0.0,0.5753081440925598,-2.9093644618988037,6.932816982269287,-104.13191986083984,0
1476.8919999999998,-6.728148582624272e-05,-1.8242835722048767e-05,-0.0002456328074913472,0.0,0.0,0.0,0.0,0.0005426174611784518,0.0003625860845204443,-0.0038157179951667786,0.9969020485877991,0.0,0.0,0.0,0.569685697555542,-2.9069480895996094,6.921713352203369,-103.11424255371094,0
1486.804,-4.173827983322553e-05,1.581922515470069e-05,-0.00019674845680128783,0.0,0.0,0.0,0.0,0.0006096080178394914,-0.0016856463626027107,-0.0011278598103672266,0.9980811476707458,0.0,0.0,0.0,0.5605626106262207,-2.8913466930389404,6.923108100891113,-101.46294403076172,0
1496.7160000000003,-8.544633601559326e-05,5.40274550075992e-06,-0.00019081337086390704,0.0,0.0,0.0,0.0,-0.00042787089478224516,-0.001078134635463357,-0.0013140894006937742,1.000196099281311,0.0,0.0,0.0,0.5535856485366821,-2.886561870574951,6.9140305519104,-100.20010375976562,0
1506.6329999999998,-2.7150677851750515e-05,1.722700835671276e-05,-0.00014455191558226943,0.0,0.0,0.0,0.0,0.0004238928377162665,0.0007384674972854555,-0.002693543443456292,0.9998458027839661,0.0,0.0,0.0,0.5583811402320862,-2.881333351135254,6.921559810638428,-101.0680923461914,0
1516.5409999999993,-8.39104104670696e-05,-1.0277319233864546e-05,-0.00013205660798121244,0.0,0.0,0.0,0.0,0.002358648693189025,0.0028288729954510927,0.0010026611853390932,0.9987410306930542,0.0,0.0,0.0,0.5584385395050049,-2.873657464981079,6.917420864105225,-101.0784912109375,0
1526.4539999999997,-8.37972984299995e-05,3.5830266824632417e-06,-0.00011565366730792448,0.0,0.0,0.0,0.0,0.00268895598128438,0.000921660044696182,-0.0002552517398726195,0.996429979801178,0.0,0.0,0.0,0.5633655190467834,-2.874368906021118,6.913785457611084,-101.97028350830078,0
1536.3719999999994,-0.00010138096695300192,4.646958041121252e-05,-0.00011435619671829045,0.0,0.0,0.0,0.0,0.0031520796474069357,0.006624494679272175,-0.00032836987520568073,0.9976509213447571,0.0,0.0,0.0,0.5625020265579224,-2.8731465339660645,6.899938583374023,-101.8139877319336,0
1546.2829999999994,-0.0001334469998255372,4.129844091949053e-05,-0.00012889961362816393,0.0,0.0,0.0,0.0,0.0010672634234651923,0.0020738637540489435,0.0026335185393691063,0.9995362162590027,0.0,0.0,0.0,0.5622692704200745,-2.8689112663269043,6.884571075439453,-101.7718505859375,0
1556.1929999999993,-0.00020389436394907534,1.234080355061451e-05,-9.747379226610065e-05,0.0,0.0,0.0,0.0,-0.002890543080866337,-0.002049860544502735,0.001557815121486783,0.9989036321640015,0.0,0.0,0.0,0.5625525712966919,-2.879523277282715,6.871410369873047,-101.82312774658203,0
1566.1089999999986,-0.00023865637194830924,7.455431841663085e-06,-0.0001114055048674345,0.0,0.0,0.0,0.0,0.002478125737980008,0.004127075430005789,0.0011666723294183612,0.9984918236732483,0.0,0.0,0.0,0.5622555613517761,-2.8779406547546387,6.859854221343994,-101.76937866210938,0
1576.012999999999,-0.0002746339305303991,4.504620847001206e-06,-0.00012587715173140168,0.0,0.0,0.0,0.0,-0.0013275491073727608,0.0007616683142259717,-0.0017546435119584203,0.9990512132644653,0.0,0.0,0.0,0.562200129032135,-2.869234085083008,6.84859037399292,-101.75933074951172,0
1585.938,-9.100582246901467e-05,-8.1495258200448e-05,-3.477884820313193e-05,0.0,0.0,0.0,0.0,-0.0015514447586610913,0.0017395586473867297,0.002117261989042163,1.000353217124939,0.0,0.0,0.0,0.5712825655937195,-2.8938233852386475,6.899496078491211,-103.40328216552734,0
1595.8400000000001,-0.000112286361400038,-2.9367258321144618e-05,1.8880231436924078e-05,0.0,0.0,0.0,0.0,-0.0014289261307567358,0.000844757363665849,0.0033475852105766535,1.000515103340149,0.0,0.0,0.0,0.5695684552192688,-2.8850104808807373,6.891096115112305,-103.093017578125,0
1605.759,-7.657738751731813e-05,-2.3644026441616006e-05,5.4628697398584336e-05,0.0,0.0,0.0,0.0,-0.001336233108304441,-0.003019740106537938,0.001315997214987874,1.0002093315124512,0.0,0.0,0.0,0.5617569088935852,-2.8782761096954346,6.891477108001709,-101.67912292480469,0
1615.664999999999,-0.00010487271356396377,2.16186872421531e-05,0.00010591433238005266,0.0,0.0,0.0,0.0,0.0004859976179432124,-0.0025069299153983593,-0.0008037516381591558,0.9987855553627014,0.0,0.0,0.0,0.5619345903396606,-2.8767948150634766,6.887333393096924,-101.71127319335938,0
1625.5939999999991,-0.00012991140829399228,2.5648223527241498e-05,0.00010925690730800852,0.0,0.0,0.0,0.0,-0.002131568966433406,-0.002950782421976328,0.0048307268880307674,0.999226450920105,0.0,0.0,0.0,0.5611492395401001,-2.8689446449279785,6.890140056610107,-101.56912994384766,0
1635.4879999999994,-0.0001526954583823681,7.902595098130405e-05,0.00015135275316424668,0.0,0.0,0.0,0.0,0.0006444305181503296,-0.005749632604420185,0.002320570172742009,0.9992772936820984,0.0,0.0,0.0,0.5602878928184509,-2.8688137531280518,6.885523319244385,-101.41321563720703,0
1645.4079999999994,-0.00017888081492856145,8.498907118337229e-05,0.00015637799515388906,0.0,0.0,0.0,0.0,0.0027593851555138826,-0.00010512357403058559,-0.004893154837191105,0.9994758367538452,0.0,0.0,0.0,0.5603213906288147,-2.8682165145874023,6.883082389831543,-101.4192886352539,0
1655.3189999999995,-0.000234406630625017,0.0001265981118194759,0.00019337500270921737,0.0,0.0,0.0,0.0,0.0002188471844419837,-0.0037053555715829134,0.0011174227111041546,1.0009504556655884,0.0,0.0,0.0,0.5583046078681946,-2.865172863006592,6.875816822052002,-101.05424499511719,0
1665.235999999999,-8.48078852868639e-05,2.0740433683386073e-05,0.0002292943827342242,0.0,0.0,0.0,0.0,0.0015128133818507195,0.0018620240734890103,-0.0005990052595734596,1.0016765594482422,0.0,0.0,0.0,0.5501719117164612,-2.890284299850464,6.91049337387085,-99.58220672607422,0
1675.1350000000002,-0.0001195776931126602,6.351729825837538e-05,0.0002742384094744921,0.0,0.0,0.0,0.0,0.003746116766706109,0.006372132338583469,-0.00403377041220665,1.0005041360855103,0.0,0.0,0.0,0.5485687255859375,-2.89035701751709,6.8820977210998535,-99.29203796386719,0
1685.0569999999989,-7.213489880086854e-05,2.31684298341861e-05,0.000265437294729054,0.0,0.0,0.0,0.0,0.0036831535398960114,0.001850392553023994,0.0014909132150933146,0.9974892735481262,0.0,0.0,0.0,0.5421663522720337,-2.8976523876190186,6.888031482696533,-98.13318634033203,0
1694.9660000000003,-7.870450644986704e-05,6.317976658465341e-05,0.0002853205078281462,0.0,0.0,0.0,0.0,-0.00042231628322042525,-0.0022056500893086195,0.0004599472158588469,1.0009081363677979,0.0,0.0,0.0,0.5407339930534363,-2.9040234088897705,6.878141403198242,-97.87393188476562,0
1704.8829999999998,-9.827541362028569e-05,6.637055048486218e-05,0.0002972372458316386,0.0,0.0,0.0,0.0,0.0022619133815169334,-0.0012776500079780817,-0.00022665092546958476,1.000555157661438,0.0,0.0,0.0,0.5405445694923401,-2.9088637828826904,6.868067264556885,-97.83965301513672,0
1714.786,-0.0001102769747376442,7.719251880189404e-05,0.00029820180498063564,0.0,0.0,0.0,0.0,-0.0015864347806200385,0.0003305711434222758,-0.0009482919122092426,0.9994324445724487,0.0,0.0,0.0,0.5388555526733398,-2.9055745601654053,6.862070560455322,-97.53392028808594,0
1724.7070000000003,-0.00013251944619696587,8.420835365541279e-05,0.0003101463080383837,0.0,0.0,0.0,0.0,-0.0006502700271084905,-0.0005881699034944177,-0.0014342541107907891,0.9990171790122986,0.0,0.0,0.0,0.5385646820068359,-2.910341739654541,6.864054203033447,-97.48126983642578,0
1734.6099999999988,-0.00016450816474389285,1.8906042896560393e-05,0.00027883524307981133,0.0,0.0,0.0,0.0,-0.0025357145350426435,0.004668401088565588,-0.001894126646220684,0.9979131817817688,0.0,0.0,0.0,0.537918746471405,-2.9046266078948975,6.858293533325195,-97.3643569946289,0
1744.539999999999,-0.00010011414269683883,-3.908532380592078e-05,0.0003071609535254538,0.0,0.0,0.0,0.0,0.001751858158968389,-0.0013440445763990283,-0.0006592657882720232,0.9987544417381287,0.0,0.0,0.0,0.537586510181427,-2.906165838241577,6.850449085235596,-97.30422973632812,0
1754.432999999999,-9.324996790383011e-05,-5.050499748904258e-05,0.00023666619381401688,0.0,0.0,0.0,0.0,0.0006176942843012512,0.0028621042147278786,-0.0013248175382614136,0.9986858367919922,0.0,0.0,0.0,0.5372827053070068,-2.902573347091675,6.834201812744141,-97.24922943115234,0
1764.3490000000002,-0.00011578312114579603,-4.871340570389293e-05,0.00023705065541435033,0.0,0.0,0.0,0.0,0.0019546905532479286,0.004043574910610914,0.0013885842636227608,0.9997225999832153,0.0,0.0,0.0,0.5367627739906311,-2.8979580402374268,6.824230194091797,-97.1551284790039,0
1774.2600000000002,-4.774716217070818e-05,5.2300922106951475e-05,0.00013546948321163654,0.0,0.0,0.0,0.0,-0.002069203881546855,-0.0034385686740279198,0.0006010708166286349,1.0006372928619385,0.0,0.0,0.0,0.5359364748001099,-2.9056355953216553,6.808141231536865,-97.00556945800781,0
1784.1899999999987,-6.559192843269557e-05,6.031478915247135e-05,0.00012671606964431703,0.0,0.0,0.0,0.0,0.0007185217109508812,-0.004559625405818224,0.0032945985440164804,0.9972764253616333,0.0,0.0,0.0,0.5350075960159302,-2.8944625854492188,6.800663471221924,-96.83743286132812,0
1794.0849999999991,-2.189516817452386e-05,0.00012074402184225619,2.5367837224621326e-05,0.0,0.0,0.0,0.0,-7.966603880049661e-05,0.0009608432301320136,-0.002442538272589445,0.9993695020675659,0.0,0.0,0.0,0.5354032516479492,-2.896019220352173,6.798227787017822,-96.90904235839844,0
1804.003999999999,-3.664740870590322e-05,0.00013246737944427878,8.451672329101712e-06,0.0,0.0,0.0,0.0,-0.004291978199034929,0.00024545303313061595,0.00012890783546026796,1.0003917217254639,0.0,0.0,0.0,0.5341604948043823,-2.8909380435943604,6.793394565582275,-96.68411254882812,0
1813.9079999999994,-2.206558929174207e-05,0.00015014930977486074,-7.736956467851996e-05,0.0,0.0,0.0,0.0,0.0010187678271904588,0.002450553933158517,-0.0008681605104357004,0.9998271465301514,0.0,0.0,0.0,0.5334503650665283,-2.887866497039795,6.783594608306885,-96.55557250976562,0
1823.8199999999997,1.4176729564496782e-05,0.00013906668755225837,-6.698940705973655e-05,0.0,0.0,0.0,0.0,-0.0004544747353065759,-0.0007903710938990116,0.0030626999214291573,0.9993643760681152,0.0,0.0,0.0,0.5256133079528809,-2.8867640495300293,6.790424823760986,-95.13705444335938,0
1833.7389999999996,2.35664083447773e-05,0.0001509807480033487,-0.00014255469432100654,0.0,0.0,0.0,0.0,0.0007764470647089183,0.0013689970364794135,-0.0031439068261533976,0.9983956813812256,0.0,0.0,0.0,0.5248370170593262,-2.883574962615967,6.778741836547852,-94.99654388427734,0
1843.6499999999996,4.923624510411173e-05,0.00015813848585821688,-0.00014698236191179603,0.0,0.0,0.0,0.0,-0.0013743297895416617,0.0029624763410538435,-0.000782304210588336,1.0013751983642578,0.0,0.0,0.0,0.5183563232421875,-2.8817028999328613,6.774827003479004,-93.82353210449219,0
1853.562,1.921544571814593e-05,0.00012705178232863545,-0.0001886842946987599,0.0,0.0,0.0,0.0,-0.001612089341506362,-0.0026358570903539658,0.00038408927503041923,0.9987654089927673,0.0,0.0,0.0,0.5171793699264526,-2.873258590698242,6.769516468048096,-93.61048889160156,0
1863.473,3.370379999978468e-06,0.0001380933535983786,-0.00021431586355902255,0.0,0.0,0.0,0.0,-8.937613893067464e-05,0.0007480508647859097,-0.0017793221632018685,0.9983711838722229,0.0,0.0,0.0,0.5157248973846436,-2.8668951988220215,6.769383430480957,-93.34722900390625,0
1873.3869999999988,-1.64584162121173e-05,0.00012564488861244172,-0.0002534888917580247,0.0,0.0,0.0,0.0,-0.004747813101857901,-0.0010882007190957665,0.002658512908965349,0.9983348846435547,0.0,0.0,0.0,0.5158370733261108,-2.8633108139038086,6.769961833953857,-93.3675308227539,0
1883.3059999999987,7.460603228537366e-05,0.00010603386908769608,-0.0002203366457251832,0.0,0.0,0.0,0.0,-0.000547264062333852,-0.002667453605681658,-0.0008480323594994843,0.9985571503639221,0.0,0.0,0.0,0.5265073776245117,-2.867619276046753,6.778964996337891,-95.29887390136719,0
1893.2150000000001,1.4676005775982048e-05,6.736449722666293e-05,-0.0002113490627380088,0.0,0.0,0.0,0.0,-0.0009304364793933928,0.0017076252261176705,0.0003505298518575728,0.9985299110412598,0.0,0.0,0.0,0.5255315899848938,-2.863790512084961,6.780914306640625,-95.12226104736328,0
1903.1260000000002,4.9463789764558896e-05,6.074448174331337e-05,-0.00021963317703921348,0.0,0.0,0.0,0.0,0.0012305983109399676,-0.0002604984911158681,0.0026895208284258842,0.9996628761291504,0.0,0.0,0.0,0.5166722536087036,-2.86213755607605,6.775583744049072,-93.51870727539062,0
1913.0370000000003,-2.192740976170171e-05,4.040437488583848e-05,-0.0001815681462176144,0.0,0.0,0.0,0.0,-0.0037303525023162365,-0.0010427676606923342,-0.001824919949285686,1.000610589981079,0.0,0.0,0.0,0.5101054906845093,-2.861973285675049,6.767045497894287,-92.33010864257812,0
1922.9480000000003,2.5846298740361817e-05,4.592298864736222e-05,-0.00016764542669989169,0.0,0.0,0.0,0.0,0.0014532377244904637,1.8096965504810214e-05,0.0010205790167674422,0.9974695444107056,0.0,0.0,0.0,0.516016960144043,-2.864616632461548,6.7718095779418945,-93.40008544921875,0
1932.8589999999986,-4.199925751890987e-05,1.787642941053491e-05,-0.00014144486340228468,0.0,0.0,0.0,0.0,0.002162761054933071,0.0007975826738402247,-0.0009049607324413955,0.9981743097305298,0.0,0.0,0.0,0.5167796015739441,-2.853135108947754,6.768529891967773,-93.53813934326172,0
1942.771999999999,-6.554605351993814e-05,2.548399061197415e-05,-0.00015657565381843597,0.0,0.0,0.0,0.0,-0.0022753512021154165,0.0015411991626024246,0.00050368468509987,0.9992688298225403,0.0,0.0,0.0,0.5162164568901062,-2.8494973182678223,6.769956111907959,-93.43620300292969,0
1952.6859999999997,-0.00013770053919870406,1.6371164747397415e-05,-0.000101834288216196,0.0,0.0,0.0,0.0,0.0013443618081510067,0.003216281533241272,0.0025294215884059668,0.9989351630210876,0.0,0.0,0.0,0.5157448649406433,-2.850921869277954,6.7662553787231445,-93.35083770751953,0
1962.5990000000002,-0.00016660886467434466,2.397661046416033e-05,-0.00011387343693058938,0.0,0.0,0.0,0.0,-0.0028273926582187414,-0.0034585725516080856,0.0018523861654102802,1.0010950565338135,0.0,0.0,0.0,0.5148290991783142,-2.846731662750244,6.754042148590088,-93.18509674072266,0
1972.5139999999992,-0.00024038185074459761,2.1353500414988957e-05,-4.9830232455860823e-05,0.0,0.0,0.0,0.0,-0.00010291277430951595,-0.0008625321788713336,0.0013781595043838024,0.9996590614318848,0.0,0.0,0.0,0.5144773125648499,-2.8443191051483154,6.754084587097168,-93.12141418457031,0
1982.42,-0.00013854948338121176,-2.975104689539876e-05,2.0036108253407292e-05,0.0,0.0,0.0,0.0,1.1842149433505256e-05,-0.002267385134473443,0.0027351912576705217,0.9992107152938843,0.0,0.0,0.0,0.5221478343009949,-2.851991653442383,6.778404712677002,-94.50980377197266,0
1992.3379999999997,-0.0002783547970466316,-7.33890847186558e-05,0.00012156431330367923,0.0,0.0,0.0,0.0,0.001917646499350667,0.0011898418888449669,-0.0016475578304380178,0.9990976452827454,0.0,0.0,0.0,0.5230538845062256,-2.8515772819519043,6.767368316650391,-94.67378234863281,0
2002.2469999999994,-0.0001474518358008936,-0.00010121884406544268,0.00018366592121310532,0.0,0.0,0.0,0.0,-0.0007883139187470078,-0.0027959912549704313,2.1211220882833004e-05,1.0003150701522827,0.0,0.0,0.0,0.5292767286300659,-2.8575310707092285,6.786722660064697,-95.8001480102539,0
2012.155999999999,-0.00022356081171892583,-8.608927601017058e-05,0.00023960616090334952,0.0,0.0,0.0,0.0,0.00014113202632870525,0.0006384890875779092,-0.00040310542681254447,1.0005210638046265,0.0,0.0,0.0,0.5284015536308289,-2.8534369468688965,6.782464027404785,-95.64173889160156,0
2022.0679999999993,-0.00022356081171892583,-8.608927601017058e-05,0.00023960616090334952,0.0,0.0,0.0,0.0,0.002217888832092285,0.0027617313899099827,0.0025043438654392958,0.9994825720787048,0.0,0.0,0.0,0.5284015536308289,-2.8534369468688965,6.782464027404785,-95.64173889160156,0
2031.9839999999986,-0.00025067076785489917,-4.336489655543119e-05,0.0002745167294051498,0.0,0.0,0.0,0.0,0.001052141422405839,0.0014063941780477762,-0.0003384992596693337,0.997444212436676,0.0,0.0,0.0,0.5283650755882263,-2.8451967239379883,6.774312496185303,-95.6351318359375,0
2041.9079999999994,-0.000130844593513757,-0.00012126514775445685,0.00034224745468236506,0.0,0.0,0.0,0.0,-0.0017459853552281857,-0.005224329885095358,-0.000529678538441658,0.9982792139053345,0.0,0.0,0.0,0.5374648571014404,-2.8635663986206055,6.792970657348633,-97.28221130371094,0
2051.8109999999997,-0.00011099874245701358,-3.688047581817955e-05,0.00034686256549321115,0.0,0.0,0.0,0.0,-0.003336904104799032,-0.0005712669808417559,0.002328150440007448,0.9989210963249207,0.0,0.0,0.0,0.5378098487854004,-2.8630855083465576,6.79460334777832,-97.34465026855469,0
2061.7199999999993,-0.0001399132888764143,-3.5158162063453346e-05,0.00036153304972685874,0.0,0.0,0.0,0.0,0.00139811250846833,0.002285052789375186,-0.004625961184501648,0.9993980526924133,0.0,0.0,0.0,0.5347227454185486,-2.858825445175171,6.790236473083496,-96.78588104248047,0
2071.6319999999996,-0.00013707000471185893,2.7953065000474453e-05,0.00036666408414021134,0.0,0.0,0.0,0.0,-0.002651970135048032,-0.0018306243000552058,0.002577440347522497,0.9989075660705566,0.0,0.0,0.0,0.5348464846611023,-2.8528027534484863,6.786378860473633,-96.80826568603516,0
2081.545,-4.3754967919085175e-05,-0.00011054387141484767,0.00034073280403390527,0.0,0.0,0.0,0.0,0.0005702405469492078,0.006860450841486454,-0.0009311168105341494,1.001049518585205,0.0,0.0,0.0,0.5340442657470703,-2.8457162380218506,6.775154113769531,-96.66307067871094,0
2091.4629999999997,2.9510432796087116e-05,-1.151533069787547e-06,0.00026565257576294243,0.0,0.0,0.0,0.0,0.0031328280456364155,0.0015818813117220998,-0.00015575261204503477,0.9981961250305176,0.0,0.0,0.0,0.5325681567192078,-2.8422117233276367,6.764397621154785,-96.3958969116211,0
2101.3729999999996,8.0902646004688e-06,1.1208426258235704e-06,0.00026767575764097273,0.0,0.0,0.0,0.0,-0.0023839918430894613,-0.0013039647601544857,-0.0005448301089927554,0.9981514811515808,0.0,0.0,0.0,0.5327715873718262,-2.838383674621582,6.744176387786865,-96.4327163696289,0
2111.2829999999994,7.535656550317071e-06,3.701315290527418e-05,0.00025666228611953557,0.0,0.0,0.0,0.0,-0.0011189071228727698,0.0029899883083999157,0.0003911555977538228,1.000430941581726,0.0,0.0,0.0,0.5332534909248352,-2.8377814292907715,6.746079921722412,-96.51995086669922,0
2121.1989999999987,-1.5572368283756077e-05,4.1438186599407345e-05,0.00025607921998016536,0.0,0.0,0.0,0.0,0.0037407036870718002,0.000886720372363925,-0.0009190520504489541,0.9998462796211243,0.0,0.0,0.0,0.5324113368988037,-2.8301644325256348,6.744044780731201,-96.36751556396484,0
2131.111999999999,-8.59973226852162e-07,9.510588279226795e-05,0.0002097628021147102,0.0,0.0,0.0,0.0,-0.0031113168224692345,-0.002718338742852211,-0.0009929591324180365,0.9983770251274109,0.0,0.0,0.0,0.5322430729866028,-2.8330390453338623,6.723470687866211,-96.3370590209961,0
2141.0149999999994,4.121698657399975e-05,1.749899092828855e-05,0.00017341843340545893,0.0,0.0,0.0,0.0,0.000583101122174412,0.004985222592949867,0.0014102752320468426,0.998226523399353,0.0,0.0,0.0,0.5206447243690491,-2.855470657348633,6.736762046813965,-94.23773193359375,0
