timestamp,stateEstimate.x,stateEstimate.y,stateEstimate.z,controller.cmd_thrust,controller.cmd_roll,controller.cmd_pitch,controller.cmd_yaw,controller.r_roll,controller.r_pitch,controller.r_yaw,controller.accelz,controller.actuatorThrust,controller.roll,controller.pitch,controller.yaw,controller.rollRate,controller.pitchRate,controller.yawRate,controller.ctr_yaw
0.0,0.00931578315794468,-0.029630262404680252,-0.0007945109391584992,0.0,0.0,0.0,0.0,-0.006118127144873142,0.0018361102556809783,0.0031672222539782524,1.0006828308105469,0.0,0.0,0.0,-2.4024031162261963,-3.9037301540374756,3.5772693157196045,434.8397521972656,0
9.914999999999054,0.00930822268128395,-0.02970113605260849,-0.0009407182806171477,0.0,0.0,0.0,0.0,-0.00109376129694283,-0.0033408000599592924,0.0010428826790302992,0.9991633892059326,0.0,0.0,0.0,-2.4086034297943115,-3.9146649837493896,3.575302839279175,435.9620056152344,0
19.8179999999993,0.009400934912264347,-0.02956159971654415,-0.0006812588544562459,0.0,0.0,0.0,0.0,0.002832143334671855,0.002562134061008692,-0.003475198522210121,0.9976865649223328,0.0,0.0,0.0,-2.4131240844726562,-3.865917921066284,3.6053640842437744,436.7802734375,0
29.73999999999978,0.009384398348629475,-0.029541412368416786,-0.0006943084299564362,0.0,0.0,0.0,0.0,-0.0004930666764266789,-0.0005315667949616909,0.0029464634135365486,1.0004702806472778,0.0,0.0,0.0,-2.411447763442993,-3.8663880825042725,3.591287612915039,436.47686767578125,0
39.63999999999942,0.009455462917685509,-0.029390724375844002,-0.0005101253045722842,0.0,0.0,0.0,0.0,0.0010708640329539776,0.0018079295987263322,-0.0001217273820657283,1.0006681680679321,0.0,0.0,0.0,-2.4129014015197754,-3.8292839527130127,3.605724334716797,436.7399597167969,0
49.5619999999999,0.009396829642355442,-0.029509620741009712,-0.0006256463238969445,0.0,0.0,0.0,0.0,0.003689710982143879,-0.0012095526326447725,0.0003021378652192652,1.001509666442871,0.0,0.0,0.0,-2.411343574523926,-3.865978956222534,3.602635145187378,436.4579772949219,0
59.469999999999345,0.009442998096346855,-0.02936561219394207,-0.00044762613833881915,0.0,0.0,0.0,0.0,0.0013058831682428718,0.0013199455570429564,0.0027388609014451504,1.0017246007919312,0.0,0.0,0.0,-2.4089221954345703,-3.863987445831299,3.597622871398926,436.01971435546875,0
69.3799999999992,0.009387827478349209,-0.029502516612410545,-0.0005618065479211509,0.0,0.0,0.0,0.0,-0.0010344065958634019,-0.0032569316681474447,-9.616998431738466e-05,1.0015079975128174,0.0,0.0,0.0,-2.4132487773895264,-3.898300886154175,3.5898146629333496,436.8028564453125,0
79.28999999999905,0.009440460242331028,-0.029381604865193367,-0.0004099746874999255,0.0,0.0,0.0,0.0,0.0006787190795876086,0.0012901993468403816,0.00022179573716130108,0.9995554089546204,0.0,0.0,0.0,-2.4170475006103516,-3.8748254776000977,3.6029157638549805,437.4903869628906,0
89.21299999999974,0.009418429806828499,-0.02945793978869915,-0.0005077921668998897,0.0,0.0,0.0,0.0,0.001927166827954352,-0.006338546052575111,0.0022210064344108105,1.000687599182129,0.0,0.0,0.0,-2.415424346923828,-3.8732683658599854,3.5917811393737793,437.1966247558594,0
99.11499999999978,0.009464627131819725,-0.029330816119909286,-0.0003624097735155374,0.0,0.0,0.0,0.0,-0.00032904199906624854,0.0030540849547833204,-0.0009413370862603188,1.0016683340072632,0.0,0.0,0.0,-2.41237735748291,-3.877593994140625,3.591681957244873,436.6451110839844,0
109.03199999999924,0.00942596048116684,-0.029441827908158302,-0.00045352656161412597,0.0,0.0,0.0,0.0,-0.0007158541702665389,-0.0022590269800275564,-0.0017164754681289196,1.0025171041488647,0.0,0.0,0.0,-2.419680595397949,-3.8971097469329834,3.590224504470825,437.9670104980469,0
118.94599999999991,0.009464431554079056,-0.029341531917452812,-0.0003384956798981875,0.0,0.0,0.0,0.0,-0.00020566940656863153,0.00015612693096045405,-0.002926634391769767,1.0009686946868896,0.0,0.0,0.0,-2.4247419834136963,-3.8767051696777344,3.5955076217651367,438.8831481933594,0
128.85499999999956,0.009420907124876976,-0.02947843074798584,-0.0004356130084488541,0.0,0.0,0.0,0.0,0.0005907282466068864,-0.004075555596500635,0.0018531379755586386,0.9998204112052917,0.0,0.0,0.0,-2.4226882457733154,-3.872659921646118,3.591083288192749,438.51141357421875,0
138.76800000000003,0.009406342171132565,-0.029456840828061104,-0.00042480582487769425,0.0,0.0,0.0,0.0,0.000497303088195622,-0.004714387934654951,0.001033493666909635,0.998282253742218,0.0,0.0,0.0,-2.4193286895751953,-3.865372657775879,3.5929181575775146,437.9033203125,0
148.6790000000001,0.009365285746753216,-0.029604578390717506,-0.0005145602044649422,0.0,0.0,0.0,0.0,0.00034476787550374866,0.00494475057348609,-0.0007078698254190385,0.9997084140777588,0.0,0.0,0.0,-2.424593448638916,-3.9001522064208984,3.598565101623535,438.856201171875,0
158.58899999999994,0.009350758045911789,-0.029587751254439354,-0.0005127473268657923,0.0,0.0,0.0,0.0,-0.002193426014855504,0.0028660744428634644,0.0008174336981028318,1.0008612871170044,0.0,0.0,0.0,-2.422898769378662,-3.8933329582214355,3.5882198810577393,438.54949951171875,0
168.5019999999986,0.00936955213546753,-0.029653901234269142,-0.0006551408441737294,0.0,0.0,0.0,0.0,0.004301011096686125,0.00017300549370702356,0.0004555048362817615,1.0012441873550415,0.0,0.0,0.0,-2.4213154315948486,-3.886841297149658,3.582489013671875,438.262939453125,0
178.42299999999886,0.009453956037759781,-0.029534198343753815,-0.00043389052734710276,0.0,0.0,0.0,0.0,0.0008227828075177968,-0.0009337467490695417,-0.0004602279223036021,1.0032744407653809,0.0,0.0,0.0,-2.4185729026794434,-3.887643814086914,3.5791842937469482,437.7665100097656,0
188.33399999999892,0.009462733753025532,-0.029586466029286385,-0.0005502139683812857,0.0,0.0,0.0,0.0,-0.0005335965543054044,-0.0030798467341810465,-0.0010775423143059015,1.001863956451416,0.0,0.0,0.0,-2.422761917114258,-3.902919292449951,3.5789594650268555,438.52471923828125,0
198.24599999999919,0.009492387063801289,-0.029471850022673607,-0.0004235043015796691,0.0,0.0,0.0,0.0,-0.0003016896080225706,-0.000981928315013647,0.000876408361364156,1.0037821531295776,0.0,0.0,0.0,-2.4209091663360596,-3.9013237953186035,3.5833048820495605,438.1893615722656,0
208.14499999999862,0.00947399903088808,-0.0295725017786026,-0.0005278519238345325,0.0,0.0,0.0,0.0,0.00010831026156665757,0.0007925088866613805,-0.0008748442051000893,1.0020906925201416,0.0,0.0,0.0,-2.4193315505981445,-3.897304058074951,3.578110933303833,437.90386962890625,0
218.0679999999993,0.009469925425946712,-0.02954707108438015,-0.0005181104643270373,0.0,0.0,0.0,0.0,0.0005546989850699902,-0.007432222831994295,-4.472353793971706e-06,0.9997230172157288,0.0,0.0,0.0,-2.417530059814453,-3.8919410705566406,3.574270009994507,437.5777587890625,0
227.96799999999894,0.009470993652939796,-0.029650814831256866,-0.0006452100351452827,0.0,0.0,0.0,0.0,0.0010797932045534253,-0.00043263938277959824,-0.0006113458657637239,1.000145435333252,0.0,0.0,0.0,-2.4241390228271484,-3.9179298877716064,3.5859503746032715,438.77398681640625,0
237.8869999999988,0.009464485570788383,-0.02946259267628193,-0.00046216262853704393,0.0,0.0,0.0,0.0,0.0027301341760903597,-0.0002251554251415655,-0.0007164507987909019,0.9990568161010742,0.0,0.0,0.0,-2.4240469932556152,-3.8680310249328613,3.5905420780181885,438.75732421875,0
247.79099999999926,0.00940793752670288,-0.02958788350224495,-0.0005218567093834281,0.0,0.0,0.0,0.0,-0.002736334688961506,-0.0008209417574107647,0.002981887897476554,0.9988840222358704,0.0,0.0,0.0,-2.42179012298584,-3.871370315551758,3.5865345001220703,438.3488464355469,0
257.71299999999974,0.009440643712878227,-0.029426181688904762,-0.0003507615765556693,0.0,0.0,0.0,0.0,0.0033758836798369884,0.0028867090586572886,0.00025467699742875993,0.9997986555099487,0.0,0.0,0.0,-2.4186887741088867,-3.8666796684265137,3.585029363632202,437.7875061035156,0
267.6129999999994,0.009384998120367527,-0.02956669218838215,-0.0004193253116682172,0.0,0.0,0.0,0.0,0.0022555473260581493,0.0029738734010607004,0.0025004877243191004,0.9991124868392944,0.0,0.0,0.0,-2.425034523010254,-3.9003865718841553,3.570788621902466,438.9360656738281,0
277.53199999999924,0.009375951252877712,-0.02954288385808468,-0.0004069623537361622,0.0,0.0,0.0,0.0,-0.0009249419090338051,-0.001817564945667982,0.002777144545689225,1.0014671087265015,0.0,0.0,0.0,-2.4214248657226562,-3.9039316177368164,3.553100109100342,438.2827453613281,0
287.4389999999985,0.009348814375698566,-0.029680073261260986,-0.0005155608523637056,0.0,0.0,0.0,0.0,-0.002989679342135787,-0.002128801541402936,-0.0007675496162846684,1.001557469367981,0.0,0.0,0.0,-2.413156509399414,-3.93338942527771,3.553065776824951,436.7861328125,0
297.36199999999917,0.009382590651512146,-0.029527388513088226,-0.00032132246997207403,0.0,0.0,0.0,0.0,0.0017636672127991915,0.003050214145332575,-0.0018988369265571237,0.9987003207206726,0.0,0.0,0.0,-2.416048526763916,-3.8973910808563232,3.569467067718506,437.3095397949219,0
307.2639999999992,0.009352533146739006,-0.02963418699800968,-0.00041622782009653747,0.0,0.0,0.0,0.0,-0.0009946735808625817,-0.002630555536597967,-0.00018113412079401314,1.0000666379928589,0.0,0.0,0.0,-2.4224915504455566,-3.9165680408477783,3.562633991241455,438.4757995605469,0
317.1839999999993,0.00943236704915762,-0.029546793550252914,-0.00027677815523929894,0.0,0.0,0.0,0.0,0.0011547243921086192,0.001922189723700285,0.0010218783281743526,1.0009398460388184,0.0,0.0,0.0,-2.426015615463257,-3.8972971439361572,3.5779194831848145,439.1136169433594,0
327.09199999999873,0.00945431087166071,-0.029585180804133415,-0.00039980237488634884,0.0,0.0,0.0,0.0,-0.001598811591975391,0.004102637991309166,-0.001956166932359338,1.0017811059951782,0.0,0.0,0.0,-2.4315364360809326,-3.9072177410125732,3.592433214187622,440.1129455566406,0
337.0099999999984,0.009493056684732437,-0.02947145700454712,-0.0002779400965664536,0.0,0.0,0.0,0.0,0.0009143079514615238,-0.0028428102377802134,0.002195302862673998,0.9997796416282654,0.0,0.0,0.0,-2.429774761199951,-3.9024152755737305,3.59100604057312,439.7940673828125,0
346.91499999999905,0.009470810182392597,-0.02958717755973339,-0.0003883109602611512,0.0,0.0,0.0,0.0,-0.00014946446754038334,-0.004458947107195854,0.0017127045430243015,0.9987841248512268,0.0,0.0,0.0,-2.435972213745117,-3.930156707763672,3.592402458190918,440.9158630371094,0
356.8259999999991,0.009462768211960793,-0.02955845184624195,-0.0003780644910875708,0.0,0.0,0.0,0.0,-0.004492365289479494,0.0021772501058876514,0.0011808130657300353,0.9994221329689026,0.0,0.0,0.0,-2.432546377182007,-3.9220497608184814,3.6044580936431885,440.2956848144531,0
366.73599999999897,0.00943121500313282,-0.029702121391892433,-0.00048289666301570833,0.0,0.0,0.0,0.0,-0.00024777124053798616,3.57575154339429e-05,-0.0011695404537022114,0.9989734292030334,0.0,0.0,0.0,-2.4257302284240723,-3.950350284576416,3.6054060459136963,439.06201171875,0
376.65200000000004,0.009419362992048264,-0.029536668211221695,-0.0003271089808549732,0.0,0.0,0.0,0.0,0.003823029575869441,-0.00272507150657475,-0.001052076113410294,0.998017430305481,0.0,0.0,0.0,-2.4239723682403564,-3.9517745971679688,3.5962722301483154,438.7438049316406,0
386.5599999999995,0.009422732517123222,-0.029614079743623734,-0.00046879457659088075,0.0,0.0,0.0,0.0,0.000291387113975361,0.003284323262050748,-0.00520701939240098,0.9995314478874207,0.0,0.0,0.0,-2.4219887256622314,-3.9482412338256836,3.5947647094726562,438.384765625,0
396.47400000000016,0.009485116228461266,-0.029491567984223366,-0.0003218345227651298,0.0,0.0,0.0,0.0,0.0012569651007652283,-0.002512346487492323,0.001736548263579607,1.0004395246505737,0.0,0.0,0.0,-2.4198384284973145,-3.9420368671417236,3.5822010040283203,437.99560546875,0
406.3909999999996,0.009482110850512981,-0.02955620177090168,-0.0004288510244805366,0.0,0.0,0.0,0.0,-0.001549374544993043,-0.0036991904489696026,-4.064093445776962e-05,0.9992903470993042,0.0,0.0,0.0,-2.416236400604248,-3.9425792694091797,3.583158016204834,437.34356689453125,0
416.29699999999866,0.009474772959947586,-0.029530517756938934,-0.0004296636616345495,0.0,0.0,0.0,0.0,-0.0010563952382653952,-0.0025272411294281483,0.003188466187566519,0.9991116523742676,0.0,0.0,0.0,-2.4138991832733154,-3.942469835281372,3.583984136581421,436.9205627441406,0
426.2089999999989,0.009491856209933758,-0.029590988531708717,-0.0005613294197246432,0.0,0.0,0.0,0.0,0.00019311644427943975,0.0005930702318437397,-0.00023342634085565805,0.9980764389038086,0.0,0.0,0.0,-2.4213263988494873,-3.9532673358917236,3.594399929046631,438.264892578125,0
436.1299999999992,0.00947491079568863,-0.02942371554672718,-0.0004222717834636569,0.0,0.0,0.0,0.0,-0.0017558673862367868,0.0012317695654928684,-0.0010320092551410198,1.000906229019165,0.0,0.0,0.0,-2.4258995056152344,-3.9165151119232178,3.586414098739624,439.0926208496094,0
446.0579999999991,0.009486591443419456,-0.029410894960165024,-0.00042059289989992976,0.0,0.0,0.0,0.0,-0.0018738830694928765,-0.0035159895196557045,0.0001507810811745003,1.0005035400390625,0.0,0.0,0.0,-2.424034833908081,-3.90936279296875,3.5876219272613525,438.755126953125,0
455.9459999999999,0.009479796513915062,-0.029379989951848984,-0.0004206504672765732,0.0,0.0,0.0,0.0,-0.0006362456479109824,0.0030849194154143333,0.0013285573804751039,1.0007011890411377,0.0,0.0,0.0,-2.4219160079956055,-3.9025330543518066,3.582929849624634,438.3716125488281,0
465.85899999999856,0.009464585222303867,-0.029420584440231323,-0.0003354254295118153,0.0,0.0,0.0,0.0,0.0006133368005976081,-0.0008071735501289368,0.001119082560762763,1.0024807453155518,0.0,0.0,0.0,-2.417874574661255,-3.930579900741577,3.568551778793335,437.64007568359375,0
505.5099999999984,0.009429624304175377,-0.029519639909267426,-0.00039228281821124256,0.0,0.0,0.0,0.0,0.00055600207997486,-0.0012815564405173063,-0.0009116987348534167,1.001602053642273,0.0,0.0,0.0,-2.407094717025757,-3.9184587001800537,3.5742809772491455,435.68890380859375,0
515.4209999999985,0.009417778812348843,-0.02949550375342369,-0.0003874689864460379,0.0,0.0,0.0,0.0,-0.0010877533350139856,-0.0033202345948666334,-6.570869572897209e-06,1.0008567571640015,0.0,0.0,0.0,-2.4049575328826904,-3.9174065589904785,3.5743978023529053,435.3021240234375,0
525.3329999999987,0.00946385320276022,-0.02953471429646015,-0.0003997590974904597,0.0,0.0,0.0,0.0,-0.0001523936225567013,-0.004362902604043484,0.001534803886897862,1.000251293182373,0.0,0.0,0.0,-2.418313980102539,-3.923182487487793,3.5944879055023193,437.7196350097656,0
535.2429999999986,0.009453324601054192,-0.029512042179703712,-0.0003936387365683913,0.0,0.0,0.0,0.0,0.0003872004454024136,-0.0011760360794141889,-0.0010968866990879178,0.9994969964027405,0.0,0.0,0.0,-2.4156577587127686,-3.920170307159424,3.6028823852539062,437.2388610839844,0
545.155999999999,0.009478908032178879,-0.029494918882846832,-0.000399589043809101,0.0,0.0,0.0,0.0,-0.00015604568761773407,0.003545866347849369,0.0007569640292786062,1.0016045570373535,0.0,0.0,0.0,-2.4221267700195312,-3.8963122367858887,3.604454278945923,438.4097595214844,0
555.0859999999993,0.00945628434419632,-0.02959475666284561,-0.0005029620951972902,0.0,0.0,0.0,0.0,-0.0014195928815752268,0.0009725819109007716,-0.0007033008150756359,1.0013301372528076,0.0,0.0,0.0,-2.420559883117676,-3.892723560333252,3.6068062782287598,438.12615966796875,0
564.9809999999998,0.009443938732147217,-0.029574325308203697,-0.000504006166011095,0.0,0.0,0.0,0.0,-0.0014816410839557648,0.0011883052065968513,-0.0009467172785662115,1.0007997751235962,0.0,0.0,0.0,-2.4190189838409424,-3.8832390308380127,3.5943527221679688,437.8472595214844,0
574.8939999999984,0.009441971778869629,-0.029656674712896347,-0.0006173491710796952,0.0,0.0,0.0,0.0,0.0002816200430970639,0.0015609983820468187,7.773627294227481e-05,1.0019360780715942,0.0,0.0,0.0,-2.4169483184814453,-3.8813440799713135,3.585949420928955,437.4724426269531,0
584.8049999999985,0.0094827925786376,-0.02952340990304947,-0.0004576185601763427,0.0,0.0,0.0,0.0,-0.0030221801716834307,0.0022469796240329742,-7.448823907907354e-06,1.000810146331787,0.0,0.0,0.0,-2.4135987758636475,-3.877748966217041,3.585392713546753,436.8661804199219,0
594.723,0.009461390785872936,-0.029618531465530396,-0.0005603434983640909,0.0,0.0,0.0,0.0,-0.0003023223252967,-0.002587901195511222,0.00045562523882836103,0.9995689392089844,0.0,0.0,0.0,-2.4110379219055176,-3.872426986694336,3.5720887184143066,436.40264892578125,0
604.6299999999992,0.009463713504374027,-0.029463814571499825,-0.00042786679114215076,0.0,0.0,0.0,0.0,0.0005473309429362416,-0.006506499834358692,-0.001276238588616252,0.9989663362503052,0.0,0.0,0.0,-2.4140613079071045,-3.8422300815582275,3.5807976722717285,436.9499206542969,0
614.5429999999997,0.009431885555386543,-0.029574356973171234,-0.00052092649275437,0.0,0.0,0.0,0.0,-0.0025333743542432785,0.0028321731369942427,0.0002812009188346565,0.9999017715454102,0.0,0.0,0.0,-2.419426918029785,-3.8664844036102295,3.584709644317627,437.9211120605469,0
624.4549999999999,0.0094229094684124,-0.02955128625035286,-0.0005208480870351195,0.0,0.0,0.0,0.0,-0.0012547962833195925,-0.0036160803865641356,0.001816124189645052,1.0001739263534546,0.0,0.0,0.0,-2.4178483486175537,-3.857259750366211,3.5743019580841064,437.63531494140625,0
634.3679999999986,0.009418939240276814,-0.029651964083313942,-0.0006421868456527591,0.0,0.0,0.0,0.0,0.0012419959530234337,0.0025818704161792994,-0.003496206132695079,1.0005241632461548,0.0,0.0,0.0,-2.420903444290161,-3.8867902755737305,3.587641954421997,438.1883544921875,0
644.2909999999993,0.00940936990082264,-0.0296329278498888,-0.0006516544963233173,0.0,0.0,0.0,0.0,-0.0014561188872903585,0.0008424334810115397,0.0007851891568861902,1.0010472536087036,0.0,0.0,0.0,-2.4184410572052,-3.884308099746704,3.570194721221924,437.74261474609375,0
654.1979999999985,0.009418138302862644,-0.029695753008127213,-0.0007735917461104691,0.0,0.0,0.0,0.0,0.0010778229916468263,-0.0016512514557689428,-0.002939375350251794,0.999911367893219,0.0,0.0,0.0,-2.414747953414917,-3.879260778427124,3.563833713531494,437.0741882324219,0
664.1059999999998,0.009432108141481876,-0.029512833803892136,-0.0005628816434182227,0.0,0.0,0.0,0.0,0.0012971805408596992,0.00018261199875269085,0.002687323372811079,0.9993696808815002,0.0,0.0,0.0,-2.4211268424987793,-3.8288445472717285,3.5663564205169678,438.2287902832031,0
674.0229999999992,0.009431789629161358,-0.02955051325261593,-0.0006578462198376656,0.0,0.0,0.0,0.0,0.001419026986695826,0.0038605984300374985,0.0022970824502408504,1.000509262084961,0.0,0.0,0.0,-2.4186184406280518,-3.826234817504883,3.559720516204834,437.7747802734375,0
683.9319999999989,0.009490560740232468,-0.029409954324364662,-0.0004959611687809229,0.0,0.0,0.0,0.0,0.0007924738456495106,-0.0018969669472426176,-0.005919269286096096,1.0002591609954834,0.0,0.0,0.0,-2.4243340492248535,-3.8011553287506104,3.56777286529541,438.8092956542969,0
693.8469999999998,0.009439859539270401,-0.029544005170464516,-0.0005882250261493027,0.0,0.0,0.0,0.0,-0.0012440430000424385,0.0022998733911663294,-0.0021508526988327503,1.0016244649887085,0.0,0.0,0.0,-2.4215214252471924,-3.7981009483337402,3.5570833683013916,438.3002014160156,0
703.7549999999992,0.009430920705199242,-0.029520204290747643,-0.0005892807967029512,0.0,0.0,0.0,0.0,0.002959285397082567,-0.0011430486338213086,0.0005427817231975496,1.0001052618026733,0.0,0.0,0.0,-2.4197254180908203,-3.792753219604492,3.5545716285705566,437.9751281738281,0
713.6659999999993,0.0094284163787961,-0.029583102092146873,-0.0006862047011964023,0.0,0.0,0.0,0.0,0.0002925082517322153,0.0001313692337134853,-0.0004503333766479045,1.0005393028259277,0.0,0.0,0.0,-2.4178080558776855,-3.794591188430786,3.544518232345581,437.6280212402344,0
723.5799999999999,0.009457330219447613,-0.029432296752929688,-0.0005174051038920879,0.0,0.0,0.0,0.0,-0.0016067384276539087,0.0010467864340171218,0.002705388003960252,0.9992051720619202,0.0,0.0,0.0,-2.4227824211120605,-3.765177011489868,3.546541690826416,438.5284118652344,0
733.491,0.009385094046592712,-0.029579196125268936,-0.0005808522691950202,0.0,0.0,0.0,0.0,-0.0022534497547894716,0.003463601926341653,0.0015574150020256639,0.9981135725975037,0.0,0.0,0.0,-2.429093599319458,-3.796276569366455,3.5424489974975586,439.6707763671875,0
743.402,0.00952661782503128,-0.029471857473254204,-0.0004038894549012184,0.0,0.0,0.0,0.0,-0.0036228413227945566,0.0024615905713289976,-0.0010549728758633137,0.9996235966682434,0.0,0.0,0.0,-2.4261832237243652,-3.7893433570861816,3.5365824699401855,439.14398193359375,0
753.3169999999991,0.009420327842235565,-0.029644697904586792,-0.00041536014759913087,0.0,0.0,0.0,0.0,0.0031982017681002617,0.0020440586376935244,0.0017529071774333715,1.0013084411621094,0.0,0.0,0.0,-2.4296672344207764,-3.8131110668182373,3.522887945175171,439.7746276855469,0
763.226999999999,0.009528008289635181,-0.02953498438000679,-0.0002621365711092949,0.0,0.0,0.0,0.0,0.0014370149001479149,-0.0032037245109677315,0.00041832143324427307,0.9999884963035583,0.0,0.0,0.0,-2.426743745803833,-3.804115056991577,3.514387369155884,439.2454528808594,0
773.1389999999992,0.009422789327800274,-0.029737813398241997,-0.0002987532352562994,0.0,0.0,0.0,0.0,0.000633099814876914,-0.0010411359835416079,0.000790964113548398,1.000557541847229,0.0,0.0,0.0,-2.4297242164611816,-3.8486275672912598,3.5138821601867676,439.784912109375,0
783.0509999999995,0.009410180151462555,-0.029711315408349037,-0.0002817990316543728,0.0,0.0,0.0,0.0,0.0024891369976103306,0.001733332872390747,-0.00015949321095831692,1.0001739263534546,0.0,0.0,0.0,-2.4273488521575928,-3.843533515930176,3.5166494846343994,439.3549499511719,0
792.9679999999989,0.009454529732465744,-0.02973264269530773,-0.0004156824725214392,0.0,0.0,0.0,0.0,-0.004557018633931875,0.0023479231167584658,0.0018972730031237006,0.9994989037513733,0.0,0.0,0.0,-2.4250378608703613,-3.843440055847168,3.5061795711517334,438.93670654296875,0
802.8769999999986,0.009504982270300388,-0.029594728723168373,-0.00023991909984033555,0.0,0.0,0.0,0.0,0.004825449548661709,0.0031154362950474024,-0.006428302265703678,1.0003721714019775,0.0,0.0,0.0,-2.423243999481201,-3.837430238723755,3.496910572052002,438.61199951171875,0
812.7919999999995,0.009560924023389816,-0.029603302478790283,-0.00039742662920616567,0.0,0.0,0.0,0.0,0.001704736496321857,-0.0007482082000933588,-0.0007374248816631734,1.0016509294509888,0.0,0.0,0.0,-2.428088903427124,-3.846102714538574,3.4998931884765625,439.48895263671875,0
822.6999999999989,0.00953813549131155,-0.0294724740087986,-0.0003098604502156377,0.0,0.0,0.0,0.0,-0.0009734691120684147,8.76370322657749e-05,0.002691370202228427,1.0014764070510864,0.0,0.0,0.0,-2.4265341758728027,-3.8497960567474365,3.501523494720459,439.20751953125,0
832.6149999999998,0.009517579339444637,-0.029565583914518356,-0.00041525749838910997,0.0,0.0,0.0,0.0,0.0028880008030682802,-0.0019256706582382321,-0.0033083586022257805,0.9996595978736877,0.0,0.0,0.0,-2.42307710647583,-3.846198558807373,3.4928500652313232,438.5817565917969,0
842.5259999999998,0.009524623863399029,-0.029444662854075432,-0.0003219325153622776,0.0,0.0,0.0,0.0,-0.0027138879522681236,-0.0013569934526458383,-0.0017799651250243187,1.0007623434066772,0.0,0.0,0.0,-2.4219679832458496,-3.8448851108551025,3.4884064197540283,438.3810119628906,0
852.4429999999993,0.009490648284554482,-0.029552914202213287,-0.00041997144580818713,0.0,0.0,0.0,0.0,-0.0004753823159262538,-0.004857781808823347,0.0007152584148570895,1.001528024673462,0.0,0.0,0.0,-2.42047381401062,-3.840993881225586,3.490333318710327,438.1105651855469,0
862.3589999999986,0.009476758539676666,-0.02951732836663723,-0.00041629295446909964,0.0,0.0,0.0,0.0,0.0009461267618462443,0.0010699464473873377,-0.0005077051464468241,1.0003300905227661,0.0,0.0,0.0,-2.4176347255706787,-3.8361761569976807,3.489262342453003,437.5966491699219,0
872.2609999999986,0.009510722011327744,-0.029553961008787155,-0.0005626741331070662,0.0,0.0,0.0,0.0,0.001002093660645187,-0.004585090558975935,-0.0037201466038823128,1.001731038093567,0.0,0.0,0.0,-2.4139716625213623,-3.835592031478882,3.493558406829834,436.93365478515625,0
882.1729999999989,0.00950491800904274,-0.029381215572357178,-0.00041815763688646257,0.0,0.0,0.0,0.0,0.002610116032883525,0.0027151715476065874,-0.00012557076115626842,0.9981392025947571,0.0,0.0,0.0,-2.4125494956970215,-3.8287994861602783,3.489311933517456,436.67626953125,0
892.0859999999993,0.009493771940469742,-0.029468195512890816,-0.0005522816791199148,0.0,0.0,0.0,0.0,0.0037820921279489994,0.004650608170777559,-0.0006917327991686761,0.998259961605072,0.0,0.0,0.0,-2.418149471282959,-3.856977701187134,3.4909307956695557,437.68988037109375,0
901.9979999999996,0.0095130680128932,-0.02933313511312008,-0.00044424113002605736,0.0,0.0,0.0,0.0,-0.005480661056935787,-0.0020052201580256224,0.0039459276013076305,0.998534619808197,0.0,0.0,0.0,-2.4225096702575684,-3.842087984085083,3.483621835708618,438.47906494140625,0
911.9099999999999,0.009497215040028095,-0.029424944892525673,-0.0005732665886171162,0.0,0.0,0.0,0.0,-0.00047697185073047876,-0.0020937463268637657,-0.0007057266193442047,1.000576376914978,0.0,0.0,0.0,-2.427946090698242,-3.860100269317627,3.4813694953918457,439.4631042480469,0
921.8220000000001,0.009524570778012276,-0.029295803979039192,-0.0004772159445565194,0.0,0.0,0.0,0.0,-0.0016654871869832277,-0.0006960417958907783,0.00017026606656145304,1.0023057460784912,0.0,0.0,0.0,-2.4316325187683105,-3.8393237590789795,3.489452600479126,440.1302795410156,0
931.7419999999984,0.009492676705121994,-0.02941324934363365,-0.0005941431736573577,0.0,0.0,0.0,0.0,-0.0012689877767115831,0.001116190105676651,-0.0006971948314458132,0.9998652338981628,0.0,0.0,0.0,-2.4352076053619385,-3.8611507415771484,3.488917350769043,440.7774353027344,0
941.6539999999986,0.009525110945105553,-0.029286297038197517,-0.0004980748053640127,0.0,0.0,0.0,0.0,-0.0006175668677315116,-0.0006325291469693184,4.822287883143872e-05,0.9990604519844055,0.0,0.0,0.0,-2.439426898956299,-3.8384358882904053,3.490278482437134,441.5411376953125,0
951.5619999999999,0.00946007575839758,-0.029416419565677643,-0.0005645685596391559,0.0,0.0,0.0,0.0,0.00113375682849437,-0.0009747667354531586,0.0003148539981339127,0.999413013458252,0.0,0.0,0.0,-2.4430203437805176,-3.8609824180603027,3.479086399078369,442.1915283203125,0
961.4779999999992,0.009507667273283005,-0.02929920144379139,-0.00046558986650779843,0.0,0.0,0.0,0.0,0.0020409459248185158,-0.00026073429035022855,0.0016328617930412292,0.999386191368103,0.0,0.0,0.0,-2.446338176727295,-3.8430535793304443,3.473275899887085,442.7920837402344,0
971.3829999999998,0.009386695921421051,-0.029495127499103546,-0.0004977863864041865,0.0,0.0,0.0,0.0,-0.000671737885568291,-0.0012729647569358349,-0.00010999836376868188,0.9972639679908752,0.0,0.0,0.0,-2.4505345821380615,-3.8820810317993164,3.4645183086395264,443.5516357421875,0
981.2999999999993,0.009477592073380947,-0.029401900246739388,-0.00038887790287844837,0.0,0.0,0.0,0.0,-0.003131712321192026,-0.0010707112960517406,-0.0010343544417992234,0.9989911913871765,0.0,0.0,0.0,-2.44667649269104,-3.8806378841400146,3.463165521621704,442.853271484375,0
991.2169999999987,0.009402303025126457,-0.029539208859205246,-0.00044116421486251056,0.0,0.0,0.0,0.0,-0.00014903381816111505,-3.561508492566645e-05,-0.003005765378475189,1.0010595321655273,0.0,0.0,0.0,-2.444359064102173,-3.871377468109131,3.4578545093536377,442.433837890625,0
1001.1259999999984,0.009458745829761028,-0.029422610998153687,-0.00032883710809983313,0.0,0.0,0.0,0.0,-0.0015600170008838177,-0.003845233004540205,-0.001711375778540969,1.000277042388916,0.0,0.0,0.0,-2.447643756866455,-3.8461928367614746,3.465985059738159,443.0283508300781,0
1011.0409999999993,0.009366992861032486,-0.02960393577814102,-0.0003902192402165383,0.0,0.0,0.0,0.0,0.0010891198180615902,-0.004779311828315258,0.002602901542559266,0.9977123737335205,0.0,0.0,0.0,-2.446683645248413,-3.883654832839966,3.4603488445281982,442.8546142578125,0
1020.9509999999991,0.009352980181574821,-0.029574250802397728,-0.00038771002436988056,0.0,0.0,0.0,0.0,0.002872942481189966,-0.0031355603132396936,-0.0010309303179383278,1.0003674030303955,0.0,0.0,0.0,-2.44339919090271,-3.883632183074951,3.458517551422119,442.2601318359375,0
1030.8639999999996,0.009346537292003632,-0.02965717576444149,-0.0004965160042047501,0.0,0.0,0.0,0.0,0.0022560544312000275,0.0011284720385447145,-0.00029840474599041045,1.000063419342041,0.0,0.0,0.0,-2.440190076828003,-3.8817145824432373,3.45230770111084,441.67926025390625,0
1040.7699999999986,0.009414369240403175,-0.029520664364099503,-0.00031365605536848307,0.0,0.0,0.0,0.0,0.0007084159296937287,0.0013242140412330627,-0.0016561009688302875,1.0004539489746094,0.0,0.0,0.0,-2.4380078315734863,-3.8750083446502686,3.462747097015381,441.2843017578125,0
1050.6849999999995,0.009456373751163483,-0.029549110680818558,-0.000479944224935025,0.0,0.0,0.0,0.0,0.0037012328393757343,0.0008642647881060839,0.002568565309047699,0.9995638132095337,0.0,0.0,0.0,-2.4347875118255615,-3.8738462924957275,3.4612858295440674,440.7013854980469,0
1060.5959999999995,0.009514106437563896,-0.029446236789226532,-0.00037215498741716146,0.0,0.0,0.0,0.0,-0.0007133986218832433,-0.003691120771691203,-0.0011601735604926944,0.9980867505073547,0.0,0.0,0.0,-2.4322288036346436,-3.8673813343048096,3.457648277282715,440.2382507324219,0
1070.5099999999984,0.009473491460084915,-0.029562197625637054,-0.00046742591075599194,0.0,0.0,0.0,0.0,-0.00530437845736742,-0.000993445166386664,-0.0008092005737125874,0.9980448484420776,0.0,0.0,0.0,-2.437760591506958,-3.8901448249816895,3.4616334438323975,441.2395324707031,0
1080.4259999999995,0.00946325995028019,-0.029533520340919495,-0.000473819236503914,0.0,0.0,0.0,0.0,-0.002495402004569769,0.000631920003797859,-0.0028075282461941242,0.998832106590271,0.0,0.0,0.0,-2.4362807273864746,-3.888155460357666,3.4565374851226807,440.9716491699219,0
1090.3419999999987,0.00945869367569685,-0.029623642563819885,-0.0006027077324688435,0.0,0.0,0.0,0.0,-0.0014736647717654705,-0.0004015429876744747,0.002462108852341771,1.0012381076812744,0.0,0.0,0.0,-2.434222459793091,-3.877934455871582,3.455551862716675,440.5991516113281,0
1100.2439999999988,0.009472631849348545,-0.02946229837834835,-0.0004550330340862274,0.0,0.0,0.0,0.0,5.944497752352618e-05,0.003370966762304306,0.0020519059617072344,0.9995853304862976,0.0,0.0,0.0,-2.431516170501709,-3.8768248558044434,3.4553141593933105,440.1092834472656,0
1110.155999999999,0.009428979828953743,-0.029590679332613945,-0.0005716821178793907,0.0,0.0,0.0,0.0,-0.0005836515338160098,-0.0009241361985914409,0.0010582424001768231,0.9998304843902588,0.0,0.0,0.0,-2.439279794692993,-3.901531219482422,3.452512741088867,441.5145263671875,0
1120.0679999999993,0.009468583390116692,-0.029425427317619324,-0.0004276432446204126,0.0,0.0,0.0,0.0,0.0018942703027278185,0.0007193388300947845,-0.0005646148347295821,0.9990332126617432,0.0,0.0,0.0,-2.4363677501678467,-3.9035258293151855,3.437340021133423,440.9874267578125,0
1129.9799999999996,0.009432093240320683,-0.029534809291362762,-0.0005323805380612612,0.0,0.0,0.0,0.0,0.00019778207933995873,-0.0005620745941996574,0.0029061022214591503,0.9989978671073914,0.0,0.0,0.0,-2.4332408905029297,-3.9041855335235596,3.431870937347412,440.4214172363281,0
1139.893,0.009402475319802761,-0.029351022094488144,-0.0004241878050379455,0.0,0.0,0.0,0.0,0.00013237148232292384,0.0008634751429781318,-0.002710373140871525,0.9999042749404907,0.0,0.0,0.0,-2.4313461780548096,-3.8990447521209717,3.4287350177764893,440.0784606933594,0
1149.8069999999989,0.009332225657999516,-0.029484162107110023,-0.0004875009472016245,0.0,0.0,0.0,0.0,0.0003748949966393411,0.0032081592362374067,-0.001305687939748168,1.0005015134811401,0.0,0.0,0.0,-2.4285778999328613,-3.888941764831543,3.4378721714019775,439.57745361328125,0
1159.7259999999987,0.009394766762852669,-0.029367342591285706,-0.0003832929069176316,0.0,0.0,0.0,0.0,0.0015690706204622984,-0.00040157834882847965,0.0028029796667397022,1.000199794769287,0.0,0.0,0.0,-2.4265482425689697,-3.885113000869751,3.4272406101226807,439.2100524902344,0
1169.628999999999,0.0093024130910635,-0.029550394043326378,-0.00044819360482506454,0.0,0.0,0.0,0.0,-0.0016272295033559203,-0.008634794503450394,0.0009230189607478678,1.000669002532959,0.0,0.0,0.0,-2.425553798675537,-3.9321651458740234,3.4108505249023438,439.0300598144531,0
1179.5429999999997,0.00941015686839819,-0.029429826885461807,-0.00031384010799229145,0.0,0.0,0.0,0.0,0.0014202328165993094,0.0021958879660815,-0.0011434467742219567,0.9980765581130981,0.0,0.0,0.0,-2.4234371185302734,-3.930009603500366,3.4129855632781982,438.6469421386719,0
1189.4539999999997,0.009392283856868744,-0.02952662669122219,-0.0004190380568616092,0.0,0.0,0.0,0.0,0.0007513164891861379,0.0025970761198550463,0.004460874479264021,0.9972861409187317,0.0,0.0,0.0,-2.427971124649048,-3.957524299621582,3.410628080368042,439.46759033203125,0
1199.366,0.009482325054705143,-0.029437867924571037,-0.0003205052635166794,0.0,0.0,0.0,0.0,0.0018592046108096838,-0.003736818442121148,0.0038128821179270744,0.9984191060066223,0.0,0.0,0.0,-2.4262115955352783,-3.948714017868042,3.409980297088623,439.1491394042969,0
1209.289999999999,0.009475832805037498,-0.029516255483031273,-0.00042772083543241024,0.0,0.0,0.0,0.0,0.0011479910463094711,0.0008320186752825975,-0.002088910201564431,1.0015445947647095,0.0,0.0,0.0,-2.432497501373291,-3.9688358306884766,3.405244827270508,440.2868347167969,0
1219.1899999999987,0.009469306096434593,-0.029483430087566376,-0.00043509373790584505,0.0,0.0,0.0,0.0,0.0022355257533490658,0.0023257301654666662,-0.0008388590067625046,1.000262975692749,0.0,0.0,0.0,-2.429365634918213,-3.97084379196167,3.408050060272217,439.7200012207031,0
1229.1039999999994,0.009469665586948395,-0.029586216434836388,-0.0005658731097355485,0.0,0.0,0.0,0.0,-0.0054382639937102795,-0.003840786637738347,-0.0003584415535442531,1.0006771087646484,0.0,0.0,0.0,-2.4271092414855957,-3.971544027328491,3.4004292488098145,439.31158447265625,0
1239.0159999999996,0.009494074620306492,-0.029460394755005836,-0.0004553383041638881,0.0,0.0,0.0,0.0,0.0017980538541451097,-0.00010855624714167789,4.3563228246057406e-05,0.9999032616615295,0.0,0.0,0.0,-2.433155059814453,-3.943037509918213,3.4033656120300293,440.4059143066406,0
1248.929,0.009448000229895115,-0.029542377218604088,-0.0005749075207859278,0.0,0.0,0.0,0.0,0.001311036990955472,-0.0005546701140701771,0.0026132145430892706,0.9991732239723206,0.0,0.0,0.0,-2.428321599960327,-3.9342401027679443,3.4036903381347656,439.5310363769531,0
1258.8400000000001,0.009486882016062737,-0.02945473976433277,-0.00046897170250304043,0.0,0.0,0.0,0.0,-0.0002064311847789213,-0.0028631037566810846,-0.002022351836785674,0.9999021291732788,0.0,0.0,0.0,-2.435600519180298,-3.9144721031188965,3.411567449569702,440.8485412597656,0
1268.7599999999984,0.009433944709599018,-0.02952823042869568,-0.0005803805543109775,0.0,0.0,0.0,0.0,0.004293852485716343,0.004007446113973856,-0.0013973868917673826,1.0006964206695557,0.0,0.0,0.0,-2.4304075241088867,-3.9121103286743164,3.4053165912628174,439.9085998535156,0
1278.6639999999989,0.009498867206275463,-0.02943781204521656,-0.0004643641004804522,0.0,0.0,0.0,0.0,0.0003652844752650708,-0.0005868639564141631,-0.0004294192767702043,0.9993255138397217,0.0,0.0,0.0,-2.4304075241088867,-3.9121103286743164,3.4053165912628174,439.9085998535156,0
1288.5829999999987,0.009430650621652603,-0.029529210180044174,-0.0005632179090753198,0.0,0.0,0.0,0.0,-0.0012772954069077969,-0.0007763643516227603,-0.0012465419713407755,1.0002530813217163,0.0,0.0,0.0,-2.4267334938049316,-3.9017174243927,3.3883328437805176,439.24359130859375,0
1298.4889999999996,0.00946813728660345,-0.02941248193383217,-0.0004408590612001717,0.0,0.0,0.0,0.0,0.0003440220607444644,0.003213901072740555,-0.002525221323594451,1.0004574060440063,0.0,0.0,0.0,-2.4267334938049316,-3.9017174243927,3.3883328437805176,439.24359130859375,0
1308.411,0.009409514255821705,-0.029541630297899246,-0.0005321046919561923,0.0,0.0,0.0,0.0,0.000801205460447818,-0.0004126779967918992,-0.0018646548269316554,0.9993432760238647,0.0,0.0,0.0,-2.43001389503479,-3.9284119606018066,3.3812224864959717,439.8373107910156,0
1318.315999999999,0.00939318910241127,-0.02951102703809738,-0.0005399633664637804,0.0,0.0,0.0,0.0,-0.0008140010177157819,-0.0003080393944401294,0.003921627067029476,0.9993098974227905,0.0,0.0,0.0,-2.427265167236328,-3.9306516647338867,3.3729817867279053,439.33984375,0
1328.2459999999992,0.009380821138620377,-0.029611127451062202,-0.0006703019607812166,0.0,0.0,0.0,0.0,0.0003377299290150404,0.0004545107076410204,0.00021281388762872666,0.9987481236457825,0.0,0.0,0.0,-2.432295799255371,-3.955068826675415,3.3727946281433105,440.2503662109375,0
1338.1459999999988,0.009445223025977612,-0.029468974098563194,-0.0004945695982314646,0.0,0.0,0.0,0.0,0.0013434062711894512,-0.0001791719114407897,-0.0038988899905234575,0.997799813747406,0.0,0.0,0.0,-2.429565906524658,-3.9515764713287354,3.3709442615509033,439.7562255859375,0
1348.0599999999995,0.009412976913154125,-0.029567960649728775,-0.0006051001255400479,0.0,0.0,0.0,0.0,0.0017406005645170808,0.0035100544337183237,0.00019735435489565134,0.998794436454773,0.0,0.0,0.0,-2.4276323318481445,-3.949679136276245,3.368356227874756,439.40631103515625,0
1357.9629999999997,0.009457219392061234,-0.02941390499472618,-0.0004618357343133539,0.0,0.0,0.0,0.0,-0.0024767713621258736,-0.002348991110920906,-0.0008181823068298399,0.9998645782470703,0.0,0.0,0.0,-2.4265575408935547,-3.943835973739624,3.364757776260376,439.21173095703125,0
1367.8759999999984,0.009419135749340057,-0.029515571892261505,-0.0005619048606604338,0.0,0.0,0.0,0.0,-0.0025318479165434837,3.0482158308586804e-06,-0.002682776190340519,1.0014044046401978,0.0,0.0,0.0,-2.423290252685547,-3.9366495609283447,3.365100860595703,438.6203308105469,0
1377.7869999999984,0.009429839439690113,-0.029386522248387337,-0.0004694398958235979,0.0,0.0,0.0,0.0,0.00018482601444702595,0.001997089944779873,0.00038617360405623913,1.000008463859558,0.0,0.0,0.0,-2.4312775135040283,-3.9092824459075928,3.370628833770752,440.0660705566406,0
1387.708999999999,0.009385563433170319,-0.029498139396309853,-0.0005682010087184608,0.0,0.0,0.0,0.0,0.0013083036756142974,-0.004414469934999943,0.0003037163114640862,0.9981904625892639,0.0,0.0,0.0,-2.4283549785614014,-3.9109532833099365,3.3661274909973145,439.537109375,0
1397.6119999999992,0.00945882685482502,-0.02937747910618782,-0.0004458819457795471,0.0,0.0,0.0,0.0,0.001977066043764353,-0.002860951703041792,-0.0012413569493219256,0.9985069632530212,0.0,0.0,0.0,-2.4323129653930664,-3.888097047805786,3.3769094944000244,440.2534484863281,0
1407.5319999999992,0.009401235729455948,-0.029511550441384315,-0.0005364167736843228,0.0,0.0,0.0,0.0,-0.0007250685011968017,0.0002547664917074144,0.0004573045880533755,1.001656413078308,0.0,0.0,0.0,-2.4293150901794434,-3.8840811252593994,3.3838069438934326,439.7108459472656,0
1417.437,0.009456395171582699,-0.02939034439623356,-0.0004255768144503236,0.0,0.0,0.0,0.0,0.001162265078164637,-0.003974767401814461,0.0009498654399067163,1.0021154880523682,0.0,0.0,0.0,-2.433471918106079,-3.8622474670410156,3.391876220703125,440.4632568359375,0
1427.3599999999988,0.009373937733471394,-0.029530074447393417,-0.00046999857295304537,0.0,0.0,0.0,0.0,0.004030023235827684,-0.0004279155400581658,-0.0021032944787293673,1.0007425546646118,0.0,0.0,0.0,-2.430412530899048,-3.8569223880767822,3.3825299739837646,439.90948486328125,0
1437.2609999999986,0.009474661201238632,-0.029445284977555275,-0.0003563730278983712,0.0,0.0,0.0,0.0,-7.038835610728711e-05,-0.002802272792905569,0.0003482082101982087,1.0012131929397583,0.0,0.0,0.0,-2.4282898902893066,-3.8543004989624023,3.382561445236206,439.5252990722656,0
1447.1819999999989,0.00940720085054636,-0.029583623632788658,-0.00041588375461287796,0.0,0.0,0.0,0.0,0.002266739960759878,0.0038500793743878603,2.9475468181772158e-05,0.999572217464447,0.0,0.0,0.0,-2.4263508319854736,-3.859161615371704,3.378671884536743,439.1743469238281,0
1457.0909999999985,0.009438876062631607,-0.029463913291692734,-0.0003026900812983513,0.0,0.0,0.0,0.0,-0.001728944480419159,-0.001084889518097043,0.002228301716968417,0.9999063014984131,0.0,0.0,0.0,-2.4298384189605713,-3.836883544921875,3.3779220581054688,439.80560302734375,0
1467.0069999999996,0.009352504275739193,-0.02963913604617119,-0.0003633302403613925,0.0,0.0,0.0,0.0,0.000943724240642041,0.0033391553442925215,0.005062115844339132,0.9974488019943237,0.0,0.0,0.0,-2.4300670623779297,-3.8723602294921875,3.3713860511779785,439.8469543457031,0
1476.9099999999999,0.009332104586064816,-0.029615145176649094,-0.00035542185651138425,0.0,0.0,0.0,0.0,-0.0034175917971879244,8.612030069343746e-05,0.0015665162354707718,1.0001803636550903,0.0,0.0,0.0,-2.427882432937622,-3.8681254386901855,3.3568708896636963,439.4515380859375,0
1486.8319999999985,0.009366936981678009,-0.029658766463398933,-0.0005014064954593778,0.0,0.0,0.0,0.0,0.0017103981226682663,-0.0013165405252948403,0.001114387298002839,0.9990240335464478,0.0,0.0,0.0,-2.4247615337371826,-3.866586208343506,3.3549938201904297,438.8866882324219,0
1496.7339999999986,0.009417392313480377,-0.029512636363506317,-0.0003205454850103706,0.0,0.0,0.0,0.0,-0.0007792850374244153,0.003063968848437071,-0.0007043821970000863,0.9995671510696411,0.0,0.0,0.0,-2.4225242137908936,-3.8632829189300537,3.350813627243042,438.4817199707031,0
1506.661,0.009410766884684563,-0.029589330777525902,-0.00044806639198213816,0.0,0.0,0.0,0.0,0.00017678797303233296,0.0021641540806740522,-0.0019424855709075928,0.9986199736595154,0.0,0.0,0.0,-2.419994831085205,-3.862793445587158,3.339594602584839,438.02386474609375,0
1516.5679999999993,0.009449891746044159,-0.029447881504893303,-0.00030884373700246215,0.0,0.0,0.0,0.0,0.0006983719067648053,0.00421952735632658,-0.00032384367659687996,0.9984541535377502,0.0,0.0,0.0,-2.4186975955963135,-3.8598687648773193,3.3339948654174805,437.7890930175781,0
1526.4789999999994,0.009447663091123104,-0.029506703838706017,-0.0004277840780559927,0.0,0.0,0.0,0.0,-0.0017010205192491412,0.0022771842777729034,0.0021926311310380697,0.9975850582122803,0.0,0.0,0.0,-2.416750907897949,-3.85927414894104,3.3220388889312744,437.43670654296875,0
1536.3829999999998,0.009477302432060242,-0.029389208182692528,-0.0003278838121332228,0.0,0.0,0.0,0.0,-0.0020367891993373632,-0.0017737322486937046,-0.005423527676612139,1.0000532865524292,0.0,0.0,0.0,-2.420433282852173,-3.8382937908172607,3.322719097137451,438.1032409667969,0
1546.3149999999987,0.009505853988230228,-0.02943684160709381,-0.0004970613517798483,0.0,0.0,0.0,0.0,0.0024292971938848495,0.002570833545178175,0.0023819298949092627,0.9999399185180664,0.0,0.0,0.0,-2.416624069213867,-3.8304011821746826,3.3299062252044678,437.4137878417969,0
1556.2169999999987,0.009518622420728207,-0.02931937761604786,-0.00041784418863244355,0.0,0.0,0.0,0.0,-0.00034825759939849377,-0.00341319153085351,-0.0015068597858771682,1.0013645887374878,0.0,0.0,0.0,-2.422030448913574,-3.8106868267059326,3.331685781478882,438.392333984375,0
1566.1359999999986,0.009485230781137943,-0.029358532279729843,-0.0005549686029553413,0.0,0.0,0.0,0.0,0.0012117838487029076,-0.003156862687319517,-0.001762563711963594,1.001295804977417,0.0,0.0,0.0,-2.4268112182617188,-3.828068256378174,3.3380608558654785,439.2576599121094,0
1576.0439999999999,0.009534839540719986,-0.029284197837114334,-0.0004642839194275439,0.0,0.0,0.0,0.0,0.00015554843412246555,0.0005702645285055041,0.0001978199288714677,1.0017054080963135,0.0,0.0,0.0,-2.4268112182617188,-3.828068256378174,3.3380608558654785,439.2576599121094,0
1585.9669999999987,0.00942558329552412,-0.029412105679512024,-0.000542739755474031,0.0,0.0,0.0,0.0,0.000886741210706532,0.002247982658445835,0.002944131614640355,1.0014499425888062,0.0,0.0,0.0,-2.4226906299591064,-3.8649990558624268,3.3266725540161133,438.5118103027344,0
1595.8639999999996,0.009589452296495438,-0.029358161613345146,-0.00040750030893832445,0.0,0.0,0.0,0.0,-0.0019785896874964237,0.0003035827830899507,0.00016069895355030894,1.000183343887329,0.0,0.0,0.0,-2.4226906299591064,-3.8649990558624268,3.3266725540161133,438.5118103027344,0
1605.777,0.009455700404942036,-0.02951691672205925,-0.00043605934479273856,0.0,0.0,0.0,0.0,-0.0005166112678125501,-0.0012279661605134606,-0.0012548048980534077,1.0001288652420044,0.0,0.0,0.0,-2.416017532348633,-3.8945586681365967,3.309161424636841,437.303955078125,0
1615.6929999999993,0.009455700404942036,-0.02951691672205925,-0.00043605934479273856,0.0,0.0,0.0,0.0,0.0002610405208542943,-0.0031803231686353683,0.003831404959782958,1.0020908117294312,0.0,0.0,0.0,-2.416017532348633,-3.8945586681365967,3.309161424636841,437.303955078125,0
1625.6149999999998,0.009412651881575584,-0.0296214260160923,-0.0005101034766994417,0.0,0.0,0.0,0.0,0.0026922295801341534,0.00446911109611392,6.45476538920775e-05,1.0015968084335327,0.0,0.0,0.0,-2.413318395614624,-3.889173746109009,3.3154618740081787,436.8154602050781,0
1635.5169999999998,0.009476273320615292,-0.029518187046051025,-0.0003540386678650975,0.0,0.0,0.0,0.0,0.00028970191488042474,-0.0025237021036446095,0.00041196748497895896,1.0023102760314941,0.0,0.0,0.0,-2.411219835281372,-3.8950064182281494,3.315610647201538,436.4355773925781,0
1645.4299999999985,0.00941636972129345,-0.029642188921570778,-0.00042726233368739486,0.0,0.0,0.0,0.0,0.0003602600481826812,-0.0009674170287325978,-0.0005646969075314701,1.0003989934921265,0.0,0.0,0.0,-2.408618688583374,-3.899589776992798,3.3114092350006104,435.9648132324219,0
1655.3400000000001,0.00946629885584116,-0.02953343838453293,-0.0002894723729696125,0.0,0.0,0.0,0.0,0.0007085203542374074,0.0020516025833785534,-0.00033415312645956874,0.9971880316734314,0.0,0.0,0.0,-2.4059696197509766,-3.899684429168701,3.315248727798462,435.48529052734375,0
1665.2529999999988,0.009411259554326534,-0.02964664436876774,-0.0003578061005100608,0.0,0.0,0.0,0.0,0.0013885507360100746,-0.0001871577260317281,0.0011115394299849868,0.9999977946281433,0.0,0.0,0.0,-2.403860092163086,-3.9000954627990723,3.3100249767303467,435.10345458984375,0
1675.1689999999999,0.00938614085316658,-0.02962581068277359,-0.00034910673275589943,0.0,0.0,0.0,0.0,-0.0035345852375030518,-0.00179527688305825,0.0017726195510476828,1.0003315210342407,0.0,0.0,0.0,-2.4020040035247803,-3.8965413570404053,3.3100621700286865,434.7674865722656,0
1685.0689999999995,0.00936342403292656,-0.0297335647046566,-0.00046580517664551735,0.0,0.0,0.0,0.0,0.0007284144521690905,-0.0010084096575155854,-0.0015166810480877757,1.001345157623291,0.0,0.0,0.0,-2.3921682834625244,-3.9261622428894043,3.3172976970672607,432.9872131347656,0
1694.9879999999994,0.009337490424513817,-0.029718652367591858,-0.0004674187512136996,0.0,0.0,0.0,0.0,0.005059306044131517,-0.0027409906033426523,-0.00041443720692768693,1.000048279762268,0.0,0.0,0.0,-2.3907644748687744,-3.9304654598236084,3.3130745887756348,432.7331237792969,0
1704.893,0.009339521639049053,-0.02975962497293949,-0.0005796367186121643,0.0,0.0,0.0,0.0,0.0010183291742578149,0.0006189620471559465,0.0007577110081911087,0.9982391595840454,0.0,0.0,0.0,-2.38919734954834,-3.926832675933838,3.3134303092956543,432.4494934082031,0
1714.807999999999,0.009411339648067951,-0.02963571436703205,-0.0003460162552073598,0.0,0.0,0.0,0.0,0.00012574210995808244,0.002953881863504648,0.0006676217308267951,0.9991074800491333,0.0,0.0,0.0,-2.3899025917053223,-3.885655403137207,3.3411030769348145,432.5771484375,0
1724.7289999999994,0.009426864795386791,-0.029675021767616272,-0.0004985769046470523,0.0,0.0,0.0,0.0,-0.0002699347969610244,-0.0012956832069903612,0.0027159778401255608,1.0007168054580688,0.0,0.0,0.0,-2.3887927532196045,-3.8777942657470703,3.3431830406188965,432.37628173828125,0
1734.6329999999998,0.009477728046476841,-0.02955310046672821,-0.0003478266589809209,0.0,0.0,0.0,0.0,-0.002416289411485195,0.0002687734377104789,0.0004063853994011879,1.0007575750350952,0.0,0.0,0.0,-2.386493682861328,-3.874086856842041,3.3450160026550293,431.9601135253906,0
1744.5429999999997,0.009464450180530548,-0.029626797884702682,-0.0004662399587687105,0.0,0.0,0.0,0.0,-0.0004927497357130051,0.00037213516770862043,-0.0013020850019529462,1.001649022102356,0.0,0.0,0.0,-2.392306327819824,-3.8899898529052734,3.34382700920105,433.01220703125,0
1754.458999999999,0.00944479089230299,-0.029605869203805923,-0.0004680012643802911,0.0,0.0,0.0,0.0,-0.0020787997636944056,0.0008581891306675971,-0.00045216077705845237,1.0007445812225342,0.0,0.0,0.0,-2.3901796340942383,-3.884730577468872,3.3359873294830322,432.62725830078125,0
1764.3709999999992,0.00945803988724947,-0.02964618057012558,-0.0005946470773778856,0.0,0.0,0.0,0.0,-0.0023884044494479895,-0.004690397996455431,0.00035186592140235007,0.9992076754570007,0.0,0.0,0.0,-2.387437582015991,-3.8843188285827637,3.3298747539520264,432.13092041015625,0
1774.2879999999986,0.009441019967198372,-0.029628651216626167,-0.0006036819540895522,0.0,0.0,0.0,0.0,0.001549239968881011,0.009358404204249382,-0.0012931482633575797,0.998703122138977,0.0,0.0,0.0,-2.385131359100342,-3.8786768913269043,3.3258278369903564,431.7135314941406,0
1784.191999999999,0.00944980327039957,-0.02965797670185566,-0.0007175729260779917,0.0,0.0,0.0,0.0,-0.0001023895456455648,0.0023070250172168016,-0.0005533092189580202,0.9987227916717529,0.0,0.0,0.0,-2.3909919261932373,-3.885769844055176,3.3329503536224365,432.7742919921875,0
1794.1039999999994,0.009490882977843285,-0.02951272949576378,-0.0005188861978240311,0.0,0.0,0.0,0.0,0.0009804894216358662,-0.002463169861584902,0.0007207306334748864,1.0002052783966064,0.0,0.0,0.0,-2.3894762992858887,-3.844787836074829,3.3250057697296143,432.49993896484375,0
1804.0149999999994,0.009478893131017685,-0.029561446979641914,-0.0006211706204339862,0.0,0.0,0.0,0.0,-0.0020096672233194113,-0.002609875053167343,-0.0024748612195253372,1.0002392530441284,0.0,0.0,0.0,-2.3952999114990234,-3.8609113693237305,3.328335762023926,433.5540466308594,0
1813.9319999999989,0.009525345638394356,-0.02943289279937744,-0.0004789736703969538,0.0,0.0,0.0,0.0,0.00041099326335825026,-0.004276886582374573,0.0017261895118281245,1.0007864236831665,0.0,0.0,0.0,-2.3924448490142822,-3.860076665878296,3.3426194190979004,433.03729248046875,0
1823.839,0.009468733333051205,-0.029559489339590073,-0.0005680479225702584,0.0,0.0,0.0,0.0,-0.0006602439098060131,0.006131276488304138,-0.0020172735676169395,1.000651240348816,0.0,0.0,0.0,-2.389923095703125,-3.8551626205444336,3.3359150886535645,432.58087158203125,0
1833.7619999999988,0.009451915509998798,-0.029538346454501152,-0.0005735803861171007,0.0,0.0,0.0,0.0,0.0025004211347550154,0.0027988841757178307,0.003377965884283185,1.0005364418029785,0.0,0.0,0.0,-2.387706756591797,-3.8505301475524902,3.32708477973938,432.17962646484375,0
1843.6639999999989,0.009402882307767868,-0.02965293824672699,-0.0006472812383435667,0.0,0.0,0.0,0.0,-0.0027164171915501356,0.0006944105844013393,0.0008506201556883752,0.9993090033531189,0.0,0.0,0.0,-2.3917641639709473,-3.877344846725464,3.308971643447876,432.9140930175781,0
1853.5939999999991,0.009457922540605068,-0.029521536082029343,-0.0004664529114961624,0.0,0.0,0.0,0.0,0.0022465847432613373,0.0013985206605866551,-0.002553084399551153,1.0002340078353882,0.0,0.0,0.0,-2.389286994934082,-3.8726727962493896,3.301023483276367,432.4656982421875,0
1863.4899999999998,0.009426760487258434,-0.02961960807442665,-0.000575343263335526,0.0,0.0,0.0,0.0,-0.0023396590258926153,0.002995132701471448,0.0025582006201148033,1.0000184774398804,0.0,0.0,0.0,-2.3953795433044434,-3.898421287536621,3.286252975463867,433.5684509277344,0
1873.4129999999986,0.009446518495678902,-0.029455246403813362,-0.0004200944094918668,0.0,0.0,0.0,0.0,-0.0006843551527708769,-0.0027564724441617727,-0.0022889627143740654,0.9999319911003113,0.0,0.0,0.0,-2.392944574356079,-3.8944449424743652,3.2901077270507812,433.12774658203125,0
1883.3199999999997,0.009376239962875843,-0.029586918652057648,-0.0004822073387913406,0.0,0.0,0.0,0.0,-0.0012534215347841382,-0.00025389195070602,-0.0035982211120426655,0.9997981190681458,0.0,0.0,0.0,-2.3995606899261475,-3.9145119190216064,3.2796382904052734,434.32525634765625,0
1893.2329999999984,0.009356140159070492,-0.029561825096607208,-0.0004796403809450567,0.0,0.0,0.0,0.0,0.0015992710832506418,-0.0029650358483195305,0.001476540812291205,1.0007257461547852,0.0,0.0,0.0,-2.3967740535736084,-3.911332368850708,3.26729679107666,433.82086181640625,0
1903.1389999999992,0.00930511113256216,-0.029639942571520805,-0.0005818279460072517,0.0,0.0,0.0,0.0,-0.002237674780189991,0.002626454923301935,0.00021985115017741919,0.9991059899330139,0.0,0.0,0.0,-2.4043538570404053,-3.9384853839874268,3.2619919776916504,435.1928405761719,0
1913.0569999999989,0.00930511113256216,-0.029639942571520805,-0.0005818279460072517,0.0,0.0,0.0,0.0,0.00032280964660458267,0.002657529665157199,-0.002202084753662348,1.0001403093338013,0.0,0.0,0.0,-2.4043538570404053,-3.9384853839874268,3.2619919776916504,435.1928405761719,0
1922.9669999999987,0.009266768582165241,-0.029692353680729866,-0.0007056505419313908,0.0,0.0,0.0,0.0,0.0015125777572393417,-0.0005066863377578557,0.000664142775349319,0.9989168643951416,0.0,0.0,0.0,-2.4118430614471436,-3.952542781829834,3.2654526233673096,436.54840087890625,0
1932.8859999999986,0.009501920081675053,-0.02971828170120716,-0.00047248846385627985,0.0,0.0,0.0,0.0,0.006242728792130947,-0.007766284979879856,-5.782677362731192e-06,0.9998297095298767,0.0,0.0,0.0,-2.4176783561706543,-3.9513742923736572,3.3258821964263916,437.6045837402344,0
1942.7869999999984,0.009472239762544632,-0.029795892536640167,-0.0005543731385841966,0.0,0.0,0.0,0.0,-0.000636774580925703,0.001955428160727024,-0.00016972256707958877,1.0009292364120483,0.0,0.0,0.0,-2.4214444160461426,-3.9769606590270996,3.3263933658599854,438.2862548828125,0
1952.7069999999985,0.009654408320784569,-0.029795153066515923,-0.0004231903876643628,0.0,0.0,0.0,0.0,-0.0007889040280133486,0.0008146533509716392,0.004273703321814537,1.0008571147918701,0.0,0.0,0.0,-2.4173643589019775,-3.9767768383026123,3.355133056640625,437.5477294921875,0
1962.6149999999998,0.009613844566047192,-0.02988681010901928,-0.00047360965982079506,0.0,0.0,0.0,0.0,0.002169037237763405,-0.002422275487333536,-3.0308325221994892e-05,0.9999027252197266,0.0,0.0,0.0,-2.4228296279907227,-3.995621681213379,3.345304250717163,438.5370178222656,0
1972.5389999999989,0.009604040533304214,-0.029873840510845184,-0.00047072803135961294,0.0,0.0,0.0,0.0,-0.0008835718035697937,-0.0019916805904358625,-0.0008785949321463704,0.9986830353736877,0.0,0.0,0.0,-2.4192168712615967,-3.9980556964874268,3.345529556274414,437.8830871582031,0
1982.440999999999,0.009629356674849987,-0.029880115762352943,-0.0005650073289871216,0.0,0.0,0.0,0.0,0.0036604737397283316,-0.00125783309340477,-0.002085610292851925,1.0011816024780273,0.0,0.0,0.0,-2.425678014755249,-3.994786024093628,3.3560266494750977,439.0525817871094,0
1992.3629999999994,0.009581026621162891,-0.029701950028538704,-0.0004223436117172241,0.0,0.0,0.0,0.0,0.001035495544783771,-0.0030833701603114605,-0.0024176763836294413,1.0000184774398804,0.0,0.0,0.0,-2.4305379390716553,-3.9470090866088867,3.347255229949951,439.93218994140625,0
2002.2639999999992,0.009538916870951653,-0.02978667989373207,-0.0004852058191318065,0.0,0.0,0.0,0.0,3.0768114811507985e-06,0.0009646484395489097,0.0027090958319604397,0.999559760093689,0.0,0.0,0.0,-2.427932024002075,-3.9473490715026855,3.3504586219787598,439.46051025390625,0
2012.188,0.009475946426391602,-0.029575210064649582,-0.00032666351762600243,0.0,0.0,0.0,0.0,-0.0011423060204833746,0.000996762653812766,0.0004468026745598763,1.0015504360198975,0.0,0.0,0.0,-2.425276279449463,-3.907714366912842,3.341384172439575,438.9798278808594,0
2022.0849999999991,0.009469152428209782,-0.029644131660461426,-0.0004436314047779888,0.0,0.0,0.0,0.0,0.0035920750815421343,0.0017351352144032717,0.0013489291304722428,0.9998534321784973,0.0,0.0,0.0,-2.4299395084381104,-3.9186112880706787,3.3483505249023438,439.82391357421875,0
2032.0049999999992,0.009448163211345673,-0.02962087094783783,-0.00043818194535560906,0.0,0.0,0.0,0.0,0.0030104974284768105,0.003436150262132287,0.0005467244773171842,0.997541069984436,0.0,0.0,0.0,-2.427427291870117,-3.920042037963867,3.335663080215454,439.36920166015625,0
2041.9129999999986,0.009455502964556217,-0.02966027893126011,-0.0005546867032535374,0.0,0.0,0.0,0.0,-0.0022656398359686136,-0.0024116537533700466,0.00022489059483632445,1.0010986328125,0.0,0.0,0.0,-2.435448408126831,-3.9321975708007812,3.3437328338623047,440.8210144042969,0
2051.8409999999985,0.009434009902179241,-0.029637444764375687,-0.0005605285405181348,0.0,0.0,0.0,0.0,-0.0030051907524466515,0.000676969822961837,0.00048663318739272654,1.0009946823120117,0.0,0.0,0.0,-2.431389808654785,-3.9352266788482666,3.34017276763916,440.0863952636719,0
2061.7429999999986,0.009432056918740273,-0.029710402712225914,-0.0007068821578286588,0.0,0.0,0.0,0.0,0.00012576344306580722,0.002895045094192028,-0.0013595456257462502,1.0026590824127197,0.0,0.0,0.0,-2.429933547973633,-3.9193837642669678,3.3390142917633057,439.8227844238281,0
2071.6569999999992,0.009410257451236248,-0.02969149313867092,-0.0007221992709673941,0.0,0.0,0.0,0.0,0.005224224645644426,0.0019667053129523993,0.0001192412746604532,1.0003467798233032,0.0,0.0,0.0,-2.4276812076568604,-3.9097657203674316,3.3320250511169434,439.4151611328125,0
2081.5589999999993,0.009409776888787746,-0.0297186728566885,-0.0008368795388378203,0.0,0.0,0.0,0.0,0.0016685733571648598,0.0017787445103749633,-0.0026523489505052567,1.0006009340286255,0.0,0.0,0.0,-2.434937000274658,-3.918684482574463,3.3409204483032227,440.7284240722656,0
2091.4849999999988,0.009387506172060966,-0.02969963848590851,-0.0008569135097786784,0.0,0.0,0.0,0.0,4.238024484948255e-05,0.0006159502663649619,-0.00275226216763258,0.9992328882217407,0.0,0.0,0.0,-2.4323790073394775,-3.922792911529541,3.328289270401001,440.2654113769531,0
2101.3899999999994,0.009378551505506039,-0.029730964452028275,-0.0009656902984715998,0.0,0.0,0.0,0.0,-0.0012856251560151577,-0.0022041574120521545,-0.001149839605204761,0.9987911581993103,0.0,0.0,0.0,-2.431990146636963,-3.9208619594573975,3.3220462799072266,440.1950378417969,0
2111.306999999999,0.009355530142784119,-0.02971278689801693,-0.0009921794990077615,0.0,0.0,0.0,0.0,-0.0004204775032121688,0.004644391126930714,-0.0015929685905575752,1.0008987188339233,0.0,0.0,0.0,-2.429492712020874,-3.918154239654541,3.321709632873535,439.7430419921875,0
2121.208999999999,0.009376960806548595,-0.029698597267270088,-0.0011155969696119428,0.0,0.0,0.0,0.0,-0.0004947539418935776,0.0018065829062834382,-0.002367276232689619,0.9998424649238586,0.0,0.0,0.0,-2.438717842102051,-3.914785146713257,3.341949701309204,441.41278076171875,0
2131.1449999999986,0.009356265887618065,-0.02967706322669983,-0.0011497285449877381,0.0,0.0,0.0,0.0,-0.0033532141242176294,-0.0016631593462079763,-0.0003412672958802432,1.0002549886703491,0.0,0.0,0.0,-2.435359239578247,-3.9165313243865967,3.330200672149658,440.80487060546875,0
2141.0369999999984,0.009351386688649654,-0.0296959076076746,-0.0012609348632395267,0.0,0.0,0.0,0.0,-0.0003969169920310378,0.005297353491187096,-0.0034527466632425785,1.0003862380981445,0.0,0.0,0.0,-2.4410898685455322,-3.9254956245422363,3.3381807804107666,441.8421325683594,0
2150.9579999999987,0.009329172782599926,-0.029675593599677086,-0.0012999804457649589,0.0,0.0,0.0,0.0,-0.004770052153617144,-6.222265074029565e-05,-0.002026428235694766,0.9980639219284058,0.0,0.0,0.0,-2.438917875289917,-3.9244327545166016,3.3340344429016113,441.4490051269531,0
2160.857,0.00927925854921341,-0.029720019549131393,-0.0013712692307308316,0.0,0.0,0.0,0.0,0.00043889303924515843,-0.0015152296982705593,-0.004006549715995789,0.9970718622207642,0.0,0.0,0.0,-2.445291042327881,-3.943143844604492,3.3110759258270264,442.6025695800781,0
2170.7829999999994,0.00925042387098074,-0.029702769592404366,-0.0014133546501398087,0.0,0.0,0.0,0.0,0.0010940561769530177,0.004978296346962452,0.001895685913041234,1.0007972717285156,0.0,0.0,0.0,-2.4427449703216553,-3.940350294113159,3.313805103302002,442.1416931152344,0
