timestamp,stateEstimate.x,stateEstimate.y,stateEstimate.z,controller.cmd_thrust,controller.cmd_roll,controller.cmd_pitch,controller.cmd_yaw,controller.r_roll,controller.r_pitch,controller.r_yaw,controller.accelz,controller.actuatorThrust,controller.roll,controller.pitch,controller.yaw,controller.rollRate,controller.pitchRate,controller.yawRate,controller.ctr_yaw
0.0,0.04103616625070572,-0.11695148795843124,0.0014111927011981606,0.0,0.0,0.0,0.0,0.004060245584696531,-0.00041229123598895967,-0.0013824818888679147,0.9968077540397644,0.0,0.0,0.0,16.501962661743164,1.1607613563537598,2.8287694454193115,-2986.8876953125,0
9.8799999999992,0.041055720299482346,-0.11690856516361237,0.0013936021132394671,0.0,0.0,0.0,0.0,-0.0021129189990460873,0.0005865952698513865,-0.0019688322208821774,1.0005460977554321,0.0,0.0,0.0,16.52147102355957,1.1533042192459106,2.839158296585083,-2990.419189453125,0
19.77100000000064,0.04098057746887207,-0.11652301996946335,0.001496672979556024,0.0,0.0,0.0,0.0,-0.0035686404444277287,0.00031728099565953016,-5.18638662470039e-05,0.9983598589897156,0.0,0.0,0.0,16.53394889831543,1.1923062801361084,2.8351311683654785,-2992.67724609375,0
29.63799999999901,0.04107864201068878,-0.11688216030597687,0.0013835107674822211,0.0,0.0,0.0,0.0,0.000530767603777349,-0.0030380079988390207,-0.002329144161194563,0.9994059205055237,0.0,0.0,0.0,16.550687789916992,1.1492449045181274,2.830631732940674,-2995.707763671875,0
39.534999999999854,0.04105810075998306,-0.11694294214248657,0.001365344156511128,0.0,0.0,0.0,0.0,0.0011172068770974874,-0.003076283959671855,-0.0016380439046770334,1.0000144243240356,0.0,0.0,0.0,16.53403663635254,1.1487693786621094,2.8357086181640625,-2992.693115234375,0
49.41699999999946,0.04109747335314751,-0.11690986156463623,0.0013468883698806167,0.0,0.0,0.0,0.0,0.0003151884884573519,-0.00426157983019948,0.0021191842388361692,0.9983888864517212,0.0,0.0,0.0,16.54924964904785,1.1399470567703247,2.828126907348633,-2995.447021484375,0
59.3130000000001,0.04100043326616287,-0.11651775985956192,0.0014649449149146676,0.0,0.0,0.0,0.0,-0.004960827529430389,0.00027243979275226593,-0.0023254137486219406,1.000126838684082,0.0,0.0,0.0,16.55832290649414,1.18532395362854,2.825187921524048,-2997.08935546875,0
69.18000000000029,0.04111765697598457,-0.11681321263313293,0.0013876670273020864,0.0,0.0,0.0,0.0,0.0009585061343386769,-0.0004754455294460058,-0.0004232235951349139,0.9999135136604309,0.0,0.0,0.0,16.570295333862305,1.1487759351730347,2.8364951610565186,-2999.256591796875,0
79.07499999999891,0.04100198298692703,-0.1164407879114151,0.0015046641929075122,0.0,0.0,0.0,0.0,-0.001029572798870504,-0.002395122777670622,0.00044999498641118407,0.9980003833770752,0.0,0.0,0.0,16.58243751525879,1.1890894174575806,2.8324365615844727,-3001.454345703125,0
88.95299999999952,0.04108049347996712,-0.11686576157808304,0.001402990659698844,0.0,0.0,0.0,0.0,0.002635920187458396,0.002081794897094369,-0.0024253507144749165,1.0009920597076416,0.0,0.0,0.0,16.592775344848633,1.1312544345855713,2.8242554664611816,-3003.325439453125,0
98.85000000000036,0.04105605557560921,-0.11693333834409714,0.0013900031335651875,0.0,0.0,0.0,0.0,-0.001678678672760725,-0.0007723315502516925,0.00043637058115564287,1.002185583114624,0.0,0.0,0.0,16.57763671875,1.1276464462280273,2.82478666305542,-3000.58544921875,0
108.72299999999996,0.041083987802267075,-0.11688029766082764,0.0013788650976493955,0.0,0.0,0.0,0.0,0.0004435984301380813,-0.0007450775592587888,-0.0014332561986520886,0.9999502301216125,0.0,0.0,0.0,16.589855194091797,1.1296643018722534,2.8177387714385986,-3002.796630859375,0
118.61599999999999,0.04097967967391014,-0.11648739129304886,0.0014849319122731686,0.0,0.0,0.0,0.0,-0.0009259231155738235,-0.003239848418161273,-0.0024639794137328863,0.997634768486023,0.0,0.0,0.0,16.598936080932617,1.1801602840423584,2.8273427486419678,-3004.4404296875,0
128.48899999999958,0.041076574474573135,-0.11683885753154755,0.0014098105020821095,0.0,0.0,0.0,0.0,-0.00045810180017724633,-0.00232567242346704,0.0007111176964826882,0.9991063475608826,0.0,0.0,0.0,16.609621047973633,1.126078724861145,2.8186709880828857,-3006.37451171875,0
138.378999999999,0.04097750410437584,-0.11644836515188217,0.0014995014062151313,0.0,0.0,0.0,0.0,0.004862501751631498,-0.0019648000597953796,0.0002784422249533236,1.0008883476257324,0.0,0.0,0.0,16.611772537231445,1.173471212387085,2.8219943046569824,-3006.763916015625,0
148.2520000000004,0.04107006639242172,-0.11684325337409973,0.0014159029815346003,0.0,0.0,0.0,0.0,-0.0002904239227063954,-0.002475238870829344,0.0027160944882780313,1.0010626316070557,0.0,0.0,0.0,16.621028900146484,1.1179242134094238,2.8243753910064697,-3008.43896484375,0
158.14699999999903,0.04096350446343422,-0.1164524108171463,0.001511845737695694,0.0,0.0,0.0,0.0,0.001534856273792684,-0.004905210342258215,-0.0016973167657852173,1.0003840923309326,0.0,0.0,0.0,16.62614631652832,1.1610710620880127,2.826296091079712,-3009.36572265625,0
168.02700000000004,0.04107602313160896,-0.11681649088859558,0.001452579628676176,0.0,0.0,0.0,0.0,8.25886963866651e-05,0.00013445371587295085,-0.002065926557406783,1.0008360147476196,0.0,0.0,0.0,16.630748748779297,1.109800100326538,2.8281619548797607,-3010.198486328125,0
177.92000000000007,0.04097360745072365,-0.11644117534160614,0.0015468340134248137,0.0,0.0,0.0,0.0,-0.0017836102051660419,0.0019300931598991156,-9.195251914206892e-05,0.9998564124107361,0.0,0.0,0.0,16.639602661132812,1.1592785120010376,2.8425636291503906,-3011.801025390625,0
187.78800000000047,0.041069161146879196,-0.11683753877878189,0.0014743211213499308,0.0,0.0,0.0,0.0,-0.0010536665795370936,-0.0033900095149874687,-0.0005836546770296991,1.001456379890442,0.0,0.0,0.0,16.643108367919922,1.1120882034301758,2.823631525039673,-3012.435546875,0
197.67799999999988,0.041031599044799805,-0.11691833287477493,0.0014771074056625366,0.0,0.0,0.0,0.0,-0.0006735099595971406,0.0015429675113409758,-0.00027182765188626945,1.0005552768707275,0.0,0.0,0.0,16.626996994018555,1.1049944162368774,2.823888063430786,-3009.51953125,0
207.5550000000003,0.041057977825403214,-0.11690396070480347,0.0014830704312771559,0.0,0.0,0.0,0.0,0.001616198569536209,0.002285822294652462,-0.0005466428119689226,0.9995077848434448,0.0,0.0,0.0,16.629365921020508,1.1132656335830688,2.831681489944458,-3009.9482421875,0
217.45999999999913,0.040987640619277954,-0.11648765206336975,0.0015414629597216845,0.0,0.0,0.0,0.0,-0.0010152749018743634,-0.004493173211812973,0.003337239846587181,0.9979642033576965,0.0,0.0,0.0,16.631811141967773,1.168027639389038,2.8346798419952393,-3010.390869140625,0
227.32300000000032,0.04106063395738602,-0.1168723776936531,0.0014692710246890783,0.0,0.0,0.0,0.0,-0.001957450294867158,2.830784251273144e-05,0.0017655736301094294,1.000414490699768,0.0,0.0,0.0,16.63739776611328,1.1018577814102173,2.8057503700256348,-3011.402099609375,0
237.23099999999977,0.041019536554813385,-0.11695382744073868,0.001470157178118825,0.0,0.0,0.0,0.0,-0.0007314015529118478,0.001289860694669187,0.0019965835381299257,0.999568521976471,0.0,0.0,0.0,16.62192153930664,1.104323387145996,2.811601400375366,-3008.6005859375,0
247.09299999999894,0.041030026972293854,-0.1169544905424118,0.00146874797064811,0.0,0.0,0.0,0.0,0.0013045977102592587,0.005944901145994663,0.0004107544955331832,0.9981501698493958,0.0,0.0,0.0,16.629352569580078,1.0935918092727661,2.8047139644622803,-3009.94580078125,0
256.9830000000002,0.040966108441352844,-0.11652064323425293,0.0015164511278271675,0.0,0.0,0.0,0.0,-0.00139598676469177,-0.00022446882212534547,-0.002281657187268138,0.9967706203460693,0.0,0.0,0.0,16.63109588623047,1.148729920387268,2.8059909343719482,-3010.261474609375,0
266.8649999999998,0.04106307402253151,-0.11686944216489792,0.0014494203496724367,0.0,0.0,0.0,0.0,0.003886331105604768,0.001445951871573925,0.0008546000462956727,0.996616005897522,0.0,0.0,0.0,16.639455795288086,1.0876680612564087,2.799168348312378,-3011.7744140625,0
276.75,0.04097151756286621,-0.11647284030914307,0.001524454215541482,0.0,0.0,0.0,0.0,0.0010534682078287005,-0.002301993314176798,-0.0014735021395608783,0.9999158978462219,0.0,0.0,0.0,16.639739990234375,1.1409066915512085,2.7956838607788086,-3011.82568359375,0
286.6329999999998,0.041059937328100204,-0.1168413758277893,0.0014510020846500993,0.0,0.0,0.0,0.0,-0.000525768322404474,0.003854969283565879,0.0033360659144818783,0.9995508193969727,0.0,0.0,0.0,16.6446533203125,1.0874491930007935,2.795569896697998,-3012.71533203125,0
296.52100000000064,0.04095715656876564,-0.11644788831472397,0.0015336729120463133,0.0,0.0,0.0,0.0,0.0026054696645587683,0.0007844783249311149,0.00017214110994245857,0.9995405673980713,0.0,0.0,0.0,16.64443588256836,1.1389425992965698,2.802658796310425,-3012.676025390625,0
306.39500000000044,0.04109138995409012,-0.11688253283500671,0.0014525421429425478,0.0,0.0,0.0,0.0,-0.0012092080432921648,0.0006533602136187255,0.0021666372194886208,0.9986284971237183,0.0,0.0,0.0,16.648588180541992,1.0792921781539917,2.7947514057159424,-3013.427734375,0
316.2970000000005,0.04100187122821808,-0.11648035049438477,0.001522857928648591,0.0,0.0,0.0,0.0,0.0037967159878462553,-0.003891026135534048,-7.072886364767328e-05,0.9993581175804138,0.0,0.0,0.0,16.65329360961914,1.1382678747177124,2.7961246967315674,-3014.279052734375,0
326.16400000000067,0.04107645899057388,-0.11685945093631744,0.0014394783647730947,0.0,0.0,0.0,0.0,0.0023013839963823557,-0.0027427857276052237,0.004557512234896421,0.9988109469413757,0.0,0.0,0.0,16.658191680908203,1.068664312362671,2.798478603363037,-3015.165771484375,0
336.0599999999995,0.040977444499731064,-0.11645777523517609,0.0015172437997534871,0.0,0.0,0.0,0.0,-0.0015418857801705599,0.002130913781002164,-0.0005139501299709082,0.9988240003585815,0.0,0.0,0.0,16.661409378051758,1.1200213432312012,2.812788963317871,-3015.748046875,0
345.9310000000005,0.041074659675359726,-0.1168956309556961,0.0014306894736364484,0.0,0.0,0.0,0.0,-0.00047663162695243955,-4.0648166759638116e-05,-0.001613084925338626,0.9972206354141235,0.0,0.0,0.0,16.66555404663086,1.0478159189224243,2.799647569656372,-3016.49853515625,0
355.83300000000054,0.041031062602996826,-0.11642324179410934,0.0014511802000924945,0.0,0.0,0.0,0.0,0.0016190148890018463,0.0033105616457760334,0.0004453974252101034,1.0001003742218018,0.0,0.0,0.0,16.665863037109375,1.1118029356002808,2.819443941116333,-3016.55419921875,0
365.6999999999989,0.041083239018917084,-0.11682984977960587,0.0013499410124495625,0.0,0.0,0.0,0.0,0.0005581795121543109,-0.0012675493489950895,-0.0009536414290778339,0.9987820386886597,0.0,0.0,0.0,16.668909072875977,1.0471566915512085,2.7935400009155273,-3017.105712890625,0
375.59200000000055,0.04095820337533951,-0.11645013839006424,0.0014388445997610688,0.0,0.0,0.0,0.0,0.001278128009289503,-0.00011578666453715414,-0.0018261702498421073,0.9998995661735535,0.0,0.0,0.0,16.6680850982666,1.0976197719573975,2.7919723987579346,-3016.95654296875,0
385.46799999999894,0.041106320917606354,-0.11685909330844879,0.0013760366709902883,0.0,0.0,0.0,0.0,-0.003362164366990328,0.001976261381059885,0.0007027913816273212,0.9999624490737915,0.0,0.0,0.0,16.668943405151367,1.037414789199829,2.79323148727417,-3017.112060546875,0
395.3680000000004,0.04097915440797806,-0.11647456884384155,0.0014693565899506211,0.0,0.0,0.0,0.0,-0.00012370976037345827,-0.0052077751606702805,0.0017746859230101109,1.0001757144927979,0.0,0.0,0.0,16.67109489440918,1.0900713205337524,2.7811965942382812,-3017.50146484375,0
405.23599999999897,0.0410781055688858,-0.11684524267911911,0.0013966428814455867,0.0,0.0,0.0,0.0,0.0015241068322211504,-0.00012414198135957122,0.0017091883346438408,1.0010478496551514,0.0,0.0,0.0,16.67462158203125,1.0321635007858276,2.7810938358306885,-3018.139892578125,0
415.1350000000002,0.04103266820311546,-0.11693906038999557,0.0013875418808311224,0.0,0.0,0.0,0.0,0.0009796133963391185,0.0011305330554023385,-0.0035386946983635426,1.0011252164840698,0.0,0.0,0.0,16.658050537109375,1.0343185663223267,2.7942657470703125,-3015.139892578125,0
425.012999999999,0.0410626046359539,-0.11690383404493332,0.0013823519693687558,0.0,0.0,0.0,0.0,-0.0011069969041272998,-0.003039293922483921,-0.0019725558813661337,0.9988614320755005,0.0,0.0,0.0,16.663028717041016,1.0310856103897095,2.7913756370544434,-3016.04150390625,0
434.90400000000045,0.04090382158756256,-0.11660398542881012,0.0015226573450490832,0.0,0.0,0.0,0.0,0.0006704782135784626,0.0026538551319390535,0.0011374643072485924,1.0020543336868286,0.0,0.0,0.0,16.66905403137207,1.0811225175857544,2.7851195335388184,-3017.132080078125,0
444.77299999999923,0.04105810821056366,-0.11687605828046799,0.0015058291610330343,0.0,0.0,0.0,0.0,-0.0004053661541547626,-0.0010028055403381586,-0.001832566107623279,1.0005306005477905,0.0,0.0,0.0,16.66876983642578,1.038956880569458,2.789111852645874,-3017.080810546875,0
454.66699999999946,0.041011322289705276,-0.11696929484605789,0.0015102101024240255,0.0,0.0,0.0,0.0,-0.002780304290354252,-0.0007038256153464317,-0.0010736427502706647,0.996739387512207,0.0,0.0,0.0,16.652509689331055,1.0394855737686157,2.7851648330688477,-3014.137451171875,0
464.53999999999905,0.041016992181539536,-0.11694036424160004,0.001517902361229062,0.0,0.0,0.0,0.0,-0.0043275062926113605,-0.005148880183696747,-0.0003598576586227864,0.9970619678497314,0.0,0.0,0.0,16.654088973999023,1.050865888595581,2.788144826889038,-3014.423095703125,0
504.08100000000013,0.04112686589360237,-0.1168159767985344,0.0013990504667162895,0.0,0.0,0.0,0.0,0.0006062128231860697,0.0006162936915643513,0.0006259936490096152,1.0001544952392578,0.0,0.0,0.0,16.64047622680664,1.0921999216079712,2.805359125137329,-3011.958984375,0
513.9689999999991,0.041081879287958145,-0.11689498275518417,0.0013936694012954831,0.0,0.0,0.0,0.0,-0.000940927944611758,0.003554276656359434,-0.0026313569396734238,0.9964969158172607,0.0,0.0,0.0,16.624130249023438,1.0888341665267944,2.8073320388793945,-3009.00048828125,0
523.8529999999992,0.04108396917581558,-0.116877481341362,0.0013896853197366,0.0,0.0,0.0,0.0,4.083115709363483e-05,0.0010653475765138865,0.0028042099438607693,0.9984402656555176,0.0,0.0,0.0,16.626991271972656,1.084851622581482,2.792834520339966,-3009.518310546875,0
533.7430000000004,0.04103552922606468,-0.11695900559425354,0.0013818690786138177,0.0,0.0,0.0,0.0,0.0010241582058370113,0.0003130718250758946,-0.0010852041887119412,0.9988325834274292,0.0,0.0,0.0,16.610139846801758,1.0879641771316528,2.7834219932556152,-3006.46826171875,0
543.6119999999992,0.04107563570141792,-0.11689770966768265,0.0013798716245219111,0.0,0.0,0.0,0.0,0.0022827456705272198,0.001598769100382924,-0.00019619980594143271,0.9987372756004333,0.0,0.0,0.0,16.614967346191406,1.0980291366577148,2.790548086166382,-3007.342041015625,0
553.509,0.04102347046136856,-0.11697613447904587,0.0013699205592274666,0.0,0.0,0.0,0.0,0.000252443365752697,-0.006449492182582617,0.004871763754636049,1.000245451927185,0.0,0.0,0.0,16.597089767456055,1.0942409038543701,2.792675733566284,-3004.1064453125,0
563.3799999999992,0.04104599356651306,-0.1169474869966507,0.0013639619573950768,0.0,0.0,0.0,0.0,-0.002804114017635584,-0.006403333507478237,0.0007336245034821332,1.0013965368270874,0.0,0.0,0.0,16.604351043701172,1.0954062938690186,2.798043727874756,-3005.420654296875,0
573.271999999999,0.04099231958389282,-0.11702649295330048,0.0013539057690650225,0.0,0.0,0.0,0.0,-0.0009234080789610744,0.0016874142456799746,-0.003288957057520747,0.9995647072792053,0.0,0.0,0.0,16.58867645263672,1.1017780303955078,2.803886651992798,-3002.58349609375,0
583.1550000000007,0.041043683886528015,-0.11697638779878616,0.001358755980618298,0.0,0.0,0.0,0.0,0.0016063342336565256,0.0034330273047089577,0.00010663924331311136,0.9997435808181763,0.0,0.0,0.0,16.594715118408203,1.120491623878479,2.8238680362701416,-3003.676513671875,0
593.0460000000003,0.04099125787615776,-0.11705367267131805,0.001351173734292388,0.0,0.0,0.0,0.0,-0.0002686245134100318,0.0019110856810584664,0.0029925021808594465,1.0003175735473633,0.0,0.0,0.0,16.577985763549805,1.1154495477676392,2.8081789016723633,-3000.6484375,0
602.9169999999995,0.041053324937820435,-0.11699884384870529,0.0013702948344871402,0.0,0.0,0.0,0.0,-0.0013916834723204374,0.005278619006276131,-0.0021132170222699642,0.9982033967971802,0.0,0.0,0.0,16.584115982055664,1.147774338722229,2.8207621574401855,-3001.758056640625,0
612.8140000000003,0.040998294949531555,-0.11707057803869247,0.0013650618493556976,0.0,0.0,0.0,0.0,-0.0011827526614069939,0.004214862361550331,0.0011926458682864904,0.9990999102592468,0.0,0.0,0.0,16.566715240478516,1.1429896354675293,2.811760425567627,-2998.608642578125,0
622.6939999999995,0.041045915335416794,-0.11702153831720352,0.0014007259160280228,0.0,0.0,0.0,0.0,-0.0017096957890316844,0.00504433223977685,-0.0012032219674438238,0.9985053539276123,0.0,0.0,0.0,16.57670021057129,1.1863574981689453,2.8312184810638428,-3000.415771484375,0
662.2260000000006,0.040919627994298935,-0.1171395555138588,0.00144213589373976,0.0,0.0,0.0,0.0,0.0002149832434952259,-0.003513754578307271,0.0011604545870795846,0.998741865158081,0.0,0.0,0.0,16.535079956054688,1.2465713024139404,2.844210147857666,-2992.88232421875,0
672.1129999999994,0.04086531326174736,-0.11718714237213135,0.0014386664843186736,0.0,0.0,0.0,0.0,0.0030878528486937284,0.0030199862085282803,-0.001664928626269102,0.9976338744163513,0.0,0.0,0.0,16.5187931060791,1.2419145107269287,2.8357229232788086,-2989.9345703125,0
681.9899999999998,0.04080940783023834,-0.11723488569259644,0.0014343676157295704,0.0,0.0,0.0,0.0,0.004034233279526234,-0.004082048777490854,0.0026638221461325884,0.9972434043884277,0.0,0.0,0.0,16.501981735229492,1.2445698976516724,2.8296005725860596,-2986.891357421875,0
691.8889999999992,0.040752675384283066,-0.11728216707706451,0.0014282988850027323,0.0,0.0,0.0,0.0,-0.0010484351078048348,-0.006411191541701555,-0.002827776363119483,0.9968554973602295,0.0,0.0,0.0,16.484943389892578,1.2409594058990479,2.82102108001709,-2983.8076171875,0
701.759,0.04069455340504646,-0.11732859909534454,0.0014196163974702358,0.0,0.0,0.0,0.0,0.001350755919702351,0.0010861746268346906,-0.0030169507954269648,1.001685380935669,0.0,0.0,0.0,16.469417572021484,1.2415887117385864,2.8335089683532715,-2980.9970703125,0
711.652,0.04063482955098152,-0.11737416684627533,0.001408932963386178,0.0,0.0,0.0,0.0,0.0032618511468172073,-0.005686511751264334,0.0013152636820450425,1.0023630857467651,0.0,0.0,0.0,16.452943801879883,1.2431042194366455,2.83625864982605,-2978.015869140625,0
721.5280000000002,0.040573082864284515,-0.11741967499256134,0.0013989629223942757,0.0,0.0,0.0,0.0,-0.0012067421339452267,0.00022103583614807576,0.0058656008914113045,0.9976792931556702,0.0,0.0,0.0,16.43680763244629,1.240876317024231,2.836059331893921,-2975.094970703125,0
731.4169999999995,0.04050863906741142,-0.1174653097987175,0.0013906395761296153,0.0,0.0,0.0,0.0,-0.001228951383382082,-5.8093195548281074e-05,0.00017231602396350354,0.9994853138923645,0.0,0.0,0.0,16.419973373413086,1.2360339164733887,2.8435380458831787,-2972.0478515625,0
741.2939999999999,0.040442727506160736,-0.1175103411078453,0.0013815545244142413,0.0,0.0,0.0,0.0,0.0008392182062380016,-0.004889441654086113,-6.534265412483364e-05,1.0015827417373657,0.0,0.0,0.0,16.40448760986328,1.2303427457809448,2.8395400047302246,-2969.244873046875,0
751.1929999999993,0.04045999050140381,-0.11626123636960983,0.0013199261156842113,0.0,0.0,0.0,0.0,0.00037389658973552287,-0.0017684032209217548,-0.00034611282171681523,1.0011351108551025,0.0,0.0,0.0,16.422122955322266,1.6460316181182861,2.9777581691741943,-2972.437255859375,0
761.0659999999989,0.040394846349954605,-0.11620095372200012,0.0013207236770540476,0.0,0.0,0.0,0.0,-0.002777493093162775,0.0006783940480090678,0.0007257163524627686,1.0001975297927856,0.0,0.0,0.0,16.40532684326172,1.6399290561676025,2.9845144748687744,-2969.396728515625,0
770.9589999999989,0.04032915085554123,-0.11613842844963074,0.001322662690654397,0.0,0.0,0.0,0.0,-0.0003866489860229194,-0.0030652189161628485,-0.0002623586915433407,0.9999239444732666,0.0,0.0,0.0,16.388566970825195,1.6390483379364014,2.9915425777435303,-2966.363037109375,0
958.7399999999998,0.04107191041111946,-0.11689946800470352,0.0013002268970012665,0.0,0.0,0.0,0.0,2.3657077690586448e-05,-0.00036248425021767616,-0.0021166717633605003,0.9988166093826294,0.0,0.0,0.0,16.28917121887207,1.1100361347198486,3.113190174102783,-2948.37255859375,0
968.6329999999998,0.04107905924320221,-0.11691662669181824,0.0012684601824730635,0.0,0.0,0.0,0.0,0.0014476146316155791,0.0008744553779251873,-0.0008337330655194819,1.0000251531600952,0.0,0.0,0.0,16.273115158081055,1.1076244115829468,3.098735809326172,-2945.466064453125,0
978.5110000000004,0.04107300564646721,-0.11691491305828094,0.0012511113891378045,0.0,0.0,0.0,0.0,-0.0015916689299046993,0.0018599393079057336,-0.00374970561824739,1.000992774963379,0.0,0.0,0.0,16.306991577148438,1.1136345863342285,3.093404769897461,-2951.59814453125,0
988.4130000000005,0.04108081012964249,-0.1169348731637001,0.001218897057697177,0.0,0.0,0.0,0.0,0.004618280567228794,0.0031319099944084883,0.001728429226204753,0.9998930096626282,0.0,0.0,0.0,16.29044532775879,1.1149920225143433,3.0794949531555176,-2948.602783203125,0
998.2829999999994,0.041067786514759064,-0.11693012714385986,0.0012130870018154383,0.0,0.0,0.0,0.0,-0.0018353256164118648,0.0033899189438670874,0.001186576671898365,1.0005443096160889,0.0,0.0,0.0,16.32255744934082,1.1281466484069824,3.0726349353790283,-2954.415283203125,0
1008.1729999999989,0.04107290878891945,-0.11694956570863724,0.0011843305546790361,0.0,0.0,0.0,0.0,-0.001373315928503871,0.006627549417316914,0.0010502468794584274,1.0008223056793213,0.0,0.0,0.0,16.30573272705078,1.1159756183624268,3.0569236278533936,-2951.370361328125,0
1018.0439999999999,0.04108438268303871,-0.1169518455862999,0.001186152221634984,0.0,0.0,0.0,0.0,-0.0019414226990193129,0.0009258920326828957,0.00356474332511425,1.0007280111312866,0.0,0.0,0.0,16.335296630859375,1.1348459720611572,3.045513868331909,-2956.72119140625,0
1027.9400000000005,0.0410897396504879,-0.11697068810462952,0.0011613939423114061,0.0,0.0,0.0,0.0,0.0015449493657797575,0.0008222632459364831,0.00022544417879544199,1.0016604661941528,0.0,0.0,0.0,16.319982528686523,1.126372218132019,3.0322282314300537,-2953.949462890625,0
1037.812,0.0411079004406929,-0.11697088927030563,0.0011705615324899554,0.0,0.0,0.0,0.0,-0.0027050701901316643,0.00018209997506346554,-0.0011323411017656326,0.9998700022697449,0.0,0.0,0.0,16.35206413269043,1.137941837310791,3.042027473449707,-2959.756103515625,0
1047.708999999999,0.0411154069006443,-0.11698885262012482,0.001151086064055562,0.0,0.0,0.0,0.0,0.0031144884414970875,0.0033749763388186693,0.0027216265443712473,1.0006077289581299,0.0,0.0,0.0,16.336706161499023,1.1394122838974,3.0431602001190186,-2956.976318359375,0
1057.5810000000001,0.04111216217279434,-0.11697293817996979,0.001174240605905652,0.0,0.0,0.0,0.0,-0.0005582718877121806,-0.0048102159053087234,0.0019593723118305206,1.002489686012268,0.0,0.0,0.0,16.361581802368164,1.1661081314086914,3.0295166969299316,-2961.478759765625,0
1067.4779999999992,0.041118934750556946,-0.11698658019304276,0.0011602526064962149,0.0,0.0,0.0,0.0,-0.0005080507253296673,0.0005969874910078943,0.0013149925507605076,0.9988740086555481,0.0,0.0,0.0,16.346210479736328,1.1627943515777588,3.0298092365264893,-2958.696533203125,0
1077.3500000000004,0.04112884774804115,-0.11698030680418015,0.0011837722267955542,0.0,0.0,0.0,0.0,0.0018827068852260709,0.0006077874568291008,-0.0013542311498895288,1.000095009803772,0.0,0.0,0.0,16.373794555664062,1.1764203310012817,3.0413711071014404,-2963.689208984375,0
1087.244999999999,0.04113764688372612,-0.11699000746011734,0.0011749046389013529,0.0,0.0,0.0,0.0,-0.0007751656812615693,-0.0022960409987717867,0.0002396861818851903,1.0003175735473633,0.0,0.0,0.0,16.358436584472656,1.1838539838790894,3.041572332382202,-2960.909423828125,0
1097.1170000000002,0.041120003908872604,-0.11696945130825043,0.0011920303804799914,0.0,0.0,0.0,0.0,0.0004872349963989109,0.00047900681965984404,-0.002036015735939145,0.9996670484542847,0.0,0.0,0.0,16.385404586791992,1.2140510082244873,3.035623073577881,-2965.791015625,0
1107.018,0.0411255769431591,-0.11697583645582199,0.0011852496536448598,0.0,0.0,0.0,0.0,0.002399041084572673,-0.0025781458243727684,-0.0028490072581917048,0.9983116984367371,0.0,0.0,0.0,16.36956024169922,1.2167270183563232,3.02846622467041,-2962.9228515625,0
1116.8850000000002,0.041112855076789856,-0.11694685369729996,0.0012141561601310968,0.0,0.0,0.0,0.0,-0.0009784208377823234,-0.0009464272297918797,0.00032501487294211984,0.9978416562080383,0.0,0.0,0.0,16.390485763549805,1.2407264709472656,3.0312106609344482,-2966.71044921875,0
1126.7829999999994,0.04111823812127113,-0.11694978922605515,0.0012089078081771731,0.0,0.0,0.0,0.0,-0.0009057269198819995,0.004080591257661581,-0.003009342821314931,0.9999260306358337,0.0,0.0,0.0,16.374553680419922,1.2384471893310547,3.0401995182037354,-2963.82666015625,0
1136.655999999999,0.041095275431871414,-0.11692945659160614,0.0012369622709229589,0.0,0.0,0.0,0.0,0.00046653003664687276,-0.0012165589723736048,-0.0009327830630354583,0.9995746612548828,0.0,0.0,0.0,16.39691162109375,1.264944314956665,3.0299012660980225,-2967.87353515625,0
1146.545,0.04104510694742203,-0.1166660338640213,0.0014330970589071512,0.0,0.0,0.0,0.0,-0.0003785568114835769,0.003702728543430567,-0.0006469752406701446,1.0027236938476562,0.0,0.0,0.0,16.41526985168457,1.3025609254837036,3.031297445297241,-2971.196533203125,0
1156.4210000000003,0.04107699170708656,-0.11679886281490326,0.0013502090005204082,0.0,0.0,0.0,0.0,0.0012972757685929537,0.00368447694927454,-0.0009209338459186256,1.0005286931991577,0.0,0.0,0.0,16.433801651000977,1.2836703062057495,3.011078357696533,-2974.55078125,0
1166.3179999999993,0.041079964488744736,-0.11679773777723312,0.0013537597842514515,0.0,0.0,0.0,0.0,-0.0012032438535243273,0.0035297772847115993,0.0009152526035904884,0.9974185824394226,0.0,0.0,0.0,16.417034149169922,1.2809504270553589,3.0028116703033447,-2971.515625,0
1176.1890000000003,0.04108889028429985,-0.11680714040994644,0.0013472136342898011,0.0,0.0,0.0,0.0,0.0016399348387494683,0.0011968394974246621,-0.0013054992305114865,0.9981124401092529,0.0,0.0,0.0,16.436920166015625,1.2739092111587524,2.9840750694274902,-2975.115478515625,0
1186.0869999999995,0.041093457490205765,-0.1168099045753479,0.0013482763897627592,0.0,0.0,0.0,0.0,-0.0018766055582091212,-0.0011887737782672048,0.000343920401064679,1.0016013383865356,0.0,0.0,0.0,16.421281814575195,1.273681402206421,2.9756696224212646,-2972.28466796875,0
1195.9629999999997,0.04108982905745506,-0.11685026437044144,0.0013386299833655357,0.0,0.0,0.0,0.0,0.0013392752734944224,0.002497290261089802,0.0029750897083431482,1.0023993253707886,0.0,0.0,0.0,16.442426681518555,1.2606639862060547,2.9599289894104004,-2976.112060546875,0
1205.8500000000004,0.041095830500125885,-0.11685343086719513,0.0013377041323110461,0.0,0.0,0.0,0.0,-0.001129943528212607,9.570308975526132e-06,0.0020976425148546696,0.9993653297424316,0.0,0.0,0.0,16.425453186035156,1.2617350816726685,2.9658548831939697,-2973.0400390625,0
1215.732,0.04107539355754852,-0.11687017232179642,0.0013293654192239046,0.0,0.0,0.0,0.0,0.0011104537406936288,0.003018872579559684,-0.002449534833431244,0.9988973736763,0.0,0.0,0.0,16.44849395751953,1.2465932369232178,2.952507257461548,-2977.210205078125,0
1225.6190000000006,0.040956124663352966,-0.11652272194623947,0.0016017202287912369,0.0,0.0,0.0,0.0,-0.001697762287221849,0.0005942719872109592,-0.0024327519349753857,0.9986571669578552,0.0,0.0,0.0,16.46855354309082,1.2601104974746704,2.9308483600616455,-2980.8408203125,0
1235.5,0.04104102402925491,-0.11683129519224167,0.0015016141114756465,0.0,0.0,0.0,0.0,0.0011581600410863757,0.0014932763297110796,-0.004251352045685053,0.9989029765129089,0.0,0.0,0.0,16.483112335205078,1.2386095523834229,2.919318914413452,-2983.47607421875,0
1245.3919999999998,0.04097709804773331,-0.11641435325145721,0.001615850836969912,0.0,0.0,0.0,0.0,-0.0015803370624780655,0.0016705332091078162,-0.0005764822126366198,1.0001031160354614,0.0,0.0,0.0,16.497215270996094,1.258249282836914,2.9013006687164307,-2986.02880859375,0
1255.2610000000004,0.04106564074754715,-0.11688998341560364,0.0014974595978856087,0.0,0.0,0.0,0.0,-0.002918748650699854,-0.0003384831943549216,0.0024706125259399414,0.9998633861541748,0.0,0.0,0.0,16.509849548339844,1.2190219163894653,2.8915202617645264,-2988.315673828125,0
1265.1640000000007,0.04106834530830383,-0.11690287292003632,0.0014996840618550777,0.0,0.0,0.0,0.0,-0.0007859533652663231,0.0018664913950487971,0.0004393658309709281,1.0003869533538818,0.0,0.0,0.0,16.494096755981445,1.220261812210083,2.8974318504333496,-2985.46435546875,0
1275.030999999999,0.04105246812105179,-0.11689294874668121,0.001492894720286131,0.0,0.0,0.0,0.0,3.0425668228417635e-05,-0.004372169263660908,-0.0019071586430072784,1.000319242477417,0.0,0.0,0.0,16.5067195892334,1.2181950807571411,2.884160041809082,-2987.7490234375,0
1284.932999999999,0.04105259105563164,-0.11690844595432281,0.0014939488610252738,0.0,0.0,0.0,0.0,0.000508484139572829,0.005765511654317379,0.0004131726745981723,1.0003905296325684,0.0,0.0,0.0,16.490318298339844,1.2199163436889648,2.8806560039520264,-2984.780517578125,0
1294.8060000000005,0.0410471186041832,-0.11689874529838562,0.0014888955047354102,0.0,0.0,0.0,0.0,0.001396047417074442,0.0012543188640847802,-0.00025678379461169243,1.0003610849380493,0.0,0.0,0.0,16.504878997802734,1.207829236984253,2.8783113956451416,-2987.416015625,0
1304.705,0.040996063500642776,-0.11647039651870728,0.001578709576278925,0.0,0.0,0.0,0.0,0.0024963379837572575,-0.002266049850732088,-0.0011405866825953126,1.0000483989715576,0.0,0.0,0.0,16.51630401611328,1.234816312789917,2.8663978576660156,-2989.48388671875,0
1314.571,0.04107281193137169,-0.11687055975198746,0.0014607427874580026,0.0,0.0,0.0,0.0,0.002061908133327961,0.001338090281933546,-0.0015604393556714058,0.997461199760437,0.0,0.0,0.0,16.527416229248047,1.19571053981781,2.864902973175049,-2991.495361328125,0
1324.4619999999995,0.040990833193063736,-0.11643777042627335,0.0015679538482800126,0.0,0.0,0.0,0.0,-0.0005316108581610024,0.0007643269491381943,0.004090136848390102,0.9964225888252258,0.0,0.0,0.0,16.536752700805664,1.2158507108688354,2.8674747943878174,-2993.18505859375,0
1334.3420000000006,0.041074056178331375,-0.11683632433414459,0.001464465749450028,0.0,0.0,0.0,0.0,-0.002125958213582635,-0.000700820644851774,-0.0013948909472674131,0.9997896552085876,0.0,0.0,0.0,16.547544479370117,1.1782031059265137,2.8598694801330566,-2995.138427734375,0
1344.226999999999,0.040989093482494354,-0.1164192408323288,0.0015613503055647016,0.0,0.0,0.0,0.0,-0.0010052371071651578,0.004953948315232992,0.0015588760143145919,1.0011184215545654,0.0,0.0,0.0,16.553791046142578,1.2075276374816895,2.8708786964416504,-2996.269287109375,0
1354.1029999999992,0.04107913747429848,-0.11684385687112808,0.0014517265371978283,0.0,0.0,0.0,0.0,0.0023205371107906103,-0.00520709715783596,0.0015319169033318758,1.0006853342056274,0.0,0.0,0.0,16.55904769897461,1.1694895029067993,2.862139940261841,-2997.220703125,0
1363.994999999999,0.041071198880672455,-0.11686746776103973,0.0014456056524068117,0.0,0.0,0.0,0.0,-0.0005422207177616656,-0.00016217392112594098,-0.00037154226447455585,0.9996280074119568,0.0,0.0,0.0,16.542678833007812,1.1695716381072998,2.862926959991455,-2994.2578125,0
1373.8719999999994,0.0410623773932457,-0.11689034104347229,0.0014292866690084338,0.0,0.0,0.0,0.0,0.00017855675832834095,-0.0010840261820703745,-0.00033220212208107114,0.9984093904495239,0.0,0.0,0.0,16.551977157592773,1.1558037996292114,2.852412462234497,-2995.94091796875,0
1383.7739999999994,0.04105248302221298,-0.11691586673259735,0.0014223332982510328,0.0,0.0,0.0,0.0,-0.002876661717891693,0.0034940827172249556,-0.00022834783885627985,0.9991116523742676,0.0,0.0,0.0,16.534576416015625,1.1503117084503174,2.849883794784546,-2992.791259765625,0
1393.637999999999,0.0410536527633667,-0.11687423288822174,0.0014130047056823969,0.0,0.0,0.0,0.0,-0.0006175727467052639,0.003087046090513468,-0.0003497495490591973,0.9992600679397583,0.0,0.0,0.0,16.54044532775879,1.15526282787323,2.8435418605804443,-2993.853515625,0
1403.5339999999997,0.04104005917906761,-0.11689687520265579,0.0014034961350262165,0.0,0.0,0.0,0.0,-0.0020214528776705265,-6.388783367583528e-05,0.005658863112330437,1.0016957521438599,0.0,0.0,0.0,16.524063110351562,1.156833291053772,2.8446788787841797,-2990.88818359375,0
1413.4140000000007,0.04104922339320183,-0.11687804013490677,0.001390041084960103,0.0,0.0,0.0,0.0,0.0029555081855505705,0.0028627868741750717,-0.0009303962578997016,1.0003395080566406,0.0,0.0,0.0,16.53286361694336,1.153730869293213,2.833153247833252,-2992.481201171875,0
1423.3060000000005,0.04092461243271828,-0.11650624126195908,0.0015915518160909414,0.0,0.0,0.0,0.0,-0.001934728934429586,0.004097828175872564,-5.087776662549004e-05,1.0002801418304443,0.0,0.0,0.0,16.551706314086914,1.192700743675232,2.8375701904296875,-2995.891845703125,0
1433.1819999999989,0.04104279354214668,-0.11683697253465652,0.001511002192273736,0.0,0.0,0.0,0.0,0.00023228483041748405,-0.0020583984442055225,-0.004024289082735777,0.9990391135215759,0.0,0.0,0.0,16.556093215942383,1.1505149602890015,2.8245203495025635,-2996.685791015625,0
1443.0679999999993,0.04093063622713089,-0.1164432168006897,0.0016491323476657271,0.0,0.0,0.0,0.0,-0.0017533042700961232,0.0003888506907969713,-0.001021050731651485,0.9998615980148315,0.0,0.0,0.0,16.569530487060547,1.1858264207839966,2.82326602935791,-2999.117919921875,0
1452.946,0.04104212671518326,-0.11685220152139664,0.0015655665192753077,0.0,0.0,0.0,0.0,0.0009461778681725264,0.0039457157254219055,-0.00175258400849998,0.999835729598999,0.0,0.0,0.0,16.57611656188965,1.136955976486206,2.818631649017334,-3000.31005859375,0
1462.8400000000001,0.04102516174316406,-0.11687580496072769,0.0015676862094551325,0.0,0.0,0.0,0.0,-0.00443342374637723,-0.0007116984343156219,0.0017409834545105696,0.9982871413230896,0.0,0.0,0.0,16.559539794921875,1.1401867866516113,2.803288459777832,-2997.3095703125,0
1472.7119999999995,0.041024547070264816,-0.11691407114267349,0.0015606109518557787,0.0,0.0,0.0,0.0,0.00291881593875587,-0.001803437015041709,0.001122638233937323,0.9998710751533508,0.0,0.0,0.0,16.565431594848633,1.125156044960022,2.785080909729004,-2998.376220703125,0
1482.6090000000004,0.04100503772497177,-0.1169428899884224,0.0015601443592458963,0.0,0.0,0.0,0.0,0.0005689411191269755,0.003349623177200556,0.003382523311302066,1.0004886388778687,0.0,0.0,0.0,16.54853057861328,1.1240535974502563,2.7830424308776855,-2995.317138671875,0
1492.4850000000006,0.04102688655257225,-0.11693717539310455,0.0015548219671472907,0.0,0.0,0.0,0.0,0.0019097443437203765,0.0049059451557695866,-0.002236191648989916,0.9997254610061646,0.0,0.0,0.0,16.556941986083984,1.1051032543182373,2.7711589336395264,-2996.83935546875,0
1502.3719999999994,0.04101090133190155,-0.11696907877922058,0.0015534856356680393,0.0,0.0,0.0,0.0,0.0010062461951747537,0.005915756803005934,0.0016850844258442521,0.9995509386062622,0.0,0.0,0.0,16.541519165039062,1.102778434753418,2.7690541744232178,-2994.0478515625,0
1512.2510000000002,0.04104135185480118,-0.11693719029426575,0.0015523748006671667,0.0,0.0,0.0,0.0,0.0008595868130214512,0.0027677493635565042,-0.0012326061259955168,1.001731276512146,0.0,0.0,0.0,16.546581268310547,1.094826340675354,2.7415833473205566,-2994.964111328125,0
1522.146999999999,0.041023384779691696,-0.11696957051753998,0.001550608896650374,0.0,0.0,0.0,0.0,0.0008086810121312737,-0.008227603510022163,0.0018975898856297135,1.0013294219970703,0.0,0.0,0.0,16.529876708984375,1.088803768157959,2.725153684616089,-2991.940185546875,0
1532.0159999999996,0.04104692116379738,-0.11699464172124863,0.0015441105933859944,0.0,0.0,0.0,0.0,-0.003442467423155904,0.00180882029235363,-0.0005788833368569613,1.0002673864364624,0.0,0.0,0.0,16.540864944458008,1.074701189994812,2.720029592514038,-2993.929443359375,0
1541.9220000000005,0.04102808237075806,-0.11703027784824371,0.0015439765993505716,0.0,0.0,0.0,0.0,0.0016216142103075981,0.005433683283627033,-0.00017388860578648746,1.0005624294281006,0.0,0.0,0.0,16.5242977142334,1.0766748189926147,2.7130556106567383,-2990.9306640625,0
1551.7870000000003,0.041016485542058945,-0.11702390015125275,0.0015429658815264702,0.0,0.0,0.0,0.0,-0.0017634928226470947,0.0011733479332178831,0.003216787939891219,0.9998370409011841,0.0,0.0,0.0,16.533184051513672,1.0791943073272705,2.706181287765503,-2992.539306640625,0
1561.6759999999995,0.0409969724714756,-0.11706318706274033,0.0015437114052474499,0.0,0.0,0.0,0.0,0.002936632838100195,0.0034722292330116034,-0.0031311276834458113,0.9976585507392883,0.0,0.0,0.0,16.516216278076172,1.07768714427948,2.6917028427124023,-2989.468017578125,0
1571.5589999999993,0.04101937264204025,-0.1170545369386673,0.0015534181147813797,0.0,0.0,0.0,0.0,0.004714016802608967,0.0019520292989909649,0.002311568707227707,0.9980417490005493,0.0,0.0,0.0,16.52686309814453,1.075024127960205,2.6813409328460693,-2991.39501953125,0
1581.449999999999,0.04097974672913551,-0.1166481077671051,0.001612981897778809,0.0,0.0,0.0,0.0,-0.0014748906251043081,-0.0016437922604382038,0.002375270240008831,0.9983713626861572,0.0,0.0,0.0,16.53156089782715,1.1453981399536133,2.6980860233306885,-2992.245361328125,0
1591.3220000000001,0.041038502007722855,-0.11692897975444794,0.0015056557022035122,0.0,0.0,0.0,0.0,0.0005721585475839674,0.0008942463900893927,-0.001644509145990014,0.9973078370094299,0.0,0.0,0.0,16.541919708251953,1.0915147066116333,2.6794605255126953,-2994.120361328125,0
1601.2170000000006,0.04101885110139847,-0.11696461588144302,0.0015000146813690662,0.0,0.0,0.0,0.0,-0.00016365582996513695,0.006956986151635647,0.0011680843308568,0.9994098544120789,0.0,0.0,0.0,16.524965286254883,1.0946909189224243,2.6773409843444824,-2991.0517578125,0
1611.0879999999997,0.041027192026376724,-0.11697909235954285,0.001483418047428131,0.0,0.0,0.0,0.0,-0.0014757474418729544,-0.0028316283132880926,0.002293494064360857,1.0008987188339233,0.0,0.0,0.0,16.535179138183594,1.079653024673462,2.666325807571411,-2992.900146484375,0
1620.9899999999998,0.04100815951824188,-0.1170196533203125,0.0014740752521902323,0.0,0.0,0.0,0.0,0.0011119559640064836,0.0007626033038832247,-0.00034662807593122125,0.9999935626983643,0.0,0.0,0.0,16.51915740966797,1.0821350812911987,2.6613097190856934,-2990.000244140625,0
1630.8590000000004,0.041016221046447754,-0.11692877858877182,0.001469863811507821,0.0,0.0,0.0,0.0,-0.0016951400320976973,0.00017232148093171418,-0.001574427355080843,0.9992592930793762,0.0,0.0,0.0,16.528581619262695,1.092960000038147,2.6597819328308105,-2991.705810546875,0
1640.7440000000006,0.040959812700748444,-0.116514652967453,0.001545457635074854,0.0,0.0,0.0,0.0,-0.0022200618404895067,0.000632965296972543,-0.0025205553974956274,1.000024437904358,0.0,0.0,0.0,16.537694931030273,1.1369121074676514,2.6629254817962646,-2993.355224609375,0
1650.6270000000004,0.041065894067287445,-0.11685214191675186,0.0014461929677054286,0.0,0.0,0.0,0.0,-0.0008044199785217643,0.0012656553881242871,0.0007569935987703502,0.9976155161857605,0.0,0.0,0.0,16.54738426208496,1.0871855020523071,2.6530299186706543,-2995.109375,0
1660.5390000000007,0.041047509759664536,-0.11689449101686478,0.0014364884700626135,0.0,0.0,0.0,0.0,-0.0016507066320627928,0.004125795792788267,-0.00258757546544075,0.998827338218689,0.0,0.0,0.0,16.530364990234375,1.0877307653427124,2.6465816497802734,-2992.028564453125,0
1670.3979999999992,0.04105675593018532,-0.11690596491098404,0.0014178500277921557,0.0,0.0,0.0,0.0,-0.0013436763547360897,-0.0040539526380598545,0.0008111177012324333,0.9985173344612122,0.0,0.0,0.0,16.540552139282227,1.073085904121399,2.6296746730804443,-2993.873046875,0
1680.289999999999,0.04103437066078186,-0.11695437878370285,0.0014047430595383048,0.0,0.0,0.0,0.0,0.002575106220319867,0.00877456832677126,0.001401247107423842,0.998502254486084,0.0,0.0,0.0,16.523771286010742,1.0700777769088745,2.6096177101135254,-2990.835205078125,0
1690.161,0.04109029471874237,-0.11689180135726929,0.0013947798870503902,0.0,0.0,0.0,0.0,0.0034806153271347284,0.00027884336304850876,-0.004417817108333111,0.997783362865448,0.0,0.0,0.0,16.532207489013672,1.0743741989135742,2.5998027324676514,-2992.362548828125,0
1700.0640000000003,0.04100992530584335,-0.11646246910095215,0.0014917190419510007,0.0,0.0,0.0,0.0,-0.0005339182680472732,-0.0023606750182807446,0.002893818309530616,0.9984945058822632,0.0,0.0,0.0,16.542665481567383,1.1229169368743896,2.6021459102630615,-2994.25537109375,0
1709.9319999999989,0.041094597429037094,-0.1168430745601654,0.001376628060825169,0.0,0.0,0.0,0.0,-0.0004992526955902576,-0.0027551697567105293,-0.0011286960216239095,0.9973968863487244,0.0,0.0,0.0,16.551795959472656,1.0660362243652344,2.601762056350708,-2995.907958984375,0
1719.8279999999995,0.040981225669384,-0.11645091325044632,0.001484936336055398,0.0,0.0,0.0,0.0,-0.0002771713479887694,-0.0019329814240336418,-0.0018842234276235104,0.998416006565094,0.0,0.0,0.0,16.558799743652344,1.1034311056137085,2.5908329486846924,-2997.17578125,0
1729.7080000000005,0.040951669216156006,-0.11649590730667114,0.0014746377710253,0.0,0.0,0.0,0.0,0.0016990911681205034,0.00022379300207830966,-0.0015450710197910666,0.9981158971786499,0.0,0.0,0.0,16.542570114135742,1.0998207330703735,2.594820022583008,-2994.238037109375,0
1739.6039999999994,0.04080478101968765,-0.11615849286317825,0.0016220964025706053,0.0,0.0,0.0,0.0,-0.0002087770844809711,-0.0009922947501763701,-6.130599649623036e-05,0.999365508556366,0.0,0.0,0.0,16.546852111816406,1.1757564544677734,2.601435422897339,-2995.01318359375,0
1749.4660000000003,0.041059460490942,-0.11681199073791504,0.0015068263746798038,0.0,0.0,0.0,0.0,0.0031418984290212393,-0.0051687778905034065,-0.0017790814163163304,1.0003072023391724,0.0,0.0,0.0,16.554248809814453,1.0555893182754517,2.6053786277770996,-2996.35205078125,0
1759.3600000000006,0.04097715765237808,-0.11641377955675125,0.0015816683880984783,0.0,0.0,0.0,0.0,-0.00026488734874874353,-0.0057769957929849625,0.0017322751227766275,0.9992495179176331,0.0,0.0,0.0,16.561372756958008,1.0978679656982422,2.620755672454834,-2997.641357421875,0
1769.2440000000006,0.041060082614421844,-0.11685078591108322,0.0014693820849061012,0.0,0.0,0.0,0.0,0.0016277674585580826,-0.0011847727000713348,-0.002250633668154478,0.9993935823440552,0.0,0.0,0.0,16.5697021484375,1.038170576095581,2.6181020736694336,-2999.149169921875,0
1779.1329999999998,0.041034068912267685,-0.11690671741962433,0.0014565074816346169,0.0,0.0,0.0,0.0,-0.002246312564238906,0.003486471250653267,-0.001986336661502719,0.9970732927322388,0.0,0.0,0.0,16.552120208740234,1.0369856357574463,2.6111021041870117,-2995.966796875,0
1789.0020000000004,0.04104720801115036,-0.11689264327287674,0.001441040774807334,0.0,0.0,0.0,0.0,-0.0008027993026189506,-0.007054751738905907,0.0001985878188861534,0.9999651908874512,0.0,0.0,0.0,16.557891845703125,1.0333189964294434,2.6105194091796875,-2997.011474609375,0
1798.8999999999996,0.04096830263733864,-0.11647115647792816,0.0014986166497692466,0.0,0.0,0.0,0.0,0.0030034019146114588,0.007926209829747677,0.0025132985319942236,1.0016117095947266,0.0,0.0,0.0,16.56202507019043,1.0818876028060913,2.6168296337127686,-2997.75927734375,0
1808.777,0.04106435924768448,-0.11687591671943665,0.0014080749824643135,0.0,0.0,0.0,0.0,0.002068248810246587,0.0018486884655430913,-0.0006557144224643707,0.9977118372917175,0.0,0.0,0.0,16.568458557128906,1.0240627527236938,2.6081342697143555,-2998.923828125,0
1818.6669999999995,0.04103044420480728,-0.11693930625915527,0.0013922661310061812,0.0,0.0,0.0,0.0,0.0014818855561316013,0.0066388556733727455,0.0013901198981329799,1.0012387037277222,0.0,0.0,0.0,16.55231285095215,1.0134671926498413,2.593883752822876,-2996.001708984375,0
1828.5439999999999,0.04105721786618233,-0.11694616824388504,0.0013723819283768535,0.0,0.0,0.0,0.0,-0.0014814668102189898,-0.0002465086872689426,-0.0008213788387365639,1.0030542612075806,0.0,0.0,0.0,16.559711456298828,0.9997613430023193,2.5887467861175537,-2997.3408203125,0
1838.4300000000003,0.041021451354026794,-0.11701392382383347,0.0013561423402279615,0.0,0.0,0.0,0.0,0.0011587882181629539,-0.00029828809783793986,0.0012575588189065456,0.9979984164237976,0.0,0.0,0.0,16.543214797973633,1.0003154277801514,2.5732364654541016,-2994.35498046875,0
1848.3060000000005,0.0411013700067997,-0.11693474650382996,0.0013484995579347014,0.0,0.0,0.0,0.0,-0.0011437153443694115,-0.0007230701157823205,-0.00038546571158804,0.9984745979309082,0.0,0.0,0.0,16.549659729003906,1.0040180683135986,2.566882848739624,-2995.521240234375,0
1858.199999999999,0.041065555065870285,-0.11700276285409927,0.0013347376370802522,0.0,0.0,0.0,0.0,0.002459150506183505,0.0022925541270524263,-0.0004884176887571812,0.9995563626289368,0.0,0.0,0.0,16.53337287902832,1.0001295804977417,2.562396287918091,-2992.573486328125,0
1868.074999999999,0.041090164333581924,-0.11687655746936798,0.0013316904660314322,0.0,0.0,0.0,0.0,0.0015847680624574423,0.0036291698925197124,0.0009366818703711033,1.0012184381484985,0.0,0.0,0.0,16.537948608398438,1.0198334455490112,2.5648767948150635,-2993.4013671875,0
1877.973,0.04092999920248985,-0.11654255539178848,0.0015559694729745388,0.0,0.0,0.0,0.0,0.0009394482476636767,0.0025629480369389057,-0.0008588319178670645,1.0023324489593506,0.0,0.0,0.0,16.550180435180664,1.0682246685028076,2.553210735321045,-2995.61572265625,0
1887.848,0.04103904962539673,-0.1168600395321846,0.0014941649278625846,0.0,0.0,0.0,0.0,-0.002590712858363986,-0.00468415254727006,-0.0002440257667331025,1.001587152481079,0.0,0.0,0.0,16.555389404296875,1.0139498710632324,2.552603244781494,-2996.558349609375,0
1897.7459999999992,0.0409972183406353,-0.11692684143781662,0.0014949101023375988,0.0,0.0,0.0,0.0,0.0010084918467327952,0.0006641466170549393,0.006614889483898878,1.0014383792877197,0.0,0.0,0.0,16.538652420043945,1.0122960805892944,2.5446600914001465,-2993.529052734375,0
1907.6100000000006,0.04097539931535721,-0.11698095500469208,0.0014940922847017646,0.0,0.0,0.0,0.0,-0.00039358704816550016,0.0038105915300548077,-0.0018425891175866127,0.9999654293060303,0.0,0.0,0.0,16.544954299926758,1.0129989385604858,2.53857684135437,-2994.669677734375,0
1917.5030000000006,0.040855295956134796,-0.11659574508666992,0.0016177701763808727,0.0,0.0,0.0,0.0,-0.0002866516006179154,-0.005212593823671341,-0.00024271047732327133,1.0003364086151123,0.0,0.0,0.0,16.558134078979492,1.0621591806411743,2.5265188217163086,-2997.05517578125,0
1927.378999999999,0.04097957909107208,-0.11695674806833267,0.001557769370265305,0.0,0.0,0.0,0.0,-0.002649781759828329,1.7516129446448758e-05,-0.0006321471300907433,0.9982947111129761,0.0,0.0,0.0,16.564781188964844,1.0029746294021606,2.5357396602630615,-2998.258544921875,0
1937.2690000000002,0.04093398153781891,-0.11702924221754074,0.001564481994137168,0.0,0.0,0.0,0.0,-0.002400013618171215,-0.0008506780723109841,-0.0005079176626168191,0.9970992803573608,0.0,0.0,0.0,16.5476016998291,1.0082191228866577,2.5318822860717773,-2995.149169921875,0
1947.1530000000002,0.04098699986934662,-0.11701267212629318,0.0015707684215158224,0.0,0.0,0.0,0.0,-0.0016620848327875137,-0.003376192878931761,-0.0007605631835758686,0.9996343851089478,0.0,0.0,0.0,16.555551528930664,1.0121347904205322,2.5389211177825928,-2996.587890625,0
1957.0499999999993,0.04094219207763672,-0.11708597838878632,0.001573515823110938,0.0,0.0,0.0,0.0,-0.003698508022353053,-0.0008528761100023985,-0.0017284287605434656,0.9994069933891296,0.0,0.0,0.0,16.539321899414062,1.01200532913208,2.5356593132019043,-2993.64990234375,0
1966.9249999999993,0.04096163809299469,-0.11701425909996033,0.001582187949679792,0.0,0.0,0.0,0.0,-0.0021326113492250443,0.0015441941795870662,-1.2717011941276724e-06,0.9982973337173462,0.0,0.0,0.0,16.54601287841797,1.0263999700546265,2.5352423191070557,-2994.861328125,0
1976.807999999999,0.04091903939843178,-0.11656847596168518,0.0015940219163894653,0.0,0.0,0.0,0.0,-0.00309749785810709,-0.005068319384008646,-0.0005613135290332139,0.9980967044830322,0.0,0.0,0.0,16.55312728881836,1.0831388235092163,2.547518253326416,-2996.149169921875,0
1986.6859999999997,0.04099038243293762,-0.11696097254753113,0.001491703325882554,0.0,0.0,0.0,0.0,0.001766660832799971,-0.0014942317502573133,0.005579551216214895,0.9979496002197266,0.0,0.0,0.0,16.562040328979492,1.0359704494476318,2.5533971786499023,-2997.76220703125,0
1996.5779999999995,0.040939811617136,-0.11703728884458542,0.001484608044847846,0.0,0.0,0.0,0.0,0.0022609098814427853,-7.249812188092619e-05,0.0019028519745916128,0.9984801411628723,0.0,0.0,0.0,16.546323776245117,1.0289479494094849,2.5460197925567627,-2994.91748046875,0
2006.4599999999991,0.04097636416554451,-0.11705726385116577,0.001474198536016047,0.0,0.0,0.0,0.0,-0.0014045670395717025,0.0038138683885335922,-0.0012281954986974597,1.0007978677749634,0.0,0.0,0.0,16.55560874938965,1.0133955478668213,2.554178237915039,-2996.59814453125,0
2016.3439999999991,0.04091682285070419,-0.11655081808567047,0.0014971663476899266,0.0,0.0,0.0,0.0,0.0017356027383357286,0.0010183354606851935,-0.0004671913920901716,1.0013641119003296,0.0,0.0,0.0,16.56306266784668,1.0723087787628174,2.5654783248901367,-2997.947509765625,0
2026.2279999999992,0.041099049150943756,-0.11695157736539841,0.0014362100046128035,0.0,0.0,0.0,0.0,-0.0005206638597883284,-0.0078034172765910625,0.001618869137018919,1.000496745109558,0.0,0.0,0.0,16.569881439208984,1.0162851810455322,2.5600006580352783,-2999.181396484375,0
2036.1170000000002,0.040930889546871185,-0.11658914387226105,0.0015922370366752148,0.0,0.0,0.0,0.0,0.0014618427958339453,-0.0008171384106390178,-0.000708947132807225,0.9998481869697571,0.0,0.0,0.0,16.57994270324707,1.0589882135391235,2.562819004058838,-3001.002685546875,0
2045.994999999999,0.04103444144129753,-0.11698901653289795,0.0015196488238871098,0.0,0.0,0.0,0.0,-0.0006912093958817422,0.0002646463690325618,0.0006118400488048792,1.0012223720550537,0.0,0.0,0.0,16.58481788635254,1.0103572607040405,2.5632810592651367,-3001.884765625,0
2055.8909999999996,0.040985312312841415,-0.11707063764333725,0.001519630430266261,0.0,0.0,0.0,0.0,-4.090459697181359e-05,-0.003991518635302782,0.0010262541472911835,0.998569905757904,0.0,0.0,0.0,16.568710327148438,1.0061520338058472,2.559025764465332,-2998.969482421875,0
2065.7620000000006,0.040971726179122925,-0.11707509309053421,0.0015170973492786288,0.0,0.0,0.0,0.0,0.002450331812724471,-0.00893055833876133,0.0022452936973422766,1.0003724098205566,0.0,0.0,0.0,16.576669692993164,0.9969127774238586,2.5521445274353027,-3000.409912109375,0
2075.6589999999997,0.04091816395521164,-0.11716214567422867,0.001516610849648714,0.0,0.0,0.0,0.0,0.0006823613657616079,0.003149577649310231,0.0006052136304788291,1.000457525253296,0.0,0.0,0.0,16.56105613708496,0.9931161999702454,2.5671541690826416,-2997.583984375,0
2085.5370000000003,0.04095279052853584,-0.11703723669052124,0.0015274649485945702,0.0,0.0,0.0,0.0,0.0006684183026663959,-0.0006696441560052335,0.0010713553056120872,1.0000356435775757,0.0,0.0,0.0,16.56789779663086,1.0105676651000977,2.5763933658599854,-2998.822509765625,0
2095.4269999999997,0.04088931158185005,-0.11659781634807587,0.0015578450402244925,0.0,0.0,0.0,0.0,0.001451875432394445,0.00843064859509468,-0.0008587469928897917,0.9982316493988037,0.0,0.0,0.0,16.57177734375,1.0655529499053955,2.5911705493927,-2999.52490234375,0
2105.306999999999,0.04099268093705177,-0.11693529784679413,0.0014967045281082392,0.0,0.0,0.0,0.0,-0.0006935580167919397,-0.0008993886294774711,0.00028508371906355023,1.0011154413223267,0.0,0.0,0.0,16.57804298400879,1.0141196250915527,2.56681227684021,-3000.658935546875,0
2115.1890000000003,0.04093601554632187,-0.11701792478561401,0.0014951829798519611,0.0,0.0,0.0,0.0,0.0021736491471529007,0.002822360722348094,-0.004889774601906538,1.0019725561141968,0.0,0.0,0.0,16.5623722076416,1.0131579637527466,2.5551533699035645,-2997.822265625,0
2125.0689999999995,0.040957603603601456,-0.11700239777565002,0.0014984728768467903,0.0,0.0,0.0,0.0,-0.0011278119636699557,-0.0031902084592729807,0.0018024181481450796,0.9985342621803284,0.0,0.0,0.0,16.56787872314453,1.0078016519546509,2.5453717708587646,-2998.819091796875,0
2134.974,0.04088573902845383,-0.11656366288661957,0.00154499476775527,0.0,0.0,0.0,0.0,0.0005541063146665692,0.007411865517497063,-0.0015764104900881648,0.9980317950248718,0.0,0.0,0.0,16.571958541870117,1.0670442581176758,2.5649352073669434,-2999.557373046875,0
2144.834999999999,0.04099256545305252,-0.11693337559700012,0.001481866929680109,0.0,0.0,0.0,0.0,0.0014292617561295629,-8.31786819617264e-05,0.0011183382011950016,0.9976334571838379,0.0,0.0,0.0,16.576271057128906,1.020308017730713,2.5553135871887207,-3000.337890625,0
2154.736999999999,0.04089425876736641,-0.11651027947664261,0.0015574569115415215,0.0,0.0,0.0,0.0,0.0014184932224452496,-0.0023297446314245462,0.004219983238726854,1.0012248754501343,0.0,0.0,0.0,16.578746795654297,1.0624632835388184,2.55751895904541,-3000.7861328125,0
2164.610999999999,0.04096226021647453,-0.11693082004785538,0.0014690570533275604,0.0,0.0,0.0,0.0,0.0002732814464252442,-0.0020958625245839357,-0.0008651615935377777,0.9990316033363342,0.0,0.0,0.0,16.585731506347656,1.0077948570251465,2.549957036972046,-3002.05029296875,0
2174.4940000000006,0.040870632976293564,-0.11650576442480087,0.001533315284177661,0.0,0.0,0.0,0.0,0.0007040212512947619,-0.005442850291728973,-0.0009139937465079129,1.0003161430358887,0.0,0.0,0.0,16.588212966918945,1.0520946979522705,2.5678467750549316,-3002.499755859375,0
2184.3729999999996,0.040813248604536057,-0.11657567322254181,0.0015345795545727015,0.0,0.0,0.0,0.0,-2.989122322105686e-06,0.007135401014238596,-0.0037317397072911263,1.0002036094665527,0.0,0.0,0.0,16.57162857055664,1.0502573251724243,2.576573610305786,-2999.49755859375,0
2194.262999999999,0.040752705186605453,-0.11664748191833496,0.0015358886448666453,0.0,0.0,0.0,0.0,-0.0018848343752324581,-0.0006751046166755259,0.0002354172320337966,0.9994140267372131,0.0,0.0,0.0,16.554113388061523,1.0471556186676025,2.5608112812042236,-2996.32763671875,0
2204.151,0.04068954661488533,-0.11672009527683258,0.0015372146153822541,0.0,0.0,0.0,0.0,0.0006648458656854928,0.0014084833674132824,-0.0002018448431044817,1.000688076019287,0.0,0.0,0.0,16.538341522216797,1.0498228073120117,2.549252986907959,-2993.472412109375,0
2214.0229999999992,0.04062509536743164,-0.11679331213235855,0.0015383027493953705,0.0,0.0,0.0,0.0,0.0006639157654717565,-0.000410567969083786,0.002975579584017396,0.9992154836654663,0.0,0.0,0.0,16.52179718017578,1.047297477722168,2.5433716773986816,-2990.478271484375,0
2223.9159999999993,0.0405593104660511,-0.11686774343252182,0.0015391906490549445,0.0,0.0,0.0,0.0,-0.0016022608615458012,0.002043314278125763,0.0024552324321120977,0.9988652467727661,0.0,0.0,0.0,16.505556106567383,1.04150390625,2.541231870651245,-2987.538330078125,0
2233.803,0.040496233850717545,-0.11614533513784409,0.0016800896264612675,0.0,0.0,0.0,0.0,-0.002158028306439519,0.002915019169449806,-0.0009057553834281862,0.9978904128074646,0.0,0.0,0.0,16.517908096313477,1.26949942111969,2.620187997817993,-2989.774169921875,0
2243.6810000000005,0.040432024747133255,-0.11615711450576782,0.001689661992713809,0.0,0.0,0.0,0.0,0.0038017258048057556,0.0021835167426615953,-0.0004018635372631252,0.9986286163330078,0.0,0.0,0.0,16.5009822845459,1.271393895149231,2.6199309825897217,-2986.710693359375,0
2253.5699999999997,0.04032439738512039,-0.11579424887895584,0.0018179246690124273,0.0,0.0,0.0,0.0,-0.0004315408004913479,-0.0021442424040287733,-0.0034463084302842617,0.9991347789764404,0.0,0.0,0.0,16.509387969970703,1.3786269426345825,2.6470539569854736,-2988.23193359375,0
2263.4439999999995,0.04025686904788017,-0.1157727763056755,0.0018328623846173286,0.0,0.0,0.0,0.0,0.002144378377124667,0.002067950554192066,0.0011848214780911803,0.997147798538208,0.0,0.0,0.0,16.491744995117188,1.3834941387176514,2.6495742797851562,-2985.03857421875,0
2273.3420000000006,0.04014502838253975,-0.1155417338013649,0.0019326526671648026,0.0,0.0,0.0,0.0,-0.0022134596947580576,-0.005084362346678972,0.0011868150904774666,0.9970707893371582,0.0,0.0,0.0,16.503711700439453,1.4385650157928467,2.6442666053771973,-2987.20458984375,0
2283.215,0.0400724895298481,-0.11550547182559967,0.001949484460055828,0.0,0.0,0.0,0.0,0.0009300451492890716,0.0016921900678426027,9.906615741783753e-05,0.9985930323600769,0.0,0.0,0.0,16.4874210357666,1.4426127672195435,2.65179705619812,-2984.255859375,0
2293.1059999999998,0.04003090038895607,-0.11536221951246262,0.001970024546608329,0.0,0.0,0.0,0.0,0.0014435844495892525,0.001409337273798883,0.003345158649608493,0.9988142251968384,0.0,0.0,0.0,16.500446319580078,1.4696217775344849,2.674503803253174,-2986.613525390625,0
2302.9889999999996,0.03995759040117264,-0.11531928181648254,0.001983273308724165,0.0,0.0,0.0,0.0,0.003980436362326145,0.004454244859516621,0.0009459274588152766,0.9995424151420593,0.0,0.0,0.0,16.483827590942383,1.4627070426940918,2.6694488525390625,-2983.60546875,0
2312.879999999999,0.039883289486169815,-0.11527806520462036,0.001995517173781991,0.0,0.0,0.0,0.0,-4.901013380731456e-05,-0.0029251431114971638,0.0006449195789173245,0.9995357990264893,0.0,0.0,0.0,16.466930389404297,1.4568778276443481,2.651925802230835,-2980.547119140625,0
2322.7440000000006,0.03980826959013939,-0.11523830145597458,0.0020072872284799814,0.0,0.0,0.0,0.0,-0.0003730922471731901,0.0011045705759897828,0.001064653042703867,0.9986612200737,0.0,0.0,0.0,16.45101547241211,1.4559698104858398,2.6552109718322754,-2977.666748046875,0
2332.6319999999996,0.039841316640377045,-0.11514481157064438,0.0019692571368068457,0.0,0.0,0.0,0.0,0.0020369866397231817,-0.0018667990807443857,-0.0024068267084658146,0.9993252158164978,0.0,0.0,0.0,16.4639892578125,1.4580090045928955,2.685350179672241,-2980.014892578125,0
2342.5159999999996,0.03977608680725098,-0.1150980070233345,0.0019741379655897617,0.0,0.0,0.0,0.0,0.00312884827144444,0.0015868234913796186,0.0025779269635677338,0.9985620975494385,0.0,0.0,0.0,16.446617126464844,1.4538160562515259,2.680716037750244,-2976.87060546875,0
2352.405999999999,0.03971147537231445,-0.11504995077848434,0.001977928215637803,0.0,0.0,0.0,0.0,0.000338787300279364,-0.0030059542041271925,-0.00438230624422431,1.0004204511642456,0.0,0.0,0.0,16.431682586669922,1.4451892375946045,2.6820859909057617,-2974.167236328125,0
2362.285,0.03964586555957794,-0.11500123143196106,0.0019809966906905174,0.0,0.0,0.0,0.0,-0.0035025374963879585,0.002423173049464822,0.0006084109772928059,1.0006155967712402,0.0,0.0,0.0,16.414955139160156,1.4465101957321167,2.686749219894409,-2971.1396484375,0
2372.1759999999995,0.039725545793771744,-0.11500806361436844,0.0018866186728700995,0.0,0.0,0.0,0.0,0.0030055323150008917,0.000263772759353742,0.0006134110153652728,0.9996346831321716,0.0,0.0,0.0,16.435396194458008,1.4295753240585327,2.711601734161377,-2974.83935546875,0
2382.0599999999995,0.03966861963272095,-0.11496193706989288,0.0018825193401426077,0.0,0.0,0.0,0.0,0.00011263104534009472,0.002166177611798048,0.002069605980068445,0.9990678429603577,0.0,0.0,0.0,16.419544219970703,1.420960545539856,2.700867176055908,-2971.97021484375,0
2391.941999999999,0.03961345553398132,-0.1149144172668457,0.0018780679674819112,0.0,0.0,0.0,0.0,-8.565415191696957e-05,0.0038176467642188072,0.0015431067440658808,0.9990246295928955,0.0,0.0,0.0,16.403884887695312,1.4188048839569092,2.6861464977264404,-2969.1357421875,0
2401.8230000000003,0.03955916315317154,-0.11486747860908508,0.001872663153335452,0.0,0.0,0.0,0.0,-0.0010133617324754596,-0.006476701702922583,-0.002305242931470275,1.0007449388504028,0.0,0.0,0.0,16.388200759887695,1.419804334640503,2.6768884658813477,-2966.296630859375,0
