timestamp,stateEstimate.x,stateEstimate.y,stateEstimate.z,controller.cmd_thrust,controller.cmd_roll,controller.cmd_pitch,controller.cmd_yaw,controller.r_roll,controller.r_pitch,controller.r_yaw,controller.accelz,controller.actuatorThrust,controller.roll,controller.pitch,controller.yaw,controller.rollRate,controller.pitchRate,controller.yawRate,controller.ctr_yaw
0.0,-1.9999539290438406e-05,-0.00025420988094992936,-3.5369190300116315e-05,0.0,0.0,0.0,0.0,-0.0025664763525128365,0.0033255883026868105,0.0031888645607978106,0.9993800520896912,0.0,0.0,0.0,0.13921397924423218,4.919314384460449,1.0053008794784546,-25.198007583618164,0
9.903000000000247,-7.373419066425413e-05,-0.0001695061509963125,1.3048507753410377e-05,0.0,0.0,0.0,0.0,0.0005230624228715897,0.00013201351976022124,0.0020436232443898916,1.000558614730835,0.0,0.0,0.0,0.1396762728691101,4.917856693267822,0.9962835311889648,-25.28168296813965,0
19.766999999999825,-4.027174327347893e-06,-0.00015628270921297371,-5.921971023781225e-05,0.0,0.0,0.0,0.0,-0.0028205306734889746,-0.0010292791994288564,-0.0010650077601894736,1.0009191036224365,0.0,0.0,0.0,0.13964425027370453,4.913718223571777,0.9996744990348816,-25.27588653564453,0
29.670000000000073,-1.6471505659865215e-05,-0.00017603757441975176,-1.7342268620268442e-05,0.0,0.0,0.0,0.0,0.0006844742456451058,-0.0015055026160553098,-2.3013119516690494e-06,1.0014266967773438,0.0,0.0,0.0,0.1397605985403061,4.918015003204346,1.0066461563110352,-25.296947479248047,0
39.53700000000026,7.062016811687499e-05,-0.00017372844740748405,-0.00010563994874246418,0.0,0.0,0.0,0.0,-0.002285391092300415,-0.0006551724509336054,-0.0002991081855725497,0.9981682300567627,0.0,0.0,0.0,0.13997071981430054,4.909226894378662,1.0158170461654663,-25.334980010986328,0
49.4369999999999,-2.6331115805078298e-05,-0.00017106275481637567,-9.743213013280183e-05,0.0,0.0,0.0,0.0,0.0015278034843504429,0.0108114592730999,0.001217251643538475,0.9975274205207825,0.0,0.0,0.0,0.13997139036655426,4.908377647399902,1.0227986574172974,-25.335102081298828,0
59.300999999999476,9.806352318264544e-05,-0.00012149823305662721,-0.00023169865016825497,0.0,0.0,0.0,0.0,0.0009460069122724235,0.006453816778957844,-0.0020105240400880575,0.998316764831543,0.0,0.0,0.0,0.1405496448278427,4.90032958984375,1.0028064250946045,-25.43976402282715,0
69.1929999999993,-1.3415228750091046e-07,-7.710779027547687e-05,-0.00022393865219783038,0.0,0.0,0.0,0.0,0.0009093123371712863,-0.0029307331424206495,-0.002014766214415431,1.000317931175232,0.0,0.0,0.0,0.1398610919713974,4.893370151519775,0.9915105104446411,-25.315135955810547,0
79.07500000000073,2.7757569114328362e-05,-0.00012625633098650724,-0.00027250591665506363,0.0,0.0,0.0,0.0,0.0025551982689648867,0.0038406220264732838,-0.0030537487473338842,1.0005220174789429,0.0,0.0,0.0,0.13879890739917755,4.885626316070557,0.9965633749961853,-25.122880935668945,0
88.96099999999933,-1.8893788364948705e-05,-0.00011167997581651434,-0.0002483443240635097,0.0,0.0,0.0,0.0,-0.0002788958663586527,-0.0023785277735441923,0.006935442332178354,1.000402569770813,0.0,0.0,0.0,0.1382303088903427,4.8753342628479,0.9819434881210327,-25.019960403442383,0
98.83799999999974,-3.1336498068412766e-05,-0.00021876954997424036,-0.0002546501928009093,0.0,0.0,0.0,0.0,-0.0022931802086532116,-0.0054449294693768024,2.0105449948459864e-05,0.9999310970306396,0.0,0.0,0.0,0.13920466601848602,4.868956089019775,0.9805200099945068,-25.19632339477539,0
108.73799999999937,-5.850233355886303e-05,-0.00015761454415041953,-0.00020640806178562343,0.0,0.0,0.0,0.0,0.0012285239063203335,0.0006577444728463888,-0.0006630263524129987,0.9989804625511169,0.0,0.0,0.0,0.13173554837703705,4.893731594085693,0.9861757755279541,-23.84439468383789,0
118.60900000000038,-9.3014445155859e-05,-0.00026353428256697953,-0.00018431604257784784,0.0,0.0,0.0,0.0,-0.000937802018597722,-0.004536115098744631,-0.00024787106667645276,0.9997560977935791,0.0,0.0,0.0,0.13943985104560852,4.888980388641357,0.9829456210136414,-25.2388916015625,0
128.5010000000002,-6.93859183229506e-05,-0.00019474458531476557,-0.00011193550744792446,0.0,0.0,0.0,0.0,0.00024123652838170528,-0.000902953848708421,-0.0014451997121796012,1.0022822618484497,0.0,0.0,0.0,0.1390974223613739,4.885119438171387,1.0005055665969849,-25.176910400390625,0
138.3729999999996,-7.624376303283498e-05,-0.00027474152739159763,-0.00010861906048376113,0.0,0.0,0.0,0.0,-0.00019994784088339657,0.00027263371157459915,0.00013842713087797165,1.0004724264144897,0.0,0.0,0.0,0.13917377591133118,4.881657123565674,1.0097330808639526,-25.190731048583984,0
148.26300000000083,-8.676802826812491e-05,-0.00021493954409379512,-3.6310568248154595e-05,0.0,0.0,0.0,0.0,0.0020091512706130743,0.005468902178108692,-0.0017424224643036723,0.9999411702156067,0.0,0.0,0.0,0.13162097334861755,4.904966354370117,1.0065867900848389,-23.823659896850586,0
158.13999999999942,-7.268978515639901e-05,-0.00028682732954621315,-5.129053533892147e-05,0.0,0.0,0.0,0.0,-0.002997689414769411,-0.00035547776496969163,-0.003974100109189749,0.9998615980148315,0.0,0.0,0.0,0.13705943524837494,4.9025559425354,0.9961683750152588,-24.808032989501953,0
168.03399999999965,-9.652850712882355e-05,-0.00023302569752559066,1.234465071320301e-05,0.0,0.0,0.0,0.0,-0.0002602897584438324,-0.0018417340470477939,0.001227691420353949,0.9993937015533447,0.0,0.0,0.0,0.13628235459327698,4.900490760803223,0.9976155161857605,-24.667377471923828,0
177.90500000000065,-7.160309178289026e-05,-0.0002887253649532795,-1.0235218724119477e-05,0.0,0.0,0.0,0.0,0.00010535766341490671,-0.0005968058831058443,-0.0015596955781802535,0.9997759461402893,0.0,0.0,0.0,0.13701540231704712,4.894990921020508,1.0022515058517456,-24.800060272216797,0
187.79700000000048,-9.670948929851875e-05,-0.00024969392688944936,5.497512756846845e-05,0.0,0.0,0.0,0.0,0.0018339409725740552,-0.0010370195377618074,0.000909899128600955,0.9996024966239929,0.0,0.0,0.0,0.13046754896640778,4.9114274978637695,0.9991781711578369,-23.614885330200195,0
197.67599999999948,-2.2888298190082423e-06,-0.00022320207790471613,-3.6464465665630996e-05,0.0,0.0,0.0,0.0,0.0006576090236194432,0.0011918857926502824,-0.003489281516522169,0.9997003674507141,0.0,0.0,0.0,0.13044673204421997,4.900809288024902,0.9953365921974182,-23.611120223999023,0
207.5689999999995,-7.74450454628095e-05,-0.00021686594118364155,-9.707055141916499e-07,0.0,0.0,0.0,0.0,0.0013612124603241682,-0.0034299714025110006,0.0030825340654700994,1.0018819570541382,0.0,0.0,0.0,0.12830320000648499,4.894760608673096,0.9907757043838501,-23.223134994506836,0
217.4410000000007,2.92916865873849e-06,-0.0002005552378250286,-8.048149175010622e-05,0.0,0.0,0.0,0.0,-0.0014852320309728384,-0.0006781701813451946,-0.000833263446111232,1.0002025365829468,0.0,0.0,0.0,0.1283460408449173,4.888495922088623,0.9985190629959106,-23.23089027404785,0
227.34400000000096,-6.34859170531854e-05,-0.00017899916565511376,-4.36225782323163e-05,0.0,0.0,0.0,0.0,-0.0006297720829024911,-0.001237706746906042,0.0013098767958581448,1.0007604360580444,0.0,0.0,0.0,0.12758977711200714,4.886003017425537,1.004530429840088,-23.094003677368164,0
237.21500000000015,-2.289415533596184e-06,-0.00017232715617865324,-0.00010388557711848989,0.0,0.0,0.0,0.0,0.0001931138103827834,-0.0031313514336943626,0.0011404100805521011,0.9986942410469055,0.0,0.0,0.0,0.12830476462841034,4.8834309577941895,1.0126447677612305,-23.223419189453125,0
247.10000000000036,-2.2778627680963837e-05,-0.000147203347296454,-6.536031287396327e-05,0.0,0.0,0.0,0.0,0.0040281242690980434,-0.0015293856849893928,0.0011577296536415815,0.9979796409606934,0.0,0.0,0.0,0.12831105291843414,4.883777618408203,1.0262869596481323,-23.224557876586914,0
256.97400000000016,1.6027892343117855e-05,-0.00017442484386265278,-0.00011102697317255661,0.0,0.0,0.0,0.0,-0.0018172978889197111,-0.004697065334767103,0.0017374504823237658,0.9998553991317749,0.0,0.0,0.0,0.13484184443950653,4.882551193237305,1.0363906621932983,-24.40664291381836,0
266.8680000000004,-3.543651837389916e-05,-0.00016162070096470416,-8.47260162117891e-05,0.0,0.0,0.0,0.0,-0.0001538381038699299,-0.0011554067023098469,-0.0008615746046416461,0.9982696771621704,0.0,0.0,0.0,0.13507434725761414,4.880039215087891,1.0445542335510254,-24.448726654052734,0
276.7420000000002,6.116152690083254e-06,-0.00016514623712282628,-0.00013654209033120424,0.0,0.0,0.0,0.0,-0.0006897745188325644,-0.0036785861011594534,-0.0017937332158908248,1.000774621963501,0.0,0.0,0.0,0.1348697543144226,4.87332010269165,1.041903018951416,-24.411693572998047,0
286.6399999999994,-5.2820945711573586e-05,-0.00016454106662422419,-0.00010834676504600793,0.0,0.0,0.0,0.0,-0.0037439963780343533,-0.005784317851066589,0.0017592387739568949,0.9996596574783325,0.0,0.0,0.0,0.1344841718673706,4.867825508117676,1.0492686033248901,-24.341901779174805,0
296.509,-8.254096428572666e-06,-0.00017253647092729807,-0.00016538079944439232,0.0,0.0,0.0,0.0,0.0006166223902255297,0.0014333308208733797,-0.0012858833651989698,0.9964540600776672,0.0,0.0,0.0,0.14099599421024323,4.8805060386657715,1.0740565061569214,-25.52055549621582,0
306.40600000000086,-5.1288961913087405e-06,-0.00015414154040627182,-0.00011793634621426463,0.0,0.0,0.0,0.0,0.0014791731955483556,0.000149050509207882,-0.0009502622415311635,0.997854471206665,0.0,0.0,0.0,0.14098045229911804,4.873826503753662,1.0670827627182007,-25.51774024963379,0
316.27700000000004,1.7718928575050086e-05,-0.00019108904234599322,-0.00015403235738631338,0.0,0.0,0.0,0.0,-0.0017140887212008238,-0.0018385767471045256,-0.0014389166608452797,1.0003175735473633,0.0,0.0,0.0,0.14903537929058075,4.8809285163879395,1.063234806060791,-26.97570037841797,0
326.16899999999987,-5.73980578337796e-05,-0.00015705314581282437,-0.00012870292994193733,0.0,0.0,0.0,0.0,-0.0017487348522990942,-0.0015901464503258467,0.002272989135235548,0.9983940124511719,0.0,0.0,0.0,0.14826305210590363,4.882641315460205,1.0624308586120605,-26.835906982421875,0
336.04299999999967,-3.182624641340226e-05,-0.0002235259162262082,-0.00017447982099838555,0.0,0.0,0.0,0.0,-0.00131320022046566,0.0027180176693946123,-0.0020386322867125273,0.9998530149459839,0.0,0.0,0.0,0.14899255335330963,4.879032135009766,1.0676264762878418,-26.96794891357422,0
345.9400000000005,-3.680640656966716e-05,-0.00011786932009272277,-0.0001218152538058348,0.0,0.0,0.0,0.0,7.597624062327668e-05,-0.0004783989570569247,0.003146583680063486,1.000313401222229,0.0,0.0,0.0,0.14909009635448456,4.8734235763549805,1.067747950553894,-26.98560333251953,0
355.8119999999999,-1.753709693730343e-05,-0.00015573928249068558,-0.00015791687474120408,0.0,0.0,0.0,0.0,-0.002279667416587472,-0.0034058524761348963,-0.0003450459917075932,0.9989493489265442,0.0,0.0,0.0,0.15128615498542786,4.8685173988342285,1.0699862241744995,-27.383094787597656,0
365.70900000000074,-5.2130300900898874e-05,-0.0001509262074250728,-0.00012339165550656617,0.0,0.0,0.0,0.0,0.0005863924161531031,-0.003198774065822363,0.0013368579093366861,0.9991075992584229,0.0,0.0,0.0,0.1449405550956726,4.884405612945557,1.0716360807418823,-26.234529495239258,0
375.58599999999933,2.348981251998339e-05,-0.0001745856716297567,-0.00021794659551233053,0.0,0.0,0.0,0.0,-0.00016841510660015047,0.0030961933080106974,0.0006309904274530709,0.999504804611206,0.0,0.0,0.0,0.1449321061372757,4.8737945556640625,1.0692349672317505,-26.232999801635742,0
385.47199999999975,4.4246284232940525e-05,-0.00014232686953619123,-0.00017294581630267203,0.0,0.0,0.0,0.0,-9.235015022568405e-05,-0.0003975293366238475,0.0017987036844715476,0.9989519715309143,0.0,0.0,0.0,0.14506104588508606,4.869008541107178,1.059205174446106,-26.256338119506836,0
395.34599999999955,4.5789758587488905e-05,-0.0001899662456708029,-0.00018886287580244243,0.0,0.0,0.0,0.0,0.0010843194322660565,-0.0016638149973005056,0.003844739869236946,1.0001047849655151,0.0,0.0,0.0,0.14509768784046173,4.863421440124512,1.0593554973602295,-26.262971878051758,0
405.23199999999997,5.400695954449475e-06,-0.00014241582539398223,-0.00015111455286387354,0.0,0.0,0.0,0.0,-0.003466658527031541,0.003019994590431452,-0.000645950494799763,1.0000728368759155,0.0,0.0,0.0,0.14562609791755676,4.856049060821533,1.0641345977783203,-26.358612060546875,0
415.1190000000006,-3.7889993109274656e-05,-0.0002552540972828865,-0.00012175939627923071,0.0,0.0,0.0,0.0,-0.0022015892900526524,-0.006791797932237387,-0.001005514059215784,0.9994376301765442,0.0,0.0,0.0,0.14466242492198944,4.859050750732422,1.0584968328475952,-26.184186935424805,0
425.0020000000004,-2.6196868930128403e-05,-0.00020096544176340103,-6.142575148260221e-05,0.0,0.0,0.0,0.0,0.002464537275955081,0.0032631605863571167,-0.0014173942618072033,0.9982699751853943,0.0,0.0,0.0,0.14381693303585052,4.861910820007324,1.0756524801254272,-26.031150817871094,0
434.880000000001,-2.5797849957598373e-05,-0.00028808973729610443,-7.12640248821117e-05,0.0,0.0,0.0,0.0,0.001330154133029282,0.002514410298317671,0.0001537534553790465,1.0001702308654785,0.0,0.0,0.0,0.14348465204238892,4.853943347930908,1.0725997686386108,-25.97100830078125,0
444.77399999999943,-8.837158384267241e-05,-0.00020751843112520874,-1.999159940169193e-05,0.0,0.0,0.0,0.0,-0.0026990189217031,-0.0054755969904363155,-0.0005296771414577961,1.000848412513733,0.0,0.0,0.0,0.14375634491443634,4.8487138748168945,1.0655226707458496,-26.020183563232422,0
454.64700000000084,-6.858825508970767e-05,-0.0002707389066927135,-4.6438752178801224e-05,0.0,0.0,0.0,0.0,-0.00016787133063189685,0.00290578487329185,-0.0016322319861501455,0.999901533126831,0.0,0.0,0.0,0.14342789351940155,4.848932266235352,1.0710930824279785,-25.96073341369629,0
464.53499999999985,-9.505623893346637e-05,-0.00021908184862695634,8.929408068070188e-06,0.0,0.0,0.0,0.0,0.0022079714108258486,-0.0004330701776780188,0.0024027740582823753,0.9982962012290955,0.0,0.0,0.0,0.13733229041099548,4.870499610900879,1.0607315301895142,-24.857418060302734,0
474.41899999999987,-3.041768286493607e-05,-0.0002709787804633379,-6.217336340341717e-05,0.0,0.0,0.0,0.0,0.001881422009319067,0.0015674344031140208,0.0009370788466185331,0.9996082186698914,0.0,0.0,0.0,0.1382845789194107,4.864267826080322,1.0670702457427979,-25.02978515625,0
484.3089999999993,-7.714588718954474e-05,-0.0002146562619600445,-1.300540316151455e-05,0.0,0.0,0.0,0.0,0.001761723542585969,0.0005234676063992083,-0.0009573857532814145,0.9994485378265381,0.0,0.0,0.0,0.13889536261558533,4.858926296234131,1.0667263269424438,-25.140336990356445,0
494.1820000000007,1.5678824638598599e-06,-0.0001823547063395381,-9.422773291589692e-05,0.0,0.0,0.0,0.0,-0.00035803348873741925,-0.004831822123378515,-0.00033502079895697534,0.996423602104187,0.0,0.0,0.0,0.13822034001350403,4.854986667633057,1.0627856254577637,-25.018157958984375,0
504.0670000000009,-4.213945067021996e-05,-0.00013477803440764546,-6.261796079343185e-05,0.0,0.0,0.0,0.0,-0.0021833344362676144,-0.002430718159303069,-0.00353711168281734,0.9977933168411255,0.0,0.0,0.0,0.1378171294927597,4.84954833984375,1.0707186460494995,-24.945175170898438,0
513.9490000000005,4.417223317432217e-05,-0.00016005085490178317,-0.00016479686019010842,0.0,0.0,0.0,0.0,0.0021685936953872442,0.007435789797455072,0.000505945470649749,0.9997250437736511,0.0,0.0,0.0,0.13711930811405182,4.846036911010742,1.0732735395431519,-24.81886863708496,0
523.8359999999993,-4.989987792214379e-05,-0.00013384371413849294,-0.00015711494779679924,0.0,0.0,0.0,0.0,-0.003096876433119178,-0.002060098107904196,0.000295320205623284,0.9993028044700623,0.0,0.0,0.0,0.13772381842136383,4.834695339202881,1.0576794147491455,-24.928285598754883,0
533.7170000000006,3.190568168065511e-05,-0.0001483360247220844,-0.00025910965632647276,0.0,0.0,0.0,0.0,-0.000359933590516448,-0.0014448604779317975,0.0010885506635531783,1.0013267993927002,0.0,0.0,0.0,0.137704536318779,4.834507465362549,1.0600883960723877,-24.924793243408203,0
543.6010000000006,-4.080983126186766e-05,-0.00011640528100542724,-0.00024529354413971305,0.0,0.0,0.0,0.0,0.0011142974253743887,-0.005993614438921213,-0.0003486706118565053,1.0002249479293823,0.0,0.0,0.0,0.13814131915569305,4.829554080963135,1.0583287477493286,-25.00385284423828,0
553.487000000001,1.1128386177006178e-06,-0.00016480113845318556,-0.00031098563340492547,0.0,0.0,0.0,0.0,0.0027412392664700747,-0.00022543888189829886,0.00015829180483706295,0.9959694743156433,0.0,0.0,0.0,0.13793236017227173,4.819269180297852,1.0615489482879639,-24.966033935546875,0
563.3719999999994,-1.8586664737085812e-05,-0.00011044581333408132,-0.0002809505385812372,0.0,0.0,0.0,0.0,-0.0038110092282295227,-0.004751173313707113,-0.0006246996927075088,0.9990563988685608,0.0,0.0,0.0,0.13794365525245667,4.810105323791504,1.064334750175476,-24.968076705932617,0
573.2510000000002,-1.684445669525303e-05,-0.0001555295311845839,-0.0003038278373423964,0.0,0.0,0.0,0.0,0.0007634188514202833,0.002313820878043771,-0.001255151117220521,0.9981755018234253,0.0,0.0,0.0,0.13806229829788208,4.813350677490234,1.077275037765503,-24.98954963684082,0
583.1370000000006,1.3183152987039648e-06,-0.0001077726628864184,-0.00026644603349268436,0.0,0.0,0.0,0.0,0.0004908429109491408,-0.00439718272536993,0.0008612367673777044,0.9986200332641602,0.0,0.0,0.0,0.13733749091625214,4.806167125701904,1.0726066827774048,-24.858356475830078,0
593.0190000000002,-6.0105441662017256e-05,-0.0002463694545440376,-0.00023438438074663281,0.0,0.0,0.0,0.0,-0.002607018454000354,0.006355879362672567,0.00018707930576056242,0.9997888207435608,0.0,0.0,0.0,0.13765932619571686,4.801235198974609,1.077246904373169,-24.916610717773438,0
602.902,-2.2064006770960987e-05,-0.00015750752936583012,-0.00016887429228518158,0.0,0.0,0.0,0.0,0.0019521506037563086,-0.006979567930102348,0.003472109790891409,1.0001100301742554,0.0,0.0,0.0,0.13109619915485382,4.8299150466918945,1.0666192770004272,-23.72867202758789,0
612.7900000000009,-5.824062827741727e-05,-0.0002606796915642917,-0.00015490813530050218,0.0,0.0,0.0,0.0,-0.000591062824241817,-0.002176821930333972,-0.0013787015341222286,1.0011513233184814,0.0,0.0,0.0,0.13171470165252686,4.8184404373168945,1.0799787044525146,-23.840621948242188,0
622.6710000000003,-5.86443129577674e-05,-0.00015455190441571176,-9.459529246669263e-05,0.0,0.0,0.0,0.0,-0.0015838107792660594,0.0013174774358049035,0.00018592823471408337,0.9971198439598083,0.0,0.0,0.0,0.1316041648387909,4.813474655151367,1.0791871547698975,-23.820615768432617,0
632.5550000000003,-7.756116247037426e-05,-0.00024782729451544583,-9.16227581910789e-05,0.0,0.0,0.0,0.0,0.001564688514918089,-0.00047027101390995085,-0.0002655356365721673,0.9978762269020081,0.0,0.0,0.0,0.13172297179698944,4.810401439666748,1.0812290906906128,-23.842119216918945,0
642.4359999999997,-0.00011156951950397342,-0.00017281025066040456,-4.2212242988171056e-05,0.0,0.0,0.0,0.0,0.000879143422935158,-0.008534827269613743,0.0020841334480792284,0.9991180896759033,0.0,0.0,0.0,0.1314847469329834,4.806581020355225,1.0858168601989746,-23.798999786376953,0
652.3220000000001,-5.1349474233575165e-05,-0.00017502083210274577,-0.00011532517964951694,0.0,0.0,0.0,0.0,9.323121776105836e-05,-0.0005097209359519184,0.00025967476540245116,0.9999563694000244,0.0,0.0,0.0,0.1320948302745819,4.799208641052246,1.1015760898590088,-23.909425735473633,0
662.2039999999997,-5.420780507847667e-05,-0.0001413874124409631,-7.058361370582134e-05,0.0,0.0,0.0,0.0,0.0010187109000980854,0.001391919911839068,0.0017684961203485727,0.9984159469604492,0.0,0.0,0.0,0.13178758323192596,4.792232036590576,1.1024748086929321,-23.85381507873535,0
672.0889999999999,-1.4769407243875321e-05,-0.00016568573482800275,-0.00012242957018315792,0.0,0.0,0.0,0.0,-0.0023235068656504154,0.00030572671676054597,0.0012972139520570636,0.9973979592323303,0.0,0.0,0.0,0.1314370036125183,4.781398296356201,1.0970996618270874,-23.790359497070312,0
681.9740000000002,-4.248099139658734e-05,-0.00014391849981620908,-9.053720714291558e-05,0.0,0.0,0.0,0.0,0.0023017311468720436,-0.0033516224939376116,-0.0018247270490974188,0.9989441633224487,0.0,0.0,0.0,0.13162289559841156,4.781576156616211,1.0922313928604126,-23.824007034301758,0
691.8549999999996,-1.0696292520151474e-05,-0.00016207637963816524,-0.00013838207814842463,0.0,0.0,0.0,0.0,-0.0006755925132893026,0.0017753960564732552,-0.0014858765061944723,0.9998502731323242,0.0,0.0,0.0,0.13121797144412994,4.771040916442871,1.0974137783050537,-23.750715255737305,0
701.7440000000006,-5.677563967765309e-05,-0.00016681819397490472,-0.00011254097626078874,0.0,0.0,0.0,0.0,-0.0020870561711490154,0.004181914497166872,0.0008161679143086076,0.9979991912841797,0.0,0.0,0.0,0.13026583194732666,4.764540195465088,1.0891289710998535,-23.5783748626709,0
711.6219999999994,2.138660420314409e-05,-0.00017190686776302755,-0.00020963528368156403,0.0,0.0,0.0,0.0,-0.0017688368679955602,-0.0043320367112755775,-0.0029100829269737005,0.9997388124465942,0.0,0.0,0.0,0.13089226186275482,4.764193058013916,1.0841660499572754,-23.69175910949707,0
721.5069999999996,1.1548082511581015e-05,-0.00014974511577747762,-0.00017169608327094465,0.0,0.0,0.0,0.0,0.00010411281255073845,0.006791672203689814,0.0010707355104386806,0.999994695186615,0.0,0.0,0.0,0.129778191447258,4.758093357086182,1.0925296545028687,-23.490110397338867,0
731.389000000001,6.682661478407681e-05,-0.00013152214523870498,-0.0002430051245028153,0.0,0.0,0.0,0.0,0.0005401026573963463,0.0005934456130489707,-0.0029036083724349737,0.9991024732589722,0.0,0.0,0.0,0.130209818482399,4.748754501342773,1.077036738395691,-23.5682373046875,0
741.273000000001,-7.136940439522732e-06,-0.00011153839295729995,-0.00023157379473559558,0.0,0.0,0.0,0.0,-0.0008545704768039286,-0.0014699224848300219,-0.003077781992033124,0.9985752105712891,0.0,0.0,0.0,0.12986616790294647,4.7442450523376465,1.0766398906707764,-23.50603485107422,0
751.1560000000009,2.70417622232344e-05,-0.00014892706531099975,-0.00029363337671384215,0.0,0.0,0.0,0.0,0.001591251464560628,0.0012160449987277389,0.0007868615793995559,0.9996131658554077,0.0,0.0,0.0,0.12964549660682678,4.743093967437744,1.0765459537506104,-23.466093063354492,0
761.0429999999997,-5.191464879317209e-05,-9.11687093321234e-05,-0.0002794646716210991,0.0,0.0,0.0,0.0,0.0004619271494448185,-0.0061125741340219975,0.003364240750670433,0.9995825290679932,0.0,0.0,0.0,0.1299392729997635,4.737752914428711,1.0676459074020386,-23.519268035888672,0
770.9279999999999,-6.493768159998581e-05,-0.00015471455117221922,-0.0002979257551487535,0.0,0.0,0.0,0.0,-0.0030263594817370176,-0.001236889511346817,0.001602895325049758,1.0005629062652588,0.0,0.0,0.0,0.13194070756435394,4.735616683959961,1.0802384614944458,-23.88153076171875,0
780.8140000000003,-1.831820009101648e-05,-0.00010280530841555446,-0.00024535023840144277,0.0,0.0,0.0,0.0,0.0023632822558283806,0.0004943114472553134,0.001989042153581977,1.0000040531158447,0.0,0.0,0.0,0.13227805495262146,4.734030246734619,1.0803275108337402,-23.942590713500977,0
790.7000000000007,-1.975420309463516e-05,-0.00016732780204620212,-0.0002685807994566858,0.0,0.0,0.0,0.0,0.0019064139341935515,0.0007388010853901505,-0.0024583996273577213,0.9990347623825073,0.0,0.0,0.0,0.13299240171909332,4.722436904907227,1.0760679244995117,-24.071889877319336,0
800.585000000001,5.893305205972865e-05,-8.240748138632625e-05,-0.00020823987142648548,0.0,0.0,0.0,0.0,-0.0016992173623293638,-0.0027665989473462105,0.0031816165428608656,1.0007493495941162,0.0,0.0,0.0,0.13198456168174744,4.717219352722168,1.0668625831604004,-23.889469146728516,0
810.4580000000005,4.207783786114305e-05,-0.00020654134277720004,-0.00021388583991210908,0.0,0.0,0.0,0.0,-0.001755798701196909,0.003728468669578433,-0.001401481102220714,1.0006588697433472,0.0,0.0,0.0,0.13353686034679413,4.720501899719238,1.0711066722869873,-24.17043685913086,0
820.3500000000004,4.254273881088011e-05,-8.650466043036431e-05,-0.00017972274508792907,0.0,0.0,0.0,0.0,-7.479409396182746e-05,-3.840953286271542e-05,-0.0018002701690420508,1.0005277395248413,0.0,0.0,0.0,0.13301849365234375,4.719690322875977,1.0653197765350342,-24.07661247253418,0
830.2270000000008,2.4466955437674187e-05,-0.00021026151080150157,-0.00018087525677401572,0.0,0.0,0.0,0.0,0.002286061877384782,-0.0014654913684353232,0.0014672625111415982,1.0011889934539795,0.0,0.0,0.0,0.1321793496608734,4.716996192932129,1.0644066333770752,-23.924724578857422,0
840.1219999999994,3.58193829015363e-05,-7.214261131593958e-05,-0.000163836739375256,0.0,0.0,0.0,0.0,0.00200849212706089,0.0004909374983981252,-0.0013497823383659124,0.9999722242355347,0.0,0.0,0.0,0.13165700435638428,4.703884124755859,1.0678772926330566,-23.83017921447754,0
850.0,1.953901482920628e-05,-0.0001929149148054421,-0.0001621857372811064,0.0,0.0,0.0,0.0,-0.0008511185878887773,-0.003594775218516588,-0.0008724227664060891,0.9993686676025391,0.0,0.0,0.0,0.1303965151309967,4.694548606872559,1.0681493282318115,-23.60202980041504,0
859.8880000000008,-6.160315388115123e-05,-0.00011286648805253208,-0.00011485179857118055,0.0,0.0,0.0,0.0,0.0046319919638335705,-0.004640829283744097,0.003415892133489251,0.9995429515838623,0.0,0.0,0.0,0.12993638217449188,4.695210933685303,1.078513741493225,-23.518741607666016,0
869.7610000000004,-8.000430534593761e-05,-0.00023457450151909143,-0.00011034699127776548,0.0,0.0,0.0,0.0,-0.0020469205919653177,-0.000617206038441509,0.0008197664865292609,0.9992825984954834,0.0,0.0,0.0,0.1301480531692505,4.686870098114014,1.0837769508361816,-23.55705451965332,0
879.652,-1.2765552128257696e-05,-6.201144424267113e-05,-0.00010535451292525977,0.0,0.0,0.0,0.0,0.0007023636135272682,0.0007708932971581817,-0.001500150072388351,1.0012391805648804,0.0,0.0,0.0,0.13060860335826874,4.68993616104126,1.0756652355194092,-23.640417098999023,0
889.5290000000005,-2.985184983117506e-05,-0.00018569717940408736,-0.00010051844583358616,0.0,0.0,0.0,0.0,-0.0007510530995205045,-0.002274168888106942,-0.004627417307347059,1.0015634298324585,0.0,0.0,0.0,0.13014575839042664,4.679803371429443,1.0734387636184692,-23.556640625,0
899.4240000000009,-9.532103831588756e-06,-6.722382386215031e-05,-0.00010885212395805866,0.0,0.0,0.0,0.0,0.0026098217349499464,0.0004185332509223372,0.0023192090447992086,1.000074863433838,0.0,0.0,0.0,0.12916097044944763,4.674960136413574,1.0794421434402466,-23.37839126586914,0
909.3019999999997,-2.5245128199458122e-05,-0.00019092312140855938,-0.00010240940900985152,0.0,0.0,0.0,0.0,0.0014574103988707066,0.0029643180314451456,-0.0009392111096531153,0.9982641935348511,0.0,0.0,0.0,0.1304781585931778,4.668273448944092,1.0870463848114014,-23.616806030273438,0
919.1910000000007,1.9210739992558956e-05,-1.0996389391948469e-05,-0.00018389643810223788,0.0,0.0,0.0,0.0,0.0002239871391793713,-0.007244977634400129,0.0016000927425920963,0.9998750686645508,0.0,0.0,0.0,0.1303635835647583,4.661561965942383,1.080840826034546,-23.596067428588867,0
929.0630000000001,4.151727807766292e-06,-0.00013070464774500579,-0.00018466140318196267,0.0,0.0,0.0,0.0,-0.00025018269661813974,0.009249715134501457,0.0021966348867863417,1.0003418922424316,0.0,0.0,0.0,0.1315687596797943,4.653632164001465,1.097664713859558,-23.814208984375,0
938.9560000000001,-6.52217713650316e-05,-5.05558964505326e-05,-0.00017785679665394127,0.0,0.0,0.0,0.0,-2.9827988328179345e-05,0.00033514288952574134,0.0033419367391616106,1.0002787113189697,0.0,0.0,0.0,0.13269971311092377,4.645395278930664,1.0809032917022705,-24.018911361694336,0
948.8340000000007,-8.263369818450883e-05,-0.0001712805387796834,-0.0001774195407051593,0.0,0.0,0.0,0.0,0.002305021043866873,0.0021825137082487345,0.0032221858855336905,1.0009005069732666,0.0,0.0,0.0,0.13327951729297638,4.640194416046143,1.074746012687683,-24.123857498168945,0
958.723,-3.040107367269229e-05,-1.1340985111019108e-05,-0.00014504791761282831,0.0,0.0,0.0,0.0,0.0006572802667506039,-0.0006418870179913938,-0.0012792571214959025,1.001230001449585,0.0,0.0,0.0,0.1338498592376709,4.633421897888184,1.069237232208252,-24.227088928222656,0
968.603000000001,-4.746325430460274e-05,-0.00013187644071877003,-0.00014019188529346138,0.0,0.0,0.0,0.0,-0.001246164320036769,-0.00010821242176461965,0.0020481126848608255,0.9985576272010803,0.0,0.0,0.0,0.13316099345684052,4.628415107727051,1.0713744163513184,-24.10240364074707,0
978.491,-6.467024650191888e-05,-0.00015864473243709654,-9.665429388405755e-05,0.0,0.0,0.0,0.0,-0.00035139467217959464,-0.004963613580912352,0.002129716333001852,0.9987903833389282,0.0,0.0,0.0,0.13411609828472137,4.623668193817139,1.0676519870758057,-24.27528190612793,0
988.3700000000008,-8.15347520983778e-05,-0.00028547734837047756,-8.949271432356909e-05,0.0,0.0,0.0,0.0,0.0003461810701992363,0.0010736089898273349,0.0005038889939896762,0.9971542358398438,0.0,0.0,0.0,0.13479197025299072,4.618647575378418,1.0765446424484253,-24.397613525390625,0
998.2610000000004,-1.9603176042437553e-05,-0.00017256932915188372,-2.2248159439186566e-05,0.0,0.0,0.0,0.0,-0.0011243586195632815,0.007248742505908012,-0.002380713354796171,0.9991568326950073,0.0,0.0,0.0,0.13501256704330444,4.613679885864258,1.0702354907989502,-24.437543869018555,0
1008.1440000000002,-3.566213490557857e-05,-0.00030248542316257954,-1.3746523109148256e-05,0.0,0.0,0.0,0.0,-0.0019523490918800235,-0.0016355911502614617,0.003113442100584507,0.9993642568588257,0.0,0.0,0.0,0.13493521511554718,4.609039306640625,1.0597532987594604,-24.423540115356445,0
1018.0249999999996,2.0587736798916012e-05,-9.819758270168677e-05,-5.022388359066099e-05,0.0,0.0,0.0,0.0,0.0018588942475616932,-0.00298890913836658,-0.0009472125675529242,0.99860018491745,0.0,0.0,0.0,0.1360924392938614,4.608391284942627,1.0681432485580444,-24.63300323486328,0
1027.8999999999996,-3.052928514080122e-05,-7.831084803910926e-05,-1.725421316223219e-05,0.0,0.0,0.0,0.0,-0.0005173570243641734,0.002055009361356497,-0.0011685966746881604,0.9984765648841858,0.0,0.0,0.0,0.1353393793106079,4.602433204650879,1.0733009576797485,-24.49669647216797,0
1037.7919999999995,3.168030525557697e-05,-8.723614155314863e-05,-8.182873716577888e-05,0.0,0.0,0.0,0.0,-0.0003314309287816286,0.0018417079700157046,0.00013150762242730707,1.000008225440979,0.0,0.0,0.0,0.13469737768173218,4.599061012268066,1.0670888423919678,-24.3804931640625,0
1047.666000000001,1.8349699530517682e-05,-0.0002201591560151428,-8.179072756320238e-05,0.0,0.0,0.0,0.0,-0.0018739502411335707,0.0017217386048287153,-0.001978270709514618,1.0012929439544678,0.0,0.0,0.0,0.13434718549251556,4.598139762878418,1.0702015161514282,-24.317110061645508,0
1057.567000000001,3.988442767877132e-05,-9.568161476636305e-05,-0.00015785817231517285,0.0,0.0,0.0,0.0,0.002550893696025014,-0.004420374054461718,0.000699532451108098,0.9988378286361694,0.0,0.0,0.0,0.13336004316806793,4.60130500793457,1.0697792768478394,-24.138431549072266,0
1067.4349999999995,2.7080341169494204e-05,-0.0002285859955009073,-0.00016238367243204266,0.0,0.0,0.0,0.0,0.002330016577616334,0.002017504768446088,0.002198817441239953,0.9984840154647827,0.0,0.0,0.0,0.13315148651599884,4.59212064743042,1.0753087997436523,-24.100683212280273,0
1077.335000000001,8.86040143086575e-05,-7.63555071898736e-05,-0.00019523453374858946,0.0,0.0,0.0,0.0,0.0020282012410461903,0.001974202925339341,0.0003787171735893935,1.0010113716125488,0.0,0.0,0.0,0.13323451578617096,4.58472204208374,1.0633383989334106,-24.11571502685547,0
1087.2039999999997,7.568929868284613e-05,-0.00021028146147727966,-0.0002025902649620548,0.0,0.0,0.0,0.0,0.0002279261825606227,0.0031734169460833073,-0.0008390431175939739,1.0011208057403564,0.0,0.0,0.0,0.13298045098781586,4.573886394500732,1.0575002431869507,-24.06972312927246,0
1097.1010000000006,5.407029311754741e-05,-0.0001120817250921391,-0.00018643596558831632,0.0,0.0,0.0,0.0,-0.0007358062430284917,0.0004995368653908372,0.00027728776331059635,0.9994946122169495,0.0,0.0,0.0,0.1398089975118637,4.574495315551758,1.0528249740600586,-25.305707931518555,0
1106.969000000001,4.070449358550832e-05,-0.0002488351019565016,-0.00019022947526536882,0.0,0.0,0.0,0.0,-0.002410756191238761,-0.0030627234373241663,0.00021519276197068393,1.0006338357925415,0.0,0.0,0.0,0.1401538997888565,4.570581436157227,1.045823574066162,-25.368135452270508,0
1116.8610000000008,-2.2439988242695108e-05,-0.0001995736820390448,-0.00013764588220510632,0.0,0.0,0.0,0.0,0.0012637655017897487,0.003218940459191799,-0.0017443003598600626,1.001023292541504,0.0,0.0,0.0,0.1404399573802948,4.572997570037842,1.0518707036972046,-25.419912338256836,0
1126.7350000000006,1.7764157746569254e-05,-0.0001601672702236101,-7.127602293621749e-05,0.0,0.0,0.0,0.0,-0.0002647483488544822,-0.0021753006149083376,-0.0019839403685182333,1.0011614561080933,0.0,0.0,0.0,0.13982214033603668,4.5617899894714355,1.041795253753662,-25.30808448791504,0
1136.6280000000006,1.7033215044648387e-05,-0.00023415463510900736,-7.315806578844786e-05,0.0,0.0,0.0,0.0,0.00024891633074730635,-0.0019274074584245682,0.0012935324339196086,1.002768635749817,0.0,0.0,0.0,0.13888594508171082,4.556422710418701,1.0424113273620605,-25.13863182067871,0
1146.509,2.8348495106911287e-06,-0.0003725005663000047,-6.422778824344277e-05,0.0,0.0,0.0,0.0,7.028839172562584e-05,0.0007504505920223892,-0.00260000373236835,0.9999830722808838,0.0,0.0,0.0,0.1385083645582199,4.55565881729126,1.047466516494751,-25.070289611816406,0
1156.3950000000004,-3.574924630811438e-05,-0.00018526487110648304,-2.0610443243640475e-05,0.0,0.0,0.0,0.0,-0.00021736111375503242,-0.0005334874149411917,0.0013108367566019297,0.9996517300605774,0.0,0.0,0.0,0.13549312949180603,4.595022678375244,1.0383930206298828,-24.524526596069336,0
1166.2700000000004,-5.020035678171553e-05,-0.0003230191068723798,-7.517619451391511e-06,0.0,0.0,0.0,0.0,0.00071371765807271,0.0029825519304722548,3.174118683091365e-05,0.9997605085372925,0.0,0.0,0.0,0.13579432666301727,4.593835830688477,1.0383166074752808,-24.579044342041016,0
1176.1679999999997,2.456220863678027e-05,-0.00021117004507686943,3.646047116490081e-05,0.0,0.0,0.0,0.0,0.002778925932943821,0.0014407288981601596,-0.0005526110180653632,1.0008147954940796,0.0,0.0,0.0,0.1418994963169098,4.600856304168701,1.0419846773147583,-25.684091567993164,0
1186.0419999999995,-9.101505565922707e-05,-0.00013500619388651103,8.691687253303826e-05,0.0,0.0,0.0,0.0,-0.0008489692118018866,0.0009696475462988019,0.0009804979199543595,1.000725269317627,0.0,0.0,0.0,0.1416892111301422,4.590989589691162,1.030503273010254,-25.64603042602539,0
1195.9310000000005,1.9168919607182033e-05,-0.00011118403926957399,-8.711184818821494e-06,0.0,0.0,0.0,0.0,-0.0016462898347526789,0.002125025726854801,-0.0028588890563696623,0.999376118183136,0.0,0.0,0.0,0.14157907664775848,4.590335369110107,1.0211231708526611,-25.6260929107666,0
1205.8279999999995,-4.974349940312095e-05,-7.485990499844775e-05,3.320342875667848e-05,0.0,0.0,0.0,0.0,0.0002611936070024967,0.00012463473831303418,-0.00138380890712142,1.0019670724868774,0.0,0.0,0.0,0.14090144634246826,4.591183662414551,1.0180398225784302,-25.50344467163086,0
1215.6970000000001,6.377048703143373e-05,-8.108189649647102e-05,-7.066992111504078e-05,0.0,0.0,0.0,0.0,0.0009446386829949915,0.004023567773401737,0.0016822046600282192,0.997404158115387,0.0,0.0,0.0,0.1407654732465744,4.589569568634033,1.0187978744506836,-25.478832244873047,0
1225.5720000000001,-2.5363629902130924e-05,-4.816716682398692e-05,-4.10816865041852e-05,0.0,0.0,0.0,0.0,-0.0019678594544529915,-0.002511265454813838,0.001682021887972951,0.9991350173950195,0.0,0.0,0.0,0.14099349081516266,4.583645343780518,1.0088685750961304,-25.52010154724121,0
1235.464,2.60766228166176e-05,-7.766391354380175e-05,-8.897620864445344e-05,0.0,0.0,0.0,0.0,0.0016096403123810887,0.002616792917251587,-0.0033076705876737833,1.000130534172058,0.0,0.0,0.0,0.14061382412910461,4.584517955780029,1.0168391466140747,-25.45138168334961,0
1245.3490000000002,-2.9140304832253605e-05,-3.591976928873919e-05,-5.196693382458761e-05,0.0,0.0,0.0,0.0,-0.0006639584898948669,0.0011993682710453868,0.0010240426054224372,1.0008056163787842,0.0,0.0,0.0,0.1395668238401413,4.575582027435303,1.0187596082687378,-25.261871337890625,0
1255.2399999999998,2.8356975235510617e-05,-6.678805220872164e-05,-0.00010825077333720401,0.0,0.0,0.0,0.0,0.0009153488208539784,0.0027326650451868773,-0.0004265336028765887,0.9985008835792542,0.0,0.0,0.0,0.14029787480831146,4.571876049041748,1.0160335302352905,-25.394193649291992,0
1265.1129999999994,-6.435111572500318e-05,-4.3286403524689376e-05,-8.374986646231264e-05,0.0,0.0,0.0,0.0,-0.0041569797322154045,-0.004827442578971386,-0.0005579726421274245,0.9977844953536987,0.0,0.0,0.0,0.1403505802154541,4.566512584686279,1.004794716835022,-25.40373420715332,0
1275.005000000001,-1.3074636626697611e-05,-5.555666211876087e-05,-0.0001388170785503462,0.0,0.0,0.0,0.0,-0.002227472374215722,0.0002953068760689348,0.001057879184372723,1.0009452104568481,0.0,0.0,0.0,0.14029043912887573,4.571052551269531,1.013127088546753,-25.39284896850586,0
1284.893,-5.3236559324432164e-05,-5.044142744736746e-05,-0.00010355794074712321,0.0,0.0,0.0,0.0,-0.0008851189631968737,-0.0010553010506555438,0.0008516934467479587,0.999935507774353,0.0,0.0,0.0,0.14063788950443268,4.570430755615234,1.013327956199646,-25.45573616027832,0
1294.7649999999994,2.7994541596854106e-05,-7.226972229545936e-05,-0.00019238809181842953,0.0,0.0,0.0,0.0,-0.0006119627505540848,0.004427402745932341,0.0036623624619096518,0.9998431205749512,0.0,0.0,0.0,0.1404397189617157,4.569744110107422,1.0134636163711548,-25.41986846923828,0
1304.6409999999996,1.6352722013834864e-05,-0.00020597060211002827,-0.00019846802751999348,0.0,0.0,0.0,0.0,-0.0012312195030972362,0.0028973189182579517,-0.001327640376985073,1.0004202127456665,0.0,0.0,0.0,0.14139077067375183,4.568737983703613,1.0104618072509766,-25.592010498046875,0
1314.5439999999999,-4.502235697145807e-06,-7.074863242451102e-05,-0.0001930484431795776,0.0,0.0,0.0,0.0,-0.003035833826288581,0.0014078455278649926,0.0027183990459889174,1.0005203485488892,0.0,0.0,0.0,0.14024412631988525,4.5666422843933105,1.0023720264434814,-25.38446617126465,0
1324.416000000001,-1.8750039089354686e-05,-0.00020533300994429737,-0.00019735618843697011,0.0,0.0,0.0,0.0,0.004039166960865259,0.000786197604611516,0.002881624037399888,0.9996733069419861,0.0,0.0,0.0,0.14096389710903168,4.568939208984375,0.998041033744812,-25.514747619628906,0
1334.3019999999997,-5.7561122957849875e-05,-0.0001469671551603824,-0.00014944907161407173,0.0,0.0,0.0,0.0,-0.0007032869616523385,-0.00795917771756649,-0.0017833589809015393,1.0001566410064697,0.0,0.0,0.0,0.14176377654075623,4.557208061218262,0.9992361068725586,-25.65952491760254,0
1344.1810000000005,-6.291094177868217e-05,-7.880043267505243e-05,-8.088425965979695e-05,0.0,0.0,0.0,0.0,0.0009253149037249386,-0.001181742176413536,-0.0031991538126021624,0.9999966025352478,0.0,0.0,0.0,0.1407669186592102,4.5579752922058105,1.0152580738067627,-25.47909164428711,0
1354.0740000000005,-5.4496791562996805e-05,-0.0001698173291515559,-9.476936975261196e-05,0.0,0.0,0.0,0.0,0.0027448285836726427,-0.0011639889562502503,-0.00017029485024977475,0.9990049004554749,0.0,0.0,0.0,0.13984188437461853,4.555689334869385,1.016913890838623,-25.311660766601562,0
1363.9429999999993,-6.885777111165226e-05,-0.0003090876271016896,-9.049227082869038e-05,0.0,0.0,0.0,0.0,0.0006659081554971635,0.003326124045997858,0.0011080832919105887,0.9989035725593567,0.0,0.0,0.0,0.1395799219608307,4.549171447753906,1.025531530380249,-25.264240264892578,0
1373.835000000001,-5.5434793466702104e-05,-0.00017578886763658375,-5.2601026254706085e-05,0.0,0.0,0.0,0.0,0.0006153107970021665,-0.0011286111548542976,-0.00020755846344400197,0.9995582103729248,0.0,0.0,0.0,0.13868874311447144,4.540278434753418,1.015092372894287,-25.102937698364258,0
1383.7309999999998,-4.46430676674936e-05,-0.0001057348054018803,2.5312474463135004e-05,0.0,0.0,0.0,0.0,-6.385559390764683e-05,-0.0010306976037099957,0.0011532355565577745,1.000322699546814,0.0,0.0,0.0,0.13765816390514374,4.533865451812744,1.0199964046478271,-24.916400909423828,0
1393.603000000001,1.8111155441147275e-05,-0.00016291390056721866,-3.644399475888349e-05,0.0,0.0,0.0,0.0,-0.003261971054598689,-0.0013768177013844252,0.0003340805124025792,1.000196099281311,0.0,0.0,0.0,0.14332669973373413,4.538378715515137,1.034627914428711,-25.94241714477539,0
1403.4809999999998,-6.789452163502574e-05,-0.00011754932347685099,8.733796676096972e-06,0.0,0.0,0.0,0.0,-0.0009986815275624394,2.7332542231306434e-05,-0.002662372775375843,0.9996805787086487,0.0,0.0,0.0,0.14274311065673828,4.54046106338501,1.0391980409622192,-25.836788177490234,0
1413.3700000000008,7.840899343136698e-06,-0.00011718604946509004,-6.249209400266409e-05,0.0,0.0,0.0,0.0,0.0019878444727510214,0.00480986014008522,0.0022412368562072515,1.0014090538024902,0.0,0.0,0.0,0.142462357878685,4.535709381103516,1.0345559120178223,-25.78597068786621,0
1423.25,-7.238201942527667e-05,-8.03680086391978e-05,-1.722551132843364e-05,0.0,0.0,0.0,0.0,-0.003101466689258814,-0.0027901839930564165,-0.002091743750497699,1.0014219284057617,0.0,0.0,0.0,0.13708828389644623,4.55333137512207,1.0174179077148438,-24.813251495361328,0
1433.152,-2.0143517076576245e-08,-9.716262866277248e-05,-8.775720198173076e-05,0.0,0.0,0.0,0.0,-0.003590799169614911,0.003992588724941015,-0.0016276392852887511,1.0003230571746826,0.0,0.0,0.0,0.14273178577423096,4.566489219665527,1.0339707136154175,-25.83473777770996,0
1443.0159999999996,-7.418245513690636e-05,-8.46702023409307e-05,-5.256313306745142e-05,0.0,0.0,0.0,0.0,0.001990470802411437,0.0017266088398173451,0.0032428400591015816,0.9986768364906311,0.0,0.0,0.0,0.1418323814868927,4.5687336921691895,1.0221623182296753,-25.671945571899414,0
1452.9089999999997,3.9182901673484594e-05,-4.0412360249320045e-05,-0.00016265001613646746,0.0,0.0,0.0,0.0,-0.0022054396104067564,-0.0016459692269563675,-0.0010444935178384185,0.9993154406547546,0.0,0.0,0.0,0.14241400361061096,4.5601959228515625,1.0113716125488281,-25.777217864990234,0
1462.7839999999997,3.258311699028127e-05,-4.282370355213061e-05,-0.00012175135634606704,0.0,0.0,0.0,0.0,0.0034301758278161287,-0.002226569689810276,0.0023297544103115797,0.9995845556259155,0.0,0.0,0.0,0.1417604684829712,4.5591583251953125,1.0128138065338135,-25.65892791748047,0
1472.6720000000005,0.00014919483510311693,-2.768476406345144e-05,-0.0002411146997474134,0.0,0.0,0.0,0.0,-0.002729678526520729,-0.0025722403079271317,-0.0019199620001018047,0.9996412396430969,0.0,0.0,0.0,0.14225028455257416,4.547898292541504,1.0168708562850952,-25.747583389282227,0
1482.5480000000007,-6.188351562741445e-06,-4.380140126158949e-06,-0.00023897721257526428,0.0,0.0,0.0,0.0,0.0024054390378296375,0.0005142244044691324,0.002019926207140088,1.0007526874542236,0.0,0.0,0.0,0.14170706272125244,4.548699378967285,1.0202739238739014,-25.649261474609375,0
1492.442000000001,4.9196725740330294e-05,-1.51544472828391e-05,-0.0003042022872250527,0.0,0.0,0.0,0.0,-0.0020895700436085463,0.0008679789607413113,0.000901470601093024,0.9994014501571655,0.0,0.0,0.0,0.14231622219085693,4.536890506744385,1.015384316444397,-25.759517669677734,0
1502.3150000000005,-1.9627927031251602e-05,1.1373494999133982e-06,-0.000280991691397503,0.0,0.0,0.0,0.0,0.001107940566726029,0.005232010968029499,0.0013617838267236948,0.9992652535438538,0.0,0.0,0.0,0.13622145354747772,4.5584306716918945,1.003598928451538,-24.656354904174805,0
1512.2170000000006,1.793376031855587e-05,-6.359826511470601e-05,-0.0003325628931634128,0.0,0.0,0.0,0.0,0.00042315080645494163,-2.249226781714242e-05,0.0013241908745840192,1.0008348226547241,0.0,0.0,0.0,0.1371798813343048,4.551787853240967,0.9957441687583923,-24.829832077026367,0
1522.0840000000007,-1.7008389477268793e-05,-1.8443083718011621e-06,-0.0002882081316784024,0.0,0.0,0.0,0.0,-0.0001704618043731898,-0.0013439217582345009,-0.0014638686552643776,1.0001238584518433,0.0,0.0,0.0,0.1374415010213852,4.548239707946777,1.0007045269012451,-24.877185821533203,0
1531.9879999999994,1.216254986502463e-05,-6.230920553207397e-05,-0.0003300425596535206,0.0,0.0,0.0,0.0,-0.0003657180059235543,-0.004329183604568243,0.0002047499583568424,0.9980189204216003,0.0,0.0,0.0,0.13728079199790955,4.540728569030762,1.0096551179885864,-24.84809684753418,0
1541.8590000000004,6.0622638557106256e-05,-8.069705472735222e-06,-0.0002665300853550434,0.0,0.0,0.0,0.0,-0.0013087362749502063,-0.0014078915119171143,0.0033499926794320345,1.0005062818527222,0.0,0.0,0.0,0.1364435851573944,4.533080101013184,1.019577980041504,-24.696557998657227,0
1551.7379999999994,4.190974868834019e-05,-9.987742669181898e-05,-0.00025583134265616536,0.0,0.0,0.0,0.0,-0.000985270133242011,0.0038539625238627195,-0.001156591810286045,1.0002262592315674,0.0,0.0,0.0,0.13688567280769348,4.528212547302246,1.0190041065216064,-24.776578903198242,0
1561.6229999999996,9.439996938453987e-05,-0.00011022534454241395,-0.0001973589969566092,0.0,0.0,0.0,0.0,-0.0006431430811062455,0.0003706705174408853,0.00044131185859441757,0.9970868229866028,0.0,0.0,0.0,0.13598039746284485,4.52347469329834,1.0100383758544922,-24.612722396850586,0
1571.505000000001,5.0189024477731436e-05,-0.00022710076882503927,-0.0001566778519190848,0.0,0.0,0.0,0.0,0.002014516619965434,0.007970222271978855,-0.002081741578876972,1.000614881515503,0.0,0.0,0.0,0.13669626414775848,4.515641689300537,1.0051054954528809,-24.742294311523438,0
1581.3970000000008,-3.9557446143589914e-05,-0.00011745298252208158,-0.00010990460577886552,0.0,0.0,0.0,0.0,0.0011511408956721425,-0.0034100066404789686,-5.9494464949239045e-05,0.9994863271713257,0.0,0.0,0.0,0.13443945348262787,4.54188346862793,0.9706245064735413,-24.33380889892578,0
1591.268,-3.7816676922375336e-05,-0.00021029783238191158,-0.00011699204333126545,0.0,0.0,0.0,0.0,0.00018017750699073076,0.002118532545864582,-0.002545555355027318,0.9989251494407654,0.0,0.0,0.0,0.13526764512062073,4.535167694091797,0.9784979820251465,-24.483713150024414,0
1601.1540000000005,-5.6338143622269854e-05,-0.00011333773727528751,-4.414025534060784e-05,0.0,0.0,0.0,0.0,-0.0006545181968249381,0.003214665688574314,-0.0009696749038994312,0.9977657198905945,0.0,0.0,0.0,0.12971623241901398,4.564582347869873,0.9689953923225403,-23.478897094726562,0
1611.0470000000005,-4.250378333381377e-05,-0.0001995230559259653,-6.169639527797699e-05,0.0,0.0,0.0,0.0,-0.0007752172532491386,-0.003630540333688259,-3.544452556525357e-05,0.997757613658905,0.0,0.0,0.0,0.12915559113025665,4.562199592590332,0.9602342844009399,-23.377416610717773,0
1620.9179999999997,-9.424625022802502e-05,-0.00012860535935033113,2.442979621264385e-06,0.0,0.0,0.0,0.0,0.0011742467759177089,0.0066572921350598335,0.0004828232922591269,1.0009877681732178,0.0,0.0,0.0,0.1283697634935379,4.563628673553467,0.968504011631012,-23.23518180847168,0
1630.808000000001,-2.278978172398638e-05,-0.00017093888891395181,-7.193563942564651e-05,0.0,0.0,0.0,0.0,0.00029389429255388677,0.00102599011734128,-0.0015672557055950165,0.9985712170600891,0.0,0.0,0.0,0.12804169952869415,4.560784816741943,0.9473587274551392,-23.175800323486328,0
1640.6900000000005,-7.334352267207578e-05,-9.692415915196761e-05,-8.108779184112791e-06,0.0,0.0,0.0,0.0,0.000820539949927479,-0.0005581562872976065,0.001729354145936668,0.9985422492027283,0.0,0.0,0.0,0.12756720185279846,4.5546040534973145,0.9416448473930359,-23.08991813659668,0
1650.5810000000001,-5.127788972458802e-05,-0.00017295261204708368,-3.7584097299259156e-05,0.0,0.0,0.0,0.0,-0.0008944860310293734,-0.006316497456282377,-0.0018054911633953452,0.9992223381996155,0.0,0.0,0.0,0.12802627682685852,4.550183296203613,0.94236820936203,-23.173011779785156,0
1660.4529999999995,-7.173303310992196e-05,-9.219391358783469e-05,2.5242850824724883e-05,0.0,0.0,0.0,0.0,-0.0007548432913608849,-0.0033197912853211164,0.0014891428872942924,1.0006343126296997,0.0,0.0,0.0,0.12721483409404755,4.54692268371582,0.950100839138031,-23.02613639831543,0
1670.3359999999993,-5.096871973364614e-05,-0.00017020742234308273,-3.58444935955049e-06,0.0,0.0,0.0,0.0,0.0015206956304609776,-0.0026033190079033375,-0.0015300854574888945,1.000706672668457,0.0,0.0,0.0,0.13455414772033691,4.550652027130127,0.9572204351425171,-24.354568481445312,0
1680.219000000001,-7.154171180445701e-05,-0.00010771943925647065,5.9860652982024476e-05,0.0,0.0,0.0,0.0,-0.00106454745400697,-0.006123592611402273,-0.00033691630233079195,0.9976180791854858,0.0,0.0,0.0,0.13433979451656342,4.541625499725342,0.9618008136749268,-24.31576919555664,0
1690.1049999999996,1.2442389561329037e-05,-0.00010075504542328417,-2.7599420718615875e-05,0.0,0.0,0.0,0.0,-0.003912681248039007,-0.0030095570255070925,0.003102738643065095,0.998103678226471,0.0,0.0,0.0,0.13409423828125,4.537369728088379,0.972574770450592,-24.271326065063477,0
1699.9940000000006,-9.93977882899344e-05,-7.643601566087455e-05,-3.555052899173461e-06,0.0,0.0,0.0,0.0,0.0023250398226082325,-0.0008417766075581312,-0.002173719694837928,0.9993399381637573,0.0,0.0,0.0,0.13515955209732056,4.539625644683838,0.9852258563041687,-24.464147567749023,0
1709.8739999999998,5.106538992549758e-06,-8.902039553504437e-05,-0.00012474480899982154,0.0,0.0,0.0,0.0,-0.002033194759860635,-0.0019706040620803833,-0.0026552113704383373,0.9993861317634583,0.0,0.0,0.0,0.13404732942581177,4.527869701385498,0.9856492280960083,-24.262832641601562,0
1719.7610000000004,-4.922182051814161e-05,-5.4250449466053396e-05,-7.913535955594853e-05,0.0,0.0,0.0,0.0,-0.0017464803531765938,0.0008198189316317439,-0.0005385014810599387,1.0007147789001465,0.0,0.0,0.0,0.12740223109722137,4.555054187774658,0.9860561490058899,-23.06005859375,0
1729.639000000001,3.135711085633375e-05,-3.254553666920401e-05,-0.0001761146413628012,0.0,0.0,0.0,0.0,-0.000491628423333168,-0.003367192344740033,-0.0014336275635287166,0.9996622204780579,0.0,0.0,0.0,0.12741713225841522,4.550632476806641,0.9842759370803833,-23.062755584716797,0
1739.523000000001,-1.4727457710250746e-05,-1.0860756447073072e-05,-0.0001477263867855072,0.0,0.0,0.0,0.0,0.0020536219235509634,0.0007256020908243954,0.0012691558804363012,1.0002931356430054,0.0,0.0,0.0,0.126540869474411,4.545875072479248,0.9864415526390076,-22.904150009155273,0
1749.4050000000007,4.433739013620652e-05,-7.398329216812272e-06,-0.00022709983750246465,0.0,0.0,0.0,0.0,-0.0013099357020109892,0.00021509340149350464,-0.0008705739164724946,1.000698447227478,0.0,0.0,0.0,0.12735483050346375,4.539717197418213,0.9858141541481018,-23.05147933959961,0
1759.2919999999995,-3.150279735564254e-05,7.491581072827103e-06,-0.00020929554011672735,0.0,0.0,0.0,0.0,0.002275885781273246,0.0056377979926764965,0.0010786768980324268,0.9989613890647888,0.0,0.0,0.0,0.12772291898727417,4.540309906005859,0.9868522882461548,-23.11810302734375,0
1769.175000000001,1.5511781384702772e-05,-3.4781591239152476e-05,-0.00028061182820238173,0.0,0.0,0.0,0.0,0.0004873682337347418,0.00032141993870027363,0.0008194395340979099,1.0004040002822876,0.0,0.0,0.0,0.12780000269412994,4.533705234527588,0.973761260509491,-23.132055282592773,0
1779.0599999999995,-2.5931703930837102e-05,-7.411825663439231e-06,-0.000245507835643366,0.0,0.0,0.0,0.0,-0.0005784701206721365,-0.0028282678686082363,0.004059084691107273,0.9994904398918152,0.0,0.0,0.0,0.12797971069812775,4.528993606567383,0.9712517261505127,-23.164581298828125,0
1788.9490000000005,9.561293154547457e-06,-4.4098389480495825e-05,-0.000305004941765219,0.0,0.0,0.0,0.0,-0.0018412842182442546,-0.000725773221347481,-0.0010737666161730886,0.999104380607605,0.0,0.0,0.0,0.1291974037885666,4.525665760040283,0.9693565964698792,-23.384986877441406,0
1798.826000000001,4.662461287807673e-05,-2.3716434952802956e-05,-0.00025232366169802845,0.0,0.0,0.0,0.0,0.0007112459861673415,0.002951045287773013,-0.004064574837684631,0.9982492923736572,0.0,0.0,0.0,0.1288333535194397,4.5240044593811035,0.9684211015701294,-23.319093704223633,0
1808.7090000000007,6.553082494065166e-05,-0.00010754974209703505,-0.0002962789440061897,0.0,0.0,0.0,0.0,0.0008069338509812951,0.00034078769385814667,0.0011177979176864028,0.9989485144615173,0.0,0.0,0.0,0.1276572048664093,4.515649795532227,0.9601649045944214,-23.10620880126953,0
1818.5959999999995,2.3042435714160092e-05,-5.214315388002433e-05,-0.00025893753627315164,0.0,0.0,0.0,0.0,0.0012363442219793797,0.002462148666381836,-0.0015899385325610638,1.0000231266021729,0.0,0.0,0.0,0.12822026014328003,4.509052753448486,0.9573590755462646,-23.20812225341797,0
1828.4740000000002,1.808998604246881e-05,-0.00010838216985575855,-0.00028222560649737716,0.0,0.0,0.0,0.0,-0.004004819318652153,0.0010192435001954436,-0.00281898002140224,0.9985795617103577,0.0,0.0,0.0,0.12738542258739471,4.499569416046143,0.9491210579872131,-23.057016372680664,0
1838.3590000000004,3.632558946264908e-05,-2.3697919459664263e-05,-0.00021209307305980474,0.0,0.0,0.0,0.0,0.0016872972482815385,-0.00018151156837120652,0.002328253583982587,0.9992300868034363,0.0,0.0,0.0,0.12336242944002151,4.540762424468994,0.9526185393333435,-22.328845977783203,0
1848.2479999999996,7.080009527271613e-05,-8.788318518782035e-05,-0.0002719970652833581,0.0,0.0,0.0,0.0,0.0025080249179154634,-0.0025796382687985897,0.0019224878633394837,0.9967143535614014,0.0,0.0,0.0,0.12434506416320801,4.53427791595459,0.9562167525291443,-22.506702423095703,0
1858.1270000000004,5.511532799573615e-05,-3.1182888051262125e-05,-0.00022220553364604712,0.0,0.0,0.0,0.0,0.0002714116417337209,-0.00470017222687602,0.0012731071328744292,0.9987781047821045,0.0,0.0,0.0,0.12464752793312073,4.526752948760986,0.9602347016334534,-22.561450958251953,0
1868.009,2.875173231586814e-05,-0.0001517151977168396,-0.00022559544595424086,0.0,0.0,0.0,0.0,-0.0005231845425441861,-0.0011077993549406528,-0.0012487705098465085,0.9973511695861816,0.0,0.0,0.0,0.12447591125965118,4.5204596519470215,0.9660170674324036,-22.53038787841797,0
1877.893,-1.8065031326841563e-05,-3.279512748122215e-05,-0.00016646934091113508,0.0,0.0,0.0,0.0,-0.0001347116194665432,-0.008922047913074493,0.005782301537692547,0.9995951652526855,0.0,0.0,0.0,0.11795123666524887,4.558161735534668,0.9624457955360413,-21.349411010742188,0
1887.7759999999998,-6.0036993090761825e-05,-0.0001467594993300736,-0.0001550162269268185,0.0,0.0,0.0,0.0,0.002599941333755851,-0.0036648905370384455,-0.0016044103540480137,0.9984481930732727,0.0,0.0,0.0,0.11922532320022583,4.555354118347168,0.9815994501113892,-21.580020904541016,0
1897.6689999999999,-2.5397393983439542e-05,-0.00012972929107490927,-9.451896039536223e-05,0.0,0.0,0.0,0.0,0.00031780468998476863,0.0009661393123678863,0.0028895942959934473,0.9967200756072998,0.0,0.0,0.0,0.11776207387447357,4.544451713562012,0.9878490567207336,-21.315168380737305,0
1907.5470000000005,-2.951506758108735e-05,-0.00017966573068406433,-0.00011381754302419722,0.0,0.0,0.0,0.0,0.00028038962045684457,-0.004158401861786842,0.0007683791918680072,0.9986798167228699,0.0,0.0,0.0,0.12386137992143631,4.554089069366455,0.9943779110908508,-22.41915512084961,0
1917.4269999999997,-7.028404070297256e-05,-8.983721636468545e-05,-5.594737740466371e-05,0.0,0.0,0.0,0.0,-0.0038560337852686644,0.0008057176601141691,0.0009873693343251944,1.0011444091796875,0.0,0.0,0.0,0.11855985969305038,4.584946632385254,1.0040863752365112,-21.459569931030273,0
1927.321,-5.8442332374397665e-05,-0.00012241594959050417,-9.368104656459764e-05,0.0,0.0,0.0,0.0,-0.0010658768005669117,-0.004435104783624411,-0.0004723051388282329,0.9998340606689453,0.0,0.0,0.0,0.11891920119524002,4.589590072631836,1.006563425064087,-21.524612426757812,0
1937.1949999999997,-7.162800466176122e-05,-8.418663492193446e-05,-3.0583792977267876e-05,0.0,0.0,0.0,0.0,0.002815845189616084,-0.0007502788212150335,0.0043254876509308815,0.9988458156585693,0.0,0.0,0.0,0.11851504445075989,4.589330196380615,1.0137101411819458,-21.451457977294922,0
1947.08,-1.51501890286454e-05,-9.708503057481721e-05,-0.00010905804083449766,0.0,0.0,0.0,0.0,0.00025067388196475804,0.00554888229817152,-0.0019041295163333416,0.9996833205223083,0.0,0.0,0.0,0.11916706711053848,4.582717418670654,1.0106092691421509,-21.569475173950195,0
1956.9619999999995,-9.381455311086029e-05,-4.41653210145887e-05,-7.004568033153191e-05,0.0,0.0,0.0,0.0,-0.0014607374323531985,-0.003908426500856876,0.003727053292095661,0.9996117353439331,0.0,0.0,0.0,0.11860772222280502,4.576258659362793,0.996841549873352,-21.46823501586914,0
1966.8469999999998,-4.7893649025354534e-05,-7.32963890186511e-05,-0.00014395389007404447,0.0,0.0,0.0,0.0,0.0007948525017127395,-0.0038454581517726183,-0.0029489598236978054,1.0010234117507935,0.0,0.0,0.0,0.12019332498311996,4.569866180419922,1.0067753791809082,-21.755229949951172,0
1976.732,-5.803977546747774e-05,-6.751753244316205e-05,-0.00010363639739807695,0.0,0.0,0.0,0.0,0.0007091917796060443,0.001078538247384131,0.001998343039304018,1.0004740953445435,0.0,0.0,0.0,0.11862979829311371,4.565688610076904,1.0213149785995483,-21.47222900390625,0
1986.6139999999996,-3.501687751850113e-05,-0.00015375399379990995,-0.00015825722948648036,0.0,0.0,0.0,0.0,-0.0010276384418830276,-0.0030582330655306578,0.0032096258364617825,1.0024303197860718,0.0,0.0,0.0,0.11890645325183868,4.559974193572998,1.0178425312042236,-21.52230453491211,0
1996.4969999999994,5.565816991293104e-06,-0.00010716378164943308,-8.394999167649075e-05,0.0,0.0,0.0,0.0,-0.0017820083303377032,-0.00036409098538570106,-0.004564131144434214,1.0017434358596802,0.0,0.0,0.0,0.1198437362909317,4.554752349853516,1.0201786756515503,-21.69195556640625,0
2006.3909999999996,3.0031056667212397e-05,-0.0001732793461997062,-0.00012716822675429285,0.0,0.0,0.0,0.0,0.0006602170178666711,-0.0042452760972082615,-0.002503260038793087,0.9982537627220154,0.0,0.0,0.0,0.11830723285675049,4.558042049407959,1.0188888311386108,-21.413843154907227,0
2016.2669999999998,-1.8679394997889176e-05,-9.723643597681075e-05,-5.969419362372719e-05,0.0,0.0,0.0,0.0,-0.0016361033776775002,-0.0015725675038993359,0.000935403979383409,0.9968489408493042,0.0,0.0,0.0,0.11162230372428894,4.590456962585449,1.0219166278839111,-20.203857421875,0
2026.1470000000008,2.6171626814175397e-05,-0.00010656133235897869,-0.00011763250950025395,0.0,0.0,0.0,0.0,0.0022456746082752943,7.415011350531131e-05,0.004577080253511667,0.9984676241874695,0.0,0.0,0.0,0.1121104508638382,4.591527462005615,1.0265311002731323,-20.29221534729004,0
2036.0310000000009,2.234798375866376e-05,-7.551678572781384e-05,-5.97293401369825e-05,0.0,0.0,0.0,0.0,0.0012154757278040051,0.007904138416051865,-0.0002719569019973278,1.0004514455795288,0.0,0.0,0.0,0.11337538808584213,4.584342956542969,1.0252004861831665,-20.521169662475586,0
2045.916000000001,5.633895852952264e-05,-0.00010394998389529064,-0.00010840695904335007,0.0,0.0,0.0,0.0,0.0013121727388352156,0.003990545868873596,-0.0021023021545261145,1.0013878345489502,0.0,0.0,0.0,0.11307615041732788,4.580803394317627,1.0071375370025635,-20.467008590698242,0
2055.800000000001,-4.106447158847004e-05,-6.599445623578504e-05,-7.107019337126985e-05,0.0,0.0,0.0,0.0,-0.0014254736015573144,-0.0028049221727997065,-0.0018954552942886949,1.0003794431686401,0.0,0.0,0.0,0.11190883070230484,4.5742034912109375,1.0021458864212036,-20.255722045898438,0
2065.6820000000007,-7.389645588773419e-07,-8.371633884962648e-05,-0.00012598362809512764,0.0,0.0,0.0,0.0,0.0003077987930737436,-0.006798390299081802,-0.0019618207588791847,1.0011444091796875,0.0,0.0,0.0,0.11153771728277206,4.571648597717285,1.0038483142852783,-20.188549041748047,0
2075.572,-8.620716107543558e-05,-3.2629504858050495e-05,-8.927912858780473e-05,0.0,0.0,0.0,0.0,0.0015712362946942449,0.0036732908338308334,-0.0008096272358670831,0.998357892036438,0.0,0.0,0.0,0.1110110729932785,4.566357612609863,1.0126087665557861,-20.093225479125977,0
2085.451000000001,-0.00014638417633250356,-0.00016929319826886058,-5.3123429097468033e-05,0.0,0.0,0.0,0.0,0.0013631659094244242,-0.0006039299769327044,-0.002096913754940033,0.9993019700050354,0.0,0.0,0.0,0.11047425866127014,4.560126781463623,0.999318540096283,-19.996061325073242,0
2095.3379999999997,-8.2741207734216e-05,-8.912890189094469e-05,3.7516361771849915e-05,0.0,0.0,0.0,0.0,-0.0004893745644949377,-0.0051461514085531235,-0.0010940544307231903,1.000424861907959,0.0,0.0,0.0,0.1096203401684761,4.5498809814453125,0.9957753419876099,-19.841501235961914,0
