timestamp,stateEstimate.x,stateEstimate.y,stateEstimate.z,controller.cmd_thrust,controller.cmd_roll,controller.cmd_pitch,controller.cmd_yaw,controller.r_roll,controller.r_pitch,controller.r_yaw,controller.accelz,controller.actuatorThrust,controller.roll,controller.pitch,controller.yaw,controller.rollRate,controller.pitchRate,controller.yawRate,controller.ctr_yaw
0.0,0.04613947123289108,-0.027260374277830124,0.0014682640321552753,0.0,0.0,0.0,0.0,-0.0004862942732870579,-0.0006640919018536806,0.0005179670988582075,0.9995899200439453,0.0,0.0,0.0,-23.015810012817383,11.751359939575195,-0.262936532497406,4165.9072265625,0
9.862999999999374,0.04616839438676834,-0.027029581367969513,0.0014518931275233626,0.0,0.0,0.0,0.0,-0.0007228758186101913,0.0033333697356283665,-0.0021087294444441795,0.9980342388153076,0.0,0.0,0.0,-23.000839233398438,11.770675659179688,-0.2581237554550171,4163.197265625,0
19.766999999999825,0.046134866774082184,-0.027188483625650406,0.0014546883758157492,0.0,0.0,0.0,0.0,-0.001467802212573588,-0.0038252572994679213,0.00039397142245434225,1.0001498460769653,0.0,0.0,0.0,-23.011199951171875,11.759498596191406,-0.2526502311229706,4165.07275390625,0
29.6299999999992,0.04615354165434837,-0.026979388669133186,0.0014453916810452938,0.0,0.0,0.0,0.0,0.0032989447936415672,0.004437000956386328,-8.637197606731206e-05,0.9989989995956421,0.0,0.0,0.0,-22.999614715576172,11.773571968078613,-0.24984385073184967,4162.97607421875,0
39.53399999999965,0.04615500941872597,-0.027197731658816338,0.0014508302556350827,0.0,0.0,0.0,0.0,0.0029572362545877695,0.003586576785892248,-0.000294102675979957,1.0008254051208496,0.0,0.0,0.0,-23.01255226135254,11.755383491516113,-0.2439529448747635,4165.3173828125,0
49.39899999999943,0.04616617411375046,-0.02698916755616665,0.0014494525967165828,0.0,0.0,0.0,0.0,0.0002322588989045471,8.826803241390735e-05,0.00022890111722517759,0.9984458088874817,0.0,0.0,0.0,-22.99954605102539,11.763590812683105,-0.26478731632232666,4162.96337890625,0
59.29700000000048,0.04616154730319977,-0.027245203033089638,0.0014413588214665651,0.0,0.0,0.0,0.0,0.0009292045142501593,0.00982214417308569,0.0013272151118144393,0.9990379810333252,0.0,0.0,0.0,-23.010332107543945,11.738808631896973,-0.24786628782749176,4164.91552734375,0
69.16300000000047,0.04613463208079338,-0.02709823101758957,0.0014741618651896715,0.0,0.0,0.0,0.0,-0.0008398821810260415,-0.003351951716467738,0.0006815852248109877,1.0022181272506714,0.0,0.0,0.0,-22.9965763092041,11.740972518920898,-0.28265580534935,4162.42626953125,0
79.05799999999908,0.04613976925611496,-0.02728191204369068,0.0014940749388188124,0.0,0.0,0.0,0.0,0.0014060590183362365,-0.0017709507374092937,0.0014622752787545323,1.0005067586898804,0.0,0.0,0.0,-23.008920669555664,11.732760429382324,-0.2575938403606415,4164.66064453125,0
88.9310000000005,0.046183474361896515,-0.027037227526307106,0.001472745556384325,0.0,0.0,0.0,0.0,0.0002477077068760991,0.0008404936525039375,-0.0004894029116258025,1.0002262592315674,0.0,0.0,0.0,-22.996583938598633,11.752886772155762,-0.25605133175849915,4162.42724609375,0
98.82899999999972,0.046151526272296906,-0.0272167157381773,0.0014843774260953069,0.0,0.0,0.0,0.0,0.00036995267146266997,-0.0013953140005469322,-0.00017891693278215826,0.9989152550697327,0.0,0.0,0.0,-23.008651733398438,11.73823356628418,-0.24737653136253357,4164.611328125,0
108.70399999999972,0.04617782682180405,-0.027012765407562256,0.00147629389539361,0.0,0.0,0.0,0.0,-0.00514557771384716,-0.0037520795594900846,-0.002950462978333235,0.9984598159790039,0.0,0.0,0.0,-22.99493980407715,11.749448776245117,-0.24363663792610168,4162.1298828125,0
118.59699999999975,0.04617783799767494,-0.026998111978173256,0.001479693572036922,0.0,0.0,0.0,0.0,0.0025375313125550747,0.0035854766611009836,-0.0022648866288363934,0.9997022747993469,0.0,0.0,0.0,-22.972734451293945,11.748486518859863,-0.2318439930677414,4158.1103515625,0
128.46600000000035,0.046190325170755386,-0.02679971233010292,0.0014980821870267391,0.0,0.0,0.0,0.0,-0.0015174869913607836,-0.0027259320486336946,0.00045561580918729305,1.0018104314804077,0.0,0.0,0.0,-22.96059226989746,11.7756929397583,-0.2457563281059265,4155.9130859375,0
138.36199999999917,0.04619019106030464,-0.02677684836089611,0.0015039027202874422,0.0,0.0,0.0,0.0,-0.0004464202211238444,0.003219929989427328,0.0005657114670611918,1.000940203666687,0.0,0.0,0.0,-22.93718719482422,11.766133308410645,-0.24316784739494324,4151.67626953125,0
148.23699999999917,0.046173036098480225,-0.026657233014702797,0.0015442739240825176,0.0,0.0,0.0,0.0,-0.0029074654448777437,-0.00023646092449780554,0.0018108452204614878,0.9992507100105286,0.0,0.0,0.0,-22.923974990844727,11.77817440032959,-0.26742279529571533,4149.28515625,0
158.13600000000042,0.04616779461503029,-0.026629067957401276,0.0015555978752672672,0.0,0.0,0.0,0.0,0.00214597606100142,-0.0012999949976801872,-0.0017500906251370907,1.0005502700805664,0.0,0.0,0.0,-22.900476455688477,11.771578788757324,-0.27010378241539,4145.03173828125,0
168.003999999999,0.04610184207558632,-0.026595883071422577,0.0016183527186512947,0.0,0.0,0.0,0.0,-0.003854121081531048,-0.004836895503103733,0.001990071963518858,1.0014824867248535,0.0,0.0,0.0,-22.892473220825195,11.745911598205566,-0.2930178642272949,4143.58349609375,0
177.89699999999903,0.04608350247144699,-0.026572249829769135,0.0016359020955860615,0.0,0.0,0.0,0.0,0.001768196001648903,-0.0009018005803227425,-0.0007392247789539397,1.0003780126571655,0.0,0.0,0.0,-22.869834899902344,11.744220733642578,-0.27265846729278564,4139.48583984375,0
187.76900000000023,0.04599142074584961,-0.026606926694512367,0.0016959143104031682,0.0,0.0,0.0,0.0,0.000493414350785315,0.004754414316266775,-0.00034550647251307964,1.0001112222671509,0.0,0.0,0.0,-22.86471176147461,11.696054458618164,-0.28524285554885864,4138.55859375,0
197.66200000000026,0.045960091054439545,-0.026596441864967346,0.0017199718859046698,0.0,0.0,0.0,0.0,-0.0007962480885908008,0.006379813887178898,-0.0019286335445940495,1.0008771419525146,0.0,0.0,0.0,-22.841707229614258,11.685892105102539,-0.2926868498325348,4134.39453125,0
207.54299999999967,0.04592641815543175,-0.026588810607790947,0.0017452003667131066,0.0,0.0,0.0,0.0,-0.0009476085542701185,0.00018377852393314242,-0.0037543957587331533,0.9994381666183472,0.0,0.0,0.0,-22.819316864013672,11.676701545715332,-0.30818647146224976,4130.341796875,0
217.4349999999995,0.04588998854160309,-0.026582738384604454,0.0017712963744997978,0.0,0.0,0.0,0.0,0.0008332764846272767,0.0027133531402796507,0.0029698582366108894,0.9984010457992554,0.0,0.0,0.0,-22.7972412109375,11.671316146850586,-0.309965044260025,4126.34619140625,0
227.30699999999888,0.04584815353155136,-0.026607606559991837,0.001786981476470828,0.0,0.0,0.0,0.0,0.001222131191752851,0.0042711226269602776,0.0034098250325769186,0.9992718696594238,0.0,0.0,0.0,-22.794635772705078,11.648824691772461,-0.31599023938179016,4125.87451171875,0
237.20999999999913,0.04580643028020859,-0.02660633809864521,0.001811864203773439,0.0,0.0,0.0,0.0,0.00038350021350197494,8.378957863897085e-05,-0.0009204227244481444,0.9993280172348022,0.0,0.0,0.0,-22.771209716796875,11.633766174316406,-0.3226941227912903,4121.63427734375,0
247.07200000000012,0.04579726234078407,-0.026628244668245316,0.0018064863979816437,0.0,0.0,0.0,0.0,-0.0013148108264431357,0.002642198232933879,-0.0036825360730290413,0.9997128248214722,0.0,0.0,0.0,-22.769166946411133,11.625628471374512,-0.308854877948761,4121.2646484375,0
256.96799999999894,0.04575452581048012,-0.026631232351064682,0.0018295182380825281,0.0,0.0,0.0,0.0,0.0007395414286293089,0.0016400336753576994,-0.0017474519554525614,1.0016326904296875,0.0,0.0,0.0,-22.74744415283203,11.617513656616211,-0.3148488998413086,4117.33251953125,0
266.83899999999994,0.04570912569761276,-0.026634104549884796,0.0018536646384745836,0.0,0.0,0.0,0.0,-0.0004642247804440558,-0.003421586938202381,0.0033114587422460318,1.0003554821014404,0.0,0.0,0.0,-22.725576400756836,11.604138374328613,-0.3125349283218384,4113.37451171875,0
276.7330000000002,0.04566138982772827,-0.026637766510248184,0.0018793202470988035,0.0,0.0,0.0,0.0,-0.0036972779780626297,-0.004550141282379627,0.000768207770306617,0.9990168213844299,0.0,0.0,0.0,-22.702709197998047,11.59361743927002,-0.3027762770652771,4109.23583984375,0
286.6080000000002,0.04577688127756119,-0.026567721739411354,0.0018285586265847087,0.0,0.0,0.0,0.0,0.0010303909657523036,0.0007007256499491632,0.0004006780800409615,1.0021306276321411,0.0,0.0,0.0,-22.70981216430664,11.638897895812988,-0.26936203241348267,4110.52099609375,0
296.5010000000002,0.04573431238532066,-0.026567669585347176,0.0018489179201424122,0.0,0.0,0.0,0.0,0.0009580536279827356,0.003636706154793501,-0.0012597827007994056,0.9990776181221008,0.0,0.0,0.0,-22.68690299987793,11.626259803771973,-0.2665144205093384,4106.37451171875,0
306.3760000000002,0.04568905383348465,-0.026569897308945656,0.0018705091206356883,0.0,0.0,0.0,0.0,0.0016503427177667618,0.0054526193998754025,-0.000843758403789252,0.9988749027252197,0.0,0.0,0.0,-22.665103912353516,11.611050605773926,-0.27204760909080505,4102.42919921875,0
316.27700000000004,0.04564237967133522,-0.026573799550533295,0.0018919594585895538,0.0,0.0,0.0,0.0,0.0005071897176094353,-0.004143236670643091,-0.0009033028618432581,1.0003175735473633,0.0,0.0,0.0,-22.64248275756836,11.596315383911133,-0.2803691625595093,4098.33447265625,0
326.14899999999943,0.045595113188028336,-0.026579750701785088,0.0019134068861603737,0.0,0.0,0.0,0.0,-0.0001975311170099303,0.0035616231616586447,0.002218272304162383,1.0018872022628784,0.0,0.0,0.0,-22.620296478271484,11.576364517211914,-0.270710825920105,4094.318359375,0
336.04099999999926,0.045547857880592346,-0.026588674634695053,0.0019362634047865868,0.0,0.0,0.0,0.0,-0.0019832830876111984,0.0005386268021538854,-0.0013796956045553088,1.000784993171692,0.0,0.0,0.0,-22.597925186157227,11.559731483459473,-0.2740807831287384,4090.26953125,0
345.9210000000003,0.04550086334347725,-0.026601016521453857,0.001961055211722851,0.0,0.0,0.0,0.0,0.0020497115328907967,0.0030504008755087852,0.0023806304670870304,1.000196933746338,0.0,0.0,0.0,-22.576173782348633,11.549824714660645,-0.26608529686927795,4086.332275390625,0
355.7999999999993,0.04545283690094948,-0.026616603136062622,0.001987141789868474,0.0,0.0,0.0,0.0,-0.0004235959204379469,0.0033595100976526737,-0.0015472460072487593,1.0023846626281738,0.0,0.0,0.0,-22.553871154785156,11.535688400268555,-0.2631717026233673,4082.29541015625,0
365.6849999999995,0.0454026460647583,-0.02663544751703739,0.0020149098709225655,0.0,0.0,0.0,0.0,-1.0401930012449156e-05,-0.0007317858398891985,0.0025908241514116526,1.0018163919448853,0.0,0.0,0.0,-22.532207489013672,11.52816104888916,-0.2634603977203369,4078.374755859375,0
375.5730000000003,0.04601311683654785,-0.027530038729310036,0.0022430308163166046,0.0,0.0,0.0,0.0,0.001983587397262454,-0.005121038295328617,-0.000661704980302602,0.9997612833976746,0.0,0.0,0.0,-22.582670211791992,11.408195495605469,-0.1021961122751236,4087.508544921875,0
385.4470000000001,0.04599073529243469,-0.027596501633524895,0.0022751130163669586,0.0,0.0,0.0,0.0,-0.00040021663880907,-0.0002730942505877465,-0.0014936032239347696,0.9984087944030762,0.0,0.0,0.0,-22.560413360595703,11.395599365234375,-0.08432857692241669,4083.479736328125,0
395.33699999999953,0.04594031721353531,-0.02768109180033207,0.002340358216315508,0.0,0.0,0.0,0.0,0.0014310185797512531,0.003004831960424781,0.0006464304751716554,0.9989010691642761,0.0,0.0,0.0,-22.60640525817871,11.393399238586426,-0.08997473865747452,4091.80419921875,0
405.21500000000015,0.045913215726614,-0.027754755690693855,0.002373854396864772,0.0,0.0,0.0,0.0,4.2795744548129733e-07,-0.0020245537161827087,-8.630955562693998e-05,0.9994646310806274,0.0,0.0,0.0,-22.583322525024414,11.380311965942383,-0.09761890769004822,4087.62646484375,0
415.10999999999876,0.0458638072013855,-0.02772563323378563,0.002445160411298275,0.0,0.0,0.0,0.0,0.0010113099124282598,0.0025596972554922104,0.0008431955357082188,1.0001931190490723,0.0,0.0,0.0,-22.62839126586914,11.396391868591309,-0.10831785202026367,4095.78369140625,0
424.9889999999996,0.045832473784685135,-0.02780245617032051,0.0024830868933349848,0.0,0.0,0.0,0.0,0.003320722607895732,0.0030206714291125536,0.0022111404687166214,0.999008297920227,0.0,0.0,0.0,-22.60576057434082,11.387115478515625,-0.11158618330955505,4091.6875,0
434.8719999999994,0.045810915529727936,-0.027788693085312843,0.0025607971474528313,0.0,0.0,0.0,0.0,0.0026613702066242695,0.0030738222412765026,-0.001229773974046111,0.9996313452720642,0.0,0.0,0.0,-22.651487350463867,11.405852317810059,-0.13478052616119385,4099.96435546875,0
444.7520000000004,0.04577741399407387,-0.027868514880537987,0.0026041707023978233,0.0,0.0,0.0,0.0,0.00043656371417455375,0.002869230229407549,0.0012097281869500875,0.9979010224342346,0.0,0.0,0.0,-22.629024505615234,11.38971996307373,-0.1413286179304123,4095.8984375,0
454.64400000000023,0.045777108520269394,-0.027860257774591446,0.002699723932892084,0.0,0.0,0.0,0.0,0.0018594935536384583,-0.003274850081652403,0.0009874249808490276,0.9984574317932129,0.0,0.0,0.0,-22.67194175720215,11.426887512207031,-0.15812377631664276,4103.66650390625,0
464.5149999999994,0.04574093595147133,-0.027938256040215492,0.002749708015471697,0.0,0.0,0.0,0.0,0.00129552255384624,-0.0019418164156377316,0.0008869856246747077,0.9997876286506653,0.0,0.0,0.0,-22.649824142456055,11.41364574432373,-0.14464329183101654,4099.6630859375,0
513.9449999999997,0.045684006065130234,-0.02809120900928974,0.0032565193250775337,0.0,0.0,0.0,0.0,0.0010014045983552933,0.003891961881890893,0.0024961973540484905,0.9998931288719177,0.0,0.0,0.0,-22.724348068237305,11.507975578308105,-0.18731585144996643,4113.15234375,0
523.8279999999995,0.04565218463540077,-0.02815818041563034,0.0033298530615866184,0.0,0.0,0.0,0.0,-0.0014579757116734982,-0.0007972292369231582,0.0029317066073417664,0.9989680647850037,0.0,0.0,0.0,-22.701231002807617,11.5003080368042,-0.19177843630313873,4108.96826171875,0
533.7099999999991,0.04564677178859711,-0.02816546894609928,0.00347352446988225,0.0,0.0,0.0,0.0,-0.0012426372850313783,0.003706366056576371,0.0021297114435583353,0.9996422529220581,0.0,0.0,0.0,-22.737865447998047,11.536530494689941,-0.19682033360004425,4115.59912109375,0
543.5889999999999,0.04561300948262215,-0.02823219820857048,0.0035544149577617645,0.0,0.0,0.0,0.0,0.0009893401293084025,-0.0010863426141440868,-3.247027052566409e-05,0.999939501285553,0.0,0.0,0.0,-22.71416473388672,11.526653289794922,-0.200015589594841,4111.30908203125,0
553.4809999999998,0.04558560252189636,-0.028232015669345856,0.0037044319324195385,0.0,0.0,0.0,0.0,-0.0008786471444182098,0.0029847449623048306,-0.0005823435494676232,0.9983830451965332,0.0,0.0,0.0,-22.753307342529297,11.557306289672852,-0.2234993278980255,4118.39404296875,0
563.3580000000002,0.04611945152282715,-0.027329832315444946,0.001620058435946703,0.0,0.0,0.0,0.0,-0.0004592524201143533,0.0011362587101757526,0.004984377417713404,0.9980320334434509,0.0,0.0,0.0,-22.757658004760742,11.739522933959961,-0.21454013884067535,4119.18115234375,0
573.259,0.04605234041810036,-0.02738719992339611,0.001711917808279395,0.0,0.0,0.0,0.0,8.769689156906679e-05,-0.00035450272844173014,-0.0025470340624451637,0.9981393218040466,0.0,0.0,0.0,-22.789546966552734,11.740330696105957,-0.2172509878873825,4124.953125,0
583.1270000000004,0.04610365256667137,-0.02714579924941063,0.0016249471809715033,0.0,0.0,0.0,0.0,-0.001999668776988983,0.0005075160297565162,-0.0003810869238805026,1.0005244016647339,0.0,0.0,0.0,-22.789247512817383,11.745170593261719,-0.21576561033725739,4124.89892578125,0
593.0209999999988,0.046073704957962036,-0.027357926592230797,0.001677779946476221,0.0,0.0,0.0,0.0,-0.0011978242546319962,0.0011938957031816244,0.0005194836412556469,1.0001373291015625,0.0,0.0,0.0,-22.818418502807617,11.735942840576172,-0.2124311923980713,4130.17919921875,0
602.8869999999988,0.04611094668507576,-0.027138199657201767,0.0016379186417907476,0.0,0.0,0.0,0.0,0.001993976766243577,0.002757146256044507,-0.004079459700733423,1.0004792213439941,0.0,0.0,0.0,-22.81546974182129,11.73952865600586,-0.21777352690696716,4129.64501953125,0
612.7860000000001,0.04607061296701431,-0.027369311079382896,0.0016751592047512531,0.0,0.0,0.0,0.0,0.001722591696307063,-0.0031532684806734324,0.001325572025962174,0.9995296001434326,0.0,0.0,0.0,-22.842065811157227,11.720818519592285,-0.22046512365341187,4134.45947265625,0
622.6579999999994,0.04610489681363106,-0.027187777683138847,0.001644928939640522,0.0,0.0,0.0,0.0,-0.002110593020915985,-0.004000855144113302,-0.0004895563470199704,0.9996171593666077,0.0,0.0,0.0,-22.838159561157227,11.72110366821289,-0.21734170615673065,4133.75244140625,0
632.5479999999989,0.04605688154697418,-0.027374301105737686,0.0016932659782469273,0.0,0.0,0.0,0.0,-0.0015151024563238025,0.00020158469851594418,0.00030688662081956863,0.9995181560516357,0.0,0.0,0.0,-22.864229202270508,11.720422744750977,-0.21018506586551666,4138.47119140625,0
642.4229999999989,0.046030838042497635,-0.027412990108132362,0.0017107921885326505,0.0,0.0,0.0,0.0,-0.0003885589831043035,0.00017396840848959982,0.0013324888423085213,0.9998868107795715,0.0,0.0,0.0,-22.84131622314453,11.710659980773926,-0.21267351508140564,4134.32373046875,0
652.3189999999995,0.04602241888642311,-0.027467601001262665,0.0017526621231809258,0.0,0.0,0.0,0.0,0.0022047811653465033,8.405801054323092e-05,-0.0008878509397618473,0.9999403357505798,0.0,0.0,0.0,-22.866100311279297,11.708333015441895,-0.21891739964485168,4138.81005859375,0
662.1900000000005,0.046103667467832565,-0.027184983715415,0.0016425674548372626,0.0,0.0,0.0,0.0,0.0015883354935795069,-0.002586097689345479,0.0001505025866208598,0.9984599947929382,0.0,0.0,0.0,-22.862539291381836,11.720915794372559,-0.21646320819854736,4138.16552734375,0
672.0859999999993,0.046054814010858536,-0.027374112978577614,0.0016905860975384712,0.0,0.0,0.0,0.0,-0.0017997128888964653,0.003512377617880702,0.0010467456886544824,0.9978269338607788,0.0,0.0,0.0,-22.884084701538086,11.710205078125,-0.20018576085567474,4142.06494140625,0
681.9599999999991,0.04608432576060295,-0.027195733040571213,0.0016522652003914118,0.0,0.0,0.0,0.0,0.0008321573259308934,0.0006453891401179135,-0.0015488810604438186,0.9996581077575684,0.0,0.0,0.0,-22.87745475769043,11.717706680297852,-0.21429947018623352,4140.86474609375,0
691.851999999999,0.04604912921786308,-0.027386579662561417,0.0017024828121066093,0.0,0.0,0.0,0.0,0.0010739442659541965,0.003708805423229933,-0.0015583497006446123,0.9985967874526978,0.0,0.0,0.0,-22.897798538208008,11.703662872314453,-0.21239136159420013,4144.54736328125,0
701.726999999999,0.04608665406703949,-0.027149733155965805,0.0016600290546193719,0.0,0.0,0.0,0.0,0.001567527069710195,-0.003394861938431859,0.0009140979964286089,0.9985249042510986,0.0,0.0,0.0,-22.88971710205078,11.708351135253906,-0.22243769466876984,4143.08447265625,0
711.619999999999,0.04603036865592003,-0.027389347553253174,0.0016867400845512748,0.0,0.0,0.0,0.0,0.001868906314484775,-0.0026423358358442783,-0.004841776564717293,1.000731110572815,0.0,0.0,0.0,-22.90842628479004,11.693228721618652,-0.2120886892080307,4146.470703125,0
721.494999999999,0.046073127537965775,-0.027185095474123955,0.0016341012669727206,0.0,0.0,0.0,0.0,0.0012303789844736457,0.00027412240160629153,-0.002588123083114624,0.9993221163749695,0.0,0.0,0.0,-22.905120849609375,11.703243255615234,-0.2131071537733078,4145.87255859375,0
731.3869999999988,0.046090636402368546,-0.02741795778274536,0.0016814671689644456,0.0,0.0,0.0,0.0,0.0018822468118742108,0.00023931576288305223,-0.002729117637500167,0.999888002872467,0.0,0.0,0.0,-22.923276901245117,11.692377090454102,-0.21230025589466095,4149.15869140625,0
741.2659999999996,0.046124737709760666,-0.027185210958123207,0.0016408509109169245,0.0,0.0,0.0,0.0,0.000477966561447829,7.238922262331471e-05,0.0015566091751679778,0.998507559299469,0.0,0.0,0.0,-22.913463592529297,11.697137832641602,-0.21689464151859283,4147.3828125,0
751.155999999999,0.04609816148877144,-0.027417615056037903,0.0016772330272942781,0.0,0.0,0.0,0.0,0.0006484078476205468,0.005014404654502869,-0.0007417435990646482,0.9983892440795898,0.0,0.0,0.0,-22.930301666259766,11.69052505493164,-0.19987069070339203,4150.43017578125,0
761.0339999999997,0.04616677761077881,-0.027171939611434937,0.0016021966002881527,0.0,0.0,0.0,0.0,0.0006035278784111142,0.002371035749092698,0.002099069533869624,0.9989902973175049,0.0,0.0,0.0,-22.91986083984375,11.708501815795898,-0.2042001634836197,4148.54052734375,0
770.9290000000001,0.046069126576185226,-0.02743985503911972,0.0016057986067607999,0.0,0.0,0.0,0.0,-0.001602271688170731,0.002421490615233779,0.0019247627351433039,0.9985484480857849,0.0,0.0,0.0,-22.939720153808594,11.694869995117188,-0.20711062848567963,4152.134765625,0
780.8060000000005,0.046098437160253525,-0.02720239758491516,0.0015668447595089674,0.0,0.0,0.0,0.0,0.002929860493168235,0.0023522539995610714,0.0007203998975455761,0.9978832006454468,0.0,0.0,0.0,-22.928499221801758,11.707937240600586,-0.21555374562740326,4150.10400390625,0
790.6900000000005,0.04610695689916611,-0.0274051520973444,0.001609354978427291,0.0,0.0,0.0,0.0,-0.0035029558930546045,-0.0010706355096772313,0.0025188643485307693,0.9988956451416016,0.0,0.0,0.0,-22.943336486816406,11.693270683288574,-0.21598035097122192,4152.78955078125,0
800.5650000000005,0.046071864664554596,-0.027455125004053116,0.0016111501026898623,0.0,0.0,0.0,0.0,0.0016816051211208105,-0.00696702441200614,0.00025770015781745315,1.0019736289978027,0.0,0.0,0.0,-22.919523239135742,11.687758445739746,-0.22087647020816803,4148.4794921875,0
810.4570000000003,0.04604077339172363,-0.027477538213133812,0.0016424383502453566,0.0,0.0,0.0,0.0,-0.0018979246960952878,-0.0015267898561432958,0.005059208255261183,1.0000872611999512,0.0,0.0,0.0,-22.941097259521484,11.699524879455566,-0.21408584713935852,4152.38427734375,0
820.3310000000001,0.04612904042005539,-0.027184154838323593,0.0015035958494991064,0.0,0.0,0.0,0.0,0.002038184553384781,0.0059788343496620655,-0.0010179938981309533,1.0000648498535156,0.0,0.0,0.0,-22.93210792541504,11.733159065246582,-0.2063537836074829,4150.75732421875,0
830.2340000000004,0.04608210176229477,-0.027391714975237846,0.0015324742998927832,0.0,0.0,0.0,0.0,0.0006199509371072054,-0.000556388811673969,0.004392934497445822,0.9980288743972778,0.0,0.0,0.0,-22.949541091918945,11.719346046447754,-0.2145681381225586,4153.912109375,0
840.1059999999998,0.046046409755945206,-0.027438757941126823,0.0015337190125137568,0.0,0.0,0.0,0.0,-0.0007339666481129825,0.004719595890492201,-0.0007230113260447979,1.0003398656845093,0.0,0.0,0.0,-22.925729751586914,11.712319374084473,-0.21058249473571777,4149.6025390625,0
849.9939999999988,0.04598935693502426,-0.027372227981686592,0.0015688512939959764,0.0,0.0,0.0,0.0,-4.5391585445031524e-05,0.00498192710801959,-3.625012323027477e-05,0.9994046092033386,0.0,0.0,0.0,-22.9420108795166,11.738707542419434,-0.22172366082668304,4152.54931640625,0
859.869999999999,0.04606110602617264,-0.027116958051919937,0.0014399330830201507,0.0,0.0,0.0,0.0,0.001249642577022314,-0.0006624851957894862,-0.00016298390983138233,0.9999833106994629,0.0,0.0,0.0,-22.93348503112793,11.765673637390137,-0.23088644444942474,4151.00634765625,0
869.7579999999998,0.0460713766515255,-0.02729993499815464,0.0014892553444951773,0.0,0.0,0.0,0.0,-0.002695586532354355,-0.0036762291565537453,-0.0014109547482803464,0.9997320771217346,0.0,0.0,0.0,-22.950611114501953,11.75387954711914,-0.21258866786956787,4154.1064453125,0
879.6360000000004,0.04603734612464905,-0.027339020743966103,0.0014909427845850587,0.0,0.0,0.0,0.0,-0.00023100081307347864,-0.001950092613697052,0.0009666060796007514,1.002642035484314,0.0,0.0,0.0,-22.928529739379883,11.748137474060059,-0.2025425136089325,4150.10986328125,0
889.5259999999998,0.0460696667432785,-0.02738824114203453,0.0015238132327795029,0.0,0.0,0.0,0.0,0.0020499848760664463,0.005929395090788603,0.001021091011352837,0.999641478061676,0.0,0.0,0.0,-22.946935653686523,11.764826774597168,-0.18479159474372864,4153.44091796875,0
899.4030000000002,0.0461181104183197,-0.027150386944413185,0.0014287708327174187,0.0,0.0,0.0,0.0,-0.0010152686154469848,0.0022659744136035442,-9.55283539951779e-05,0.9974578619003296,0.0,0.0,0.0,-22.93855094909668,11.786216735839844,-0.20238088071346283,4151.92333984375,0
909.2919999999995,0.046104442328214645,-0.027352992445230484,0.0014689399395138025,0.0,0.0,0.0,0.0,0.00135185441467911,0.0012664486421272159,-0.0006708195433020592,0.9964622259140015,0.0,0.0,0.0,-22.955507278442383,11.776772499084473,-0.1986929029226303,4154.9921875,0
919.1700000000001,0.0460769422352314,-0.02739204838871956,0.0014706944348290563,0.0,0.0,0.0,0.0,-0.0038443044759333134,-0.0008597032865509391,0.0011870814487338066,0.9965724945068359,0.0,0.0,0.0,-22.93207550048828,11.765233993530273,-0.19655470550060272,4150.75146484375,0
929.0659999999989,0.04607100412249565,-0.02740030735731125,0.001500121783465147,0.0,0.0,0.0,0.0,-2.3637576305191033e-05,-0.002596115693449974,-0.006197368260473013,0.9966464042663574,0.0,0.0,0.0,-22.948944091796875,11.788331985473633,-0.20175547897815704,4153.8046875,0
938.9369999999999,0.04615684971213341,-0.02713281847536564,0.0013499510241672397,0.0,0.0,0.0,0.0,-0.0014265080681070685,-0.0007578856311738491,-0.0013450469123199582,0.9984325170516968,0.0,0.0,0.0,-22.942108154296875,11.815590858459473,-0.1968143731355667,4152.5673828125,0
948.8279999999995,0.04612850025296211,-0.02730688452720642,0.0013783036265522242,0.0,0.0,0.0,0.0,0.0007526127155870199,-0.00508152088150382,-3.9535767427878454e-05,0.9993408918380737,0.0,0.0,0.0,-22.95976448059082,11.812005043029785,-0.19225658476352692,4155.76318359375,0
958.7039999999997,0.0461234524846077,-0.02712009847164154,0.0013567681889981031,0.0,0.0,0.0,0.0,0.0005055763758718967,0.007060621399432421,0.0006165602244436741,1.0001001358032227,0.0,0.0,0.0,-22.949758529663086,11.825121879577637,-0.18912100791931152,4153.9521484375,0
968.598,0.04612350091338158,-0.02733069472014904,0.0013856732985004783,0.0,0.0,0.0,0.0,0.0012749471934512258,-0.002519006608054042,-0.001705165021121502,0.9984627962112427,0.0,0.0,0.0,-22.965038299560547,11.820524215698242,-0.19334536790847778,4156.71728515625,0
978.4799999999996,0.04612680524587631,-0.02713841013610363,0.0013616386568173766,0.0,0.0,0.0,0.0,-0.0008342830697074533,-0.004246931988745928,-0.00022841482132207602,1.0005179643630981,0.0,0.0,0.0,-22.95517349243164,11.833494186401367,-0.1981273740530014,4154.93212890625,0
988.378999999999,0.04612370952963829,-0.027279525995254517,0.0014045387506484985,0.0,0.0,0.0,0.0,-0.0020922578405588865,0.0007420331239700317,0.0020580741111189127,0.9994126558303833,0.0,0.0,0.0,-22.968759536743164,11.836969375610352,-0.17644883692264557,4157.39111328125,0
998.2389999999996,0.04612436145544052,-0.027085358276963234,0.0013884884538128972,0.0,0.0,0.0,0.0,-0.002938672201707959,0.0003388760960660875,0.0015080982120707631,0.9998255372047424,0.0,0.0,0.0,-22.95917320251465,11.854096412658691,-0.17514823377132416,4155.65576171875,0
1008.1369999999988,0.046118058264255524,-0.02726011909544468,0.0014249584637582302,0.0,0.0,0.0,0.0,0.0011625512270256877,-0.00219386862590909,0.0014935380313545465,0.9997876882553101,0.0,0.0,0.0,-22.97313690185547,11.852312088012695,-0.1645190566778183,4158.18359375,0
1018.0159999999996,0.046073704957962036,-0.027095751836895943,0.001454630633816123,0.0,0.0,0.0,0.0,0.0005774772143922746,0.00024418722023256123,0.0006340700201690197,0.9972713589668274,0.0,0.0,0.0,-22.960386276245117,11.855069160461426,-0.16792862117290497,4155.87548828125,0
1027.8999999999996,0.046082280576229095,-0.02734733186662197,0.0014784366358071566,0.0,0.0,0.0,0.0,-0.0005041152471676469,-0.0015964877093210816,-0.0003418952692300081,0.9993830323219299,0.0,0.0,0.0,-22.9732723236084,11.84090518951416,-0.15581533312797546,4158.2080078125,0
1037.7780000000002,0.04602879658341408,-0.027193661779165268,0.0015171051491051912,0.0,0.0,0.0,0.0,-0.0012434025993570685,0.001211638213135302,0.00420386902987957,0.9970325827598572,0.0,0.0,0.0,-22.962764739990234,11.849101066589355,-0.16346675157546997,4156.30615234375,0
1047.6779999999999,0.046057555824518204,-0.027352379634976387,0.001575923291966319,0.0,0.0,0.0,0.0,0.000618857447989285,0.003421253524720669,0.00037981284549459815,0.9970006346702576,0.0,0.0,0.0,-22.97638511657715,11.848359107971191,-0.15197762846946716,4158.771484375,0
1057.5460000000003,0.046021562069654465,-0.027180103585124016,0.0016022112686187029,0.0,0.0,0.0,0.0,-0.0034232449252158403,0.0017068288289010525,-0.0006990428082644939,0.9989467859268188,0.0,0.0,0.0,-22.965646743774414,11.858932495117188,-0.1688043177127838,4156.82763671875,0
1067.4349999999995,0.046047430485486984,-0.027446234598755836,0.0016358211869373918,0.0,0.0,0.0,0.0,0.0008694716962054372,-0.0004763412580359727,0.0009599453769624233,0.9991766810417175,0.0,0.0,0.0,-22.98170280456543,11.85133171081543,-0.15729843080043793,4159.73388671875,0
1077.3220000000001,0.046019792556762695,-0.027481302618980408,0.0016418829327449203,0.0,0.0,0.0,0.0,-2.2673219064017758e-05,0.002034222474321723,-0.0017365891253575683,1.0022437572479248,0.0,0.0,0.0,-22.95881462097168,11.838839530944824,-0.16191551089286804,4155.59130859375,0
1087.2169999999987,0.04602968692779541,-0.027460968121886253,0.0016767929773777723,0.0,0.0,0.0,0.0,0.00251346779987216,0.0022880423348397017,0.0009278508950956166,0.9993088245391846,0.0,0.0,0.0,-22.97233772277832,11.858007431030273,-0.1737404763698578,4158.03857421875,0
1097.0829999999987,0.04605020955204964,-0.027235619723796844,0.001637627137824893,0.0,0.0,0.0,0.0,-0.001773351221345365,0.0010208479361608624,0.0005360226496122777,1.000056505203247,0.0,0.0,0.0,-22.960651397705078,11.875659942626953,-0.1864670068025589,4155.923828125,0
1106.9759999999987,0.046063750982284546,-0.027351178228855133,0.001706241862848401,0.0,0.0,0.0,0.0,-0.00012374429206829518,0.007866947911679745,-0.0005662727053277194,0.9997075200080872,0.0,0.0,0.0,-22.974672317504883,11.882084846496582,-0.17180615663528442,4158.46142578125,0
1116.851999999999,0.04604744166135788,-0.02737780287861824,0.0017210100777447224,0.0,0.0,0.0,0.0,0.0010719146812334657,0.0008426609565503895,0.0015610897680744529,0.9994577169418335,0.0,0.0,0.0,-22.95142364501953,11.869184494018555,-0.18596573173999786,4154.25341796875,0
1126.7439999999988,0.0460486114025116,-0.02738875336945057,0.00176034786272794,0.0,0.0,0.0,0.0,0.0004906028625555336,-0.0009570930851623416,-0.0005300119519233704,1.0014961957931519,0.0,0.0,0.0,-22.966318130493164,11.88119888305664,-0.1841692477464676,4156.94921875,0
1136.6219999999994,0.046165645122528076,-0.02710060030221939,0.00161555758677423,0.0,0.0,0.0,0.0,-0.0006838820991106331,0.0012231909204274416,0.003030492225661874,1.000671148300171,0.0,0.0,0.0,-22.956506729125977,11.916022300720215,-0.1812690943479538,4155.17333984375,0
1146.5100000000002,0.046082302927970886,-0.027315441519021988,0.0016267986502498388,0.0,0.0,0.0,0.0,-0.00028728717006742954,0.0022322149015963078,0.0019230610923841596,1.000322937965393,0.0,0.0,0.0,-22.97247314453125,11.895651817321777,-0.17994412779808044,4158.0634765625,0
1156.387999999999,0.046068500727415085,-0.027333823963999748,0.0016380494926124811,0.0,0.0,0.0,0.0,-0.0020287588704377413,0.0036020721308887005,-0.00026610508211888373,0.9986975789070129,0.0,0.0,0.0,-22.949970245361328,11.883460998535156,-0.1926681250333786,4153.990234375,0
1166.271999999999,0.046069011092185974,-0.027370965108275414,0.0016718516126275063,0.0,0.0,0.0,0.0,0.0003524534113239497,0.0013087617699056864,0.0008760030032135546,0.9984524250030518,0.0,0.0,0.0,-22.96596908569336,11.89497184753418,-0.20077717304229736,4156.88623046875,0
1176.1669999999995,0.0461617112159729,-0.027095956727862358,0.0015467838384211063,0.0,0.0,0.0,0.0,4.747247294289991e-05,0.0028724821750074625,0.0030877552926540375,0.9987427592277527,0.0,0.0,0.0,-22.95726776123047,11.926745414733887,-0.20971421897411346,4155.31103515625,0
1186.0439999999999,0.046150702983140945,-0.027333250269293785,0.0015649658162146807,0.0,0.0,0.0,0.0,-0.00044623101712204516,0.004190927837044001,-0.001064479467459023,0.9983233213424683,0.0,0.0,0.0,-22.971656799316406,11.911086082458496,-0.21057181060314178,4157.91552734375,0
1195.9259999999995,0.046209417283535004,-0.02705681324005127,0.0015093627152964473,0.0,0.0,0.0,0.0,3.332762935315259e-05,0.0016815228154882789,-0.0016283814329653978,0.9995262026786804,0.0,0.0,0.0,-22.961435317993164,11.93425464630127,-0.2318781316280365,4156.0654296875,0
1205.8150000000005,0.04617500677704811,-0.02730654738843441,0.001511154230684042,0.0,0.0,0.0,0.0,0.001248134532943368,0.005408572498708963,0.002921471605077386,0.9990412592887878,0.0,0.0,0.0,-22.976844787597656,11.915075302124023,-0.22665004432201385,4158.8544921875,0
1215.690999999999,0.046166252344846725,-0.027318866923451424,0.001510960515588522,0.0,0.0,0.0,0.0,0.0011663860641419888,0.0015082736499607563,0.0013226402224972844,1.000024676322937,0.0,0.0,0.0,-22.952848434448242,11.898833274841309,-0.22960485517978668,4154.51123046875,0
1225.574999999999,0.046148184686899185,-0.027352528646588326,0.0015273354947566986,0.0,0.0,0.0,0.0,0.0016729896888136864,0.006586113478988409,-0.00026660074945539236,1.0007445812225342,0.0,0.0,0.0,-22.96586799621582,11.904980659484863,-0.23253381252288818,4156.86767578125,0
1235.4570000000003,0.04615616425871849,-0.027130678296089172,0.0015105140628293157,0.0,0.0,0.0,0.0,0.0013611678732559085,-0.00105134560726583,-0.003740032436326146,0.9995791912078857,0.0,0.0,0.0,-22.954572677612305,11.919366836547852,-0.258232444524765,4154.8232421875,0
1245.3419999999987,0.04615022987127304,-0.027316177263855934,0.0015384356956928968,0.0,0.0,0.0,0.0,0.002046056790277362,0.0016940053319558501,-0.0010034407023340464,0.997745931148529,0.0,0.0,0.0,-22.97081184387207,11.904454231262207,-0.2528778910636902,4157.7626953125,0
1255.2259999999987,0.04613847658038139,-0.027323072776198387,0.0015423903241753578,0.0,0.0,0.0,0.0,-0.003918989095836878,0.0011280305916443467,0.0004452556895557791,0.9995833039283752,0.0,0.0,0.0,-22.94826889038086,11.891852378845215,-0.2552507519721985,4153.68212890625,0
1265.119999999999,0.04608006775379181,-0.027355259284377098,0.0015621274942532182,0.0,0.0,0.0,0.0,-0.00417102687060833,-0.006435125134885311,-0.0010425531072542071,0.999530017375946,0.0,0.0,0.0,-22.963693618774414,11.904613494873047,-0.26448678970336914,4156.47412109375,0
1275.0010000000002,0.04606151580810547,-0.02736182138323784,0.001567519037052989,0.0,0.0,0.0,0.0,0.0008041189284995198,0.0005906121805310249,-0.0020077682565897703,1.0009949207305908,0.0,0.0,0.0,-22.940685272216797,11.89977741241455,-0.2563686966896057,4152.3095703125,0
1284.8829999999998,0.04607754945755005,-0.02736086957156658,0.0015930975787341595,0.0,0.0,0.0,0.0,-0.00026533487834967673,-0.009680775925517082,-0.0008425877313129604,1.0005683898925781,0.0,0.0,0.0,-22.95928382873535,11.91629695892334,-0.25245919823646545,4155.67626953125,0
1294.762999999999,0.04610871151089668,-0.027113180607557297,0.0015238148625940084,0.0,0.0,0.0,0.0,-0.0031094371806830168,-0.006391624920070171,0.0021129967644810677,1.001589298248291,0.0,0.0,0.0,-22.947608947753906,11.94299602508545,-0.2425052523612976,4153.56298828125,0
1304.6509999999998,0.04608519747853279,-0.027229338884353638,0.0015751845203340054,0.0,0.0,0.0,0.0,3.9910901250550523e-05,0.0005278430762700737,0.0021754116751253605,0.9997448921203613,0.0,0.0,0.0,-22.96249771118164,11.942760467529297,-0.2175973653793335,4156.2578125,0
1314.5329999999994,0.04607032611966133,-0.02722921594977379,0.001586217200383544,0.0,0.0,0.0,0.0,0.000707953586243093,-0.004530386067926884,-0.0041391896083951,0.9993553757667542,0.0,0.0,0.0,-22.94049644470215,11.92965030670166,-0.21590273082256317,4152.275390625,0
1324.4269999999997,0.04608792066574097,-0.027284834533929825,0.0016177238430827856,0.0,0.0,0.0,0.0,-0.0018013626104220748,0.0024025808088481426,-0.0022744471207261086,0.9988903403282166,0.0,0.0,0.0,-22.960100173950195,11.93311595916748,-0.20926889777183533,4155.82373046875,0
1334.298999999999,0.046076592057943344,-0.02728499472141266,0.0016307288315147161,0.0,0.0,0.0,0.0,0.0016403396148234606,-0.004548674449324608,-0.001278033829294145,0.99951171875,0.0,0.0,0.0,-22.937461853027344,11.91989517211914,-0.21454478800296783,4151.7265625,0
1344.1900000000005,0.04608188197016716,-0.027303284034132957,0.0016599278897047043,0.0,0.0,0.0,0.0,0.0017318521859124303,0.007926859892904758,0.0018099930603057146,1.0008599758148193,0.0,0.0,0.0,-22.955150604248047,11.926671981811523,-0.20972669124603271,4154.92822265625,0
1354.0679999999993,0.04610706493258476,-0.02710992842912674,0.0016078094486147165,0.0,0.0,0.0,0.0,0.002156102331355214,-0.004169782157987356,0.0025082561187446117,1.0032624006271362,0.0,0.0,0.0,-22.942102432250977,11.940166473388672,-0.23077964782714844,4152.56640625,0
1363.9609999999993,0.04609988257288933,-0.027283959090709686,0.0016523676458746195,0.0,0.0,0.0,0.0,0.004125006962567568,0.0013383585028350353,0.001320313778705895,1.0002813339233398,0.0,0.0,0.0,-22.958723068237305,11.925498962402344,-0.21450066566467285,4155.57470703125,0
1373.8329999999987,0.04617660492658615,-0.027025852352380753,0.0015750476159155369,0.0,0.0,0.0,0.0,0.0012112515978515148,-0.00029355785227380693,0.002337455516681075,0.9993910789489746,0.0,0.0,0.0,-22.9505672454834,11.93883991241455,-0.21131190657615662,4154.0986328125,0
1383.7279999999992,0.04611005634069443,-0.027266275137662888,0.0015790885081514716,0.0,0.0,0.0,0.0,0.001037544570863247,-0.005824213847517967,0.001482070074416697,0.998734176158905,0.0,0.0,0.0,-22.967519760131836,11.914660453796387,-0.20238731801509857,4157.1669921875,0
1393.6059999999998,0.0461018905043602,-0.02725657820701599,0.0015915516996756196,0.0,0.0,0.0,0.0,-0.0019609546288847923,0.0015056466218084097,-0.0013396978611126542,0.9998307228088379,0.0,0.0,0.0,-22.944427490234375,11.899299621582031,-0.1913534253835678,4152.98681640625,0
1403.4840000000004,0.046078842133283615,-0.027317574247717857,0.0016158918151631951,0.0,0.0,0.0,0.0,-7.396137516479939e-05,0.0035749601665884256,-0.0012163971550762653,0.998110830783844,0.0,0.0,0.0,-22.963281631469727,11.903006553649902,-0.19187799096107483,4156.39990234375,0
1413.3779999999988,0.04619182273745537,-0.02701999433338642,0.0014803519006818533,0.0,0.0,0.0,0.0,0.0006485147168859839,-0.0001386277872370556,0.0006058000726625323,0.9997040033340454,0.0,0.0,0.0,-22.95720863342285,11.92924976348877,-0.20200060307979584,4155.30029296875,0
1423.2569999999996,0.04613377898931503,-0.02722213789820671,0.0014821230433881283,0.0,0.0,0.0,0.0,0.0008645716006867588,0.009037189185619354,-0.0004920839564874768,0.9995205402374268,0.0,0.0,0.0,-22.973642349243164,11.913305282592773,-0.20025309920310974,4158.27490234375,0
1433.1440000000002,0.04618508741259575,-0.026988934725522995,0.0014369374839589,0.0,0.0,0.0,0.0,-0.0009478354477323592,0.002236800966784358,0.000507368182297796,1.0000791549682617,0.0,0.0,0.0,-22.96616554260254,11.928372383117676,-0.22334721684455872,4156.92138671875,0
1443.0190000000002,0.046160630881786346,-0.02729133516550064,0.0014251398388296366,0.0,0.0,0.0,0.0,-0.003745860420167446,0.0004989535082131624,0.0010983875254169106,1.0022644996643066,0.0,0.0,0.0,-22.98467445373535,11.909995079040527,-0.21585169434547424,4160.27197265625,0
1452.9130000000005,0.04618386551737785,-0.027058081701397896,0.0014163149753585458,0.0,0.0,0.0,0.0,0.0018850109772756696,-0.0016970033757388592,-0.0019306382164359093,1.000601053237915,0.0,0.0,0.0,-22.973289489746094,11.929716110229492,-0.22143708169460297,4158.2109375,0
1462.786,0.046149469912052155,-0.027277683839201927,0.0014219190925359726,0.0,0.0,0.0,0.0,0.0007614066707901657,0.0008303745416924357,-0.0015376164810732007,1.0003024339675903,0.0,0.0,0.0,-22.99249839782715,11.909284591674805,-0.20861023664474487,4161.68798828125,0
1472.6720000000005,0.04614650085568428,-0.02726108208298683,0.0014266219222918153,0.0,0.0,0.0,0.0,-0.0014420553343370557,0.003241809783503413,0.0009619498741813004,1.0004059076309204,0.0,0.0,0.0,-22.970319747924805,11.894393920898438,-0.21481919288635254,4157.67333984375,0
1482.566999999999,0.04612285643815994,-0.02725241333246231,0.0014493002090603113,0.0,0.0,0.0,0.0,-0.0015990338288247585,-0.0032637526746839285,-0.0023349442053586245,0.998680830001831,0.0,0.0,0.0,-22.985435485839844,11.904611587524414,-0.22762645781040192,4160.40966796875,0
1492.441999999999,0.04611676558852196,-0.02723328396677971,0.001457367790862918,0.0,0.0,0.0,0.0,-0.001093983999453485,-0.0012904639588668942,0.0017885987181216478,1.0004074573516846,0.0,0.0,0.0,-22.96295166015625,11.89269733428955,-0.22124503552913666,4156.33984375,0
1502.3369999999995,0.046129386872053146,-0.027243193238973618,0.0014792447909712791,0.0,0.0,0.0,0.0,-5.5834367231000215e-05,-0.0014260554453358054,0.0019500956404954195,1.0011730194091797,0.0,0.0,0.0,-22.979175567626953,11.903820991516113,-0.21402837336063385,4159.2763671875,0
1512.2039999999997,0.046125780791044235,-0.02722070924937725,0.0014903631526976824,0.0,0.0,0.0,0.0,-0.0016367710195481777,-0.0029667497146874666,0.0010806096252053976,0.9989208579063416,0.0,0.0,0.0,-22.956314086914062,11.892578125,-0.20237183570861816,4155.138671875,0
1522.0939999999991,0.046130210161209106,-0.027216797694563866,0.0015176781453192234,0.0,0.0,0.0,0.0,0.001470906543545425,-0.0028877947479486465,-0.0018939739093184471,1.0000557899475098,0.0,0.0,0.0,-22.973861694335938,11.903735160827637,-0.19775733351707458,4158.31494140625,0
1531.9719999999998,0.046118754893541336,-0.027070585638284683,0.0015412558568641543,0.0,0.0,0.0,0.0,-0.0003831108333542943,2.95052941510221e-05,0.0018610190600156784,0.9998471736907959,0.0,0.0,0.0,-22.96280288696289,11.908333778381348,-0.20113910734653473,4156.31298828125,0
1541.8559999999998,0.046102892607450485,-0.027255328372120857,0.001572286244481802,0.0,0.0,0.0,0.0,0.00198921631090343,0.004741455893963575,0.0040361578576266766,1.0007617473602295,0.0,0.0,0.0,-22.979244232177734,11.890795707702637,-0.19328813254833221,4159.28857421875,0
1551.741,0.04610345512628555,-0.027233578264713287,0.0015894563402980566,0.0,0.0,0.0,0.0,-0.0016902979696169496,0.003768246853724122,-0.0009782052366062999,1.0005491971969604,0.0,0.0,0.0,-22.955303192138672,11.872366905212402,-0.19766736030578613,4154.95556640625,0
1561.6399999999994,0.0460876040160656,-0.027282800525426865,0.0016203304985538125,0.0,0.0,0.0,0.0,0.0005063018179498613,0.001304610981605947,0.00027836105437017977,0.9997663497924805,0.0,0.0,0.0,-22.97325325012207,11.871163368225098,-0.20923210680484772,4158.20458984375,0
1571.5139999999992,0.04612111300230026,-0.027038581669330597,0.0015862234868109226,0.0,0.0,0.0,0.0,0.001005568541586399,-0.004805878736078739,0.00016696550301276147,0.9999550580978394,0.0,0.0,0.0,-22.96057891845703,11.888395309448242,-0.22165125608444214,4155.91064453125,0
1581.3979999999992,0.04610836133360863,-0.02729322388768196,0.0016076047904789448,0.0,0.0,0.0,0.0,-0.0018594824941828847,0.0011619612341746688,0.00478808069601655,0.9990226030349731,0.0,0.0,0.0,-22.980064392089844,11.871868133544922,-0.192795991897583,4159.4375,0
1591.2780000000002,0.04622284322977066,-0.02700567990541458,0.0015018407721072435,0.0,0.0,0.0,0.0,-0.0044731562957167625,-0.0007041055941954255,0.0012720300583168864,0.9987265467643738,0.0,0.0,0.0,-22.970722198486328,11.899726867675781,-0.19277465343475342,4157.74609375,0
1601.164999999999,0.046158842742443085,-0.027269596233963966,0.0014913808554410934,0.0,0.0,0.0,0.0,-0.00442958390340209,-0.005121131427586079,-0.000750882551074028,0.9979614615440369,0.0,0.0,0.0,-22.98685073852539,11.879051208496094,-0.19268976151943207,4160.66552734375,0
1611.0429999999997,0.04624124988913536,-0.026983749121427536,0.001427489216439426,0.0,0.0,0.0,0.0,-4.259097113390453e-05,-0.0023557839449495077,-0.0006509432569146156,1.0001970529556274,0.0,0.0,0.0,-22.974145889282227,11.902326583862305,-0.1883300542831421,4158.3662109375,0
1620.9269999999997,0.04616863653063774,-0.027176976203918457,0.0014206550549715757,0.0,0.0,0.0,0.0,-0.001486093271523714,0.0015895183896645904,-0.0017358295153826475,1.001355528831482,0.0,0.0,0.0,-22.988487243652344,11.885492324829102,-0.19102029502391815,4160.9619140625,0
1630.8220000000001,0.04616929963231087,-0.026981540024280548,0.0014325480442494154,0.0,0.0,0.0,0.0,-0.0027155515272170305,0.0009568996611051261,-0.0006452410598285496,1.0010077953338623,0.0,0.0,0.0,-22.978788375854492,11.892064094543457,-0.19987952709197998,4159.2060546875,0
1640.6980000000003,0.04616072401404381,-0.027227066457271576,0.0014354102313518524,0.0,0.0,0.0,0.0,0.0034127626568078995,0.007906384766101837,0.0006318460800684988,0.9983446598052979,0.0,0.0,0.0,-22.993146896362305,11.87886905670166,-0.19580133259296417,4161.80517578125,0
1650.583999999999,0.04617360979318619,-0.027003781870007515,0.001440992928110063,0.0,0.0,0.0,0.0,-0.0003807638422586024,0.0024943985044956207,0.0011203716276213527,1.0004615783691406,0.0,0.0,0.0,-22.982519149780273,11.882487297058105,-0.2316032201051712,4159.88134765625,0
1660.4609999999993,0.0461546964943409,-0.02720620483160019,0.0014534910442307591,0.0,0.0,0.0,0.0,0.0014397359918802977,-0.0008486671722494066,-0.002677079290151596,1.0003219842910767,0.0,0.0,0.0,-22.994827270507812,11.870906829833984,-0.226533904671669,4162.109375,0
1670.3449999999993,0.046174388378858566,-0.027002526447176933,0.0014526743907481432,0.0,0.0,0.0,0.0,0.0005575122777372599,-0.004511616658419371,-6.705870328005403e-05,0.9982267618179321,0.0,0.0,0.0,-22.983211517333984,11.874161720275879,-0.23045307397842407,4160.0068359375,0
1680.2289999999994,0.04619072377681732,-0.027249274775385857,0.0014614616520702839,0.0,0.0,0.0,0.0,0.0026188872288912535,0.007455354556441307,0.0005170834483578801,0.9992677569389343,0.0,0.0,0.0,-22.99566650390625,11.855393409729004,-0.208247110247612,4162.26123046875,0
1690.1149999999998,0.04620702192187309,-0.027032678946852684,0.0014666031347587705,0.0,0.0,0.0,0.0,-0.0002613819087855518,0.00033155755954794586,-0.0024126647040247917,0.99986332654953,0.0,0.0,0.0,-22.98066520690918,11.863177299499512,-0.237449049949646,4159.5458984375,0
1700.0139999999992,0.04615786299109459,-0.027256056666374207,0.0014633112587034702,0.0,0.0,0.0,0.0,0.0015353820053860545,0.00013848213711753488,-0.0012783317361027002,0.9992632269859314,0.0,0.0,0.0,-22.99504852294922,11.844636917114258,-0.23101407289505005,4162.1494140625,0
1709.8899999999994,0.04614318534731865,-0.027034297585487366,0.0015036340337246656,0.0,0.0,0.0,0.0,0.0005943988217040896,0.004837043583393097,0.00021274267055559903,0.9980273842811584,0.0,0.0,0.0,-22.984018325805664,11.850692749023438,-0.2337418794631958,4160.1533203125,0
1719.7690000000002,0.046134769916534424,-0.027297936379909515,0.0015086049679666758,0.0,0.0,0.0,0.0,-0.0018518550787121058,-0.0013543230015784502,0.00010574128100415692,1.000268578529358,0.0,0.0,0.0,-23.001066207885742,11.830912590026855,-0.22030705213546753,4163.23876953125,0
1729.6589999999997,0.04613489657640457,-0.027278266847133636,0.0015172850107774138,0.0,0.0,0.0,0.0,-0.0007906411192379892,0.0041793822310864925,-0.004290304612368345,1.0002267360687256,0.0,0.0,0.0,-22.978376388549805,11.825701713562012,-0.2172681987285614,4159.1318359375,0
1739.5339999999997,0.0461321696639061,-0.027081020176410675,0.0015401153359562159,0.0,0.0,0.0,0.0,0.0010202786652371287,0.0008609562064521015,-0.00011583897867240012,0.9977622032165527,0.0,0.0,0.0,-22.967836380004883,11.849552154541016,-0.24589401483535767,4157.22412109375,0
1749.4169999999995,0.04612666368484497,-0.027054807171225548,0.001551864668726921,0.0,0.0,0.0,0.0,0.001498416531831026,-0.0031709144823253155,0.0023583900183439255,0.999067485332489,0.0,0.0,0.0,-22.94457244873047,11.836010932922363,-0.24742405116558075,4153.01318359375,0
1759.3019999999997,0.04609190672636032,-0.02685931883752346,0.0016192031325772405,0.0,0.0,0.0,0.0,0.0018827486783266068,0.0008800225332379341,0.001730975927785039,0.9982007741928101,0.0,0.0,0.0,-22.936491012573242,11.860569953918457,-0.27333733439445496,4151.55078125,0
1769.191999999999,0.046083714812994,-0.02682618796825409,0.001634629676118493,0.0,0.0,0.0,0.0,0.0017066741129383445,-0.0021018232218921185,0.0015706176636740565,1.0012304782867432,0.0,0.0,0.0,-22.912567138671875,11.841025352478027,-0.2784877121448517,4147.22021484375,0
1779.0689999999995,0.04603731259703636,-0.026709847152233124,0.001703933347016573,0.0,0.0,0.0,0.0,0.0009568712557666004,4.4236188841750845e-05,0.002473984146490693,0.9989367723464966,0.0,0.0,0.0,-22.903247833251953,11.844430923461914,-0.292925626039505,4145.53369140625,0
1788.9599999999991,0.04602500796318054,-0.026674680411815643,0.0017246049828827381,0.0,0.0,0.0,0.0,0.0014633057871833444,0.000606625631917268,-0.003073287196457386,0.9970132112503052,0.0,0.0,0.0,-22.87976837158203,11.830845832824707,-0.2894054353237152,4141.28369140625,0
1798.833999999999,0.046034980565309525,-0.02659003809094429,0.0017334874719381332,0.0,0.0,0.0,0.0,7.683385774726048e-05,0.0006130373221822083,0.0029300826136022806,1.0003877878189087,0.0,0.0,0.0,-22.87760353088379,11.836301803588867,-0.297324001789093,4140.8916015625,0
1808.7259999999987,0.04602266475558281,-0.026556195691227913,0.0017512200865894556,0.0,0.0,0.0,0.0,0.0009381461422890425,0.006731582805514336,-0.0017013284377753735,1.0007736682891846,0.0,0.0,0.0,-22.854520797729492,11.825857162475586,-0.3013307750225067,4136.7138671875,0
1818.601999999999,0.04601200297474861,-0.026526594534516335,0.0017653731629252434,0.0,0.0,0.0,0.0,-0.0007830689428374171,0.0035288874059915543,0.001793038216419518,0.9995337724685669,0.0,0.0,0.0,-22.85138702392578,11.807517051696777,-0.3152601718902588,4136.14697265625,0
1828.485999999999,0.045997560024261475,-0.026498835533857346,0.0017847712151706219,0.0,0.0,0.0,0.0,-0.0004712995723821223,-0.001973152859136462,-0.0017065866850316525,0.9986851811408997,0.0,0.0,0.0,-22.827547073364258,11.799395561218262,-0.3174496591091156,4131.83154296875,0
1838.3649999999998,0.045985862612724304,-0.0265012439340353,0.0017891612369567156,0.0,0.0,0.0,0.0,0.0009483681060373783,0.005836751312017441,0.002279549138620496,0.9982121586799622,0.0,0.0,0.0,-22.825693130493164,11.782390594482422,-0.3105809986591339,4131.49560546875,0
1848.2610000000004,0.04596693441271782,-0.026480063796043396,0.0018066486809402704,0.0,0.0,0.0,0.0,0.001641383278183639,0.0016484246589243412,0.0003297742223367095,1.0002893209457397,0.0,0.0,0.0,-22.802471160888672,11.773285865783691,-0.3275269865989685,4127.29248046875,0
1858.1450000000004,0.045968178659677505,-0.02649860456585884,0.0017922911792993546,0.0,0.0,0.0,0.0,-0.0007960366201587021,-0.0004494762688409537,-0.00411548838019371,1.0022116899490356,0.0,0.0,0.0,-22.800350189208984,11.75128173828125,-0.32420289516448975,4126.90869140625,0
1868.0229999999992,0.04594757780432701,-0.026483511552214622,0.0018086578929796815,0.0,0.0,0.0,0.0,0.0013406317448243499,0.0053658452816307545,0.001206272398121655,1.0000464916229248,0.0,0.0,0.0,-22.778764724731445,11.736369132995605,-0.32503339648246765,4123.00146484375,0
1877.8999999999996,0.045950159430503845,-0.02649177424609661,0.0017986971652135253,0.0,0.0,0.0,0.0,0.0014925814466550946,-0.0021067543420940638,-0.0009895036928355694,0.997661292552948,0.0,0.0,0.0,-22.779754638671875,11.717296600341797,-0.3336554169654846,4123.1806640625,0
1887.7939999999999,0.0459279790520668,-0.02648390643298626,0.0018143525812774897,0.0,0.0,0.0,0.0,0.001249033841304481,0.0028875425923615694,0.0017115956870839,0.9995223879814148,0.0,0.0,0.0,-22.758808135986328,11.699755668640137,-0.32642662525177,4119.38916015625,0
1897.6729999999989,0.04590429365634918,-0.02647939883172512,0.0018290842417627573,0.0,0.0,0.0,0.0,0.0034927937667816877,0.00018324876145925373,-0.0047017536126077175,0.9992731809616089,0.0,0.0,0.0,-22.735807418823242,11.685847282409668,-0.3358055651187897,4115.2265625,0
1907.5550000000003,0.0458795428276062,-0.026477240025997162,0.0018435507081449032,0.0,0.0,0.0,0.0,-0.0009602360078133643,0.004367257002741098,0.0002019474486587569,1.000357985496521,0.0,0.0,0.0,-22.713878631591797,11.6696195602417,-0.33835896849632263,4111.25732421875,0
1917.4339999999993,0.04585361108183861,-0.026476938277482986,0.0018582312623038888,0.0,0.0,0.0,0.0,0.0011528109898790717,0.00016591967141721398,-0.0025990225840359926,0.999919593334198,0.0,0.0,0.0,-22.690826416015625,11.664166450500488,-0.34401798248291016,4107.0849609375,0
1927.3220000000001,0.04582604765892029,-0.026477716863155365,0.0018734557088464499,0.0,0.0,0.0,0.0,-0.0008583980961702764,-0.003108098404482007,-0.0008484587888233364,0.9999791979789734,0.0,0.0,0.0,-22.66819190979004,11.651325225830078,-0.34917309880256653,4102.98779296875,0
1937.208999999999,0.04579588770866394,-0.026479071006178856,0.0018893748056143522,0.0,0.0,0.0,0.0,-0.0012054950930178165,0.0023550742771476507,0.0004746488411910832,0.9990635514259338,0.0,0.0,0.0,-22.645784378051758,11.645866394042969,-0.34089621901512146,4098.93212890625,0
1947.0959999999995,0.04576334357261658,-0.026481609791517258,0.0019054585136473179,0.0,0.0,0.0,0.0,0.00220380537211895,0.0026219456922262907,-0.0033072831574827433,0.9995893836021423,0.0,0.0,0.0,-22.621824264526367,11.633895874023438,-0.33984842896461487,4094.594970703125,0
1956.9759999999987,0.04572972655296326,-0.026485273614525795,0.0019212383776903152,0.0,0.0,0.0,0.0,-0.0009682461968623102,0.002162449061870575,-0.0014432549942284822,0.9987290501594543,0.0,0.0,0.0,-22.60042953491211,11.619691848754883,-0.34002405405044556,4090.722412109375,0
1966.866,0.04569554701447487,-0.026490885764360428,0.001936806133016944,0.0,0.0,0.0,0.0,-0.0011176224797964096,0.0034609436988830566,-0.0010432618437334895,0.9995776414871216,0.0,0.0,0.0,-22.57889175415039,11.609878540039062,-0.3387905955314636,4086.824462890625,0
1976.7439999999988,0.045660413801670074,-0.026499640196561813,0.0019521836657077074,0.0,0.0,0.0,0.0,-0.0003119997854810208,0.0021152272820472717,0.000490806472953409,0.9990960955619812,0.0,0.0,0.0,-22.55654525756836,11.598563194274902,-0.34156519174575806,4082.77978515625,0
1986.628999999999,0.04562312364578247,-0.026511207222938538,0.001967396354302764,0.0,0.0,0.0,0.0,0.001922468189150095,-0.0011156375985592604,-0.0011383057571947575,0.9998189210891724,0.0,0.0,0.0,-22.5340518951416,11.5838623046875,-0.347263365983963,4078.708251953125,0
1996.509,0.046063218265771866,-0.027387414127588272,0.0019411651883274317,0.0,0.0,0.0,0.0,-0.0006561466725543141,0.001892525004222989,-0.0014888589503243566,0.9977775812149048,0.0,0.0,0.0,-22.591276168823242,11.434919357299805,-0.22118163108825684,4089.06591796875,0
2006.3959999999988,0.04604530707001686,-0.027449429035186768,0.001947169890627265,0.0,0.0,0.0,0.0,0.002176587237045169,0.004345562309026718,0.0013947169063612819,0.9981109499931335,0.0,0.0,0.0,-22.5684814453125,11.42175006866455,-0.22169621288776398,4084.940185546875,0
2016.2729999999992,0.04599348455667496,-0.02748354896903038,0.0019860088359564543,0.0,0.0,0.0,0.0,-0.00046811584616079926,0.0036894779186695814,-5.3881896747043356e-05,0.9978731870651245,0.0,0.0,0.0,-22.623737335205078,11.413762092590332,-0.24019749462604523,4094.94140625,0
2026.1589999999997,0.04597292095422745,-0.02754969522356987,0.0019914607983082533,0.0,0.0,0.0,0.0,-0.0015001562424004078,-0.0026015490293502808,0.0019975020550191402,0.9983946681022644,0.0,0.0,0.0,-22.600805282592773,11.403512954711914,-0.2492893487215042,4090.790771484375,0
2036.039999999999,0.04595128446817398,-0.027591830119490623,0.0020179888233542442,0.0,0.0,0.0,0.0,0.0006546189542859793,-0.001830400200560689,-0.0016905057709664106,0.9981970191001892,0.0,0.0,0.0,-22.652172088623047,11.401524543762207,-0.2579079568386078,4100.08837890625,0
2045.923999999999,0.045926447957754135,-0.027660880237817764,0.002023623324930668,0.0,0.0,0.0,0.0,-0.002968770219013095,-0.0024307852145284414,-0.002993354806676507,0.9988958835601807,0.0,0.0,0.0,-22.630769729614258,11.390240669250488,-0.2523879110813141,4096.21435546875,0
2055.816999999999,0.045928701758384705,-0.0276760533452034,0.0020577169489115477,0.0,0.0,0.0,0.0,-0.0024663086514919996,-0.0006876976694911718,-0.004908304661512375,0.9986072778701782,0.0,0.0,0.0,-22.679868698120117,11.410941123962402,-0.26034435629844666,4105.1015625,0
2065.691999999999,0.045898184180259705,-0.02774621918797493,0.0020673703402280807,0.0,0.0,0.0,0.0,0.0011290112743154168,0.006090881302952766,-0.004365789238363504,0.999238133430481,0.0,0.0,0.0,-22.658559799194336,11.399666786193848,-0.25595659017562866,4101.24462890625,0
2075.5740000000005,0.045917220413684845,-0.02772609516978264,0.002129644388332963,0.0,0.0,0.0,0.0,0.0006868547643534839,0.00011035026545869187,0.00012175572919659317,0.9994087219238281,0.0,0.0,0.0,-22.706689834594727,11.436853408813477,-0.28436750173568726,4109.9560546875,0
2085.465,0.04588787630200386,-0.027792667970061302,0.0021483469754457474,0.0,0.0,0.0,0.0,-0.0004911118885502219,0.0046578869223594666,0.0013836646685376763,1.002288818359375,0.0,0.0,0.0,-22.683582305908203,11.426021575927734,-0.2838691771030426,4105.7734375,0
2095.3459999999995,0.04589507728815079,-0.02773948572576046,0.002237362787127495,0.0,0.0,0.0,0.0,0.0007613002671860158,0.0017711418913677335,0.002901974366977811,0.9992417693138123,0.0,0.0,0.0,-22.725326538085938,11.4866943359375,-0.3247639834880829,4113.32958984375,0
2105.2379999999994,0.04586687684059143,-0.02779904007911682,0.002270554658025503,0.0,0.0,0.0,0.0,0.00159845023881644,0.003501170314848423,-0.0007779475999996066,0.9978694915771484,0.0,0.0,0.0,-22.702226638793945,11.474604606628418,-0.32272934913635254,4109.14794921875,0
2115.1090000000004,0.04587293416261673,-0.027749929577112198,0.0023779890034347773,0.0,0.0,0.0,0.0,-0.00021763869153801352,0.001811153837479651,-8.540646376786754e-05,0.9984296560287476,0.0,0.0,0.0,-22.745595932006836,11.523603439331055,-0.350175142288208,4116.998046875,0
2124.9969999999994,0.045846160501241684,-0.02780505083501339,0.002421025652438402,0.0,0.0,0.0,0.0,-0.0007512369193136692,0.0016287394100800157,0.0006540832691825926,0.9976416826248169,0.0,0.0,0.0,-22.722244262695312,11.50812816619873,-0.3557658791542053,4112.771484375,0
2134.8770000000004,0.04584836959838867,-0.027774494141340256,0.0025344067253172398,0.0,0.0,0.0,0.0,-0.0004741847806144506,0.004086931236088276,-0.0010988448048010468,0.9978137612342834,0.0,0.0,0.0,-22.765859603881836,11.547378540039062,-0.3643244504928589,4120.666015625,0
2144.7659999999996,0.045820605009794235,-0.027824612334370613,0.002583905356004834,0.0,0.0,0.0,0.0,-0.002225189935415983,-0.0009825958404690027,0.001644018106162548,0.9999526143074036,0.0,0.0,0.0,-22.743371963500977,11.536187171936035,-0.3647995591163635,4116.595703125,0
2154.6450000000004,0.04581795632839203,-0.027835095301270485,0.002686109161004424,0.0,0.0,0.0,0.0,-0.0020354907028377056,0.0024399184621870518,0.00035067988210357726,0.9994827508926392,0.0,0.0,0.0,-22.785898208618164,11.563889503479004,-0.35503295063972473,4124.29248046875,0
2164.5429999999997,0.04578762874007225,-0.027886666357517242,0.0027417053934186697,0.0,0.0,0.0,0.0,0.001524903578683734,-0.00019899891049135476,-0.0001504161482444033,0.9972891211509705,0.0,0.0,0.0,-22.763980865478516,11.560624122619629,-0.3561740219593048,4120.32568359375,0
2174.4179999999997,0.04575975984334946,-0.02790534310042858,0.0028510147240012884,0.0,0.0,0.0,0.0,-0.00013717774709220976,0.0023348380345851183,0.0009076516143977642,0.9999103546142578,0.0,0.0,0.0,-22.803462982177734,11.572646141052246,-0.3633767068386078,4127.4716796875,0
2184.3009999999995,0.04574376344680786,-0.02793779969215393,0.0029621131252497435,0.0,0.0,0.0,0.0,0.0017690506065264344,0.0016232309862971306,0.0012694158358499408,1.00265634059906,0.0,0.0,0.0,-22.839073181152344,11.581780433654785,-0.3613826036453247,4133.91796875,0
