timestamp,stateEstimate.x,stateEstimate.y,stateEstimate.z,controller.cmd_thrust,controller.cmd_roll,controller.cmd_pitch,controller.cmd_yaw,controller.r_roll,controller.r_pitch,controller.r_yaw,controller.accelz,controller.actuatorThrust,controller.roll,controller.pitch,controller.yaw,controller.rollRate,controller.pitchRate,controller.yawRate,controller.ctr_yaw
0.0,0.012332349084317684,0.06528449058532715,-0.002096678363159299,0.0,0.0,0.0,0.0,-0.0005803094245493412,0.0006589575204998255,0.0002024850546149537,1.0006619691848755,0.0,0.0,0.0,0.5050172209739685,2.7734851837158203,5.130777835845947,-91.40912628173828,0
9.918999999999869,0.012344695627689362,0.06543006747961044,-0.002089233137667179,0.0,0.0,0.0,0.0,-9.089298691833392e-05,-0.00011830182484118268,-0.0009855368407443166,0.9991361498832703,0.0,0.0,0.0,0.5133792161941528,2.7994446754455566,5.1392388343811035,-92.92266845703125,0
19.82600000000093,0.012241742573678493,0.06533925235271454,-0.0021243186201900244,0.0,0.0,0.0,0.0,-0.0005904340650886297,-0.0023629472125321627,-0.005192412529140711,0.9993772506713867,0.0,0.0,0.0,0.5130792856216431,2.799428939819336,5.1387529373168945,-92.86837768554688,0
29.743000000000393,0.012232833541929722,0.06549246609210968,-0.0020932599436491728,0.0,0.0,0.0,0.0,-0.00015793557395227253,0.0012606863165274262,0.00013473110448103398,1.0003583431243896,0.0,0.0,0.0,0.5186362862586975,2.829885959625244,5.1440958976745605,-93.87420654296875,0
39.652000000000044,0.012207468040287495,0.06540220975875854,-0.0020964110735803843,0.0,0.0,0.0,0.0,-0.00021460307470988482,0.00012826663441956043,-0.0014254179550334811,1.0014333724975586,0.0,0.0,0.0,0.5183249711990356,2.8294570446014404,5.138768196105957,-93.8178482055664,0
49.568999999999505,0.012218664400279522,0.06554436683654785,-0.0021051419898867607,0.0,0.0,0.0,0.0,0.0012772633926942945,-0.002357961144298315,0.0018651203718036413,0.9994003772735596,0.0,0.0,0.0,0.5233986377716064,2.8564908504486084,5.149072647094727,-94.73619079589844,0
59.48099999999977,0.012324134819209576,0.06554394960403442,-0.0021657058969140053,0.0,0.0,0.0,0.0,-0.0016156671335920691,0.0016879375325515866,0.002970806322991848,0.9983018040657043,0.0,0.0,0.0,0.5233669877052307,2.848250389099121,5.142530918121338,-94.73046112060547,0
69.39099999999962,0.012266784906387329,0.065522201359272,-0.0021601703483611345,0.0,0.0,0.0,0.0,-0.001620994764380157,0.002622756874188781,0.0003208337293472141,0.9981015920639038,0.0,0.0,0.0,0.5239359140396118,2.8462750911712646,5.13549280166626,-94.83344268798828,0
79.30500000000029,0.01220985408872366,0.0654999241232872,-0.0021562380716204643,0.0,0.0,0.0,0.0,-0.002314639976248145,-0.001236755051650107,0.0006242451490834355,0.998694658279419,0.0,0.0,0.0,0.5240006446838379,2.845046281814575,5.121904373168945,-94.84515380859375,0
89.21800000000076,0.012211592867970467,0.06563322991132736,-0.002170019084587693,0.0,0.0,0.0,0.0,-0.0003224581596441567,0.00047416906454600394,0.0030555471312254667,0.9999291300773621,0.0,0.0,0.0,0.5246738791465759,2.882070541381836,5.134549617767334,-94.96701049804688,0
99.12900000000081,0.012364683672785759,0.06560415774583817,-0.002153568435460329,0.0,0.0,0.0,0.0,0.003313892986625433,0.0018220095662400126,0.003975153435021639,0.9996578693389893,0.0,0.0,0.0,0.5152169466018677,2.845707893371582,5.160421848297119,-93.25528717041016,0
109.04099999999926,0.012318874709308147,0.06558653712272644,-0.002151681575924158,0.0,0.0,0.0,0.0,0.0007552090683020651,-0.006585853639990091,0.0028513744473457336,0.9973291158676147,0.0,0.0,0.0,0.5146122574806213,2.8317291736602783,5.144278049468994,-93.1458511352539,0
118.95700000000033,0.012418131344020367,0.065516896545887,-0.0021665059030056,0.0,0.0,0.0,0.0,0.0009413096122443676,0.0024303460959345102,0.0018286661943420768,0.9997888207435608,0.0,0.0,0.0,0.5150877237319946,2.820112943649292,5.179719924926758,-93.23190307617188,0
128.88700000000063,0.012346073053777218,0.06541383266448975,-0.00221523130312562,0.0,0.0,0.0,0.0,-0.0013264260487630963,0.0017310206312686205,0.00010009240941144526,1.0018675327301025,0.0,0.0,0.0,0.5147220492362976,2.8168463706970215,5.169867038726807,-93.16571807861328,0
138.78800000000047,0.012347016483545303,0.06553905457258224,-0.0022086938843131065,0.0,0.0,0.0,0.0,0.0033285662066191435,-0.005129668861627579,-0.0006752194603905082,1.0004112720489502,0.0,0.0,0.0,0.5221786499023438,2.8452439308166504,5.170827388763428,-94.515380859375,0
148.70199999999932,0.01229960285127163,0.0655188262462616,-0.0022105728276073933,0.0,0.0,0.0,0.0,0.003680442925542593,-0.004621177911758423,-0.002544051269069314,1.0003000497817993,0.0,0.0,0.0,0.5216420292854309,2.835782527923584,5.169060230255127,-94.41825103759766,0
158.6180000000004,0.012304646894335747,0.06559785455465317,-0.0022276106756180525,0.0,0.0,0.0,0.0,-0.0030630603432655334,-0.0007280688150785863,0.0016557853668928146,0.999367892742157,0.0,0.0,0.0,0.5143836140632629,2.8151984214782715,5.167123317718506,-93.10446166992188,0
168.53700000000026,0.012298040091991425,0.06551168113946915,-0.00224629626609385,0.0,0.0,0.0,0.0,0.001099507207982242,-0.0014552755746990442,0.0028169220313429832,0.9975942969322205,0.0,0.0,0.0,0.5131957530975342,2.815216064453125,5.160412311553955,-92.88945770263672,0
178.4310000000005,0.012309763580560684,0.06564823538064957,-0.0022525370586663485,0.0,0.0,0.0,0.0,-0.0015060517471283674,0.002592287724837661,-0.0004705335886683315,0.999129056930542,0.0,0.0,0.0,0.5133671760559082,2.8106915950775146,5.1587815284729,-92.92047882080078,0
188.35300000000097,0.012263711541891098,0.0656333938241005,-0.0022588358260691166,0.0,0.0,0.0,0.0,0.004185443744063377,-0.000815533974673599,0.0035531308967620134,1.000921607017517,0.0,0.0,0.0,0.5128521919250488,2.809757709503174,5.1521220207214355,-92.82726287841797,0
198.2559999999994,0.012325330637395382,0.06556205451488495,-0.0022724687587469816,0.0,0.0,0.0,0.0,-0.0033193074632436037,-0.002721356227993965,-0.0007033281144686043,0.9982193112373352,0.0,0.0,0.0,0.5130999088287354,2.801281452178955,5.152878284454346,-92.87210845947266,0
208.17000000000007,0.012281075119972229,0.06554417312145233,-0.0022793845273554325,0.0,0.0,0.0,0.0,-0.001160916406661272,0.0026984591968357563,-5.603200406767428e-05,0.9985625147819519,0.0,0.0,0.0,0.512214720249176,2.805767059326172,5.153407573699951,-92.71188354492188,0
218.09499999999935,0.012297935783863068,0.06551183015108109,-0.0022630877792835236,0.0,0.0,0.0,0.0,-0.0006809031474404037,-0.0019650848116725683,-0.0033249990083277225,1.0013396739959717,0.0,0.0,0.0,0.5112425088882446,2.8091866970062256,5.14248514175415,-92.5359115600586,0
227.99599999999919,0.01230921782553196,0.06539757549762726,-0.0022902712225914,0.0,0.0,0.0,0.0,-0.0009516892023384571,-0.00034525233786553144,0.0011399174109101295,1.0002225637435913,0.0,0.0,0.0,0.5090732574462891,2.814246416091919,5.145876407623291,-92.14327239990234,0
237.92000000000007,0.012276559136807919,0.06548702716827393,-0.0022506427485495806,0.0,0.0,0.0,0.0,-0.0027423547580838203,0.0040299054235219955,0.0013793252874165773,1.0012571811676025,0.0,0.0,0.0,0.5085440874099731,2.813811779022217,5.143599510192871,-92.0474853515625,0
247.82699999999932,0.012337851338088512,0.06540904939174652,-0.0022377280984073877,0.0,0.0,0.0,0.0,0.0002762172371149063,0.002422550693154335,0.0045737591572105885,1.000418782234192,0.0,0.0,0.0,0.5012013912200928,2.800633192062378,5.14648962020874,-90.71844482421875,0
257.7440000000006,0.012308619916439056,0.06552145630121231,-0.0021815206855535507,0.0,0.0,0.0,0.0,-0.0029536893125623465,0.0009511966491118073,0.0011161444708704948,0.9996857047080994,0.0,0.0,0.0,0.5090322494506836,2.8153247833251953,5.132725238800049,-92.1358413696289,0
267.64700000000084,0.01234917901456356,0.06542719155550003,-0.002175993751734495,0.0,0.0,0.0,0.0,-0.003958655521273613,0.0022222765255719423,0.0010257697431370616,1.0017896890640259,0.0,0.0,0.0,0.5031121969223022,2.8085927963256836,5.143481731414795,-91.06431579589844,0
277.5689999999995,0.012304096482694149,0.06549320369958878,-0.002118556061759591,0.0,0.0,0.0,0.0,0.002922777319326997,-0.005289104767143726,-0.000712422130163759,1.000057578086853,0.0,0.0,0.0,0.5128871202468872,2.826634168624878,5.1285881996154785,-92.83358764648438,0
287.47400000000016,0.012302317656576633,0.06537943333387375,-0.0021343063563108444,0.0,0.0,0.0,0.0,-0.0011023173574358225,-2.5418899895157665e-05,-0.00406035827472806,0.9987010359764099,0.0,0.0,0.0,0.5132348537445068,2.8179023265838623,5.140134334564209,-92.89652252197266,0
297.39300000000003,0.012279634363949299,0.0654718279838562,-0.0020989032927900553,0.0,0.0,0.0,0.0,0.0002667760709300637,-0.002290666801854968,-0.0019446287769824266,0.9987800717353821,0.0,0.0,0.0,0.5222426056861877,2.837907552719116,5.137666702270508,-94.52694702148438,0
307.2990000000009,0.01235270407050848,0.06537266820669174,-0.0020809387788176537,0.0,0.0,0.0,0.0,0.00018079056462738663,0.0036158249713480473,-0.0034398529678583145,1.0017952919006348,0.0,0.0,0.0,0.5164155960083008,2.818174362182617,5.151398181915283,-93.47225189208984,0
317.22400000000016,0.012368464842438698,0.06551428884267807,-0.0020737932063639164,0.0,0.0,0.0,0.0,0.003863041987642646,0.0010488532716408372,0.003114458406344056,1.001726746559143,0.0,0.0,0.0,0.5151147246360779,2.812654972076416,5.138227462768555,-93.23678588867188,0
327.1229999999996,0.012349710799753666,0.06540518999099731,-0.002089577727019787,0.0,0.0,0.0,0.0,-0.0017816968029364944,0.0008318006293848157,0.0006049625226296484,1.0021748542785645,0.0,0.0,0.0,0.5094588994979858,2.7982516288757324,5.129186630249023,-92.21307373046875,0
337.04199999999946,0.012369872070848942,0.06551891565322876,-0.00210475642234087,0.0,0.0,0.0,0.0,-0.0009846014436334372,0.0011104029836133122,-0.00115095148794353,0.9981509447097778,0.0,0.0,0.0,0.508805513381958,2.799781084060669,5.126556873321533,-92.09480285644531,0
346.9480000000003,0.012365540489554405,0.06538674980401993,-0.0021313615143299103,0.0,0.0,0.0,0.0,-0.00561140663921833,0.001318842638283968,0.004113932140171528,0.9985284209251404,0.0,0.0,0.0,0.5012164115905762,2.7791154384613037,5.12793493270874,-90.7211685180664,0
356.8680000000004,0.01242050901055336,0.06556157767772675,-0.0021700519137084484,0.0,0.0,0.0,0.0,-0.000919151643756777,0.0032858324702829123,-0.0012424445012584329,0.9990056753158569,0.0,0.0,0.0,0.5003967881202698,2.7808563709259033,5.117481708526611,-90.57281494140625,0
366.77499999999964,0.012426843866705894,0.06540555506944656,-0.0022144094109535217,0.0,0.0,0.0,0.0,-0.0015382178826257586,4.953876486979425e-05,-0.00029969995375722647,0.9996041655540466,0.0,0.0,0.0,0.49159711599349976,2.762322425842285,5.115162372589111,-88.98006439208984,0
376.6880000000001,0.012468967586755753,0.06555382907390594,-0.002255622297525406,0.0,0.0,0.0,0.0,4.334972345532151e-06,-0.000572933116927743,0.004137496463954449,1.000952959060669,0.0,0.0,0.0,0.49098125100135803,2.760948419570923,5.1165900230407715,-88.86858367919922,0
386.6090000000004,0.012385736219584942,0.06547635793685913,-0.0023023714311420918,0.0,0.0,0.0,0.0,-0.000167460908414796,0.0022638903465121984,-0.0011007736902683973,1.0003641843795776,0.0,0.0,0.0,0.4912698268890381,2.7555723190307617,5.10455846786499,-88.92081451416016,0
396.5159999999996,0.012400368228554726,0.06559810787439346,-0.002325274981558323,0.0,0.0,0.0,0.0,-0.0024045284371823072,0.000586350099183619,-0.00031133086304180324,1.0005213022232056,0.0,0.0,0.0,0.49150097370147705,2.7506818771362305,5.102778911590576,-88.96265411376953,0
406.4240000000009,0.012353618629276752,0.06558524072170258,-0.002331039635464549,0.0,0.0,0.0,0.0,-0.0031306790187954903,-0.0010165006387978792,0.002553479513153434,0.9983793497085571,0.0,0.0,0.0,0.4914892315864563,2.753983497619629,5.105572700500488,-88.96052551269531,0
416.34200000000055,0.01229835394769907,0.06567296385765076,-0.0022769395727664232,0.0,0.0,0.0,0.0,-0.002171989530324936,-0.000718866940587759,0.0024816482327878475,0.9995153546333313,0.0,0.0,0.0,0.4918684661388397,2.7554898262023926,5.099050045013428,-89.02916717529297,0
426.2489999999998,0.012338399887084961,0.06549885869026184,-0.002323024207726121,0.0,0.0,0.0,0.0,0.003312566550448537,0.0008996186079457402,0.003360038623213768,1.0002201795578003,0.0,0.0,0.0,0.48765718936920166,2.7161383628845215,5.111287593841553,-88.26692199707031,0
436.1700000000001,0.012295076623558998,0.06558772921562195,-0.0022707018069922924,0.0,0.0,0.0,0.0,0.00041045850957743824,0.00047460891073569655,0.0016574929468333721,1.0019081830978394,0.0,0.0,0.0,0.49403753876686096,2.735344886779785,5.096459865570068,-89.42178344726562,0
446.0750000000007,0.012367187067866325,0.06546076387166977,-0.0022742163855582476,0.0,0.0,0.0,0.0,0.002520244102925062,0.0023371626157313585,-0.00127410888671875,0.9993338584899902,0.0,0.0,0.0,0.4943772256374359,2.732205867767334,5.089493274688721,-89.48326110839844,0
455.9959999999992,0.012369264848530293,0.06560764461755753,-0.002254039980471134,0.0,0.0,0.0,0.0,-0.001176605699583888,0.00038273760583251715,0.001795114134438336,1.0018357038497925,0.0,0.0,0.0,0.4942035973072052,2.724964141845703,5.073546409606934,-89.45184326171875,0
465.90300000000025,0.012324631214141846,0.06547126173973083,-0.0023050520103424788,0.0,0.0,0.0,0.0,0.0023112327326089144,-0.0005699960747733712,0.0014895813073962927,1.0043745040893555,0.0,0.0,0.0,0.4933415949344635,2.7241761684417725,5.072239875793457,-89.29581451416016,0
475.8230000000003,0.01225593313574791,0.06552409380674362,-0.0022331997752189636,0.0,0.0,0.0,0.0,-0.0008864332921802998,0.0013201037654653192,-0.005647894460707903,1.0001120567321777,0.0,0.0,0.0,0.4940793216228485,2.719728946685791,5.071596622467041,-89.4293441772461,0
485.7340000000004,0.01226036250591278,0.06540031731128693,-0.002253548474982381,0.0,0.0,0.0,0.0,9.183312386085163e-07,0.00048426692956127226,-0.0006972071714699268,0.9995325803756714,0.0,0.0,0.0,0.49241334199905396,2.7182793617248535,5.067343235015869,-89.12779998779297,0
495.65300000000025,0.012209629639983177,0.06550577282905579,-0.002178794704377651,0.0,0.0,0.0,0.0,0.0011246133362874389,-0.003572289366275072,0.0005707191885448992,1.0002413988113403,0.0,0.0,0.0,0.5001089572906494,2.7411727905273438,5.062304973602295,-90.52072143554688,0
505.5560000000005,0.012238484807312489,0.06536376476287842,-0.0021933482494205236,0.0,0.0,0.0,0.0,-0.00036684199585579336,0.004148995038121939,0.0010590500896796584,0.9987366795539856,0.0,0.0,0.0,0.4942742884159088,2.711165189743042,5.068120002746582,-89.46463012695312,0
515.473,0.01221559103578329,0.06548015028238297,-0.0021560946479439735,0.0,0.0,0.0,0.0,0.0021311056334525347,-0.0009559453465044498,0.0033476685639470816,0.9994574189186096,0.0,0.0,0.0,0.49395525455474854,2.7083709239959717,5.05787992477417,-89.40687561035156,0
525.3770000000004,0.012295844964683056,0.0653713122010231,-0.002135009504854679,0.0,0.0,0.0,0.0,-0.002835086779668927,-0.0011337968753650784,0.0031877458095550537,1.0013916492462158,0.0,0.0,0.0,0.4943176805973053,2.7050042152404785,5.056912899017334,-89.47248840332031,0
535.3019999999997,0.012308169156312943,0.065516896545887,-0.002135221380740404,0.0,0.0,0.0,0.0,0.002705019200220704,0.0033504078164696693,0.0029093953780829906,0.9993170499801636,0.0,0.0,0.0,0.5018320083618164,2.7356817722320557,5.066805362701416,-90.83259582519531,0
545.2090000000007,0.012376033701002598,0.06542808562517166,-0.0021498920395970345,0.0,0.0,0.0,0.0,-0.0014329507248476148,-0.004535650834441185,-3.644678872660734e-05,0.9998601078987122,0.0,0.0,0.0,0.49337345361709595,2.720590114593506,5.0767621994018555,-89.30158233642578,0
555.1239999999998,0.012300578877329826,0.06551065295934677,-0.002100713085383177,0.0,0.0,0.0,0.0,-0.0016447140369564295,0.0030297597404569387,0.0006870454526506364,1.0011440515518188,0.0,0.0,0.0,0.4921974837779999,2.7125144004821777,5.067959785461426,-89.0887222290039,0
565.0329999999994,0.012374715879559517,0.06541724503040314,-0.002114412374794483,0.0,0.0,0.0,0.0,-0.00034824133035726845,0.003012843430042267,0.001209526089951396,0.9996912479400635,0.0,0.0,0.0,0.48275402188301086,2.696930170059204,5.078934192657471,-87.37944030761719,0
574.9629999999997,0.012296227738261223,0.06549191474914551,-0.0020646241027861834,0.0,0.0,0.0,0.0,0.0017257611034438014,-0.004075648728758097,-0.002462240867316723,0.9979653358459473,0.0,0.0,0.0,0.48097288608551025,2.691181182861328,5.063498497009277,-87.05704498291016,0
584.853000000001,0.012367608025670052,0.06541013717651367,-0.0020760316401720047,0.0,0.0,0.0,0.0,-0.00019087466353084892,-0.0016013608546927571,0.001392688020132482,0.9968459606170654,0.0,0.0,0.0,0.48097288608551025,2.691181182861328,5.063498497009277,-87.05704498291016,0
594.7749999999996,0.0122941043227911,0.06549349427223206,-0.0020366234239190817,0.0,0.0,0.0,0.0,0.0019286369206383824,-0.0012548980303108692,0.005504477769136429,0.9990158677101135,0.0,0.0,0.0,0.47987961769104004,2.6777150630950928,5.068243026733398,-86.85916900634766,0
604.6820000000007,0.012375681661069393,0.06540054082870483,-0.002048643073067069,0.0,0.0,0.0,0.0,0.000465486227767542,-0.0022538925986737013,0.0018734806217253208,0.9987896680831909,0.0,0.0,0.0,0.47987961769104004,2.6777150630950928,5.068243026733398,-86.85916900634766,0
614.607,0.012360424734652042,0.06550335139036179,-0.002033065538853407,0.0,0.0,0.0,0.0,0.0004176182555966079,-0.004177475348114967,0.0001711708609946072,0.997599720954895,0.0,0.0,0.0,0.4801410436630249,2.672908067703247,5.065451145172119,-86.90648651123047,0
624.5079999999998,0.012394001707434654,0.06534974277019501,-0.002056375378742814,0.0,0.0,0.0,0.0,-0.0022571964655071497,-0.0022086328826844692,-0.0005915019428357482,0.9970272779464722,0.0,0.0,0.0,0.47883278131484985,2.668976306915283,5.069517612457275,-86.66968536376953,0
634.4290000000001,0.01239209808409214,0.06547366827726364,-0.0020473534241318703,0.0,0.0,0.0,0.0,-0.000376686715753749,-0.0008747087558731437,-0.00048787344712764025,1.0026161670684814,0.0,0.0,0.0,0.4794594645500183,2.670675754547119,5.06947135925293,-86.78311920166016,0
644.3310000000001,0.01236466784030199,0.06538783013820648,-0.0020651682280004025,0.0,0.0,0.0,0.0,-0.0016612352337688208,0.00014360854402184486,-0.0009165473165921867,0.9991547465324402,0.0,0.0,0.0,0.4702150523662567,2.659822702407837,5.073133945465088,-85.10985565185547,0
654.2540000000008,0.01235200185328722,0.06549038738012314,-0.002054723212495446,0.0,0.0,0.0,0.0,0.002522242721170187,0.0006379373953677714,0.0034719828981906176,0.9987848401069641,0.0,0.0,0.0,0.4680268466472626,2.6605470180511475,5.064114093780518,-84.71379089355469,0
664.1560000000009,0.012311236932873726,0.06538425385951996,-0.002088942565023899,0.0,0.0,0.0,0.0,-0.0001228319451911375,-0.004117484204471111,-0.004648732487112284,0.9986902475357056,0.0,0.0,0.0,0.4671812951564789,2.661712884902954,5.0591278076171875,-84.56073760986328,0
674.0760000000009,0.012312283739447594,0.0655098706483841,-0.0020892368629574776,0.0,0.0,0.0,0.0,0.0014068646123632789,0.0011323647340759635,-0.00043936428846791387,1.0014958381652832,0.0,0.0,0.0,0.47425469756126404,2.685272216796875,5.0637030601501465,-85.8410415649414,0
683.9830000000002,0.012297630310058594,0.06538958102464676,-0.002123701386153698,0.0,0.0,0.0,0.0,-0.0034220360685139894,-0.0007801763131283224,0.0009835180826485157,0.998785138130188,0.0,0.0,0.0,0.47253477573394775,2.6906538009643555,5.065341949462891,-85.52973175048828,0
693.9040000000005,0.01231552753597498,0.06550674140453339,-0.0021582890767604113,0.0,0.0,0.0,0.0,-0.00157315528485924,0.0029981699772179127,-0.002179952571168542,0.9999580383300781,0.0,0.0,0.0,0.47186318039894104,2.6823441982269287,5.061265468597412,-85.40817260742188,0
703.8070000000007,0.012314369902014732,0.06539066135883331,-0.0021877845283597708,0.0,0.0,0.0,0.0,0.0038783173076808453,0.0011908906744793057,-0.003124423325061798,1.0029596090316772,0.0,0.0,0.0,0.47202175855636597,2.685894012451172,5.061224460601807,-85.43687438964844,0
713.7350000000006,0.012327809818089008,0.06552368402481079,-0.002205684781074524,0.0,0.0,0.0,0.0,-1.2153917850810103e-05,0.000502829730976373,0.001258939621038735,1.00115168094635,0.0,0.0,0.0,0.47748899459838867,2.712838888168335,5.06594705581665,-86.42646026611328,0
723.6409999999996,0.012321246787905693,0.06540559232234955,-0.0022370186634361744,0.0,0.0,0.0,0.0,0.001138688763603568,0.0016003657365217805,-0.00033598937443457544,0.9977900981903076,0.0,0.0,0.0,0.47666916251182556,2.711472749710083,5.06386137008667,-86.27806854248047,0
733.5519999999997,0.01228762324899435,0.06549962610006332,-0.0022068985272198915,0.0,0.0,0.0,0.0,0.001611855928786099,0.004110546316951513,-0.001621949952095747,0.9983422756195068,0.0,0.0,0.0,0.47581037878990173,2.707631826400757,5.046987533569336,-86.12262725830078,0
743.4650000000001,0.012296716682612896,0.06538716703653336,-0.0022264712024480104,0.0,0.0,0.0,0.0,0.000997245660983026,-0.003093432169407606,0.0007534768665209413,1.0003060102462769,0.0,0.0,0.0,0.4761993885040283,2.701636552810669,5.037283420562744,-86.19303894042969,0
753.3819999999996,0.012274590320885181,0.06549931317567825,-0.002208044519647956,0.0,0.0,0.0,0.0,0.0028042253106832504,-0.003934699110686779,0.0005318688927218318,0.9996212720870972,0.0,0.0,0.0,0.47644734382629395,2.6974687576293945,5.023459434509277,-86.2379150390625,0
763.2870000000003,0.012256591580808163,0.06543318927288055,-0.002216033637523651,0.0,0.0,0.0,0.0,-0.0034149589482694864,-0.002002352848649025,0.002736419439315796,0.9960817098617554,0.0,0.0,0.0,0.47559404373168945,2.6952576637268066,5.023773193359375,-86.08346557617188,0
773.2039999999997,0.012258955277502537,0.06556989997625351,-0.0022213428746908903,0.0,0.0,0.0,0.0,0.0005633942782878876,0.002504552248865366,-0.00031504788785241544,0.996697187423706,0.0,0.0,0.0,0.48133552074432373,2.717525005340576,5.0382513999938965,-87.12268829345703,0
783.1119999999992,0.012347220443189144,0.06544265151023865,-0.0022272139322012663,0.0,0.0,0.0,0.0,-0.0006430986104533076,0.0006240768125280738,-0.001515091280452907,0.9981421232223511,0.0,0.0,0.0,0.4818322956562042,2.721196174621582,5.035501480102539,-87.21260070800781,0
793.0400000000009,0.012303509749472141,0.06552233546972275,-0.0021924979519098997,0.0,0.0,0.0,0.0,-0.002489641075953841,-0.004292423836886883,0.002726934617385268,1.0000782012939453,0.0,0.0,0.0,0.4814315140247345,2.713334560394287,5.02946662902832,-87.14006042480469,0
802.9339999999993,0.012308500707149506,0.06540539115667343,-0.0022220739629119635,0.0,0.0,0.0,0.0,0.0008348451810888946,-0.0019583269022405148,-0.001952139544300735,0.99856036901474,0.0,0.0,0.0,0.479606568813324,2.713630437850952,5.024189472198486,-86.80974578857422,0
812.8610000000008,0.0123621616512537,0.06558077037334442,-0.0022798816207796335,0.0,0.0,0.0,0.0,0.0014752894639968872,-0.0025040977634489536,-0.00013210759789217263,0.9989108443260193,0.0,0.0,0.0,0.4835813641548157,2.749054431915283,5.050347328186035,-87.52919006347656,0
822.7600000000002,0.012403832748532295,0.0654771625995636,-0.0022993774618953466,0.0,0.0,0.0,0.0,-7.504346285713837e-05,-0.0022253505885601044,-0.001678452710621059,1.0007662773132324,0.0,0.0,0.0,0.47644585371017456,2.735536813735962,5.058471202850342,-86.2376480102539,0
832.6839999999993,0.01241979282349348,0.06561443954706192,-0.0023204844910651445,0.0,0.0,0.0,0.0,-0.0012562362244352698,-0.002615743549540639,0.001113659469410777,0.9990878105163574,0.0,0.0,0.0,0.4749690890312195,2.730755567550659,5.056319713592529,-85.97035217285156,0
842.5859999999993,0.012393183074891567,0.06549635529518127,-0.0023728797677904367,0.0,0.0,0.0,0.0,0.0023619902785867453,-0.0007842782069928944,-0.002409885171800852,0.9982156157493591,0.0,0.0,0.0,0.4747505187988281,2.729952812194824,5.051306247711182,-85.9307861328125,0
852.5120000000006,0.012312696315348148,0.06556983292102814,-0.0023674173280596733,0.0,0.0,0.0,0.0,-0.0009950421517714858,-0.0022875491995364428,0.0024074306711554527,1.000213384628296,0.0,0.0,0.0,0.4732935428619385,2.726881504058838,5.055956840515137,-85.66706848144531,0
862.4110000000001,0.012424865737557411,0.06544942408800125,-0.002379783196374774,0.0,0.0,0.0,0.0,-0.0017481418326497078,0.001387860276736319,-0.001019335351884365,1.000762701034546,0.0,0.0,0.0,0.4732935428619385,2.726881504058838,5.055956840515137,-85.66706848144531,0
872.3389999999999,0.012375331483781338,0.06555269658565521,-0.002401806181296706,0.0,0.0,0.0,0.0,-0.0007151662721298635,0.0024198852479457855,-0.004008019808679819,0.9981664419174194,0.0,0.0,0.0,0.4730704128742218,2.7243239879608154,5.037979602813721,-85.62669372558594,0
882.2389999999996,0.01241379976272583,0.06544531136751175,-0.0024347014259546995,0.0,0.0,0.0,0.0,0.0005906925071030855,0.00019981618970632553,-0.0005728991236537695,0.9985404014587402,0.0,0.0,0.0,0.4730704128742218,2.7243239879608154,5.037979602813721,-85.62669372558594,0
892.1650000000009,0.01235221978276968,0.0655568391084671,-0.0024483120068907738,0.0,0.0,0.0,0.0,0.0016932561993598938,-0.0024455911479890347,0.0009458805434405804,0.9998033046722412,0.0,0.0,0.0,0.4719288945198059,2.7208011150360107,5.032676696777344,-85.4200668334961,0
902.0670000000009,0.012401810847222805,0.06549807637929916,-0.002456186804920435,0.0,0.0,0.0,0.0,0.0026609296910464764,-0.0010664339642971754,0.0028612595051527023,0.9999069571495056,0.0,0.0,0.0,0.4719288945198059,2.7208011150360107,5.032676696777344,-85.4200668334961,0
911.9969999999994,0.012252937071025372,0.06554141640663147,-0.002381240716204047,0.0,0.0,0.0,0.0,-0.0010273185325786471,-0.004437885247170925,-0.001363034127280116,0.9999013543128967,0.0,0.0,0.0,0.4789722263813019,2.7238619327545166,5.0087409019470215,-86.69493103027344,0
921.8970000000008,0.012337826192378998,0.06545358151197433,-0.002388607244938612,0.0,0.0,0.0,0.0,-0.0007034200825728476,0.0017501162365078926,0.003018114250153303,1.0000659227371216,0.0,0.0,0.0,0.4789722263813019,2.7238619327545166,5.0087409019470215,-86.69493103027344,0
931.8089999999993,0.012256463058292866,0.06550406664609909,-0.0023292279802262783,0.0,0.0,0.0,0.0,-0.0004948140121996403,0.0014020466478541493,0.0013414472341537476,0.9992455840110779,0.0,0.0,0.0,0.4792388677597046,2.7231757640838623,5.005082130432129,-86.7431869506836,0
941.7199999999993,0.012391680851578712,0.06536092609167099,-0.0023176930844783783,0.0,0.0,0.0,0.0,0.0019090643618255854,0.0007875548326410353,-0.0018596489680930972,0.9989718794822693,0.0,0.0,0.0,0.47852927446365356,2.720034122467041,5.006697654724121,-86.61475372314453,0
951.6419999999998,0.012331642210483551,0.06543375551700592,-0.0022601524833589792,0.0,0.0,0.0,0.0,-0.0004605220747180283,0.005112870596349239,0.0010212932247668505,0.9980247616767883,0.0,0.0,0.0,0.47719475626945496,2.7110631465911865,4.995992183685303,-86.37319946289062,0
961.5409999999993,0.012292946688830853,0.06536319851875305,-0.002273587044328451,0.0,0.0,0.0,0.0,0.0005468916497193277,0.00038918733480386436,-0.0016709993360564113,0.9990382790565491,0.0,0.0,0.0,0.46830248832702637,2.6979994773864746,4.985501766204834,-84.76367950439453,0
971.4609999999993,0.012255542911589146,0.0654585137963295,-0.002241326030343771,0.0,0.0,0.0,0.0,0.0016273483633995056,-0.0032663741149008274,0.0009851794457063079,0.9994798898696899,0.0,0.0,0.0,0.46779146790504456,2.6988000869750977,4.977588176727295,-84.67118835449219,0
981.3649999999998,0.012283658608794212,0.06535510718822479,-0.0022461293265223503,0.0,0.0,0.0,0.0,0.0016504853265359998,-0.0024910278152674437,-0.0015429581981152296,0.999131441116333,0.0,0.0,0.0,0.46800437569618225,2.6902761459350586,4.972324848175049,-84.70973205566406,0
991.2890000000007,0.012257103808224201,0.0654531940817833,-0.002228340832516551,0.0,0.0,0.0,0.0,0.0009658216149546206,0.0006910500233061612,-0.0041985283605754375,0.9996785521507263,0.0,0.0,0.0,0.4677145183086395,2.6845154762268066,4.969357967376709,-84.65726470947266,0
1001.1900000000005,0.012194799259305,0.06542623788118362,-0.0022296940442174673,0.0,0.0,0.0,0.0,0.00459959264844656,0.0024735440965741873,-0.0002547334006521851,1.0015426874160767,0.0,0.0,0.0,0.4667040705680847,2.679995536804199,4.974422454833984,-84.47435760498047,0
1011.1110000000008,0.012181242927908897,0.06554601341485977,-0.002238259883597493,0.0,0.0,0.0,0.0,-0.0009577960008755326,-0.0010993783362209797,-0.0005994474631734192,1.0018315315246582,0.0,0.0,0.0,0.47311079502105713,2.7142679691314697,4.985510349273682,-85.63399505615234,0
1021.0149999999994,0.012118596583604813,0.0655256062746048,-0.0022387770004570484,0.0,0.0,0.0,0.0,-0.0013712203362956643,0.005660859402269125,-0.0008346753311343491,0.9992141723632812,0.0,0.0,0.0,0.4720068573951721,2.7053744792938232,4.977777004241943,-85.4341812133789,0
1030.9400000000005,0.012087998911738396,0.06564772129058838,-0.002229539677500725,0.0,0.0,0.0,0.0,0.0012967085931450129,0.002554402220994234,0.0016795422416180372,0.9997326135635376,0.0,0.0,0.0,0.4795211851596832,2.749785900115967,4.984172344207764,-86.7942886352539,0
1040.848,0.01202236395329237,0.06563427299261093,-0.0022282933350652456,0.0,0.0,0.0,0.0,-0.001302527729421854,0.0018107520882040262,-0.004220078233629465,1.0011268854141235,0.0,0.0,0.0,0.4790874123573303,2.745878219604492,4.974215984344482,-86.71578216552734,0
1050.7700000000004,0.011963303200900555,0.06567790359258652,-0.002216069959104061,0.0,0.0,0.0,0.0,-0.00033876922680065036,0.0004453692235983908,0.00015623543004039675,0.999506413936615,0.0,0.0,0.0,0.4784362018108368,2.7417144775390625,4.964992523193359,-86.59790802001953,0
1060.6659999999993,0.011895067058503628,0.06566733121871948,-0.002213501138612628,0.0,0.0,0.0,0.0,-0.00011721586633939296,0.004499375820159912,0.0038625055458396673,0.9998869299888611,0.0,0.0,0.0,0.47888293862342834,2.7393596172332764,4.954957485198975,-86.67876434326172,0
1070.5869999999995,0.011845585890114307,0.06578104197978973,-0.0021838669199496508,0.0,0.0,0.0,0.0,-0.0026183859445154667,-0.005410060752183199,-0.000786406802944839,0.9976493716239929,0.0,0.0,0.0,0.4878126084804535,2.780637741088867,4.9553656578063965,-88.29505157470703,0
1080.4989999999998,0.01177945639938116,0.06577860563993454,-0.0021802852861583233,0.0,0.0,0.0,0.0,-0.002110178116708994,-0.003415085840970278,0.002866736613214016,0.9978455305099487,0.0,0.0,0.0,0.4882481098175049,2.778613805770874,4.955229759216309,-88.3738784790039,0
1090.4189999999999,0.011735872365534306,0.06583225727081299,-0.00218412559479475,0.0,0.0,0.0,0.0,0.001679514767602086,0.003544517792761326,0.002304749097675085,1.000997543334961,0.0,0.0,0.0,0.49622148275375366,2.805239677429199,4.9694294929504395,-89.81707000732422,0
1100.3179999999993,0.01166989654302597,0.06583191454410553,-0.002184546086937189,0.0,0.0,0.0,0.0,0.0020227700006216764,5.615522604784928e-05,0.005557074211537838,1.0009533166885376,0.0,0.0,0.0,0.4956643581390381,2.804697275161743,4.967461585998535,-89.71623229980469,0
1110.2399999999998,0.011680741794407368,0.06588879227638245,-0.00225206115283072,0.0,0.0,0.0,0.0,0.0016819554148241878,-0.0015447085024788976,0.0019598170183598995,1.0007990598678589,0.0,0.0,0.0,0.49516457319259644,2.8005259037017822,4.953944683074951,-89.62577056884766,0
1120.143,0.01161814946681261,0.06589145213365555,-0.0022578947246074677,0.0,0.0,0.0,0.0,-0.001313420245423913,-0.0037796213291585445,0.0020458283834159374,1.0033562183380127,0.0,0.0,0.0,0.4950370788574219,2.7908942699432373,4.952808856964111,-89.60269927978516,0
1130.0679999999993,0.011633646674454212,0.06598363816738129,-0.002315524034202099,0.0,0.0,0.0,0.0,0.00130630808416754,-0.0018791930051520467,-0.0005904814461246133,1.0009057521820068,0.0,0.0,0.0,0.49933379888534546,2.8303382396698,4.9864678382873535,-90.38040924072266,0
1139.9680000000008,0.011570531874895096,0.06599657237529755,-0.0023231622762978077,0.0,0.0,0.0,0.0,-0.0015725174453109503,-0.002240031026303768,-0.0013114826288074255,1.0012390613555908,0.0,0.0,0.0,0.49906161427497864,2.8271656036376953,4.984214782714844,-90.33114624023438,0
1149.8889999999992,0.011557629331946373,0.06610342860221863,-0.0023465720005333424,0.0,0.0,0.0,0.0,0.003454468445852399,0.0029880739748477936,0.001057086861692369,1.000630259513855,0.0,0.0,0.0,0.5054605007171631,2.8574037551879883,4.995622634887695,-91.4893569946289,0
1159.7939999999999,0.011493553407490253,0.06612303853034973,-0.0023537701927125454,0.0,0.0,0.0,0.0,0.0015220141503959894,-0.0008585051982663572,0.003002217737957835,0.9999573230743408,0.0,0.0,0.0,0.5057058334350586,2.8495407104492188,4.987581729888916,-91.53376007080078,0
1169.719000000001,0.011437816545367241,0.06614182144403458,-0.0023741901386529207,0.0,0.0,0.0,0.0,-0.0019826130010187626,-0.00406219158321619,0.002776172012090683,1.0010242462158203,0.0,0.0,0.0,0.506381630897522,2.8486199378967285,4.990872383117676,-91.65608215332031,0
1179.6190000000006,0.011371520347893238,0.06615840643644333,-0.002380745718255639,0.0,0.0,0.0,0.0,-0.0006110414979048073,0.002754878019914031,-0.0011879908852279186,1.0011640787124634,0.0,0.0,0.0,0.5063778758049011,2.8460798263549805,4.985511779785156,-91.65540313720703,0
1189.5400000000009,0.011232005432248116,0.06616204231977463,-0.002404497703537345,0.0,0.0,0.0,0.0,0.002344351727515459,0.0002869284071493894,-0.002094509545713663,1.0011751651763916,0.0,0.0,0.0,0.5122775435447693,2.8421919345855713,4.977559566497803,-92.72325134277344,0
1199.4570000000003,0.011232005432248116,0.06616204231977463,-0.002404497703537345,0.0,0.0,0.0,0.0,-0.00016155466437339783,0.0010758154094219208,0.0013681360287591815,0.9989278316497803,0.0,0.0,0.0,0.5122775435447693,2.8421919345855713,4.977559566497803,-92.72325134277344,0
1209.366,0.011124619282782078,0.06622627377510071,-0.0024386518634855747,0.0,0.0,0.0,0.0,-0.0003356984816491604,-0.005539208650588989,0.0008102470310404897,0.9983146786689758,0.0,0.0,0.0,0.5190151929855347,2.838878631591797,4.978483200073242,-93.94278717041016,0
1219.2710000000006,0.011124619282782078,0.06622627377510071,-0.0024386518634855747,0.0,0.0,0.0,0.0,-0.0013323824387043715,-0.002408750122413039,0.001278692507185042,0.998859167098999,0.0,0.0,0.0,0.5190151929855347,2.838878631591797,4.978483200073242,-93.94278717041016,0
1229.196,0.010975083336234093,0.06626101583242416,-0.0024560694582760334,0.0,0.0,0.0,0.0,-0.00014504756836686283,0.00019531318685039878,-0.0018391497433185577,0.9983893632888794,0.0,0.0,0.0,0.5171841979026794,2.841045618057251,4.981872081756592,-93.61136627197266,0
1239.0990000000002,0.012288955971598625,0.06553496420383453,-0.001826161053031683,0.0,0.0,0.0,0.0,-0.00033500869176350534,-0.0027613111305981874,-0.0027801147662103176,1.0007387399673462,0.0,0.0,0.0,0.5113283395767212,2.6735599040985107,5.188867568969727,-92.55144500732422,0
1249.0259999999998,0.012265258468687534,0.06550996005535126,-0.001818906981498003,0.0,0.0,0.0,0.0,-0.0007635618094354868,0.0038471382576972246,0.0003952349361497909,1.0018596649169922,0.0,0.0,0.0,0.5107088685035706,2.6752736568450928,5.189699649810791,-92.43932342529297,0
1258.924000000001,0.012246646918356419,0.06535983085632324,-0.0018890956416726112,0.0,0.0,0.0,0.0,0.0018424703739583492,-0.0005651491228491068,-0.0016105943359434605,1.0022636651992798,0.0,0.0,0.0,0.5000422596931458,2.644876003265381,5.186289310455322,-90.5086441040039,0
1268.844000000001,0.012220988050103188,0.06532875448465347,-0.0018848157487809658,0.0,0.0,0.0,0.0,-0.0018141301115974784,-0.003925082739442587,0.0011259097373113036,0.9999023675918579,0.0,0.0,0.0,0.4997192919254303,2.6405930519104004,5.184377670288086,-90.45018768310547,0
1278.7540000000008,0.012212051078677177,0.06524120271205902,-0.001903880969621241,0.0,0.0,0.0,0.0,-0.0006559006287716329,-0.0005844527622684836,-0.004238182678818703,1.0009106397628784,0.0,0.0,0.0,0.49943241477012634,2.635896682739258,5.184233665466309,-90.39826965332031,0
1288.674000000001,0.012183548882603645,0.06520483642816544,-0.0018988102674484253,0.0,0.0,0.0,0.0,-0.0010549703147262335,0.0019891303963959217,0.0017244038172066212,1.0011849403381348,0.0,0.0,0.0,0.4994868040084839,2.6383726596832275,5.19097375869751,-90.4081039428711,0
1298.5730000000003,0.012153169140219688,0.06516809016466141,-0.0018929215148091316,0.0,0.0,0.0,0.0,4.5670698455069214e-05,-0.0037162129301577806,-0.0015625457745045424,0.9987006187438965,0.0,0.0,0.0,0.4978315532207489,2.6386117935180664,5.179203033447266,-90.10851287841797,0
1308.4950000000008,0.012120556086301804,0.06513211876153946,-0.0018863098230212927,0.0,0.0,0.0,0.0,0.0023435556795448065,0.002120853401720524,0.0026124813593924046,0.9991961717605591,0.0,0.0,0.0,0.49794819951057434,2.642164468765259,5.178362846374512,-90.1296157836914,0
1318.402,0.012108758091926575,0.06511417031288147,-0.0018612535204738379,0.0,0.0,0.0,0.0,0.0002141151635441929,0.0019395992858335376,0.0027358129154890776,1.0009512901306152,0.0,0.0,0.0,0.4877925515174866,2.641784906387329,5.179057598114014,-88.29142761230469,0
1328.3220000000001,0.012072714045643806,0.06507749855518341,-0.0018536716233938932,0.0,0.0,0.0,0.0,-0.0019552181474864483,-0.002714435337111354,-0.00305064651183784,0.9994956254959106,0.0,0.0,0.0,0.4865941107273102,2.6321988105773926,5.17225980758667,-88.07450103759766,0
1338.232,0.012069088406860828,0.06505220383405685,-0.0018248892156407237,0.0,0.0,0.0,0.0,0.0018548491643741727,0.0035505136474967003,-0.0006168488180264831,0.9994589686393738,0.0,0.0,0.0,0.4790996313095093,2.6332449913024902,5.169633388519287,-86.71798706054688,0
1348.1530000000002,0.012028687633574009,0.06501149386167526,-0.0018150073010474443,0.0,0.0,0.0,0.0,-0.002417049603536725,-0.0007604567799717188,0.00342382350936532,0.9979336857795715,0.0,0.0,0.0,0.47708240151405334,2.6273152828216553,5.157129287719727,-86.35285949707031,0
1358.0599999999995,0.012028239667415619,0.06498472392559052,-0.0017778173787519336,0.0,0.0,0.0,0.0,0.004394910763949156,-0.0017092564376071095,0.004817336332052946,0.9986542463302612,0.0,0.0,0.0,0.47640785574913025,2.6230831146240234,5.150130271911621,-86.23076629638672,0
1367.9650000000001,0.011984610930085182,0.06494179368019104,-0.0017677504802122712,0.0,0.0,0.0,0.0,-0.002943814732134342,-0.0037907918449491262,0.0010869641555473208,0.9981821775436401,0.0,0.0,0.0,0.4756321907043457,2.61965012550354,5.138860702514648,-86.09037017822266,0
1377.8819999999996,0.011982124298810959,0.06491956114768982,-0.0017175956163555384,0.0,0.0,0.0,0.0,5.761476586485514e-06,0.006011661142110825,-0.0035272364038974047,0.9994270205497742,0.0,0.0,0.0,0.4754256010055542,2.6131293773651123,5.1401143074035645,-86.052978515625,0
1387.7880000000005,0.011938185431063175,0.06487437337636948,-0.0017069026362150908,0.0,0.0,0.0,0.0,0.002696487819775939,-0.005616817157715559,0.0024587707594037056,0.9991886615753174,0.0,0.0,0.0,0.47556042671203613,2.6101391315460205,5.1404128074646,-86.07738494873047,0
1397.714,0.011939210817217827,0.06485941261053085,-0.0016349994111806154,0.0,0.0,0.0,0.0,0.0008312573772855103,0.0006481529562734067,0.002991160610690713,0.998511016368866,0.0,0.0,0.0,0.4670986831188202,2.616173028945923,5.157516002655029,-84.54578399658203,0
1407.6219999999994,0.011893879622220993,0.06481234729290009,-0.001620796974748373,0.0,0.0,0.0,0.0,-0.0034930589608848095,-0.002742120996117592,-0.001955756451934576,0.9985809922218323,0.0,0.0,0.0,0.46769028902053833,2.6121573448181152,5.161691188812256,-84.65287780761719,0
1417.5329999999994,0.011931943707168102,0.06477367877960205,-0.0015200827037915587,0.0,0.0,0.0,0.0,0.00034494782448746264,0.0017632704693824053,0.0036362321116030216,0.997963011264801,0.0,0.0,0.0,0.46159791946411133,2.6127007007598877,5.207736492156982,-83.55014038085938,0
1427.442000000001,0.011890731751918793,0.0647248700261116,-0.001501164399087429,0.0,0.0,0.0,0.0,0.0010652556084096432,-0.003695837454870343,0.0007565964478999376,0.9997696876525879,0.0,0.0,0.0,0.4614276587963104,2.6148681640625,5.210214614868164,-83.51932525634766,0
1437.3649999999998,0.011891905218362808,0.06468231976032257,-0.0014199977740645409,0.0,0.0,0.0,0.0,0.0006292684702202678,0.004057140555232763,8.026081923162565e-05,1.0002442598342896,0.0,0.0,0.0,0.4535861611366272,2.615055799484253,5.229677677154541,-82.10000610351562,0
1447.2700000000004,0.012176216579973698,0.06514119356870651,-0.0022553366143256426,0.0,0.0,0.0,0.0,-0.00016236498777288944,0.00048373304889537394,-8.219541632570326e-05,1.0002084970474243,0.0,0.0,0.0,0.46384596824645996,2.7231578826904297,5.284251689910889,-83.95704650878906,0
1457.1859999999997,0.012187201529741287,0.06514307111501694,-0.0022237482480704784,0.0,0.0,0.0,0.0,-0.0035299237351864576,0.0016198554076254368,0.0001178216771222651,1.0025238990783691,0.0,0.0,0.0,0.46299421787261963,2.7224087715148926,5.279812812805176,-83.80287170410156,0
1467.0900000000001,0.012198591604828835,0.0652843564748764,-0.002217687899246812,0.0,0.0,0.0,0.0,-0.0010443991050124168,-0.0029023129027336836,-0.00028387928614392877,0.9994011521339417,0.0,0.0,0.0,0.4707595705986023,2.7510573863983154,5.278328895568848,-85.20841217041016,0
1477.0169999999998,0.0122230788692832,0.06523818522691727,-0.0022017587907612324,0.0,0.0,0.0,0.0,-0.00013321929145604372,-0.0005249287351034582,-0.0012773206690326333,1.0006637573242188,0.0,0.0,0.0,0.47105395793914795,2.7500016689300537,5.28061056137085,-85.2616958618164,0
1486.9150000000009,0.012248532846570015,0.06538683921098709,-0.0022028901148587465,0.0,0.0,0.0,0.0,-0.0007782934117130935,-0.002678719349205494,-0.0006280863308347762,1.0004411935806274,0.0,0.0,0.0,0.4765140414237976,2.7641727924346924,5.2838239669799805,-86.24999237060547,0
1496.8369999999995,0.012244711630046368,0.06530166417360306,-0.002217239234596491,0.0,0.0,0.0,0.0,0.000935645482968539,0.003406168892979622,-0.002091280883178115,1.000773310661316,0.0,0.0,0.0,0.4764716327190399,2.7629220485687256,5.278128623962402,-86.24231719970703,0
1506.7479999999996,0.012284683994948864,0.06544210016727448,-0.002242115093395114,0.0,0.0,0.0,0.0,0.0011095451191067696,-0.005581705830991268,0.002338968450203538,1.000227928161621,0.0,0.0,0.0,0.4759727120399475,2.7614433765411377,5.270436763763428,-86.15200805664062,0
1516.6689999999999,0.012248559854924679,0.06541275233030319,-0.0022434983402490616,0.0,0.0,0.0,0.0,0.00241968035697937,0.0025590432342141867,0.0008896312210708857,0.9982923865318298,0.0,0.0,0.0,0.4759961664676666,2.7588086128234863,5.265247344970703,-86.15625762939453,0
1526.5660000000007,0.012262975797057152,0.06556069105863571,-0.002239408902823925,0.0,0.0,0.0,0.0,0.001468291855417192,0.0010940148495137691,0.0006991998525336385,0.9991327524185181,0.0,0.0,0.0,0.4761647880077362,2.7513396739959717,5.257055282592773,-86.18677520751953,0
1536.4920000000002,0.01230503898113966,0.06541397422552109,-0.0022685297299176455,0.0,0.0,0.0,0.0,-0.0033162792678922415,0.0075434111058712006,0.0020854880567640066,1.001364827156067,0.0,0.0,0.0,0.47034040093421936,2.7304208278656006,5.2630767822265625,-85.13255310058594,0
1546.3940000000002,0.012341381050646305,0.06542091071605682,-0.0022815910633653402,0.0,0.0,0.0,0.0,-0.003210199298337102,0.00032440180075354874,0.0019571129232645035,1.0004525184631348,0.0,0.0,0.0,0.4715132713317871,2.7349088191986084,5.250340461730957,-85.34484100341797,0
1556.3189999999995,0.012307963334023952,0.06539012491703033,-0.0022857661824673414,0.0,0.0,0.0,0.0,-0.0016633209306746721,0.0008033936028368771,0.0019333617528900504,1.0010721683502197,0.0,0.0,0.0,0.4709238111972809,2.73002290725708,5.250378608703613,-85.23815155029297,0
1566.2209999999995,0.012396779842674732,0.06543829292058945,-0.0022684407886117697,0.0,0.0,0.0,0.0,0.0011087085586041212,0.004328884184360504,-0.002285609720274806,0.9999827742576599,0.0,0.0,0.0,0.4766354262828827,2.7501256465911865,5.24962854385376,-86.27195739746094,0
1576.1440000000002,0.0123624037951231,0.06540516018867493,-0.0022691935300827026,0.0,0.0,0.0,0.0,0.00034121592761948705,0.0017862961394712329,0.0009600187768228352,0.9978538155555725,0.0,0.0,0.0,0.4759979844093323,2.747386932373047,5.239548206329346,-86.15658569335938,0
1586.045,0.012378157116472721,0.06555275619029999,-0.002246101386845112,0.0,0.0,0.0,0.0,0.0016908578108996153,-0.002475791610777378,-0.0016773591050878167,0.9994032979011536,0.0,0.0,0.0,0.48254314064979553,2.7665672302246094,5.242537021636963,-87.34126281738281,0
1595.969000000001,0.01239568367600441,0.06540125608444214,-0.002281500957906246,0.0,0.0,0.0,0.0,-0.0012131195981055498,-0.0006461117882281542,-0.001145323971286416,0.9994354248046875,0.0,0.0,0.0,0.48183315992355347,2.7654714584350586,5.227521896362305,-87.21275329589844,0
1605.8719999999994,0.012454329989850521,0.06543409079313278,-0.0023449230939149857,0.0,0.0,0.0,0.0,-0.0009970153914764524,0.0024381158873438835,0.0026662449818104506,0.9995741248130798,0.0,0.0,0.0,0.48076844215393066,2.762951135635376,5.232795238494873,-87.02005004882812,0
1615.7960000000003,0.012419410981237888,0.06539648771286011,-0.00235257251188159,0.0,0.0,0.0,0.0,0.004637985490262508,-0.004440726712346077,-0.00021086329070385545,0.9996320009231567,0.0,0.0,0.0,0.48004913330078125,2.758239984512329,5.219112396240234,-86.88984680175781,0
1625.6949999999997,0.012483103200793266,0.06540056318044662,-0.0023454127367585897,0.0,0.0,0.0,0.0,0.003083564108237624,0.0010764753678813577,0.0009354149806313217,0.9992304444313049,0.0,0.0,0.0,0.48596933484077454,2.7692880630493164,5.218821048736572,-87.96141052246094,0
1635.6170000000002,0.012446177192032337,0.06536394357681274,-0.002352821407839656,0.0,0.0,0.0,0.0,1.8809787434292957e-05,0.00529834907501936,0.0004506475816015154,0.9988911151885986,0.0,0.0,0.0,0.4852055609226227,2.764575481414795,5.210139274597168,-87.82316589355469,0
1645.5210000000006,0.012441297993063927,0.06540284305810928,-0.002324451692402363,0.0,0.0,0.0,0.0,0.00033310079015791416,-0.0009829268092289567,0.004116002004593611,0.9994819164276123,0.0,0.0,0.0,0.49454957246780396,2.7729060649871826,5.1902947425842285,-89.51446533203125,0
1655.4390000000003,0.012403551489114761,0.0653674378991127,-0.002330668503418565,0.0,0.0,0.0,0.0,-0.0011727045057341456,-0.000683918478898704,-0.004123649559915066,0.9999129176139832,0.0,0.0,0.0,0.49460411071777344,2.773559331893921,5.192775249481201,-89.52433776855469,0
1665.353000000001,0.0124124176800251,0.06541701406240463,-0.002283509122207761,0.0,0.0,0.0,0.0,0.0007950665312819183,-0.0003261168603785336,-0.003919584210962057,1.0006370544433594,0.0,0.0,0.0,0.5063682198524475,2.7876081466674805,5.185396194458008,-91.65365600585938,0
1675.2819999999992,0.01237545721232891,0.06538271903991699,-0.0022853645496070385,0.0,0.0,0.0,0.0,0.0028584334068000317,-5.838203287567012e-05,0.005600370466709137,0.9983305931091309,0.0,0.0,0.0,0.5061595439910889,2.7855443954467773,5.178213596343994,-91.61588287353516,0
1685.1769999999997,0.012309303507208824,0.06541188806295395,-0.0022531510330736637,0.0,0.0,0.0,0.0,0.0028957074973732233,0.005201125051826239,-0.0006878051208332181,0.9992122650146484,0.0,0.0,0.0,0.5000814199447632,2.777343988418579,5.164129257202148,-90.51573181152344,0
1695.0879999999997,0.012270054779946804,0.06537671387195587,-0.002253554295748472,0.0,0.0,0.0,0.0,-0.0001397629821440205,-0.002899583661928773,0.00013825949281454086,0.9995642900466919,0.0,0.0,0.0,0.4988776743412018,2.776555061340332,5.166618347167969,-90.2978515625,0
1704.9959999999992,0.012279130518436432,0.06544094532728195,-0.0021970721427351236,0.0,0.0,0.0,0.0,-0.00364490388892591,0.00039942507282830775,-0.0005512983188964427,0.9980048537254333,0.0,0.0,0.0,0.5067499279975891,2.7937347888946533,5.162160396575928,-91.72274780273438,0
1714.9179999999997,0.012240736745297909,0.06540917605161667,-0.0021945186890661716,0.0,0.0,0.0,0.0,-0.0005061859264969826,-8.091295057965908e-06,0.0008630062802694738,0.9997852444648743,0.0,0.0,0.0,0.5052594542503357,2.797858953475952,5.165658950805664,-91.45296478271484,0
1724.8230000000003,0.012226201593875885,0.06552913039922714,-0.0021447252947837114,0.0,0.0,0.0,0.0,-0.0013709282502532005,-0.0008591195801272988,-0.003422986716032028,0.9990788102149963,0.0,0.0,0.0,0.5098071098327637,2.825183391571045,5.1644511222839355,-92.27610778808594,0
1734.7379999999994,0.012186620384454727,0.06550190597772598,-0.002140042372047901,0.0,0.0,0.0,0.0,0.0009530229144729674,0.0006114761927165091,0.0045213340781629086,1.0001498460769653,0.0,0.0,0.0,0.5077722668647766,2.816460371017456,5.158932685852051,-91.90779113769531,0
1744.6470000000008,0.012283321470022202,0.06540077179670334,-0.0021310748998075724,0.0,0.0,0.0,0.0,-0.0013732557417824864,0.00012431389768607914,0.0012235541362315416,1.0001270771026611,0.0,0.0,0.0,0.5034142732620239,2.7742748260498047,5.172671794891357,-91.11898040771484,0
1754.5599999999995,0.012247559614479542,0.06536861509084702,-0.0021264106035232544,0.0,0.0,0.0,0.0,-0.00017311028204858303,-0.0019165296107530594,-0.0020550095941871405,0.9979943037033081,0.0,0.0,0.0,0.5028029680252075,2.7797675132751465,5.174296855926514,-91.00833892822266,0
1764.4750000000004,0.012280765920877457,0.06539106369018555,-0.0021373722702264786,0.0,0.0,0.0,0.0,0.0019307566108182073,0.002541135298088193,-0.001159957959316671,0.9989672899246216,0.0,0.0,0.0,0.49514296650886536,2.757566213607788,5.175504207611084,-89.62186431884766,0
1774.3880000000008,0.012241587974131107,0.06535861641168594,-0.0021351699251681566,0.0,0.0,0.0,0.0,-0.0002750393468886614,-0.004880734719336033,0.0019402692560106516,0.9977270364761353,0.0,0.0,0.0,0.49406078457832336,2.752934694290161,5.163481712341309,-89.42598724365234,0
1784.2980000000007,0.01230868510901928,0.06541160494089127,-0.0021793546620756388,0.0,0.0,0.0,0.0,0.0007073283777572215,-0.005197303835302591,-0.0001117087813327089,0.9988426566123962,0.0,0.0,0.0,0.4900047779083252,2.767596960067749,5.173747539520264,-88.69183349609375,0
1794.2119999999995,0.012267126701772213,0.06537990272045135,-0.0021831667982041836,0.0,0.0,0.0,0.0,0.00024125224445015192,0.0024939419236034155,-0.0029745297506451607,0.9992435574531555,0.0,0.0,0.0,0.48831474781036377,2.7555015087127686,5.168833255767822,-88.38594055175781,0
1804.1229999999996,0.012413948774337769,0.06537667661905289,-0.0022295666858553886,0.0,0.0,0.0,0.0,0.001517728203907609,0.0018381737172603607,-0.0015950709348544478,1.0005853176116943,0.0,0.0,0.0,0.4878512918949127,2.7565975189208984,5.173668384552002,-88.30205535888672,0
1814.0370000000003,0.012375576421618462,0.06534406542778015,-0.002237701090052724,0.0,0.0,0.0,0.0,-0.000645006017293781,-0.006877934094518423,-0.0007614577771164477,1.000362515449524,0.0,0.0,0.0,0.4877321422100067,2.7498321533203125,5.1643171310424805,-88.28048706054688,0
1823.9500000000007,0.012402646243572235,0.0654231533408165,-0.0022306989412754774,0.0,0.0,0.0,0.0,0.0015816724626347423,0.0010798772564157844,-0.0026725910138338804,1.0011637210845947,0.0,0.0,0.0,0.4875102639198303,2.742546319961548,5.172915935516357,-88.2403335571289,0
1833.8619999999992,0.0123644033446908,0.06539025157690048,-0.002236673841252923,0.0,0.0,0.0,0.0,-0.0005915958317928016,-0.0012635259190574288,0.0010936224134638906,0.9991366267204285,0.0,0.0,0.0,0.48605844378471375,2.73571515083313,5.173926830291748,-87.9775390625,0
1843.777,0.012394120916724205,0.06543859839439392,-0.0022237456869333982,0.0,0.0,0.0,0.0,-0.0016182383988052607,-0.0017253104597330093,-0.00010052182915387675,0.9995065331459045,0.0,0.0,0.0,0.4924057722091675,2.7563705444335938,5.1730804443359375,-89.12642669677734,0
1853.688,0.012354603968560696,0.06540485471487045,-0.0022280188277363777,0.0,0.0,0.0,0.0,0.00011347510735504329,0.004063301254063845,-0.004657645709812641,0.999637246131897,0.0,0.0,0.0,0.4915352761745453,2.753657817840576,5.167426109313965,-88.96886444091797,0
1863.6090000000004,0.012355680577456951,0.06544731557369232,-0.002267771167680621,0.0,0.0,0.0,0.0,0.0015655821189284325,-0.004492164123803377,0.0031929872930049896,0.9995852112770081,0.0,0.0,0.0,0.4848603308200836,2.7371714115142822,5.155113220214844,-87.76068878173828,0
1873.5190000000002,0.012310882098972797,0.06550292670726776,-0.0022217086516320705,0.0,0.0,0.0,0.0,0.0015184003859758377,0.003321961034089327,0.002463925164192915,0.9986051321029663,0.0,0.0,0.0,0.48495998978614807,2.7325477600097656,5.158134460449219,-87.77871704101562,0
1883.4359999999997,0.012369971722364426,0.06540676206350327,-0.0022152713499963284,0.0,0.0,0.0,0.0,0.0017460715025663376,-0.0010405322536826134,0.00035459003993310034,0.9979130625724792,0.0,0.0,0.0,0.47779518365859985,2.7169642448425293,5.172548770904541,-86.48187255859375,0
1893.344000000001,0.012325362302362919,0.06536388397216797,-0.00221918523311615,0.0,0.0,0.0,0.0,-0.00033101695589721203,-0.000587736489251256,0.003290805732831359,0.999154269695282,0.0,0.0,0.0,0.47771579027175903,2.7122247219085693,5.169304847717285,-86.4675064086914,0
1903.2659999999996,0.012391391210258007,0.06530505418777466,-0.0021648916881531477,0.0,0.0,0.0,0.0,-0.002571675693616271,-0.00298894545994699,0.0036505451425909996,0.9996253848075867,0.0,0.0,0.0,0.48650673031806946,2.7276408672332764,5.164514541625977,-88.05868530273438,0
1913.1679999999997,0.012386614456772804,0.06542755663394928,-0.0021272904705256224,0.0,0.0,0.0,0.0,-0.0017712208209559321,-0.000583613698836416,0.00437268428504467,0.9989596605300903,0.0,0.0,0.0,0.4967127740383148,2.7548880577087402,5.174596786499023,-89.90599822998047,0
1923.08,0.012379570864140987,0.06531336903572083,-0.0021459199488162994,0.0,0.0,0.0,0.0,-0.0008390888688154519,0.0014194747200235724,-0.0012318217195570469,1.0013614892959595,0.0,0.0,0.0,0.49654537439346313,2.752392053604126,5.177099227905273,-89.87569427490234,0
1932.9959999999992,0.01240766141563654,0.06543315201997757,-0.0021630744449794292,0.0,0.0,0.0,0.0,0.0023114606738090515,0.0034766404423862696,0.004754413850605488,1.000542163848877,0.0,0.0,0.0,0.4958822727203369,2.7497057914733887,5.166489124298096,-89.75568389892578,0
1942.9140000000007,0.01245069969445467,0.06533355265855789,-0.0021604401990771294,0.0,0.0,0.0,0.0,0.0004314844263717532,-0.0017812356818467379,-0.00022969710698816925,1.0004040002822876,0.0,0.0,0.0,0.49529075622558594,2.746238946914673,5.155327320098877,-89.64862060546875,0
1952.8220000000001,0.012472990900278091,0.06546536833047867,-0.0021604113280773163,0.0,0.0,0.0,0.0,-0.0014421697705984116,0.0053473771549761295,-0.003487601177766919,0.9993617534637451,0.0,0.0,0.0,0.49528467655181885,2.743185043334961,5.14937686920166,-89.64751434326172,0
1962.728000000001,0.012439473532140255,0.06534138321876526,-0.0021984647028148174,0.0,0.0,0.0,0.0,-0.00196339120157063,0.00014946807641535997,0.002607319038361311,0.9999569654464722,0.0,0.0,0.0,0.49324581027030945,2.7441482543945312,5.140060901641846,-89.2784652709961,0
1972.6479999999992,0.012407389469444752,0.06542214751243591,-0.0021537633147090673,0.0,0.0,0.0,0.0,6.158274482004344e-05,-0.00369821023195982,0.0033736226614564657,0.9996955990791321,0.0,0.0,0.0,0.49370908737182617,2.7412877082824707,5.134470462799072,-89.3623275756836,0
1982.554,0.012323626317083836,0.06534193456172943,-0.002187742618843913,0.0,0.0,0.0,0.0,-0.002537001622840762,0.0023680496960878372,-0.0026368137914687395,1.001826286315918,0.0,0.0,0.0,0.4948344826698303,2.739577293395996,5.129855632781982,-89.56603240966797,0
1992.4670000000006,0.012347119860351086,0.06545644998550415,-0.002214514883235097,0.0,0.0,0.0,0.0,-0.0025273128412663937,0.002553227124735713,0.002191034844145179,1.0023224353790283,0.0,0.0,0.0,0.49445047974586487,2.739069938659668,5.124703884124756,-89.49652862548828,0
2002.3829999999998,0.012276421301066875,0.06541706621646881,-0.0022267568856477737,0.0,0.0,0.0,0.0,0.001412831014022231,0.0014803733211010695,0.00013943886733613908,1.0004404783248901,0.0,0.0,0.0,0.49417099356651306,2.741971731185913,5.106011867523193,-89.44593811035156,0
2012.2919999999995,0.012291783466935158,0.06556487828493118,-0.002225231844931841,0.0,0.0,0.0,0.0,-0.001279914635233581,0.001038781483657658,-0.0027869215700775385,0.9980437159538269,0.0,0.0,0.0,0.5002862215042114,2.7693464756011963,5.11021614074707,-90.55279541015625,0
2022.205,0.012297983281314373,0.0654791072010994,-0.0022327178157866,0.0,0.0,0.0,0.0,-0.0016831285320222378,-0.0026471195742487907,0.0007935533649288118,1.0001686811447144,0.0,0.0,0.0,0.5005589723587036,2.76904559135437,5.103701591491699,-90.6021728515625,0
2032.1229999999996,0.01231521274894476,0.06560296565294266,-0.0022479998879134655,0.0,0.0,0.0,0.0,0.0006653626332990825,0.003112437669187784,-0.0034726152662187815,1.0000863075256348,0.0,0.0,0.0,0.5002584457397461,2.761620044708252,5.09952449798584,-90.54776763916016,0
2042.0300000000007,0.012270750477910042,0.06550678610801697,-0.0022801165468990803,0.0,0.0,0.0,0.0,0.002481708535924554,-0.002724546706303954,0.002057023113593459,1.0001261234283447,0.0,0.0,0.0,0.49923136830329895,2.7540433406829834,5.087772846221924,-90.36187744140625,0
2051.9429999999993,0.012257794849574566,0.06561408191919327,-0.0022698654793202877,0.0,0.0,0.0,0.0,0.004042014479637146,-0.0012580769835039973,-0.0011994908563792706,0.9987208247184753,0.0,0.0,0.0,0.507724940776825,2.777883529663086,5.098052501678467,-91.89922332763672,0
2061.861000000001,0.012205642648041248,0.06559188663959503,-0.0022722212597727776,0.0,0.0,0.0,0.0,-0.0015765599673613906,-0.003706192597746849,0.002441044431179762,0.9999486804008484,0.0,0.0,0.0,0.5078068971633911,2.7752251625061035,5.093846321105957,-91.9140625,0
2071.7700000000004,0.012172307819128036,0.0656738132238388,-0.0022536732722073793,0.0,0.0,0.0,0.0,-0.002001655986532569,-0.0023920508101582527,0.002885201945900917,0.9991146922111511,0.0,0.0,0.0,0.5150209665298462,2.8015024662017822,5.110061168670654,-93.21981811523438,0
2081.6929999999993,0.012314804829657078,0.06546104699373245,-0.002254804130643606,0.0,0.0,0.0,0.0,-0.0013392919208854437,0.000703421828802675,0.00016907397366594523,0.9994475245475769,0.0,0.0,0.0,0.5139382481575012,2.754852533340454,5.1545090675354,-93.02384185791016,0
2091.594000000001,0.012310308404266834,0.06557593494653702,-0.0022342228330671787,0.0,0.0,0.0,0.0,0.0008174054673872888,0.002008474199101329,-0.000545065151527524,1.0015205144882202,0.0,0.0,0.0,0.5137486457824707,2.7595694065093994,5.150176048278809,-92.9895248413086,0
2101.5059999999994,0.012345063500106335,0.06544344872236252,-0.0022544851526618004,0.0,0.0,0.0,0.0,0.0013785718474537134,-0.0029616267420351505,-0.00092790846247226,0.9997953176498413,0.0,0.0,0.0,0.5031965970993042,2.7366912364959717,5.153945446014404,-91.07958221435547,0
2111.4249999999993,0.012331579811871052,0.06553889811038971,-0.002233314560726285,0.0,0.0,0.0,0.0,3.39058278768789e-05,0.0022528923582285643,-0.0014692747499793768,1.0018788576126099,0.0,0.0,0.0,0.5035911202430725,2.7364916801452637,5.152764320373535,-91.15099334716797,0
2121.3320000000003,0.012338829226791859,0.06542803347110748,-0.002250277902930975,0.0,0.0,0.0,0.0,-0.0019702354911714792,-0.0029449230059981346,0.004628763068467379,0.9994460344314575,0.0,0.0,0.0,0.49582839012145996,2.718621015548706,5.156327724456787,-89.74592590332031,0
2131.245000000001,0.0123507771641016,0.06557494401931763,-0.00223689922131598,0.0,0.0,0.0,0.0,-0.0002574266982264817,-0.0010022143833339214,-0.005934947170317173,1.0004339218139648,0.0,0.0,0.0,0.5027215480804443,2.7422945499420166,5.163735389709473,-90.99359893798828,0
2141.1579999999994,0.012358343228697777,0.06540308892726898,-0.0022802925668656826,0.0,0.0,0.0,0.0,-0.0033389523159712553,-0.004855604842305183,0.0016318134730681777,1.0009366273880005,0.0,0.0,0.0,0.5005641579627991,2.7377235889434814,5.1516923904418945,-90.60311126708984,0
2151.071,0.012310493737459183,0.06550376862287521,-0.0022071069106459618,0.0,0.0,0.0,0.0,0.0006042274180799723,0.0008443808765150607,0.0023891946766525507,0.9980859756469727,0.0,0.0,0.0,0.5086455941200256,2.762970209121704,5.152864456176758,-92.06585693359375,0
2160.983,0.012306313961744308,0.06538070738315582,-0.002227155724540353,0.0,0.0,0.0,0.0,-0.0016843134071677923,0.0027078965213149786,-0.0012680507497861981,0.9977407455444336,0.0,0.0,0.0,0.5092563629150391,2.75836443901062,5.145838260650635,-92.1764144897461,0
