timestamp,stateEstimate.x,stateEstimate.y,stateEstimate.z,controller.cmd_thrust,controller.cmd_roll,controller.cmd_pitch,controller.cmd_yaw,controller.r_roll,controller.r_pitch,controller.r_yaw,controller.accelz,controller.actuatorThrust,controller.roll,controller.pitch,controller.yaw,controller.rollRate,controller.pitchRate,controller.yawRate,controller.ctr_yaw
0.0,0.056952208280563354,0.08607523143291473,-0.09492089599370956,0.0,0.0,0.0,0.0,0.000698707764968276,0.0003397775872144848,-0.0007015116862021387,0.998937726020813,0.0,0.0,0.0,18.185874938964844,10.312705039978027,15.435208320617676,-3291.6796875,0
9.907999999999447,0.05988141521811485,0.08962327986955643,-0.10038408637046814,0.0,0.0,0.0,0.0,0.0002840677334461361,0.0004463042423594743,0.002236052881926298,1.000383734703064,0.0,0.0,0.0,18.167400360107422,10.305195808410645,15.411483764648438,-3288.335693359375,0
19.825000000000728,0.06283237785100937,0.09319554269313812,-0.10584756731987,0.0,0.0,0.0,0.0,-0.004624411929398775,-0.006515206303447485,0.0018428581533953547,0.9974231123924255,0.0,0.0,0.0,18.149301528930664,10.300300598144531,15.390670776367188,-3285.059814453125,0
29.73400000000038,0.06580541282892227,0.0967925414443016,-0.1113118901848793,0.0,0.0,0.0,0.0,-0.0008927667513489723,0.004949850961565971,-0.0011686533689498901,1.000770092010498,0.0,0.0,0.0,18.13118553161621,10.298340797424316,15.383790016174316,-3281.781005859375,0
39.63799999999901,0.06880199164152145,0.10041487962007523,-0.11677747219800949,0.0,0.0,0.0,0.0,-0.0020234149415045977,0.0026020279619842768,0.0020741326734423637,1.001456618309021,0.0,0.0,0.0,18.11334800720215,10.290580749511719,15.365610122680664,-3278.552001953125,0
49.550999999999476,0.07182274013757706,0.10406268388032913,-0.12224292755126953,0.0,0.0,0.0,0.0,0.003486782079562545,-0.0002367929118918255,-0.0023884957190603018,0.9994291663169861,0.0,0.0,0.0,18.09545135498047,10.285446166992188,15.346899032592773,-3275.312744140625,0
59.46600000000035,0.0748664140701294,0.10773509740829468,-0.12770764529705048,0.0,0.0,0.0,0.0,-0.0008969834307208657,-0.007021191529929638,0.006743741687387228,0.9994382262229919,0.0,0.0,0.0,18.076398849487305,10.273369789123535,15.329085350036621,-3271.8642578125,0
69.38299999999981,0.07793216407299042,0.1114317923784256,-0.13317255675792694,0.0,0.0,0.0,0.0,-0.004115740768611431,-0.0015703681856393814,-0.00032912782626226544,0.9982950091362,0.0,0.0,0.0,18.05999183654785,10.265334129333496,15.311177253723145,-3268.894287109375,0
79.28900000000067,0.08102045953273773,0.11515412479639053,-0.13863852620124817,0.0,0.0,0.0,0.0,0.0020664327312260866,-0.0014227472711354494,-0.003264013212174177,1.0009543895721436,0.0,0.0,0.0,18.04109001159668,10.263187408447266,15.305659294128418,-3265.473388671875,0
89.20499999999993,0.042552269995212555,0.06962016224861145,-0.12488027662038803,0.0,0.0,0.0,0.0,0.0004462619253899902,0.0021382749546319246,-0.0014078861568123102,1.0006500482559204,0.0,0.0,0.0,18.20174217224121,7.802696228027344,11.105268478393555,-3294.5517578125,0
99.12299999999959,0.044704750180244446,0.07227998971939087,-0.130611389875412,0.0,0.0,0.0,0.0,-0.002074325457215309,0.00452342489734292,-0.0009028614731505513,0.999927818775177,0.0,0.0,0.0,18.183115005493164,7.7904582023620605,11.083853721618652,-3291.1796875,0
109.02800000000025,0.040608737617731094,0.06699364632368088,-0.12107318639755249,0.0,0.0,0.0,0.0,0.00011645907943602651,-0.00612751767039299,0.0024634222500026226,0.9992716908454895,0.0,0.0,0.0,18.276731491088867,7.543915748596191,10.768572807312012,-3308.124755859375,0
118.9429999999993,0.042696088552474976,0.06956689059734344,-0.12668250501155853,0.0,0.0,0.0,0.0,-0.0033006782177835703,0.0005875399219803512,-0.0007170105818659067,0.9994503855705261,0.0,0.0,0.0,18.259422302246094,7.5397539138793945,10.764430046081543,-3304.991943359375,0
128.85399999999936,0.04479646682739258,0.07215403020381927,-0.13229216635227203,0.0,0.0,0.0,0.0,0.0012586392695084214,-0.0012454477837309241,0.0026333644054830074,1.0002176761627197,0.0,0.0,0.0,18.24131202697754,7.538869857788086,10.751818656921387,-3301.713623046875,0
138.7639999999992,0.04690980538725853,0.07475500553846359,-0.13790172338485718,0.0,0.0,0.0,0.0,-0.00390644883736968,0.0012523336336016655,0.00311136431992054,0.9987236857414246,0.0,0.0,0.0,18.223127365112305,7.534078598022461,10.7402982711792,-3298.42236328125,0
148.68299999999908,0.049034833908081055,0.07736946642398834,-0.14351142942905426,0.0,0.0,0.0,0.0,0.0015347652370110154,0.0017643461469560862,0.0005138696869835258,0.999970018863678,0.0,0.0,0.0,18.205961227416992,7.5323567390441895,10.733983039855957,-3295.3154296875,0
158.59799999999996,0.05117007717490196,0.07999652624130249,-0.14912176132202148,0.0,0.0,0.0,0.0,-0.0011519986437633634,-0.001257793279364705,0.0018449790077283978,1.0010336637496948,0.0,0.0,0.0,18.187623977661133,7.529908657073975,10.711810111999512,-3291.99609375,0
168.5139999999992,0.046430014073848724,0.07432404905557632,-0.13826961815357208,0.0,0.0,0.0,0.0,0.0033993697725236416,-0.003736654529348016,-4.876953607890755e-05,1.0005022287368774,0.0,0.0,0.0,18.28700065612793,7.272581100463867,10.150907516479492,-3309.9833984375,0
178.41300000000047,0.04844966530799866,0.07684089243412018,-0.14377199113368988,0.0,0.0,0.0,0.0,-0.0017956345109269023,-0.0006008034106343985,0.0005509974434971809,1.0022562742233276,0.0,0.0,0.0,18.26941680908203,7.26032018661499,10.144515037536621,-3306.80078125,0
188.33599999999933,0.05047911778092384,0.0793696865439415,-0.14927294850349426,0.0,0.0,0.0,0.0,-0.004835514351725578,-0.0006427054759114981,0.004738158546388149,1.002932071685791,0.0,0.0,0.0,18.25203514099121,7.256728172302246,10.135025024414062,-3303.655029296875,0
198.23799999999937,0.052519772201776505,0.081910640001297,-0.1547713726758957,0.0,0.0,0.0,0.0,0.00016176924691535532,0.002533020917326212,-0.0027075260877609253,1.0013132095336914,0.0,0.0,0.0,18.23460578918457,7.258028507232666,10.136346817016602,-3300.5,0
208.15899999999965,0.04863707348704338,0.07713790237903595,-0.14557503163814545,0.0,0.0,0.0,0.0,-0.0014574357774108648,-0.003043984994292259,-0.00014235357230063528,1.0001583099365234,0.0,0.0,0.0,18.32068634033203,6.9873948097229,9.661153793334961,-3316.08056640625,0
218.0619999999999,0.05059133097529411,0.07957780361175537,-0.150975301861763,0.0,0.0,0.0,0.0,-0.0031954003497958183,0.0001134225822170265,0.0019024714129045606,0.9985317587852478,0.0,0.0,0.0,18.303083419799805,6.976263046264648,9.6485013961792,-3312.89453125,0
227.98400000000038,0.05255603790283203,0.08202830702066422,-0.15637549757957458,0.0,0.0,0.0,0.0,-0.002817425411194563,-0.0018586853984743357,0.0008510288316756487,0.9972003102302551,0.0,0.0,0.0,18.285057067871094,6.971575736999512,9.64362907409668,-3309.6318359375,0
237.89699999999903,0.05472835153341293,0.08473566919565201,-0.162317156791687,0.0,0.0,0.0,0.0,-0.0014709669630974531,0.0016140621155500412,0.0018383534625172615,0.9970442056655884,0.0,0.0,0.0,18.267854690551758,6.968385219573975,9.641256332397461,-3306.51806640625,0
247.8099999999995,0.05671330541372299,0.0872078537940979,-0.16772112250328064,0.0,0.0,0.0,0.0,-0.002097837859764695,-0.0007811448303982615,0.003599960822612047,0.9991146922111511,0.0,0.0,0.0,18.24938201904297,6.967189788818359,9.634725570678711,-3303.17431640625,0
257.71500000000015,0.0587087944149971,0.08969109505414963,-0.1731272041797638,0.0,0.0,0.0,0.0,-0.0008730945992283523,-0.0021243817172944546,0.002133449539542198,1.0017528533935547,0.0,0.0,0.0,18.232152938842773,6.963245868682861,9.630718231201172,-3300.055908203125,0
267.6370000000006,0.05458120256662369,0.08446992188692093,-0.16348154842853546,0.0,0.0,0.0,0.0,0.0037853317335247993,-0.005605513695627451,0.004013603553175926,1.000077724456787,0.0,0.0,0.0,18.32552146911621,6.633415699005127,9.154454231262207,-3316.9560546875,0
277.53800000000047,0.05648360028862953,0.08683538436889648,-0.16879868507385254,0.0,0.0,0.0,0.0,0.0007833087584003806,0.0010981295490637422,-0.0030425821896642447,0.9999745488166809,0.0,0.0,0.0,18.307493209838867,6.625284671783447,9.149020195007324,-3313.692626953125,0
287.45800000000054,0.058394744992256165,0.08920986950397491,-0.17411506175994873,0.0,0.0,0.0,0.0,0.003777852514758706,-0.0005414266488514841,-0.000779492489527911,1.0000046491622925,0.0,0.0,0.0,18.28901481628418,6.613978385925293,9.142019271850586,-3310.34814453125,0
297.3629999999994,0.060314442962408066,0.09159301221370697,-0.17943134903907776,0.0,0.0,0.0,0.0,0.001361413043923676,-0.0014341628411784768,0.0009997992310672998,0.9991856217384338,0.0,0.0,0.0,18.270357131958008,6.608866214752197,9.127445220947266,-3306.970947265625,0
307.28999999999905,0.05694223567843437,0.08740247040987015,-0.17119237780570984,0.0,0.0,0.0,0.0,-0.00044065428664907813,0.0027230046689510345,-0.0024077189154922962,1.0002515316009521,0.0,0.0,0.0,18.33863067626953,6.3903398513793945,8.789982795715332,-3319.328369140625,0
317.1929999999993,0.05879201367497444,0.08970067650079727,-0.1764197051525116,0.0,0.0,0.0,0.0,-0.0014941535191610456,0.0002566802140790969,3.679086876218207e-05,0.9992081522941589,0.0,0.0,0.0,18.319997787475586,6.391443252563477,8.77800178527832,-3315.955810546875,0
327.1090000000004,0.06064834073185921,0.09200787544250488,-0.1816471517086029,0.0,0.0,0.0,0.0,0.000688048719894141,0.0015415765810757875,-0.0013790458906441927,1.0004005432128906,0.0,0.0,0.0,18.301753997802734,6.3853864669799805,8.76208209991455,-3312.654052734375,0
337.012999999999,0.0625113919377327,0.09432396292686462,-0.18687474727630615,0.0,0.0,0.0,0.0,-0.0004522681701928377,0.0025986707769334316,-0.0007605454884469509,1.0010257959365845,0.0,0.0,0.0,18.283716201782227,6.380469799041748,8.741964340209961,-3309.38916015625,0
346.9369999999999,0.05948065221309662,0.09046278148889542,-0.17898482084274292,0.0,0.0,0.0,0.0,0.0005090920021757483,-0.0033325280528515577,0.0026290530804544687,0.9991769194602966,0.0,0.0,0.0,18.354658126831055,6.19094181060791,8.492201805114746,-3322.229736328125,0
356.83699999999953,0.061291176825761795,0.09270672500133514,-0.18411821126937866,0.0,0.0,0.0,0.0,-0.003577674040570855,-0.002198921050876379,0.005841887090355158,1.001767635345459,0.0,0.0,0.0,18.33600616455078,6.19287109375,8.485508918762207,-3318.853759765625,0
366.7569999999996,0.05856606736779213,0.0892891064286232,-0.1766568422317505,0.0,0.0,0.0,0.0,-0.0001601622352609411,-0.0025799053255468607,0.004557890817523003,1.0006393194198608,0.0,0.0,0.0,18.405649185180664,6.067881107330322,8.295506477355957,-3331.459228515625,0
376.66499999999905,0.06033226102590561,0.09147785604000092,-0.18169242143630981,0.0,0.0,0.0,0.0,-0.0009561117622070014,-0.00143994961399585,0.0017052877228707075,1.0002059936523438,0.0,0.0,0.0,18.388574600219727,6.062976837158203,8.300007820129395,-3328.368896484375,0
386.58899999999994,0.057834189385175705,0.08834746479988098,-0.1746964156627655,0.0,0.0,0.0,0.0,-0.0019311783835291862,-0.0013610859168693423,-0.004242387134581804,1.0009485483169556,0.0,0.0,0.0,18.4510498046875,5.952042102813721,8.149110794067383,-3339.6767578125,0
396.4950000000008,0.05956047400832176,0.09048663079738617,-0.17963626980781555,0.0,0.0,0.0,0.0,-0.0005220645107328892,-0.004110718611627817,-0.0009881705045700073,0.999237596988678,0.0,0.0,0.0,18.430652618408203,5.950940132141113,8.141651153564453,-3335.98486328125,0
406.41300000000047,0.057217832654714584,0.08760303258895874,-0.17300911247730255,0.0,0.0,0.0,0.0,-0.0010668743634596467,-0.0022273941431194544,-0.0008350121788680553,1.0001912117004395,0.0,0.0,0.0,18.483535766601562,5.873048782348633,8.017756462097168,-3345.556640625,0
416.3209999999999,0.058907877653837204,0.08969925343990326,-0.17785611748695374,0.0,0.0,0.0,0.0,0.00036537268897518516,0.0015657576732337475,-0.0050835926085710526,0.9999496936798096,0.0,0.0,0.0,18.464815139770508,5.872405052185059,8.012787818908691,-3342.168212890625,0
426.2389999999996,0.0566331148147583,0.0869251936674118,-0.17149697244167328,0.0,0.0,0.0,0.0,-0.0014704474015161395,-0.0028899582102894783,0.0040837619453668594,1.0004159212112427,0.0,0.0,0.0,18.511322021484375,5.794050216674805,7.856842517852783,-3350.5859375,0
436.1370000000006,0.058286406099796295,0.08898013830184937,-0.17625629901885986,0.0,0.0,0.0,0.0,0.003063357900828123,0.0039884778670966625,-0.001445940462872386,1.002114176750183,0.0,0.0,0.0,18.49407958984375,5.79311466217041,7.861536979675293,-3347.46533203125,0
446.0579999999991,0.05618414282798767,0.08637087792158127,-0.17025354504585266,0.0,0.0,0.0,0.0,0.004299121908843517,-0.0012202212819829583,0.0010842386400327086,1.0011489391326904,0.0,0.0,0.0,18.527233123779297,5.707080364227295,7.726815223693848,-3353.466064453125,0
455.96899999999914,0.05780243128538132,0.08838552236557007,-0.174924835562706,0.0,0.0,0.0,0.0,-0.002542463131248951,-0.00299538834951818,-0.00010243256110697985,0.9997056126594543,0.0,0.0,0.0,18.508848190307617,5.6988091468811035,7.7284345626831055,-3350.138427734375,0
465.89500000000044,0.059425391256809235,0.09040472656488419,-0.17959536612033844,0.0,0.0,0.0,0.0,-0.0026810509152710438,-0.0003446894115768373,-0.0022840509191155434,1.0005496740341187,0.0,0.0,0.0,18.490114212036133,5.700929641723633,7.7208356857299805,-3346.747314453125,0
475.78900000000067,0.06105450168251991,0.09242918342351913,-0.18426579236984253,0.0,0.0,0.0,0.0,-0.0010133992182090878,0.0008645500638522208,-0.002664434490725398,1.001814603805542,0.0,0.0,0.0,18.47157859802246,5.705144882202148,7.720840930938721,-3343.392333984375,0
485.7099999999991,0.05866257846355438,0.08947477489709854,-0.17760281264781952,0.0,0.0,0.0,0.0,0.0018591360421851277,-0.0020234184339642525,-0.001375901629216969,0.9994286894798279,0.0,0.0,0.0,18.505813598632812,5.614381790161133,7.556508541107178,-3349.589111328125,0
495.6229999999996,0.06025106459856033,0.09145288914442062,-0.18218496441841125,0.0,0.0,0.0,0.0,-0.00024552622926421463,-0.0016122583765536547,-0.0003565312654245645,0.9981389045715332,0.0,0.0,0.0,18.48584747314453,5.608704566955566,7.5445404052734375,-3345.974853515625,0
505.53900000000067,0.06184297427535057,0.09343666583299637,-0.1867673397064209,0.0,0.0,0.0,0.0,0.0036094794049859047,0.0019797347486019135,0.0004298614803701639,0.9990523457527161,0.0,0.0,0.0,18.46710968017578,5.604193687438965,7.535798072814941,-3342.583740234375,0
515.4480000000003,0.06343906372785568,0.0954265221953392,-0.19135060906410217,0.0,0.0,0.0,0.0,0.00035310283419676125,0.0028045298531651497,0.003006570739671588,0.9983381032943726,0.0,0.0,0.0,18.448360443115234,5.594663143157959,7.532471179962158,-3339.18994140625,0
525.3649999999998,0.06504014879465103,0.09742388129234314,-0.19593490660190582,0.0,0.0,0.0,0.0,-0.004587813746184111,-0.002179403556510806,-0.0014260773314163089,0.998433530330658,0.0,0.0,0.0,18.430696487426758,5.586784362792969,7.517878532409668,-3335.99267578125,0
535.2739999999994,0.0666462853550911,0.09942880272865295,-0.2005203664302826,0.0,0.0,0.0,0.0,0.0004567118885461241,0.0009559845784679055,0.0019531312864273787,0.9972892999649048,0.0,0.0,0.0,18.41232681274414,5.585649490356445,7.514186382293701,-3332.667724609375,0
545.1980000000003,0.06368044018745422,0.09578894823789597,-0.19259284436702728,0.0,0.0,0.0,0.0,4.909162089461461e-05,-0.0021233384031802416,0.0002992542868014425,0.9970650672912598,0.0,0.0,0.0,18.45997428894043,5.463475704193115,7.301910400390625,-3341.291748046875,0
555.0869999999995,0.06523548066616058,0.09773442894220352,-0.197092667222023,0.0,0.0,0.0,0.0,-0.0017929680179804564,-0.002428500447422266,0.0008417335920967162,1.0001357793807983,0.0,0.0,0.0,18.44144630432129,5.456600189208984,7.29374361038208,-3337.9384765625,0
565.0110000000004,0.06695061922073364,0.09987896680831909,-0.2020443081855774,0.0,0.0,0.0,0.0,-0.0008929180912673473,-0.0025221523828804493,-0.0006425073952414095,1.0007786750793457,0.0,0.0,0.0,18.4222469329834,5.455046653747559,7.296910762786865,-3334.46337890625,0
574.9140000000007,0.06851405650377274,0.10183274745941162,-0.20654568076133728,0.0,0.0,0.0,0.0,-0.00012210477143526077,-0.0053067756816744804,-0.0009034271351993084,0.9986507296562195,0.0,0.0,0.0,18.403995513916016,5.444957733154297,7.29105806350708,-3331.159912109375,0
584.8420000000006,0.06555889546871185,0.09809183329343796,-0.19823306798934937,0.0,0.0,0.0,0.0,-0.001987247262150049,0.0025597279891371727,-0.005691412836313248,1.0003503561019897,0.0,0.0,0.0,18.445316314697266,5.3273515701293945,7.146543502807617,-3338.63916015625,0
594.7450000000008,0.06707898527383804,0.0999889001250267,-0.20263849198818207,0.0,0.0,0.0,0.0,0.0006201863870956004,-0.002740381984040141,-0.0013301988365128636,0.9999041557312012,0.0,0.0,0.0,18.425373077392578,5.324177265167236,7.137352466583252,-3335.029296875,0
604.6720000000005,0.06860155612230301,0.10189054906368256,-0.2070438265800476,0.0,0.0,0.0,0.0,-0.0004191863990854472,0.0013234356883913279,-0.0013883222127333283,0.9997135996818542,0.0,0.0,0.0,18.407089233398438,5.323246955871582,7.134945869445801,-3331.7197265625,0
614.5679999999993,0.07012679427862167,0.10379590094089508,-0.21144892275333405,0.0,0.0,0.0,0.0,0.0015907104825600982,0.003113397164270282,0.0008353004814125597,1.0004289150238037,0.0,0.0,0.0,18.38892936706543,5.317994117736816,7.133327007293701,-3328.4326171875,0
624.4920000000002,0.06707797944545746,0.09996914863586426,-0.20289888978004456,0.0,0.0,0.0,0.0,0.002377607859671116,0.0006253729807212949,-0.003145121969282627,0.9981909394264221,0.0,0.0,0.0,18.427879333496094,5.208460807800293,6.9773359298706055,-3335.48291015625,0
634.3870000000006,0.06855947524309158,0.10181847959756851,-0.20720790326595306,0.0,0.0,0.0,0.0,0.002695071045309305,-0.0041184695437550545,0.0031908273231238127,0.997823178768158,0.0,0.0,0.0,18.409391403198242,5.2000226974487305,6.969955921173096,-3332.136474609375,0
644.3099999999995,0.07004498690366745,0.10367132723331451,-0.21151813864707947,0.0,0.0,0.0,0.0,-0.0021075443364679813,0.002074386226013303,-0.0034786690957844257,0.9995890259742737,0.0,0.0,0.0,18.390670776367188,5.194818496704102,6.96743631362915,-3328.748046875,0
654.2189999999991,0.07153355330228806,0.10552719235420227,-0.2158299833536148,0.0,0.0,0.0,0.0,0.0008203116594813764,-0.0018812771886587143,0.0006450061919167638,1.0020153522491455,0.0,0.0,0.0,18.372211456298828,5.198231220245361,6.959792613983154,-3325.406982421875,0
664.1370000000006,0.0730251595377922,0.10738741606473923,-0.22014160454273224,0.0,0.0,0.0,0.0,-0.00029527119477279484,-0.0012964061461389065,0.0005670636310242116,0.9988343715667725,0.0,0.0,0.0,18.35443115234375,5.1921796798706055,6.953720569610596,-3322.1884765625,0
674.0390000000007,0.07452045381069183,0.10925260186195374,-0.2244521677494049,0.0,0.0,0.0,0.0,-0.0014970542397350073,0.0007318606367334723,-0.0014202536549419165,0.999698281288147,0.0,0.0,0.0,18.33684730529785,5.190744876861572,6.947157382965088,-3319.005615234375,0
683.9580000000005,0.07091882824897766,0.10477051883935928,-0.21450038254261017,0.0,0.0,0.0,0.0,-1.7975342416320927e-05,0.006671447306871414,-0.0011052537010982633,1.0013614892959595,0.0,0.0,0.0,18.377412796020508,5.078976154327393,6.762353420257568,-3326.348388671875,0
693.8709999999992,0.07236125320196152,0.10657195746898651,-0.2187076210975647,0.0,0.0,0.0,0.0,-0.0021118400618433952,-0.0014816363109275699,0.0009911273373290896,1.0006365776062012,0.0,0.0,0.0,18.358993530273438,5.07293176651001,6.7497029304504395,-3323.01416015625,0
703.7880000000005,0.07380504906177521,0.10837678611278534,-0.2229137271642685,0.0,0.0,0.0,0.0,0.0016964188544079661,0.0017561368877068162,0.00012624007649719715,1.000825047492981,0.0,0.0,0.0,18.342397689819336,5.0748491287231445,6.743373870849609,-3320.010498046875,0
713.6910000000007,0.07525189965963364,0.11018513888120651,-0.22711847722530365,0.0,0.0,0.0,0.0,0.0005298147443681955,0.0012528211809694767,-0.002739529823884368,0.9987261295318604,0.0,0.0,0.0,18.3244686126709,5.066786766052246,6.732545375823975,-3316.76513671875,0
723.6080000000002,0.07170290499925613,0.10575874894857407,-0.21700845658779144,0.0,0.0,0.0,0.0,0.0005175920086912811,-0.0006009519565850496,0.0026637951377779245,0.998263955116272,0.0,0.0,0.0,18.372095108032227,4.9669036865234375,6.582945823669434,-3325.385986328125,0
733.5139999999992,0.07310508191585541,0.10750913619995117,-0.22110620141029358,0.0,0.0,0.0,0.0,0.0002581112494226545,-0.003248304594308138,0.0046141864731907845,0.9974959492683411,0.0,0.0,0.0,18.354236602783203,4.960254669189453,6.57576847076416,-3322.1533203125,0
743.4380000000001,0.07451024651527405,0.1092623844742775,-0.22520560026168823,0.0,0.0,0.0,0.0,0.00252457894384861,-0.0005284718936309218,0.0020600564312189817,0.9991124272346497,0.0,0.0,0.0,18.336959838867188,4.95751953125,6.569582462310791,-3319.026123046875,0
753.3369999999995,0.0759180560708046,0.11101874709129333,-0.22930671274662018,0.0,0.0,0.0,0.0,0.0009266195120289922,-0.0013091835426166654,0.0001289492065552622,0.9991093873977661,0.0,0.0,0.0,18.31960678100586,4.950876235961914,6.56640625,-3315.88525390625,0
763.2620000000006,0.07226545363664627,0.10644850879907608,-0.21875768899917603,0.0,0.0,0.0,0.0,-0.0032996677327901125,-0.00173421751242131,-0.0010909894481301308,0.9998284578323364,0.0,0.0,0.0,18.369787216186523,4.8549065589904785,6.439462184906006,-3324.968017578125,0
773.1659999999993,0.07362940162420273,0.10814747959375381,-0.22274915874004364,0.0,0.0,0.0,0.0,-0.0006705107516609132,-0.0016326351324096322,-0.0015373292844742537,0.9996971487998962,0.0,0.0,0.0,18.35142707824707,4.852555274963379,6.438187122344971,-3321.644775390625,0
783.0820000000003,0.07499723881483078,0.1098482683300972,-0.22674041986465454,0.0,0.0,0.0,0.0,0.0032851265277713537,-0.0016826688079163432,-0.0019127486739307642,0.9998987913131714,0.0,0.0,0.0,18.332763671875,4.852725028991699,6.4371843338012695,-3318.266845703125,0
792.9889999999996,0.0763685405254364,0.11155131459236145,-0.2307317852973938,0.0,0.0,0.0,0.0,-0.0007072670268826187,-0.0009453528909943998,0.0022405521012842655,1.000099778175354,0.0,0.0,0.0,18.314525604248047,4.843894004821777,6.428760051727295,-3314.9658203125,0
802.9050000000007,0.07774245738983154,0.11325716972351074,-0.23472316563129425,0.0,0.0,0.0,0.0,-0.0012668584240600467,0.0002107600012095645,-0.0005607365164905787,0.9992426037788391,0.0,0.0,0.0,18.296398162841797,4.8361968994140625,6.427789211273193,-3311.684326171875,0
812.8140000000003,0.07911848276853561,0.1149655282497406,-0.23871459066867828,0.0,0.0,0.0,0.0,-0.00227347481995821,-0.0029486396815627813,-0.0002295626763952896,0.9992320537567139,0.0,0.0,0.0,18.277833938598633,4.835002899169922,6.417613506317139,-3308.324462890625,0
822.7309999999998,0.07506541162729263,0.10990437120199203,-0.2271055430173874,0.0,0.0,0.0,0.0,0.0015221878420561552,0.003918573725968599,0.002670999150723219,0.9983341097831726,0.0,0.0,0.0,18.33708381652832,4.737020492553711,6.271434783935547,-3319.04833984375,0
832.6370000000006,0.07639170438051224,0.11154788732528687,-0.23098240792751312,0.0,0.0,0.0,0.0,0.002122150966897607,-0.003422172972932458,0.001440629013814032,1.0014897584915161,0.0,0.0,0.0,18.320634841918945,4.726424694061279,6.266632556915283,-3316.071533203125,0
842.5689999999995,0.07277563959360123,0.10705115646123886,-0.22043417394161224,0.0,0.0,0.0,0.0,0.0021249589044600725,0.0033980829175561666,0.0027632229030132294,1.0010082721710205,0.0,0.0,0.0,18.372230529785156,4.646348476409912,6.148537635803223,-3325.41064453125,0
852.4629999999997,0.07405919581651688,0.10864139348268509,-0.22419781982898712,0.0,0.0,0.0,0.0,0.000884275184944272,-0.0008209060179069638,0.0009527042857371271,1.0009809732437134,0.0,0.0,0.0,18.354795455932617,4.63728666305542,6.134374618530273,-3322.25439453125,0
862.3819999999996,0.07056759297847748,0.10428768396377563,-0.2139686644077301,0.0,0.0,0.0,0.0,-0.0010941344080492854,-0.0044427840039134026,-0.00032830770942382514,0.9994718432426453,0.0,0.0,0.0,18.390974044799805,4.56563138961792,6.029385566711426,-3328.802978515625,0
872.2909999999993,0.071809321641922,0.10582638531923294,-0.21762366592884064,0.0,0.0,0.0,0.0,3.35803342750296e-05,-0.0024247514083981514,0.002932450035586953,0.9997477531433105,0.0,0.0,0.0,18.373619079589844,4.563060283660889,6.031205177307129,-3325.661865234375,0
882.2049999999999,0.07305216044187546,0.10736627876758575,-0.22127874195575714,0.0,0.0,0.0,0.0,-0.0002518552355468273,-0.0015920487930998206,0.00010972574818879366,0.9979380965232849,0.0,0.0,0.0,18.35525131225586,4.559665679931641,6.0249834060668945,-3322.3369140625,0
892.1149999999998,0.07429641485214233,0.10890831798315048,-0.22493454813957214,0.0,0.0,0.0,0.0,-0.001924667856656015,0.0019330739742144942,0.0009538918384350836,0.9989758729934692,0.0,0.0,0.0,18.337688446044922,4.557807445526123,6.022485256195068,-3319.157958984375,0
902.0280000000002,0.07079501450061798,0.10453350096940994,-0.21464405953884125,0.0,0.0,0.0,0.0,0.0025918404571712017,0.0017691872781142592,0.001914394088089466,1.0002225637435913,0.0,0.0,0.0,18.375160217285156,4.486332416534424,5.91761589050293,-3325.94091796875,0
911.9439999999995,0.0719992145895958,0.10602444410324097,-0.21819628775119781,0.0,0.0,0.0,0.0,0.0005615940317511559,0.00034991465508937836,0.00224685063585639,1.0010359287261963,0.0,0.0,0.0,18.357641220092773,4.4772844314575195,5.912018299102783,-3322.76953125,0
921.8739999999998,0.06857190281152725,0.10179326683282852,-0.2081826776266098,0.0,0.0,0.0,0.0,-0.0019962869118899107,0.0007343518664129078,0.0009562652558088303,1.001922607421875,0.0,0.0,0.0,18.402183532714844,4.415762901306152,5.804323673248291,-3330.83203125,0
931.7620000000006,0.06973572820425034,0.10323716700077057,-0.21163029968738556,0.0,0.0,0.0,0.0,-0.0027575932908803225,-0.0006152139976620674,0.002271895296871662,1.0017733573913574,0.0,0.0,0.0,18.38451385498047,4.421041965484619,5.794882297515869,-3327.6337890625,0
941.6910000000007,0.07090002298355103,0.1046823114156723,-0.21507619321346283,0.0,0.0,0.0,0.0,-0.0033261615317314863,-0.0022876975126564503,-0.0035235234536230564,1.0001351833343506,0.0,0.0,0.0,18.365859985351562,4.420457363128662,5.792818546295166,-3324.257080078125,0
951.5889999999999,0.07206472009420395,0.1061275526881218,-0.21852059662342072,0.0,0.0,0.0,0.0,0.002484929747879505,0.0036342735402286053,0.002539936453104019,0.999846875667572,0.0,0.0,0.0,18.346370697021484,4.421640872955322,5.791048526763916,-3320.729248046875,0
961.509,0.06855899095535278,0.10179849714040756,-0.20825020968914032,0.0,0.0,0.0,0.0,0.003745886730030179,0.0016861000331118703,-0.0023046277929097414,0.999912440776825,0.0,0.0,0.0,18.395687103271484,4.369808673858643,5.70189905166626,-3329.65576171875,0
971.414999999999,0.06968111544847488,0.10319311171770096,-0.21158979833126068,0.0,0.0,0.0,0.0,0.00027735589537769556,-0.0020549295004457235,0.004475964233279228,1.0008901357650757,0.0,0.0,0.0,18.376361846923828,4.360635280609131,5.686209201812744,-3326.158203125,0
981.3379999999997,0.0663740411400795,0.09910337626934052,-0.2018638253211975,0.0,0.0,0.0,0.0,0.0023578328546136618,0.002423909492790699,-0.0020950015168637037,1.0015345811843872,0.0,0.0,0.0,18.419715881347656,4.303107738494873,5.6042680740356445,-3334.005126953125,0
991.2369999999992,0.06745640188455582,0.10045456141233444,-0.20510224997997284,0.0,0.0,0.0,0.0,-0.001111870282329619,-0.002375092124566436,0.002081359038129449,1.0007548332214355,0.0,0.0,0.0,18.401371002197266,4.298025608062744,5.594269752502441,-3330.68505859375,0
1001.164999999999,0.06434819847345352,0.09658674895763397,-0.19589516520500183,0.0,0.0,0.0,0.0,-0.000693529611453414,0.001677474589087069,0.0031879437156021595,1.0002766847610474,0.0,0.0,0.0,18.439889907836914,4.242181777954102,5.5329270362854,-3337.65673828125,0
1011.0679999999993,0.06539542973041534,0.09789470583200455,-0.19903577864170074,0.0,0.0,0.0,0.0,0.0032761706970632076,-0.0011331194546073675,0.000452579406555742,0.999149739742279,0.0,0.0,0.0,18.42304229736328,4.239413738250732,5.527126312255859,-3334.607421875,0
1020.9950000000008,0.06644336134195328,0.09920250624418259,-0.2021757960319519,0.0,0.0,0.0,0.0,-0.0016176477074623108,-0.001368416124023497,0.0004766155907418579,1.0007998943328857,0.0,0.0,0.0,18.403085708618164,4.231322288513184,5.523190021514893,-3330.994873046875,0
1030.8960000000006,0.0674920380115509,0.10050956904888153,-0.20531544089317322,0.0,0.0,0.0,0.0,-0.0023501627147197723,-0.0005286209634505212,-0.0024368015583604574,1.0012401342391968,0.0,0.0,0.0,18.385040283203125,4.231486797332764,5.513034343719482,-3327.72900390625,0
1040.807999999999,0.06435397267341614,0.0965905487537384,-0.1959085315465927,0.0,0.0,0.0,0.0,0.0015471773222088814,-0.000501185713801533,-0.00045179843436926603,0.9983185529708862,0.0,0.0,0.0,18.426054000854492,4.185482501983643,5.45499849319458,-3335.15234375,0
1050.7119999999995,0.06536795198917389,0.09785636514425278,-0.1989494264125824,0.0,0.0,0.0,0.0,0.0032736994326114655,-0.000320953200571239,0.0030917865224182606,0.9993245601654053,0.0,0.0,0.0,18.407564163208008,4.182156085968018,5.449947834014893,-3331.8056640625,0
1060.6350000000002,0.06231063976883888,0.09405957907438278,-0.189904123544693,0.0,0.0,0.0,0.0,2.8390903025865555e-05,0.00011180627188878134,-0.0008568443590775132,1.0001033544540405,0.0,0.0,0.0,18.443235397338867,4.126751899719238,5.376589298248291,-3338.26220703125,0
1070.539999999999,0.06328938901424408,0.09528446942567825,-0.19285368919372559,0.0,0.0,0.0,0.0,-0.0006817454122938216,0.004824644420295954,0.001002871198579669,0.9995729923248291,0.0,0.0,0.0,18.425670623779297,4.1264729499816895,5.370571136474609,-3335.0830078125,0
1080.4570000000003,0.06426863372325897,0.09650972485542297,-0.19580306112766266,0.0,0.0,0.0,0.0,-0.0010217552771791816,0.00015066687774378806,-0.0016776790143921971,1.0014060735702515,0.0,0.0,0.0,18.406892776489258,4.1253156661987305,5.348939418792725,-3331.684326171875,0
1090.3619999999992,0.06524866074323654,0.09773418307304382,-0.19875198602676392,0.0,0.0,0.0,0.0,-0.0005500302650034428,-0.0024018273688852787,0.001977031584829092,1.0001097917556763,0.0,0.0,0.0,18.388891220092773,4.121522903442383,5.345034599304199,-3328.426025390625,0
1100.280999999999,0.0662289410829544,0.09895820915699005,-0.20169995725154877,0.0,0.0,0.0,0.0,0.0007388272788375616,-0.001142748980782926,-0.0026823701336979866,0.99910968542099,0.0,0.0,0.0,18.371252059936523,4.121376991271973,5.34629487991333,-3325.233154296875,0
1110.187,0.06720835715532303,0.10018286854028702,-0.20464769005775452,0.0,0.0,0.0,0.0,0.0016327976481989026,0.00238073174841702,0.001354058156721294,0.9991913437843323,0.0,0.0,0.0,18.352346420288086,4.116406440734863,5.346523761749268,-3321.81103515625,0
1120.1039999999994,0.0640486404299736,0.09622092545032501,-0.19510211050510406,0.0,0.0,0.0,0.0,0.001375372288748622,0.0003400338173378259,0.000943950260989368,0.9996875524520874,0.0,0.0,0.0,18.39289093017578,4.067835807800293,5.2969279289245605,-3329.150146484375,0
1130.0139999999992,0.06499244272708893,0.09740351885557175,-0.19795356690883636,0.0,0.0,0.0,0.0,-0.0009711703169159591,-0.002582905348390341,0.0007825468783266842,1.0020743608474731,0.0,0.0,0.0,18.37468910217285,4.060085296630859,5.292873859405518,-3325.855224609375,0
1139.9410000000007,0.06189803034067154,0.0935492143034935,-0.1887245923280716,0.0,0.0,0.0,0.0,0.0013430609833449125,0.004600248299539089,-0.0018832870991900563,1.001914143562317,0.0,0.0,0.0,18.411888122558594,4.020883560180664,5.230908393859863,-3332.58837890625,0
1149.8369999999995,0.06280618160963058,0.0946900025010109,-0.1914805769920349,0.0,0.0,0.0,0.0,-0.0006652403972111642,0.0053034997545182705,0.0019178051734343171,1.001094937324524,0.0,0.0,0.0,18.392261505126953,4.011225700378418,5.21617317199707,-3329.035888671875,0
1159.7510000000002,0.06371397525072098,0.09582993388175964,-0.19423501193523407,0.0,0.0,0.0,0.0,0.0012081831227988005,-0.003921166528016329,-0.0028098730836063623,1.0030282735824585,0.0,0.0,0.0,18.37506675720215,4.011394500732422,5.199479579925537,-3325.923828125,0
1169.6630000000005,0.06462084501981735,0.09696869552135468,-0.19698762893676758,0.0,0.0,0.0,0.0,0.001012111664749682,-0.005280856974422932,0.0017716598231345415,1.002159595489502,0.0,0.0,0.0,18.356792449951172,4.010458946228027,5.200874328613281,-3322.615966796875,0
1179.5789999999997,0.06157459318637848,0.0931200310587883,-0.18773780763149261,0.0,0.0,0.0,0.0,-0.0020266796927899122,-0.004819531925022602,-0.0011625202605500817,0.99969083070755,0.0,0.0,0.0,18.383195877075195,3.9669740200042725,5.169490337371826,-3327.39501953125,0
1189.4889999999996,0.06245098263025284,0.09421531856060028,-0.19039149582386017,0.0,0.0,0.0,0.0,-0.0015725234989076853,-0.0016786439809948206,0.0037901857867836952,0.9992539882659912,0.0,0.0,0.0,18.364192962646484,3.966336488723755,5.1692938804626465,-3323.955078125,0
1199.4009999999998,0.06341522932052612,0.09541906416416168,-0.19331048429012299,0.0,0.0,0.0,0.0,-0.002371426671743393,-0.002137809991836548,-0.0001001797936623916,0.9980959296226501,0.0,0.0,0.0,18.34670066833496,3.962583065032959,5.175541877746582,-3320.7890625,0
1209.3199999999997,0.06429146975278854,0.0965128093957901,-0.1959649622440338,0.0,0.0,0.0,0.0,-0.0005295746959745884,-0.0017486888682469726,0.0021720968652516603,0.9995231032371521,0.0,0.0,0.0,18.328632354736328,3.962217330932617,5.1667280197143555,-3317.5185546875,0
1219.2379999999994,0.061303578317165375,0.09276186674833298,-0.18691480159759521,0.0,0.0,0.0,0.0,-0.00011799376807175577,0.00039790247683413327,-0.0037166576366871595,1.0020573139190674,0.0,0.0,0.0,18.374359130859375,3.923097610473633,5.1391777992248535,-3325.79541015625,0
1229.1479999999992,0.06214773654937744,0.09381601214408875,-0.1894768625497818,0.0,0.0,0.0,0.0,0.0028168782591819763,0.0016016527079045773,0.0009903681930154562,0.9996961355209351,0.0,0.0,0.0,18.35479736328125,3.9207258224487305,5.137404918670654,-3322.2548828125,0
1239.0599999999995,0.05920807644724846,0.09017600119113922,-0.18069598078727722,0.0,0.0,0.0,0.0,-2.8361016575217946e-06,-0.0018988344818353653,-0.0017364571103826165,0.999334454536438,0.0,0.0,0.0,18.399160385131836,3.8849539756774902,5.087820053100586,-3330.284912109375,0
1248.9770000000008,0.06002035737037659,0.0911940485239029,-0.183169424533844,0.0,0.0,0.0,0.0,-0.0014408836141228676,0.004916245583444834,-0.0007144017145037651,1.000852108001709,0.0,0.0,0.0,18.380373001098633,3.8846073150634766,5.089361667633057,-3326.88427734375,0
1258.8829999999998,0.060833025723695755,0.09221106022596359,-0.18564295768737793,0.0,0.0,0.0,0.0,-0.0034966333769261837,-0.0018151558469980955,-0.007151431869715452,1.0019274950027466,0.0,0.0,0.0,18.36172866821289,3.885655403137207,5.068605899810791,-3323.509521484375,0
1268.7870000000003,0.061645351350307465,0.0932263508439064,-0.18811549246311188,0.0,0.0,0.0,0.0,-0.0007835148135200143,-0.00157235749065876,-0.0006991958362050354,1.0005508661270142,0.0,0.0,0.0,18.34214210510254,3.887946605682373,5.065029144287109,-3319.9638671875,0
1278.7099999999991,0.058713868260383606,0.08948345482349396,-0.1791985034942627,0.0,0.0,0.0,0.0,-0.003286635736003518,-0.0007017490570433438,-0.0006499175797216594,1.0002586841583252,0.0,0.0,0.0,18.38465118408203,3.825714588165283,5.031803607940674,-3327.658447265625,0
1288.6229999999996,0.05949694663286209,0.09045813977718353,-0.1815805584192276,0.0,0.0,0.0,0.0,-0.0014106103917583823,-0.0029616232495754957,0.0019950068090111017,0.9994903206825256,0.0,0.0,0.0,18.36625099182129,3.83241605758667,5.0267252922058105,-3324.327880859375,0
1298.5390000000007,0.05666687712073326,0.08690028637647629,-0.1730356067419052,0.0,0.0,0.0,0.0,0.0005602951860055327,-0.0028702286072075367,0.007207035552710295,1.0008350610733032,0.0,0.0,0.0,18.410076141357422,3.791677236557007,4.991544723510742,-3332.260498046875,0
1308.4529999999995,0.05742112174630165,0.0878361314535141,-0.17533192038536072,0.0,0.0,0.0,0.0,-0.0007296776748262346,-0.004571903962641954,-7.739336433587596e-05,1.0000730752944946,0.0,0.0,0.0,18.393020629882812,3.788620710372925,4.991633415222168,-3329.17333984375,0
1318.3629999999994,0.05475017800927162,0.08447563648223877,-0.1672917604446411,0.0,0.0,0.0,0.0,0.0005532436189241707,0.004596836399286985,0.0010079608764499426,0.9999253153800964,0.0,0.0,0.0,18.430313110351562,3.7443649768829346,4.9589972496032715,-3335.92333984375,0
1328.2729999999992,0.0554797425866127,0.08537501841783524,-0.16950716078281403,0.0,0.0,0.0,0.0,0.002285008318722248,-0.001651049591600895,0.0034437882713973522,1.0000776052474976,0.0,0.0,0.0,18.412147521972656,3.737907886505127,4.941277503967285,-3332.63525390625,0
1338.182999999999,0.05289461091160774,0.08217474818229675,-0.16173018515110016,0.0,0.0,0.0,0.0,-0.0014817590126767755,-0.0005875441711395979,0.00040551702841185033,0.9999976754188538,0.0,0.0,0.0,18.449813842773438,3.7090585231781006,4.90066385269165,-3339.452880859375,0
1348.1039999999994,0.05359721928834915,0.08304207772016525,-0.16386696696281433,0.0,0.0,0.0,0.0,-0.0006003488670103252,-0.007103608455508947,0.0005374638712964952,1.0008960962295532,0.0,0.0,0.0,18.430713653564453,3.7093513011932373,4.900879383087158,-3335.995849609375,0
1358.012999999999,0.05118123069405556,0.08007176965475082,-0.15662971138954163,0.0,0.0,0.0,0.0,-0.003062139730900526,-0.0003595815796870738,0.0022135875187814236,0.9988434314727783,0.0,0.0,0.0,18.4623966217041,3.695422649383545,4.866788387298584,-3341.730712890625,0
1367.9249999999993,0.05185745656490326,0.08090916275978088,-0.15869174897670746,0.0,0.0,0.0,0.0,0.0037189743015915155,0.004272366873919964,-0.002246180782094598,1.0015329122543335,0.0,0.0,0.0,18.44338035583496,3.69234299659729,4.860039710998535,-3338.288330078125,0
1377.8320000000003,0.04950643330812454,0.07801555097103119,-0.15169599652290344,0.0,0.0,0.0,0.0,-0.0014648062642663717,-0.001025359844788909,0.00032884834217838943,0.9981531500816345,0.0,0.0,0.0,18.4733943939209,3.6729068756103516,4.805327415466309,-3343.720947265625,0
1387.7559999999994,0.05015701428055763,0.07882372289896011,-0.15368695557117462,0.0,0.0,0.0,0.0,0.0005943873547948897,0.005424587056040764,0.0010318906279280782,0.9977180361747742,0.0,0.0,0.0,18.454986572265625,3.6716835498809814,4.802151203155518,-3340.389404296875,0
1397.6689999999999,0.04799630492925644,0.07612141966819763,-0.14711728692054749,0.0,0.0,0.0,0.0,0.0012287868885323405,-0.002741297474130988,0.0050662811845541,0.9999784231185913,0.0,0.0,0.0,18.478984832763672,3.646549940109253,4.766172885894775,-3344.733154296875,0
1407.5720000000001,0.048626210540533066,0.07689917832612991,-0.14904268085956573,0.0,0.0,0.0,0.0,-0.003856647526845336,-0.0022001294419169426,-0.0014672038378193974,0.9998432397842407,0.0,0.0,0.0,18.462566375732422,3.646925210952759,4.766148567199707,-3341.76123046875,0
1417.4899999999998,0.04652669280767441,0.07428424805402756,-0.14269158244132996,0.0,0.0,0.0,0.0,-0.0001408613461535424,0.0006880040746182203,0.0005932486965321004,0.9991289377212524,0.0,0.0,0.0,18.486663818359375,3.6284029483795166,4.751389503479004,-3346.12255859375,0
1427.3999999999996,0.04713331162929535,0.07503455877304077,-0.14455121755599976,0.0,0.0,0.0,0.0,0.0008703631465323269,-0.00024394859792664647,0.00406726635992527,1.0004287958145142,0.0,0.0,0.0,18.46799087524414,3.626720905303955,4.7455644607543945,-3342.742919921875,0
1437.313,0.04773874953389168,0.07578384876251221,-0.14641110599040985,0.0,0.0,0.0,0.0,-0.001923570060171187,0.0025796100962907076,0.004247802309691906,0.9984697103500366,0.0,0.0,0.0,18.450937271118164,3.627764940261841,4.735829830169678,-3339.656005859375,0
1447.223,0.04834306240081787,0.07653148472309113,-0.148271381855011,0.0,0.0,0.0,0.0,0.0009720594971440732,-0.0023533706553280354,4.8007215809775516e-05,0.9991072416305542,0.0,0.0,0.0,18.433313369750977,3.6309702396392822,4.7272210121154785,-3336.46630859375,0
1457.1389999999992,0.04632895439863205,0.07399206608533859,-0.14205259084701538,0.0,0.0,0.0,0.0,0.002755704103037715,0.0034994734451174736,2.3737282390356995e-05,1.000089168548584,0.0,0.0,0.0,18.454917907714844,3.6109859943389893,4.715964317321777,-3340.376953125,0
1467.0519999999997,0.046914033591747284,0.0747118890285492,-0.14384838938713074,0.0,0.0,0.0,0.0,-0.002678151475265622,-0.0002596834092400968,-9.524801498628221e-06,1.001344919204712,0.0,0.0,0.0,18.43689727783203,3.5984458923339844,4.703118801116943,-3337.114990234375,0
1476.964,0.047497138381004333,0.07542917877435684,-0.14564388990402222,0.0,0.0,0.0,0.0,0.0009714917978271842,-0.004814961459487677,0.002566294511780143,1.0000323057174683,0.0,0.0,0.0,18.41832733154297,3.602689743041992,4.6985626220703125,-3333.75390625,0
1486.8719999999994,0.048078667372465134,0.07614411413669586,-0.14743860065937042,0.0,0.0,0.0,0.0,0.004789375700056553,0.0001362424809485674,-4.8779973440105096e-05,0.9977080821990967,0.0,0.0,0.0,18.401159286499023,3.5912513732910156,4.701430320739746,-3330.646484375,0
1496.7829999999994,0.04592226445674896,0.07351459562778473,-0.14091508090496063,0.0,0.0,0.0,0.0,0.0002922389830928296,0.001970261102542281,-0.0006237967172637582,0.9987195134162903,0.0,0.0,0.0,18.435409545898438,3.5826992988586426,4.675172328948975,-3336.845703125,0
1506.7080000000005,0.04648016765713692,0.07420455664396286,-0.14264339208602905,0.0,0.0,0.0,0.0,0.00039717432809993625,0.0011748066172003746,0.0022415982093662024,1.0014545917510986,0.0,0.0,0.0,18.41639518737793,3.5812997817993164,4.669300079345703,-3333.404052734375,0
1516.6110000000008,0.047035813331604004,0.07489217817783356,-0.1443718820810318,0.0,0.0,0.0,0.0,0.0009571646805852652,0.003985835704952478,-0.0023581255227327347,1.0016076564788818,0.0,0.0,0.0,18.398815155029297,3.577946186065674,4.661651134490967,-3330.22216796875,0
1526.5149999999994,0.047589220106601715,0.07557752728462219,-0.14609894156455994,0.0,0.0,0.0,0.0,-0.0004925754619762301,0.0016205307329073548,0.0002891931508202106,1.000558853149414,0.0,0.0,0.0,18.379318237304688,3.579482078552246,4.647003173828125,-3326.693115234375,0
1536.446,0.04547329246997833,0.07289253920316696,-0.13956467807292938,0.0,0.0,0.0,0.0,0.001327187055721879,-7.730732613708824e-05,-0.0009296743664890528,0.9990159273147583,0.0,0.0,0.0,18.408857345581055,3.5532379150390625,4.6258158683776855,-3332.0400390625,0
1546.3639999999996,0.04600715637207031,0.07354743778705597,-0.14122214913368225,0.0,0.0,0.0,0.0,0.0014144654851406813,-0.0014582030707970262,-0.001939011737704277,1.0008081197738647,0.0,0.0,0.0,18.39090347290039,3.555006504058838,4.620829105377197,-3328.790283203125,0
1556.2639999999992,0.04390639066696167,0.0709291473031044,-0.13485769927501678,0.0,0.0,0.0,0.0,0.00048620320740155876,0.0006804277654737234,0.00036926427856087685,1.00234854221344,0.0,0.0,0.0,18.431730270385742,3.539334774017334,4.5985260009765625,-3336.1796875,0
1566.1759999999995,0.044417187571525574,0.07155469805002213,-0.13644884526729584,0.0,0.0,0.0,0.0,-0.0025115273892879486,-0.0023749221581965685,-0.0008034452912397683,0.9994031190872192,0.0,0.0,0.0,18.413915634155273,3.5405542850494385,4.595207691192627,-3332.955078125,0
1576.0849999999991,0.04492519423365593,0.07217780500650406,-0.1380387246608734,0.0,0.0,0.0,0.0,-0.002298986539244652,-0.0001687387120909989,-0.001931985723786056,0.998106837272644,0.0,0.0,0.0,18.39584732055664,3.5407309532165527,4.589016914367676,-3329.684814453125,0
1585.9979999999996,0.045430392026901245,0.07279850542545319,-0.13962922990322113,0.0,0.0,0.0,0.0,0.0013726906618103385,0.0040747253224253654,-0.000941043661441654,1.0002515316009521,0.0,0.0,0.0,18.375463485717773,3.5401577949523926,4.594035625457764,-3325.99560546875,0
1595.9130000000005,0.04336915910243988,0.07029660046100616,-0.1334284543991089,0.0,0.0,0.0,0.0,-0.0026245382614433765,-0.0009282386745326221,-0.003481069812551141,1.0001938343048096,0.0,0.0,0.0,18.401569366455078,3.539506435394287,4.566821575164795,-3330.720703125,0
1605.8220000000001,0.043850477784872055,0.07089380919933319,-0.1349550038576126,0.0,0.0,0.0,0.0,0.002600345527753234,0.00014566788740921766,-0.0007334540714509785,0.9988839030265808,0.0,0.0,0.0,18.382551193237305,3.543447732925415,4.560713291168213,-3327.278564453125,0
1615.7340000000004,0.044330090284347534,0.07149019837379456,-0.13648152351379395,0.0,0.0,0.0,0.0,0.0037078438326716423,-0.0018577100709080696,-0.0011337414616718888,0.9978897571563721,0.0,0.0,0.0,18.364395141601562,3.5393338203430176,4.554215908050537,-3323.991943359375,0
1625.6450000000004,0.04480744153261185,0.07208507508039474,-0.13800884783267975,0.0,0.0,0.0,0.0,0.0027482423465698957,-0.0009324148995801806,0.001045044744387269,1.0001615285873413,0.0,0.0,0.0,18.345029830932617,3.5302648544311523,4.552591323852539,-3320.48681640625,0
1635.571,0.042755674570798874,0.06958428025245667,-0.1317170262336731,0.0,0.0,0.0,0.0,-0.00044098059879615903,0.0008202248718589544,-0.0015675033209845424,1.0012859106063843,0.0,0.0,0.0,18.374221801757812,3.530099391937256,4.546003818511963,-3325.770751953125,0
1645.473,0.043211594223976135,0.07015600800514221,-0.13317884504795074,0.0,0.0,0.0,0.0,0.0018214137526229024,0.0007418093155138195,0.000984258484095335,1.0004315376281738,0.0,0.0,0.0,18.355003356933594,3.527848243713379,4.549081325531006,-3322.2919921875,0
1655.387999999999,0.043664827942848206,0.07072514295578003,-0.1346392184495926,0.0,0.0,0.0,0.0,0.00045048914034850895,-0.002608321839943528,-0.00033678440377116203,0.9999396204948425,0.0,0.0,0.0,18.336383819580078,3.522592306137085,4.53802490234375,-3318.921875,0
1665.3099999999995,0.04411565512418747,0.07129146158695221,-0.1360989362001419,0.0,0.0,0.0,0.0,0.0004574994381982833,0.0004444987862370908,0.002362430328503251,1.000038743019104,0.0,0.0,0.0,18.318510055541992,3.519488573074341,4.53787088394165,-3315.68701171875,0
1675.2150000000001,0.04211372509598732,0.06878983229398727,-0.1297793835401535,0.0,0.0,0.0,0.0,0.0017664497718214989,0.0026730685494840145,-0.0012233206070959568,1.0000089406967163,0.0,0.0,0.0,18.353666305541992,3.5117785930633545,4.546213150024414,-3322.05029296875,0
1685.1239999999998,0.04254698008298874,0.06933504343032837,-0.13117170333862305,0.0,0.0,0.0,0.0,-0.002620272571220994,0.001180256251245737,0.0021410922054201365,0.998278796672821,0.0,0.0,0.0,18.335107803344727,3.5114874839782715,4.533844947814941,-3318.691162109375,0
1695.0300000000007,0.04297716170549393,0.0698796734213829,-0.1325642168521881,0.0,0.0,0.0,0.0,0.0008512641070410609,0.005686867516487837,-0.0004877499886788428,0.9980289340019226,0.0,0.0,0.0,18.317960739135742,3.508824110031128,4.523736000061035,-3315.587158203125,0
1704.9449999999997,0.04340444505214691,0.07042216509580612,-0.13395804166793823,0.0,0.0,0.0,0.0,-0.004057991784065962,0.0031871902756392956,0.0014369102427735925,0.9999443292617798,0.0,0.0,0.0,18.29973602294922,3.503697633743286,4.510945796966553,-3312.288330078125,0
1714.8619999999992,0.041457388550043106,0.06794185936450958,-0.12767359614372253,0.0,0.0,0.0,0.0,0.0025437811855226755,-0.005224054213613272,0.002227174583822489,1.0022215843200684,0.0,0.0,0.0,18.334932327270508,3.4888358116149902,4.519355773925781,-3318.6591796875,0
1724.7690000000002,0.041871797293424606,0.06846126168966293,-0.12900090217590332,0.0,0.0,0.0,0.0,-0.002204523654654622,-0.0005716572050005198,0.003071065992116928,1.0020403861999512,0.0,0.0,0.0,18.317625045776367,3.4875612258911133,4.520923614501953,-3315.526611328125,0
1734.6759999999995,0.03983179107308388,0.06594241410493851,-0.12284398078918457,0.0,0.0,0.0,0.0,0.002676907228305936,-0.0013847986701875925,-0.0013890016125515103,0.9994834065437317,0.0,0.0,0.0,18.35134506225586,3.4802753925323486,4.496772289276123,-3321.6298828125,0
1744.607,0.040224213153123856,0.06643365323543549,-0.12410525977611542,0.0,0.0,0.0,0.0,0.0002447944425512105,0.0021522901952266693,-0.0025358591228723526,1.000072717666626,0.0,0.0,0.0,18.332231521606445,3.4672884941101074,4.495176315307617,-3318.17041015625,0
1754.5010000000002,0.04061472415924072,0.06692119687795639,-0.12536662817001343,0.0,0.0,0.0,0.0,0.00035031617153435946,0.004106221254914999,-0.002399033633992076,1.0008769035339355,0.0,0.0,0.0,18.31406021118164,3.4650766849517822,4.484470844268799,-3314.881103515625,0
1764.432999999999,0.04100389778614044,0.0674060508608818,-0.1266278475522995,0.0,0.0,0.0,0.0,-0.0016483914805576205,-0.004271439742296934,-0.0013359214644879103,1.0016947984695435,0.0,0.0,0.0,18.295726776123047,3.4628660678863525,4.471088409423828,-3311.563232421875,0
1774.325999999999,0.039042919874191284,0.0649707242846489,-0.12060333788394928,0.0,0.0,0.0,0.0,-0.0007595315692014992,0.0020268061198294163,-0.00031082407804206014,0.998323380947113,0.0,0.0,0.0,18.326576232910156,3.456200361251831,4.471363544464111,-3317.14697265625,0
1784.25,0.039413321763277054,0.06543118506669998,-0.12180107831954956,0.0,0.0,0.0,0.0,0.001121502136811614,0.0026579098775982857,0.0009511715616099536,1.0005611181259155,0.0,0.0,0.0,18.308191299438477,3.452720880508423,4.465287685394287,-3313.819091796875,0
1794.155999999999,0.03978151082992554,0.06588847935199738,-0.12299902737140656,0.0,0.0,0.0,0.0,-0.0010384086053818464,-0.0050152926705777645,0.0007495291065424681,1.001038908958435,0.0,0.0,0.0,18.290210723876953,3.4524455070495605,4.459176540374756,-3310.564453125,0
1804.0750000000007,0.04014630615711212,0.06634195894002914,-0.12419654428958893,0.0,0.0,0.0,0.0,0.001516230870038271,0.0029961648397147655,-0.00135681068059057,1.0021543502807617,0.0,0.0,0.0,18.272981643676758,3.452070951461792,4.459517955780029,-3307.446044921875,0
1813.9760000000006,0.03823075070977211,0.06391143798828125,-0.11815983057022095,0.0,0.0,0.0,0.0,0.0018855796661227942,0.0020648043137043715,0.0004956863704137504,1.0007684230804443,0.0,0.0,0.0,18.312185287475586,3.4335386753082275,4.465742588043213,-3314.541748046875,0
1823.8960000000006,0.03857726231217384,0.06434078514575958,-0.11929113417863846,0.0,0.0,0.0,0.0,-0.0010690157068893313,0.002079630736261606,-0.0014362514484673738,0.9991258382797241,0.0,0.0,0.0,18.293859481811523,3.4282031059265137,4.4567108154296875,-3311.22509765625,0
1833.813,0.03663391247391701,0.06191214919090271,-0.11334186047315598,0.0,0.0,0.0,0.0,-0.003099448513239622,-0.0042529022321105,-0.0015148274833336473,1.0002100467681885,0.0,0.0,0.0,18.335798263549805,3.4083735942840576,4.447670936584473,-3318.81591796875,0
1843.7279999999992,0.03695816919207573,0.06231589615345001,-0.1144128367304802,0.0,0.0,0.0,0.0,0.0009400683338753879,-0.002839884953573346,0.003709264099597931,1.0002684593200684,0.0,0.0,0.0,18.317890167236328,3.4088170528411865,4.447613716125488,-3315.57421875,0
1853.6319999999996,0.03512442857027054,0.06001637876033783,-0.10878907889127731,0.0,0.0,0.0,0.0,-0.0015842946013435721,-0.0004167109145782888,-0.00030478931148536503,0.9993391036987305,0.0,0.0,0.0,18.357763290405273,3.3877718448638916,4.446490287780762,-3322.791259765625,0
1863.557999999999,0.03546040877699852,0.06043355166912079,-0.10990381240844727,0.0,0.0,0.0,0.0,-0.0033289771527051926,-0.00041310591041110456,-0.0014104761648923159,0.9999328851699829,0.0,0.0,0.0,18.33902359008789,3.395052433013916,4.436075210571289,-3319.39990234375,0
1873.464,0.035763733088970184,0.06081004440784454,-0.11091703921556473,0.0,0.0,0.0,0.0,-0.0006453224341385067,-0.0007254955125972629,0.0034787915647029877,1.0016810894012451,0.0,0.0,0.0,18.320537567138672,3.394944667816162,4.431538105010986,-3316.053955078125,0
1883.3819999999996,0.0360647588968277,0.061185114085674286,-0.1119297444820404,0.0,0.0,0.0,0.0,-0.0010694019729271531,0.004188306629657745,-0.002217825036495924,0.9998182058334351,0.0,0.0,0.0,18.303268432617188,3.3902409076690674,4.436124324798584,-3312.927978515625,0
1893.280999999999,0.0342361256480217,0.05898473784327507,-0.10643525421619415,0.0,0.0,0.0,0.0,0.0009802932618185878,0.0010223827557638288,-0.001036770991049707,1.0002281665802002,0.0,0.0,0.0,18.34688949584961,3.4044530391693115,4.407228946685791,-3320.823486328125,0
1903.1949999999997,0.034517351537942886,0.05934027582406998,-0.10739029198884964,0.0,0.0,0.0,0.0,-0.0032702351454645395,-0.00259819976054132,0.001559344818815589,1.0004481077194214,0.0,0.0,0.0,18.327556610107422,3.4047133922576904,4.404932975769043,-3317.32421875,0
1913.1020000000008,0.032909736037254333,0.05731239169836044,-0.10227225720882416,0.0,0.0,0.0,0.0,0.00158674456179142,0.004005409777164459,-0.0020722055342048407,1.0000824928283691,0.0,0.0,0.0,18.35954475402832,3.4061737060546875,4.423997402191162,-3323.11376953125,0
1923.0239999999994,0.03318125009536743,0.0576481968164444,-0.1031714528799057,0.0,0.0,0.0,0.0,0.00158995995298028,0.001603393000550568,0.003364527365192771,0.9994421601295471,0.0,0.0,0.0,18.342113494873047,3.399027109146118,4.421077251434326,-3319.959228515625,0
1932.9249999999993,0.03345131874084473,0.057981982827186584,-0.1040705069899559,0.0,0.0,0.0,0.0,0.0024593358393758535,-0.0003839912242256105,-0.001608142745681107,0.9999576807022095,0.0,0.0,0.0,18.32396125793457,3.3955769538879395,4.415270805358887,-3316.673583984375,0
1942.8449999999993,0.033719252794981,0.05831342563033104,-0.10496996343135834,0.0,0.0,0.0,0.0,-0.0025610567536205053,0.000738183909561485,-0.0011952676577493548,0.9995501041412354,0.0,0.0,0.0,18.30585289001465,3.388174295425415,4.4102888107299805,-3313.395751953125,0
1952.7600000000002,0.03200323134660721,0.05623587593436241,-0.09969918429851532,0.0,0.0,0.0,0.0,0.00036818714579567313,0.005842322483658791,-0.0008145857718773186,1.001276969909668,0.0,0.0,0.0,18.3485107421875,3.407599925994873,4.408327579498291,-3321.116943359375,0
1962.6749999999993,0.032253168523311615,0.056549474596977234,-0.10054308921098709,0.0,0.0,0.0,0.0,-0.0005144544411450624,-0.0005903122946619987,0.0014088323805481195,1.000475525856018,0.0,0.0,0.0,18.330005645751953,3.4035518169403076,4.387781620025635,-3317.767333984375,0
1972.5769999999993,0.030623843893408775,0.054513636976480484,-0.09544485062360764,0.0,0.0,0.0,0.0,0.0009282010141760111,-0.002030869945883751,-0.0013690812047570944,0.9993191361427307,0.0,0.0,0.0,18.36652183532715,3.3923442363739014,4.387208938598633,-3324.376953125,0
1982.4969999999994,0.030859053134918213,0.05480680987238884,-0.09623412042856216,0.0,0.0,0.0,0.0,0.002619408769533038,0.0038009232375770807,-0.002511814469471574,1.0004359483718872,0.0,0.0,0.0,18.34758758544922,3.3839828968048096,4.387413024902344,-3320.949462890625,0
1992.3999999999996,0.029256390407681465,0.05284172669053078,-0.09139510989189148,0.0,0.0,0.0,0.0,-0.0036881766282022,-0.0036172564141452312,-0.001962588634341955,0.9992050528526306,0.0,0.0,0.0,18.382362365722656,3.3827717304229736,4.379354953765869,-3327.244140625,0
2002.3220000000001,0.02947388030588627,0.05311622843146324,-0.09213533252477646,0.0,0.0,0.0,0.0,0.0010593864135444164,0.003241027006879449,0.0005403916584327817,0.9986737370491028,0.0,0.0,0.0,18.364885330200195,3.388385057449341,4.372663497924805,-3324.08056640625,0
2012.2360000000008,0.027998892590403557,0.05123201757669449,-0.08756671845912933,0.0,0.0,0.0,0.0,0.0017801221692934632,0.0019521379144862294,0.0014965981245040894,1.0007275342941284,0.0,0.0,0.0,18.40145492553711,3.3590619564056396,4.3718061447143555,-3330.69970703125,0
2022.1530000000002,0.02820105478167534,0.05148513242602348,-0.08826132118701935,0.0,0.0,0.0,0.0,-0.004016479477286339,0.001989272190257907,-8.901683031581342e-05,1.0017774105072021,0.0,0.0,0.0,18.385475158691406,3.3498950004577637,4.363803863525391,-3327.8076171875,0
2032.0509999999995,0.028399508446455002,0.051735129207372665,-0.08895507454872131,0.0,0.0,0.0,0.0,0.0019131838344037533,-0.001472838339395821,0.0006490334053523839,0.9985645413398743,0.0,0.0,0.0,18.36630630493164,3.3484249114990234,4.35526704788208,-3324.337646484375,0
2041.9770000000008,0.02859453298151493,0.051981501281261444,-0.08964794874191284,0.0,0.0,0.0,0.0,0.0021113338880240917,0.0014645219780504704,0.0012343422276899219,0.9984343647956848,0.0,0.0,0.0,18.348134994506836,3.3421692848205566,4.3541669845581055,-3321.049072265625,0
2051.875,0.028786683455109596,0.05222451686859131,-0.09034157544374466,0.0,0.0,0.0,0.0,-0.0015543065965175629,0.004179134499281645,-0.002271694131195545,1.0000252723693848,0.0,0.0,0.0,18.329797744750977,3.3380794525146484,4.350358486175537,-3317.729736328125,0
2061.794,0.028976257890462875,0.05246466398239136,-0.0910361036658287,0.0,0.0,0.0,0.0,0.0030431095510721207,-0.0002340909413760528,-0.0010805389611050487,0.9990618228912354,0.0,0.0,0.0,18.310699462890625,3.3377432823181152,4.341188430786133,-3314.273193359375,0
2071.700999999999,0.02916344814002514,0.05270102620124817,-0.09173110872507095,0.0,0.0,0.0,0.0,-0.0010048530530184507,0.00018265435937792063,0.0006230892613530159,1.0016655921936035,0.0,0.0,0.0,18.29243278503418,3.3258848190307617,4.327449798583984,-3310.966796875,0
2081.624,0.029348259791731834,0.05293294042348862,-0.09242606163024902,0.0,0.0,0.0,0.0,-0.0012130455579608679,0.004977045580744743,0.0003021357406396419,1.000193476676941,0.0,0.0,0.0,18.2742862701416,3.323180913925171,4.322394371032715,-3307.68212890625,0
2091.5249999999996,0.027971724048256874,0.051207397133111954,-0.08777158707380295,0.0,0.0,0.0,0.0,0.0004717602569144219,-0.0005110559868626297,0.0008238142472691834,0.9996122717857361,0.0,0.0,0.0,18.306793212890625,3.33817458152771,4.354093551635742,-3313.566162109375,0
2101.4480000000003,0.028149912133812904,0.0514267273247242,-0.08841197192668915,0.0,0.0,0.0,0.0,0.00015497964341193438,-0.0001148386363638565,-0.0020910161547362804,1.0002905130386353,0.0,0.0,0.0,18.288740158081055,3.334900379180908,4.351991176605225,-3310.298583984375,0
2111.3500000000004,0.028325319290161133,0.051642920821905136,-0.08905234932899475,0.0,0.0,0.0,0.0,-0.00019134489411953837,-0.0005082562565803528,0.002512615639716387,1.0009262561798096,0.0,0.0,0.0,18.270414352416992,3.3319246768951416,4.343118190765381,-3306.981689453125,0
2121.2739999999994,0.028497327119112015,0.051856476813554764,-0.08969210833311081,0.0,0.0,0.0,0.0,-0.0010916205355897546,0.0015906508779153228,0.0009286192362196743,1.002145528793335,0.0,0.0,0.0,18.25238037109375,3.324014663696289,4.340909957885742,-3303.71728515625,0
2131.1759999999995,0.02706577628850937,0.050066035240888596,-0.08498924970626831,0.0,0.0,0.0,0.0,0.0006768896710127592,0.0004451618005987257,0.0020995524246245623,0.9994351267814636,0.0,0.0,0.0,18.293636322021484,3.3321847915649414,4.362067699432373,-3311.184326171875,0
2141.0949999999993,0.027225404977798462,0.050267040729522705,-0.08557556569576263,0.0,0.0,0.0,0.0,-0.0008207538048736751,-0.00012359982065390795,-0.0007281002472154796,0.9985376000404358,0.0,0.0,0.0,18.275287628173828,3.328036069869995,4.354310035705566,-3307.863525390625,0
2151.0110000000004,0.027381133288145065,0.05046575143933296,-0.08616241067647934,0.0,0.0,0.0,0.0,0.0011037548538297415,-0.0073278481140732765,0.0005562984151765704,0.9999430775642395,0.0,0.0,0.0,18.257640838623047,3.3224031925201416,4.339305877685547,-3304.669677734375,0
2160.9210000000003,0.027532633394002914,0.050661686807870865,-0.08674979209899902,0.0,0.0,0.0,0.0,0.000583841756451875,-0.0017204716568812728,0.003337813075631857,0.9996635913848877,0.0,0.0,0.0,18.237703323364258,3.319831371307373,4.3415398597717285,-3301.060546875,0
2170.8250000000007,0.02619926445186138,0.048902373760938644,-0.08216157555580139,0.0,0.0,0.0,0.0,0.001307913102209568,0.0013196032959967852,0.0004579477244988084,0.9994462132453918,0.0,0.0,0.0,18.276315689086914,3.306431293487549,4.3877949714660645,-3308.049560546875,0
2180.7520000000004,0.026342157274484634,0.049082569777965546,-0.08269887417554855,0.0,0.0,0.0,0.0,-0.0016828255029395223,-0.004625028930604458,0.0019697551615536213,1.0010050535202026,0.0,0.0,0.0,18.257631301879883,3.3063454627990723,4.39300537109375,-3304.66796875,0
2190.6620000000003,0.02488112635910511,0.04733533039689064,-0.07826222479343414,0.0,0.0,0.0,0.0,-0.0007221032865345478,0.0015773038612678647,-0.001021542469970882,0.9982977509498596,0.0,0.0,0.0,18.304689407348633,3.3210465908050537,4.394869804382324,-3313.185302734375,0
2200.572,0.02500772848725319,0.04749933257699013,-0.0787530317902565,0.0,0.0,0.0,0.0,-0.0030954708345234394,-0.0014813934685662389,-0.0015551978722214699,0.9987743496894836,0.0,0.0,0.0,18.286592483520508,3.317728042602539,4.385091781616211,-3309.90966796875,0
