timestamp,stateEstimate.x,stateEstimate.y,stateEstimate.z,controller.cmd_thrust,controller.cmd_roll,controller.cmd_pitch,controller.cmd_yaw,controller.r_roll,controller.r_pitch,controller.r_yaw,controller.accelz,controller.actuatorThrust,controller.roll,controller.pitch,controller.yaw,controller.rollRate,controller.pitchRate,controller.yawRate,controller.ctr_yaw
0.0,4.320695006754249e-05,-0.00018052628729492426,-4.657462704926729e-05,0.0,0.0,0.0,0.0,0.000797233369667083,-0.002554785693064332,-0.0007503408123739064,0.9997379779815674,0.0,0.0,0.0,0.20740731060504913,3.113745927810669,2.9125678539276123,-37.541133880615234,0
9.916000000001077,-1.2169766705483198e-07,-0.00023111510381568223,-4.5881723053753376e-05,0.0,0.0,0.0,0.0,0.0017307791858911514,-0.0013563534012064338,-0.0002877242222893983,1.0008481740951538,0.0,0.0,0.0,0.20756058394908905,3.110722780227661,2.9060137271881104,-37.56888198852539,0
19.829999999999927,2.894134377129376e-05,-0.0001459903724025935,-3.684490729938261e-05,0.0,0.0,0.0,0.0,0.0013626179425045848,0.0029159134719520807,0.002856740728020668,0.9991253614425659,0.0,0.0,0.0,0.20644553005695343,3.1081655025482178,2.9067065715789795,-37.3670539855957,0
29.740999999999985,-1.3824836059939116e-05,-0.00019664477440528572,-3.503168045426719e-05,0.0,0.0,0.0,0.0,-0.001005134778097272,-0.007240002974867821,0.003827934619039297,0.9982888102531433,0.0,0.0,0.0,0.20723147690296173,3.1012749671936035,2.90444278717041,-37.50931167602539,0
39.65099999999984,3.057587491639424e-06,-0.0001327738573309034,-2.8298281904426403e-05,0.0,0.0,0.0,0.0,0.002136998111382127,-0.0011228627990931273,-0.000921316328458488,0.9984824657440186,0.0,0.0,0.0,0.21504367887973785,3.1048333644866943,2.9129273891448975,-38.92333221435547,0
49.564000000000306,-4.232263017911464e-05,-0.0001839410251704976,-2.8293450668570586e-05,0.0,0.0,0.0,0.0,0.0016365223564207554,8.312514546560124e-05,0.001270288834348321,1.000188946723938,0.0,0.0,0.0,0.21612738072872162,3.101069450378418,2.910191059112549,-39.119483947753906,0
59.47700000000077,-6.769957690266892e-05,-0.00016976892948150635,-4.2324525566073135e-05,0.0,0.0,0.0,0.0,0.0004712798399850726,-0.00280345999635756,-0.0006495868437923491,0.999997079372406,0.0,0.0,0.0,0.21100468933582306,3.100834608078003,2.9105777740478516,-38.1922721862793,0
69.39899999999943,-0.00011571552022360265,-0.00022405193885788321,-4.397290831548162e-05,0.0,0.0,0.0,0.0,0.0022208555601537228,1.2392013559292536e-05,-0.00018618640024214983,0.99997478723526,0.0,0.0,0.0,0.21089541912078857,3.103764295578003,2.919725179672241,-38.17249298095703,0
79.3060000000005,-0.0001034389206324704,-0.0001818453019950539,2.4932214728323743e-06,0.0,0.0,0.0,0.0,-0.002780384849756956,-0.0005146855837665498,-0.003813647199422121,1.0022698640823364,0.0,0.0,0.0,0.20338106155395508,3.0973799228668213,2.9096739292144775,-36.812381744384766,0
89.21700000000055,-0.0001524778053862974,-0.0002387435088166967,5.660416718455963e-06,0.0,0.0,0.0,0.0,0.0037902810145169497,-0.004951979033648968,0.001697963336482644,1.0007532835006714,0.0,0.0,0.0,0.20284458994865417,3.092891216278076,2.9072442054748535,-36.71527099609375,0
99.1309999999994,-0.00012061934830853716,-0.00025655640638433397,7.288260530913249e-05,0.0,0.0,0.0,0.0,0.0030570141971111298,0.00640495028346777,0.0024722551461309195,0.9996850490570068,0.0,0.0,0.0,0.19642066955566406,3.0936648845672607,2.9213955402374268,-35.55253219604492,0
109.04299999999967,-0.00016897227033041418,-0.0003172079159412533,8.28278498374857e-05,0.0,0.0,0.0,0.0,0.003420172492042184,0.0029648318886756897,0.001636999542824924,0.9978046417236328,0.0,0.0,0.0,0.19651080667972565,3.0901236534118652,2.919312000274658,-35.56884765625,0
118.96199999999953,-0.00012408269685693085,-0.00022067899408284575,5.5828324548201635e-05,0.0,0.0,0.0,0.0,-0.002946995198726654,-0.001382504473440349,0.003227980574592948,0.9984866976737976,0.0,0.0,0.0,0.20604558289051056,3.098398447036743,2.9136691093444824,-37.29466247558594,0
128.8700000000008,-0.00017021686653606594,-0.00027981752646155655,6.142702477518469e-05,0.0,0.0,0.0,0.0,0.0030433230567723513,0.0007893884321674705,-0.004936531186103821,1.0001652240753174,0.0,0.0,0.0,0.20544695854187012,3.102938652038574,2.9154083728790283,-37.186309814453125,0
138.78200000000106,-0.00011095035733887926,-0.00018625457596499473,3.328518505441025e-05,0.0,0.0,0.0,0.0,-0.0024127517826855183,-8.991947106551379e-05,-0.0028730176854878664,0.9997427463531494,0.0,0.0,0.0,0.21148085594177246,3.118284225463867,2.9211933612823486,-38.27845764160156,0
148.6939999999995,-4.1888848500093445e-05,-0.00013455894077196717,-8.378550410270691e-05,0.0,0.0,0.0,0.0,0.0026631909422576427,-0.0038554049097001553,-0.0011467315489426255,1.0015138387680054,0.0,0.0,0.0,0.2117328643798828,3.113417625427246,2.92413330078125,-38.32406997680664,0
158.61399999999958,-6.26051114522852e-05,-0.00013133735046721995,-5.514326403499581e-05,0.0,0.0,0.0,0.0,-0.0005207540816627443,-0.0007050115382298827,0.002345505403354764,0.9994038939476013,0.0,0.0,0.0,0.2116837054491043,3.1154050827026367,2.9243876934051514,-38.3151741027832,0
168.51900000000023,-1.5166437151492573e-05,-7.81034686951898e-05,-0.00014151996583677828,0.0,0.0,0.0,0.0,0.0015059038996696472,0.0023222770541906357,0.0008431798778474331,0.9981158375740051,0.0,0.0,0.0,0.2124176025390625,3.1079885959625244,2.9260928630828857,-38.44800567626953,0
178.4390000000003,-3.9250648114830256e-05,-7.242854917421937e-05,-0.00012630718993023038,0.0,0.0,0.0,0.0,-0.0019474176224321127,0.0008067480521276593,0.00020287983352318406,1.0010343790054321,0.0,0.0,0.0,0.21284525096416473,3.10068416595459,2.9170124530792236,-38.52541732788086,0
188.34500000000116,-4.749430809170008e-05,-7.613252819282934e-05,-0.00016116283950395882,0.0,0.0,0.0,0.0,-0.0030352300964295864,-0.0006452298839576542,0.005348362494260073,1.0013254880905151,0.0,0.0,0.0,0.21225787699222565,3.097886562347412,2.906383752822876,-38.419097900390625,0
198.25900000000001,6.357382517307997e-05,-0.0001302642049267888,-0.00012232894368935376,0.0,0.0,0.0,0.0,-0.0033081667497754097,-0.004370995797216892,0.00044251850340515375,0.9990914463996887,0.0,0.0,0.0,0.21328528225421906,3.1006131172180176,2.906670093536377,-38.605064392089844,0
208.17100000000028,1.74749056895962e-05,-0.00020114930521231145,-0.00011974208609899506,0.0,0.0,0.0,0.0,0.0005791464354842901,0.004154837690293789,-0.0012740888632833958,0.9996786713600159,0.0,0.0,0.0,0.2139921486377716,3.1016087532043457,2.9012012481689453,-38.73300552368164,0
218.09100000000035,7.964948599692434e-05,-0.0002506145683582872,-8.755171438679099e-05,0.0,0.0,0.0,0.0,0.0007238109246827662,0.0014197166310623288,0.00047489843564108014,0.9999400973320007,0.0,0.0,0.0,0.20604147017002106,3.0970189571380615,2.9180891513824463,-37.293914794921875,0
228.0020000000004,6.385174492606893e-05,-0.0002644722699187696,-0.000101975463621784,0.0,0.0,0.0,0.0,0.0021994959097355604,-0.0006961937760934234,-0.003075873712077737,0.998356282711029,0.0,0.0,0.0,0.20667386054992676,3.090461015701294,2.914508581161499,-37.40837860107422,0
237.91200000000026,7.966822158778086e-05,-0.00027955760015174747,-6.842510629212484e-05,0.0,0.0,0.0,0.0,0.0002222914044978097,0.0008222557371482253,-0.00017007492715492845,1.0026843547821045,0.0,0.0,0.0,0.199776291847229,3.0906524658203125,2.910994291305542,-36.15990447998047,0
247.82400000000052,3.575526352506131e-05,-0.00032831632415764034,-5.958602923783474e-05,0.0,0.0,0.0,0.0,0.0011317803291603923,-0.00014730765542481095,0.002476760884746909,1.0017595291137695,0.0,0.0,0.0,0.1992109715938568,3.0832579135894775,2.9017937183380127,-36.05758285522461,0
257.737000000001,1.7436879716115072e-05,-0.0002813509199768305,-5.953333129582461e-06,0.0,0.0,0.0,0.0,-0.0019940261263400316,0.002533738035708666,0.002448090584948659,0.9993222951889038,0.0,0.0,0.0,0.19965890049934387,3.0842559337615967,2.8945600986480713,-36.13865661621094,0
267.65200000000004,-3.3910702768480405e-05,-0.0003179536433890462,2.4891691282391548e-05,0.0,0.0,0.0,0.0,-0.002169941784814,-0.004065654240548611,0.0035394763108342886,1.0001834630966187,0.0,0.0,0.0,0.20062074065208435,3.080130100250244,2.887500524520874,-36.31275177001953,0
277.5650000000005,-2.650824626471149e-06,-0.0003178412443958223,8.179181895684451e-05,0.0,0.0,0.0,0.0,0.0019609949085861444,0.005872329231351614,-0.001748722861520946,1.0018103122711182,0.0,0.0,0.0,0.2000940591096878,3.0774872303009033,2.894045114517212,-36.21742630004883,0
287.48199999999997,-1.8229091438115574e-05,-0.00035199796548113227,6.792736530769616e-05,0.0,0.0,0.0,0.0,0.002505359472706914,0.0009757535881362855,0.002766455989331007,1.0004459619522095,0.0,0.0,0.0,0.19987329840660095,3.077503204345703,2.890648603439331,-36.17746353149414,0
297.38800000000083,-8.807811536826193e-05,-0.0002728224208112806,0.0001265406172024086,0.0,0.0,0.0,0.0,0.001324778189882636,0.0025041960179805756,0.001842258614487946,1.0019053220748901,0.0,0.0,0.0,0.19941334426403046,3.0700559616088867,2.8814635276794434,-36.09421157836914,0
307.3009999999995,-6.51935552014038e-05,-0.00024557902361266315,8.472432818962261e-05,0.0,0.0,0.0,0.0,0.0020612250082194805,0.0002096636308124289,0.003557311138138175,1.0002726316452026,0.0,0.0,0.0,0.19927535951137543,3.062209367752075,2.8771817684173584,-36.06923294067383,0
317.22000000000116,-0.00012430717470124364,-0.00022282630379777402,0.0001175221914309077,0.0,0.0,0.0,0.0,0.0017388698179274797,-0.003827278967946768,0.0015644175000488758,1.0013192892074585,0.0,0.0,0.0,0.19853849709033966,3.0556375980377197,2.8660993576049805,-35.93585968017578,0
327.1260000000002,-4.776877540280111e-05,-0.00013417541049420834,2.3338736355071887e-05,0.0,0.0,0.0,0.0,0.0035141960252076387,-0.0020260829478502274,0.0033644370269030333,0.9989533424377441,0.0,0.0,0.0,0.1991969347000122,3.0521419048309326,2.863781690597534,-36.0550422668457,0
337.04199999999946,-8.345874084625393e-05,-0.000178857910213992,3.139712134725414e-05,0.0,0.0,0.0,0.0,-0.00011496517981868237,-9.376367961522192e-05,0.0015942280879244208,1.0012388229370117,0.0,0.0,0.0,0.20069578289985657,3.0428199768066406,2.872675657272339,-36.326332092285156,0
346.95200000000114,-5.962985960650258e-05,-0.00014295830624178052,-2.568365198385436e-05,0.0,0.0,0.0,0.0,-0.000996119691990316,-0.0008384481770917773,-0.0038242507725954056,1.0001298189163208,0.0,0.0,0.0,0.20142485201358795,3.036130905151367,2.866180419921875,-36.45829772949219,0
356.8649999999998,-5.47191702935379e-05,-0.00017587497131899,4.512608938966878e-05,0.0,0.0,0.0,0.0,0.0035571116022765636,0.0007426451775245368,-0.002433770103380084,1.000239610671997,0.0,0.0,0.0,0.2001187801361084,3.032317638397217,2.865872621536255,-36.221900939941406,0
366.77800000000025,-2.921104896813631e-05,-0.00016358144057448953,-8.72933287610067e-06,0.0,0.0,0.0,0.0,0.0023179231211543083,0.005573632661253214,0.0028916269075125456,0.9998377561569214,0.0,0.0,0.0,0.20711959898471832,3.037017822265625,2.8618662357330322,-37.48905944824219,0
376.6910000000007,-3.838419434032403e-05,-0.00014402791566681117,3.2444884709548205e-05,0.0,0.0,0.0,0.0,0.0008604664471931756,0.0005541126593016088,0.0030758657958358526,1.0006426572799683,0.0,0.0,0.0,0.20794515311717987,3.029846668243408,2.8578031063079834,-37.638484954833984,0
386.6040000000012,1.8609156541060656e-05,-0.00012969272211194038,-7.256454409798607e-05,0.0,0.0,0.0,0.0,0.002487198682501912,0.0035333982668817043,-0.0005056326044723392,0.9987764954566956,0.0,0.0,0.0,0.2156437337398529,3.0362277030944824,2.8725099563598633,-39.031944274902344,0
396.51800000000003,-6.917109203641303e-06,-0.00017531841876916587,-7.606654253322631e-05,0.0,0.0,0.0,0.0,-0.004176086746156216,-5.959779809927568e-05,-0.005871362052857876,0.9985843300819397,0.0,0.0,0.0,0.21622128784656525,3.0281028747558594,2.873634099960327,-39.13648223876953,0
406.4300000000003,2.5913215722539462e-05,-0.00012218016490805894,-0.00010160917008761317,0.0,0.0,0.0,0.0,-0.0016983583336696029,-0.0016787658678367734,0.0016636642394587398,0.9982566237449646,0.0,0.0,0.0,0.21622128784656525,3.0281028747558594,2.873634099960327,-39.13648223876953,0
416.34500000000116,6.498961738543585e-05,-0.0001574396446812898,-7.748001371510327e-05,0.0,0.0,0.0,0.0,0.000891210394911468,-0.0019247764721512794,0.0013316355179995298,0.9999181032180786,0.0,0.0,0.0,0.21529537439346313,3.033560037612915,2.8708884716033936,-38.96889114379883,0
426.2579999999998,5.41363115189597e-05,-0.00015504867769777775,-9.359651448903605e-05,0.0,0.0,0.0,0.0,-0.0019929001573473215,0.0011288903187960386,0.0019491551211103797,0.9994946122169495,0.0,0.0,0.0,0.2146717607975006,3.0306315422058105,2.87599778175354,-38.856014251708984,0
436.1710000000003,7.19989329809323e-05,-0.0001797415316104889,-7.161906978581101e-05,0.0,0.0,0.0,0.0,0.0023397633340209723,0.0011310031404718757,0.00477964710444212,0.9997766613960266,0.0,0.0,0.0,0.21586018800735474,3.028228521347046,2.8705105781555176,-39.07112503051758,0
446.08500000000095,7.942585943965241e-05,-0.00017439476505387574,-0.0001117269930546172,0.0,0.0,0.0,0.0,-3.442118031671271e-05,-0.0022488529793918133,-0.0016627013683319092,1.000982403755188,0.0,0.0,0.0,0.2157430499792099,3.028324842453003,2.8687522411346436,-39.04991912841797,0
455.9989999999998,9.062755270861089e-05,-0.00022672048362437636,-0.00010105451656272635,0.0,0.0,0.0,0.0,-0.0014951651683077216,-0.001951015554368496,0.0010303625604137778,1.001632571220398,0.0,0.0,0.0,0.20785632729530334,3.0237152576446533,2.8772358894348145,-37.62240982055664,0
465.90799999999945,5.581826189882122e-05,-0.00023591925855726004,-8.776150934863836e-05,0.0,0.0,0.0,0.0,-0.00010343706526327878,-0.002186958910897374,0.0018731380114331841,1.00173819065094,0.0,0.0,0.0,0.20732015371322632,3.0218653678894043,2.8671038150787354,-37.525360107421875,0
475.82700000000114,2.5770083084353246e-05,-0.0001984847040148452,-4.9204678362002596e-05,0.0,0.0,0.0,0.0,0.0005928358878009021,-0.00013684738951269537,-0.0017270146636292338,1.0014368295669556,0.0,0.0,0.0,0.20786556601524353,3.0248520374298096,2.874774694442749,-37.624080657958984,0
485.7389999999996,-2.0180061255814508e-05,-0.0002249335520900786,-2.7071719159721397e-05,0.0,0.0,0.0,0.0,-3.747130176634528e-05,0.0013346202904358506,0.0013937848852947354,0.9992249011993408,0.0,0.0,0.0,0.20717763900756836,3.021212100982666,2.872528076171875,-37.49956512451172,0
495.64800000000105,2.497336026863195e-05,-0.00023623602464795113,2.712951391004026e-05,0.0,0.0,0.0,0.0,0.004655869677662849,-0.0006269507575780153,-0.0007444274961017072,0.9998012781143188,0.0,0.0,0.0,0.20620638132095337,3.0192277431488037,2.862259864807129,-37.323768615722656,0
505.5599999999995,2.2909620383870788e-05,-0.00021904056484345347,9.77704803517554e-06,0.0,0.0,0.0,0.0,-0.0007955408073030412,0.0011568499030545354,-0.0038626266177743673,1.0018820762634277,0.0,0.0,0.0,0.2061121016740799,3.011990785598755,2.8708505630493164,-37.306697845458984,0
515.4840000000004,3.054638727917336e-05,-0.00025362116866745055,4.216190063743852e-05,0.0,0.0,0.0,0.0,0.000820373126771301,-0.0005054256180301309,-0.001205429551191628,1.0008411407470703,0.0,0.0,0.0,0.19862234592437744,3.0061309337615967,2.8754684925079346,-35.9510383605957,0
525.3860000000004,4.277629341231659e-05,-0.00025401744642294943,-1.0577031162029016e-06,0.0,0.0,0.0,0.0,0.0025052190758287907,-0.002712199930101633,0.002031907206401229,1.0003180503845215,0.0,0.0,0.0,0.1968504935503006,3.0084753036499023,2.875786542892456,-35.63032913208008,0
535.2990000000009,-3.691856181831099e-05,-0.00018919480498880148,4.682847429648973e-05,0.0,0.0,0.0,0.0,-0.0032248867210000753,-0.0012858634581789374,0.000987223582342267,0.9985392689704895,0.0,0.0,0.0,0.19580362737178802,3.000415325164795,2.865011692047119,-35.44084548950195,0
545.2119999999995,7.523598469560966e-06,-0.00014377514889929444,-2.714695619943086e-05,0.0,0.0,0.0,0.0,0.0014242475153878331,-0.0014550455380231142,-0.0023875876795500517,0.9998374581336975,0.0,0.0,0.0,0.19682197272777557,2.995662212371826,2.8784263134002686,-35.62516784667969,0
555.1239999999998,-4.9259742809226736e-05,-0.00015396240632981062,-1.658768451306969e-05,0.0,0.0,0.0,0.0,0.0008829814614728093,0.0009268370922654867,-0.00024627006496302783,1.0009734630584717,0.0,0.0,0.0,0.1968122273683548,2.99194073677063,2.8777880668640137,-35.62340545654297,0
565.0480000000007,-3.918697257176973e-05,-0.00013185065472498536,-5.7372511946596205e-05,0.0,0.0,0.0,0.0,-0.0002187725913245231,-0.0037639939691871405,0.0004927771515212953,1.0024741888046265,0.0,0.0,0.0,0.19610582292079926,2.9927053451538086,2.877155303955078,-35.495548248291016,0
574.9510000000009,-1.5832489225431345e-05,-0.00012661512300837785,-1.2922695532324724e-05,0.0,0.0,0.0,0.0,0.0016395191196352243,0.0009573387214913964,-0.000341348466463387,0.9983482360839844,0.0,0.0,0.0,0.1954997479915619,2.9984068870544434,2.8732619285583496,-35.385841369628906,0
584.8690000000006,-5.277415311866207e-06,-0.00014148450281936675,-6.184480298543349e-05,0.0,0.0,0.0,0.0,0.0015689828433096409,-0.003238327568396926,0.0002287655370309949,0.999602198600769,0.0,0.0,0.0,0.19473139941692352,2.9942777156829834,2.8715028762817383,-35.246768951416016,0
594.7839999999997,-1.6959087588475086e-05,-0.00017472155741415918,-4.469077248359099e-05,0.0,0.0,0.0,0.0,0.0017613198142498732,0.0013709780760109425,0.0015969234518706799,0.9977856278419495,0.0,0.0,0.0,0.1949378103017807,2.989976167678833,2.870865821838379,-35.28413391113281,0
604.6970000000001,-3.2986288715619594e-05,-0.00017717404989525676,-5.185425470699556e-05,0.0,0.0,0.0,0.0,-0.0003255612391512841,0.0014903910923749208,-0.0029821598436683416,0.9963171482086182,0.0,0.0,0.0,0.20050737261772156,2.994044303894043,2.8715574741363525,-36.292236328125,0
614.6090000000004,-8.425700070802122e-05,-0.0001589511230122298,-2.9183045626268722e-05,0.0,0.0,0.0,0.0,0.0013185994466766715,-0.00025862923939712346,0.000905705033801496,0.9977781772613525,0.0,0.0,0.0,0.20124003291130066,2.985016107559204,2.865166425704956,-36.42484664916992,0
624.5220000000008,-8.453894406557083e-05,-0.0001819543685996905,-7.583400292787701e-05,0.0,0.0,0.0,0.0,0.0009313069749623537,0.00220554880797863,0.0011151654180139303,0.9986171126365662,0.0,0.0,0.0,0.19296769797801971,2.984989881515503,2.8676772117614746,-34.92753601074219,0
634.4290000000001,-4.503516174736433e-05,-0.00022436445578932762,-5.317552131600678e-05,0.0,0.0,0.0,0.0,-0.0008280129404738545,0.000677573261782527,0.0013641492696478963,0.9974021315574646,0.0,0.0,0.0,0.18677976727485657,2.9760451316833496,2.874727725982666,-33.8075065612793,0
644.348,-7.292207010323182e-05,-0.00024439391563646495,-5.928075188421644e-05,0.0,0.0,0.0,0.0,0.0017272807890549302,0.00024547328939661384,0.0023403128143399954,0.9977791905403137,0.0,0.0,0.0,0.17963938415050507,2.977818489074707,2.8738183975219727,-32.51508331298828,0
654.2569999999996,-1.770132439560257e-05,-0.00023789975966792554,-7.964571523189079e-06,0.0,0.0,0.0,0.0,0.00047638302203267813,0.0035420015919953585,-0.00243007717654109,0.9989230632781982,0.0,0.0,0.0,0.1796911209821701,2.9757556915283203,2.8595974445343018,-32.524452209472656,0
664.1869999999999,-1.2438249541446567e-05,-0.0002435596688883379,-5.426389543572441e-05,0.0,0.0,0.0,0.0,-0.0028286457527428865,-0.0029789793770760298,0.001337803085334599,1.0003360509872437,0.0,0.0,0.0,0.1804179549217224,2.96832275390625,2.849736452102661,-32.656009674072266,0
674.0860000000011,-8.089929906418547e-05,-0.0002570242795627564,-3.368996476638131e-05,0.0,0.0,0.0,0.0,0.001627089106477797,0.00038318714359775186,-0.000764356751460582,1.0015963315963745,0.0,0.0,0.0,0.18054614961147308,2.9679126739501953,2.855628728866577,-32.67921447753906,0
684.0,-4.2841937101911753e-05,-0.00021637788449879736,-7.19531744834967e-05,0.0,0.0,0.0,0.0,-0.0007150449673645198,-0.0019072860013693571,-0.0010239146649837494,1.0001264810562134,0.0,0.0,0.0,0.18054614961147308,2.9679126739501953,2.855628728866577,-32.67921447753906,0
693.9140000000007,-8.637543942313641e-05,-0.00021987858053762466,-3.820374695351347e-05,0.0,0.0,0.0,0.0,-0.003209900576621294,-0.00020432446035556495,-0.005319979041814804,0.9989141821861267,0.0,0.0,0.0,0.17933060228824615,2.966740846633911,2.869750499725342,-32.459197998046875,0
703.8289999999997,-5.863380283699371e-05,-0.0001694477687124163,-5.7789398852037266e-05,0.0,0.0,0.0,0.0,-0.0014497291995212436,1.1191863222848042e-06,0.0007814473356120288,1.0006160736083984,0.0,0.0,0.0,0.18783649802207947,2.975705146789551,2.8741202354431152,-33.998775482177734,0
713.741,-9.50572284637019e-05,-0.0001763575419317931,-4.485460522118956e-05,0.0,0.0,0.0,0.0,0.0014910739846527576,-0.005668221972882748,-0.00026407354744151235,0.9987255930900574,0.0,0.0,0.0,0.18646466732025146,2.9816291332244873,2.8749165534973145,-33.7504768371582,0
723.6530000000002,-9.400079579791054e-05,-0.0001625736040296033,-7.889763946877792e-05,0.0,0.0,0.0,0.0,0.00012105560017516837,-0.0010254100197926164,0.002524565439671278,1.000062108039856,0.0,0.0,0.0,0.19429247081279755,2.996950626373291,2.8778891563415527,-35.167327880859375,0
733.5680000000011,-0.00011125281162094325,-0.00016757778939791024,-6.567824311787263e-05,0.0,0.0,0.0,0.0,0.0017691965913400054,0.00029669716604985297,-0.0008461970719508827,0.9991061091423035,0.0,0.0,0.0,0.1939113885164261,2.9925343990325928,2.89404559135437,-35.09834671020508,0
743.4830000000002,-9.10088128875941e-05,-0.00014936788647901267,-0.00013155784108676016,0.0,0.0,0.0,0.0,-0.000822446309030056,0.00387416104786098,-0.0038381884805858135,0.9995607137680054,0.0,0.0,0.0,0.2020844668149948,3.0018725395202637,2.8978633880615234,-36.57769012451172,0
753.3960000000006,-1.0216061127721332e-05,-0.00013627852604258806,-7.768889918224886e-05,0.0,0.0,0.0,0.0,-0.0025249095633625984,-0.005145295523107052,0.0031031526159495115,0.9988654851913452,0.0,0.0,0.0,0.2013019323348999,2.9932665824890137,2.886652708053589,-36.43605422973633,0
763.3060000000005,-6.737985586369177e-06,-0.00013557694910559803,-0.0001197243545902893,0.0,0.0,0.0,0.0,-0.003993690945208073,-0.0018570998217910528,-0.001290269661694765,0.9985065460205078,0.0,0.0,0.0,0.20897309482097626,3.0032706260681152,2.8905959129333496,-37.824546813964844,0
773.2170000000006,6.118091550888494e-05,-0.00015705548867117614,-8.874876948539168e-05,0.0,0.0,0.0,0.0,-0.0019219693494960666,0.0005254226271063089,0.007119601126760244,0.998734176158905,0.0,0.0,0.0,0.20914281904697418,3.00376558303833,2.8935742378234863,-37.85526657104492,0
783.134,5.1280701882205904e-05,-0.00015706042177043855,-0.00011210119555471465,0.0,0.0,0.0,0.0,0.001465611276216805,0.0019901401828974485,0.0034096050076186657,0.9998587965965271,0.0,0.0,0.0,0.20205165445804596,3.0105865001678467,2.902947187423706,-36.571754455566406,0
793.0570000000007,3.7677891668863595e-06,-0.00017149437917396426,-0.00011465164425317198,0.0,0.0,0.0,0.0,-0.0013964737299829721,0.0014474238269031048,-0.0005641363677568734,1.000402808189392,0.0,0.0,0.0,0.20351499319076538,3.016618490219116,2.904665231704712,-36.83661651611328,0
802.960000000001,-2.3220312868943438e-05,-0.00021336897043511271,-0.0001389018289046362,0.0,0.0,0.0,0.0,-0.0013699574628844857,0.0014416674384847283,-0.001924915355630219,0.9988610148429871,0.0,0.0,0.0,0.20325735211372375,3.0091707706451416,2.887375593185425,-36.78998565673828,0
812.866,-1.8226644442620454e-06,-0.00016250269254669547,-8.717044693185017e-05,0.0,0.0,0.0,0.0,-0.0026272698305547237,-0.0036371725145727396,-0.0036355259362608194,1.0004295110702515,0.0,0.0,0.0,0.2019048035144806,3.003033399581909,2.8841426372528076,-36.54517364501953,0
822.7860000000001,-2.257424966956023e-05,-0.00019987628911621869,-0.00011525519948918372,0.0,0.0,0.0,0.0,0.001574312336742878,8.691208495292813e-05,0.0001729704235913232,0.9989261627197266,0.0,0.0,0.0,0.20202133059501648,3.000493049621582,2.8825669288635254,-36.566261291503906,0
832.6900000000005,-3.662225208245218e-05,-0.00021191434643696994,-9.519288869341835e-05,0.0,0.0,0.0,0.0,-8.7368993263226e-05,-0.0037254677154123783,0.0035322869662195444,1.0002692937850952,0.0,0.0,0.0,0.20102964341640472,3.0036630630493164,2.8849544525146484,-36.38676071166992,0
842.6090000000004,-2.792224222503137e-05,-0.00018199958140030503,-0.0001375896972604096,0.0,0.0,0.0,0.0,0.002775448840111494,0.00029296459979377687,0.0021835220977663994,1.0000507831573486,0.0,0.0,0.0,0.20133422315120697,3.002135992050171,2.8868956565856934,-36.44189453125,0
852.5220000000008,-2.6944082492263988e-05,-0.0001840013574110344,-0.0001100490044336766,0.0,0.0,0.0,0.0,0.0008915287908166647,0.004051075782626867,0.00227006571367383,0.9986296892166138,0.0,0.0,0.0,0.2016768753528595,2.9899933338165283,2.877054452896118,-36.50391387939453,0
862.4359999999997,-2.3045222405926324e-05,-0.00017499332898296416,-0.0001539386430522427,0.0,0.0,0.0,0.0,0.0006016896804794669,0.003064165823161602,-0.0038366769440472126,0.9998161196708679,0.0,0.0,0.0,0.20842337608337402,2.9980716705322266,2.8852322101593018,-37.72504806518555,0
872.3410000000003,-1.2362248526187614e-05,-0.00019893079297617078,-0.00013368237705435604,0.0,0.0,0.0,0.0,0.0005344083183445036,-0.0012949929805472493,0.0009800055995583534,0.9998623728752136,0.0,0.0,0.0,0.20132283866405487,2.9979586601257324,2.8862903118133545,-36.43983459472656,0
882.2739999999994,-2.7845451768371277e-05,-0.00022897968301549554,-0.00015797492233105004,0.0,0.0,0.0,0.0,-0.0006486510392278433,0.000420516065787524,0.0014968266477808356,0.9995961785316467,0.0,0.0,0.0,0.20059221982955933,2.9939377307891846,2.8694794178009033,-36.30759048461914,0
892.1720000000005,-3.309359453851357e-05,-0.0001863593643065542,-0.00011616727715590969,0.0,0.0,0.0,0.0,0.0007990498561412096,-0.0023118264507502317,-0.001809192355722189,0.9972826838493347,0.0,0.0,0.0,0.20101451873779297,2.9959218502044678,2.880896806716919,-36.384029388427734,0
902.0879999999997,-3.737465522135608e-05,-0.0001966904674191028,-0.00014672207180410624,0.0,0.0,0.0,0.0,-0.0028532149735838175,-0.0020295134745538235,-0.00285218539647758,0.999740719795227,0.0,0.0,0.0,0.20920972526073456,3.004455327987671,2.8830459117889404,-37.867374420166016,0
911.9920000000002,-4.6721641410840675e-05,-0.0001686204777797684,-0.00011268960952293128,0.0,0.0,0.0,0.0,0.0007325506303459406,-0.002493653679266572,0.00186117272824049,1.0010145902633667,0.0,0.0,0.0,0.20883925259113312,3.0035617351531982,2.8813323974609375,-37.80031967163086,0
921.9220000000005,-4.2210329411318526e-05,-0.000173144944710657,-0.00015768103185109794,0.0,0.0,0.0,0.0,0.0022997530177235603,0.00027465663151815534,-0.0027581423055380583,1.0015265941619873,0.0,0.0,0.0,0.21394701302051544,3.009064197540283,2.8886053562164307,-38.72483825683594,0
931.8170000000009,-5.660327587975189e-05,-0.0001729171199258417,-0.00013665993174072355,0.0,0.0,0.0,0.0,-0.00045193140977062285,0.0037409819196909666,-0.0024953766260296106,1.0008565187454224,0.0,0.0,0.0,0.21328260004520416,3.0046768188476562,2.8856115341186523,-38.604576110839844,0
941.7489999999998,-5.740869528381154e-05,-0.00017524395661894232,-0.00017251100507564843,0.0,0.0,0.0,0.0,-5.534687443287112e-05,0.003019264666363597,0.00180813146289438,1.0001024007797241,0.0,0.0,0.0,0.21275800466537476,2.9997782707214355,2.877730131149292,-38.509620666503906,0
951.6599999999999,2.6322624762542546e-05,-0.0001803485065465793,-0.00011350961722200736,0.0,0.0,0.0,0.0,-0.0017995176604017615,0.00023431747104041278,0.0005664099589921534,0.9995330572128296,0.0,0.0,0.0,0.21259121596813202,2.9976539611816406,2.875474452972412,-38.47943115234375,0
961.5640000000003,1.8084281236951938e-06,-0.0002286048693349585,-0.00012503040488809347,0.0,0.0,0.0,0.0,0.0005226535140536726,0.0014374377205967903,-0.0036641210317611694,0.9975289106369019,0.0,0.0,0.0,0.21159476041793823,2.9893412590026855,2.8744864463806152,-38.299076080322266,0
971.4790000000012,2.3774879082338884e-05,-0.00020805496023967862,-6.991963891778141e-05,0.0,0.0,0.0,0.0,7.968982390593737e-05,0.0020099361427128315,0.0020485245622694492,0.9998698234558105,0.0,0.0,0.0,0.21242135763168335,2.988571882247925,2.8771800994873047,-38.44868469238281,0
981.3870000000006,3.63697690772824e-05,-0.00020675925770774484,-0.00011534544319147244,0.0,0.0,0.0,0.0,-0.002436932409182191,0.0009293947950936854,0.002419608412310481,0.9998570084571838,0.0,0.0,0.0,0.21290023624897003,2.979581356048584,2.870319366455078,-38.53536605834961,0
991.3090000000011,1.487796544097364e-05,-0.00025897318846546113,-7.987267599673942e-05,0.0,0.0,0.0,0.0,-0.0028437792789191008,-0.0008403068641200662,7.334509427892044e-05,0.9981642365455627,0.0,0.0,0.0,0.21140368282794952,2.980855941772461,2.8569085597991943,-38.264488220214844,0
1001.2070000000003,1.8851113054552115e-05,-0.00022609299048781395,-7.201534754130989e-05,0.0,0.0,0.0,0.0,0.0023495678324252367,-0.005730794742703438,-0.0016540001379325986,0.9976941347122192,0.0,0.0,0.0,0.21140368282794952,2.980855941772461,2.8569085597991943,-38.264488220214844,0
1011.1409999999996,-1.467520633013919e-05,-0.0002764115633908659,-3.046146775886882e-05,0.0,0.0,0.0,0.0,-0.0024445957969874144,0.005030474625527859,-0.0027478961274027824,0.9984409213066101,0.0,0.0,0.0,0.2019394487142563,2.98966908454895,2.8658623695373535,-36.55144119262695,0
1021.0400000000009,-1.7438987924833782e-05,-0.00026449302094988525,-2.1546249627135694e-05,0.0,0.0,0.0,0.0,0.0020007635466754436,-0.0015568615635856986,0.002199434209614992,0.9985109567642212,0.0,0.0,0.0,0.2019394487142563,2.98966908454895,2.8658623695373535,-36.55144119262695,0
1030.9529999999995,-2.7315558327245526e-05,-0.0003057896683458239,2.998118543473538e-05,0.0,0.0,0.0,0.0,0.000311299751047045,-0.005279981065541506,0.0004373669798951596,0.9987443685531616,0.0,0.0,0.0,0.20110414922237396,2.9874987602233887,2.8532488346099854,-36.40024948120117,0
1040.866,5.1301951316418126e-05,-0.00021631109120789915,-4.69429069198668e-05,0.0,0.0,0.0,0.0,0.0022856437135487795,-0.000890195369720459,0.005971074104309082,0.9981528520584106,0.0,0.0,0.0,0.20110414922237396,2.9874987602233887,2.8532488346099854,-36.40024948120117,0
1050.786,3.867656232614536e-06,-0.00015864534361753613,-5.25335235579405e-06,0.0,0.0,0.0,0.0,0.00036161745083518326,0.0029470487497746944,-0.0005336404428817332,1.0004485845565796,0.0,0.0,0.0,0.20141324400901794,2.9887819290161133,2.870415687561035,-36.456199645996094,0
1060.6900000000005,-1.0323160495318007e-05,-0.00020109297474846244,-3.917099820682779e-05,0.0,0.0,0.0,0.0,-0.004683157429099083,-0.0005533107905648649,-0.0001820265460992232,0.9997691512107849,0.0,0.0,0.0,0.19355428218841553,2.986243724822998,2.866762161254883,-35.03371047973633,0
1070.6090000000004,-1.6703650544513948e-05,-0.00019069323025178164,-1.1252827789576259e-06,0.0,0.0,0.0,0.0,0.002916468307375908,0.0025921163614839315,-0.0055566588416695595,1.0011978149414062,0.0,0.0,0.0,0.1863897442817688,2.998931407928467,2.860856771469116,-33.736915588378906,0
1080.514000000001,7.199234460131265e-06,-0.00018002733122557402,-6.727395521011204e-05,0.0,0.0,0.0,0.0,-0.002017655875533819,0.0006448104395531118,-0.0031799233984202147,0.9985798001289368,0.0,0.0,0.0,0.18637710809707642,2.9855499267578125,2.848759889602661,-33.7346305847168,0
1090.437,-4.044303568662144e-05,-0.0002126640611095354,-6.43966268398799e-05,0.0,0.0,0.0,0.0,0.0017356880707666278,-0.0032842967193573713,-0.0014839463401585817,1.0003330707550049,0.0,0.0,0.0,0.18548017740249634,2.98734712600708,2.8474230766296387,-33.5722770690918,0
1100.3369999999995,-3.277429277659394e-05,-0.00020442417007870972,-0.0001162113476311788,0.0,0.0,0.0,0.0,-0.0020286005456000566,0.0013584281550720334,-0.003755748039111495,0.9982780814170837,0.0,0.0,0.0,0.1850239783525467,2.9807839393615723,2.841554880142212,-33.48971176147461,0
1110.259,2.450529791531153e-05,-0.00019149668514728546,-5.7620742154540494e-05,0.0,0.0,0.0,0.0,0.0023095968645066023,0.0004787393845617771,-0.003847608808428049,0.9994374513626099,0.0,0.0,0.0,0.1791958510875702,2.9906015396118164,2.856926918029785,-32.43480682373047,0
1120.174000000001,2.2705238734488375e-05,-0.00019974711176473647,-0.00010411817493150011,0.0,0.0,0.0,0.0,-4.7971218009479344e-05,-0.0003659222275018692,0.003705366747453809,0.9978022575378418,0.0,0.0,0.0,0.1775193214416504,2.988072395324707,2.8585431575775146,-32.131351470947266,0
1130.0930000000008,3.6621613617171533e-06,-0.0001567428553244099,-6.264320836635306e-05,0.0,0.0,0.0,0.0,-0.0014512458583340049,-0.000835954793728888,0.0021412651985883713,0.9983446002006531,0.0,0.0,0.0,0.17668356001377106,2.9823837280273438,2.848170280456543,-31.980073928833008,0
1139.9940000000006,-2.990244138345588e-05,-0.0001746761699905619,-7.477527833543718e-05,0.0,0.0,0.0,0.0,-0.0003450789372436702,-0.0014766377862542868,-0.0006593434954993427,0.9989046454429626,0.0,0.0,0.0,0.1763681173324585,2.9790756702423096,2.8500936031341553,-31.9229793548584,0
1149.916000000001,-8.723502105567604e-06,-0.00014616904081776738,-2.5910861950251274e-05,0.0,0.0,0.0,0.0,-0.004963128827512264,-0.0002637531142681837,-0.0008740343619138002,1.000078797340393,0.0,0.0,0.0,0.17529939115047455,2.982266902923584,2.8491902351379395,-31.729537963867188,0
1159.817000000001,-3.7941932532703504e-05,-0.00016385031631216407,-4.6071174438111484e-05,0.0,0.0,0.0,0.0,0.00039885021396912634,-0.003379982430487871,-0.0030417954549193382,1.000277042388916,0.0,0.0,0.0,0.1809486299753189,2.9877591133117676,2.859788179397583,-32.7520637512207,0
1169.7430000000004,-1.2422402505762875e-05,-0.00015569926472380757,-2.7722840059141163e-06,0.0,0.0,0.0,0.0,0.0019644927233457565,-0.002917695790529251,-0.0008101494167931378,1.0001370906829834,0.0,0.0,0.0,0.18076401948928833,2.991001844406128,2.8643977642059326,-32.71864700317383,0
1179.648000000001,-3.7932324630673975e-05,-0.00015564783825539052,-1.676542524364777e-05,0.0,0.0,0.0,0.0,-0.0021805954165756702,-0.0008099838742054999,0.0005525846499949694,0.9990264177322388,0.0,0.0,0.0,0.18795286118984222,2.992500066757202,2.8757972717285156,-34.019840240478516,0
1189.5660000000007,1.1035789611923974e-05,-0.000197323810425587,1.831429653975647e-05,0.0,0.0,0.0,0.0,-0.0020760740153491497,-0.007534226402640343,-0.0013418905436992645,1.000976800918579,0.0,0.0,0.0,0.18829980492591858,2.991969108581543,2.87384295463562,-34.082637786865234,0
1199.4660000000003,2.928800313384272e-05,-0.00018503711908124387,-4.7193068894557655e-05,0.0,0.0,0.0,0.0,0.002283053006976843,0.004179108422249556,-0.004007675684988499,0.9990227818489075,0.0,0.0,0.0,0.19437208771705627,3.0002286434173584,2.887612819671631,-35.18173599243164,0
1209.3950000000004,2.636260978761129e-05,-0.00018387915042694658,-1.2986390174773987e-05,0.0,0.0,0.0,0.0,-0.0033149737864732742,0.0011902392143383622,0.0011905224528163671,0.9984169602394104,0.0,0.0,0.0,0.19380918145179749,3.0034029483795166,2.9025027751922607,-35.07984924316406,0
1219.2919999999995,3.719973028637469e-05,-0.00017512193880975246,-6.981091428315267e-05,0.0,0.0,0.0,0.0,0.00034822613815777004,-0.002163051627576351,0.0012586136581376195,1.00290048122406,0.0,0.0,0.0,0.20190176367759705,3.0094785690307617,2.9013538360595703,-36.544620513916016,0
1229.2309999999998,1.342245377600193e-05,-0.00014928914606571198,-3.683269824250601e-05,0.0,0.0,0.0,0.0,-0.0008032541954889894,0.0034344804007560015,0.001845819759182632,1.0024523735046387,0.0,0.0,0.0,0.20193153619766235,3.015852451324463,2.89595890045166,-36.550010681152344,0
1239.1200000000008,4.8331435209547635e-06,-0.00016431731637567282,-7.506440306315199e-05,0.0,0.0,0.0,0.0,0.0004047718539368361,-2.6288213121006265e-05,-0.0009404649608768523,0.9993098378181458,0.0,0.0,0.0,0.20210106670856476,3.0067689418792725,2.891566038131714,-36.58069610595703,0
1249.0390000000007,-3.433621031945222e-06,-0.00014561359421350062,-3.344573997310363e-05,0.0,0.0,0.0,0.0,-6.709605804644525e-05,-0.002493124222382903,-0.0010727299377322197,1.0001133680343628,0.0,0.0,0.0,0.20296642184257507,3.004312515258789,2.890474796295166,-36.737327575683594,0
1258.946,-3.480167288216762e-05,-0.00016729364870116115,-3.9275990275200456e-05,0.0,0.0,0.0,0.0,-0.0032351054251194,-0.003048193408176303,0.00016130555013660342,1.0007251501083374,0.0,0.0,0.0,0.21078373491764069,3.004439115524292,2.881336212158203,-38.15227508544922,0
1268.8680000000004,-7.265836029546335e-05,-0.00015880330465734005,-7.516189270972973e-06,0.0,0.0,0.0,0.0,0.00201466609723866,0.003016154281795025,-0.0020429512951523066,1.0009726285934448,0.0,0.0,0.0,0.20883850753307343,3.00789475440979,2.871436595916748,-37.80018615722656,0
1278.7700000000004,-8.51530785439536e-05,-0.00015976550639607012,-3.1574330932926387e-05,0.0,0.0,0.0,0.0,0.00042738066986203194,0.0035218377597630024,-0.00018379348330199718,1.0020548105239868,0.0,0.0,0.0,0.20858491957187653,3.0021774768829346,2.868242025375366,-37.75428771972656,0
1288.6939999999995,-3.829733395832591e-05,-0.00015590881230309606,3.4390563087072223e-05,0.0,0.0,0.0,0.0,-0.0006032370147295296,0.0026569722685962915,0.0024386397562921047,1.0010737180709839,0.0,0.0,0.0,0.20149819552898407,3.0068166255950928,2.867305040359497,-36.47157287597656,0
1298.5959999999995,-5.6216391385532916e-05,-0.00016912410501390696,2.3857446649344638e-05,0.0,0.0,0.0,0.0,0.002215832006186247,-0.0002914037322625518,0.001811635447666049,0.9995763897895813,0.0,0.0,0.0,0.20126260817050934,3.0017218589782715,2.8641953468322754,-36.42893600463867,0
1308.5190000000002,-0.00012978006270714104,-0.00025270547484979033,6.289112934609875e-05,0.0,0.0,0.0,0.0,0.002353478455916047,-0.0031519881449639797,-0.0022934169974178076,0.997026801109314,0.0,0.0,0.0,0.20132115483283997,2.9859135150909424,2.8561367988586426,-36.43953323364258,0
1318.4210000000003,-7.60005641495809e-05,-0.00017276832659263164,1.8210917914984748e-05,0.0,0.0,0.0,0.0,0.0026183375157415867,-0.0025967664550989866,0.0033603913616389036,1.0006839036941528,0.0,0.0,0.0,0.20132115483283997,2.9859135150909424,2.8561367988586426,-36.43953323364258,0
1328.3540000000012,-5.830125155625865e-05,-0.00026972100022248924,7.358671427937225e-05,0.0,0.0,0.0,0.0,-0.0006444323807954788,-0.004102764651179314,0.00017567852046340704,1.0012140274047852,0.0,0.0,0.0,0.202093705534935,2.975034475326538,2.8668601512908936,-36.57936096191406,0
1338.2469999999994,-3.4831165976356715e-05,-0.0002389919973211363,5.244579733698629e-05,0.0,0.0,0.0,0.0,-0.002564326161518693,0.0010140344966202974,-0.0012529889354482293,1.0016369819641113,0.0,0.0,0.0,0.202093705534935,2.975034475326538,2.8668601512908936,-36.57936096191406,0
1348.1640000000007,-7.904166704975069e-05,-0.000306820118566975,0.0001141367174568586,0.0,0.0,0.0,0.0,-0.001036359928548336,-0.0022180501837283373,0.0023759587202221155,1.000925898551941,0.0,0.0,0.0,0.20173414051532745,2.9776999950408936,2.877983331680298,-36.514278411865234,0
1358.0730000000003,6.579513410542859e-06,-0.0002343959640711546,2.0310391846578568e-05,0.0,0.0,0.0,0.0,-0.0027231695130467415,0.0027421594131737947,0.0016475690063089132,0.9999963045120239,0.0,0.0,0.0,0.20173414051532745,2.9776999950408936,2.877983331680298,-36.514278411865234,0
1367.9969999999994,-6.452394154621288e-05,-0.00026300977333448827,3.905548874172382e-05,0.0,0.0,0.0,0.0,0.0011392761953175068,-0.0012330679455772042,-0.0023894556798040867,0.999180018901825,0.0,0.0,0.0,0.20185063779354095,2.9800872802734375,2.8758788108825684,-36.535369873046875,0
1377.902,-2.4297694835695438e-05,-0.0002235321153420955,-3.7005356716690585e-05,0.0,0.0,0.0,0.0,-0.0012734535848721862,-0.00013345429033506662,-0.0006725809653289616,0.9982202053070068,0.0,0.0,0.0,0.20967693626880646,2.996054172515869,2.8863770961761475,-37.951942443847656,0
1387.83,-2.1226214812486432e-05,-0.0002069908514386043,1.843012978497427e-05,0.0,0.0,0.0,0.0,-0.0014083873247727752,-0.0011887471191585064,0.0003641907824203372,0.999323844909668,0.0,0.0,0.0,0.20311784744262695,3.003235340118408,2.8944551944732666,-36.76473617553711,0
1397.728000000001,1.390149122926232e-06,-0.0001719098654575646,-3.5966921132057905e-05,0.0,0.0,0.0,0.0,-0.0005331909051164985,-0.005573265254497528,0.00217098044231534,0.9989532232284546,0.0,0.0,0.0,0.20335358381271362,3.0008997917175293,2.8889198303222656,-36.80740737915039,0
1407.6460000000006,3.592979192035273e-05,-0.00021820228721480817,-3.6517744774755556e-06,0.0,0.0,0.0,0.0,0.001024805591441691,-0.0064524500630795956,-0.0014797828625887632,1.0005848407745361,0.0,0.0,0.0,0.19671738147735596,3.004110336303711,2.8993279933929443,-35.606239318847656,0
1417.5509999999995,5.364960816223174e-05,-0.00018323492258787155,-5.211728057474829e-05,0.0,0.0,0.0,0.0,0.00013791240053251386,0.0049699051305651665,-0.0019777852576225996,1.0005217790603638,0.0,0.0,0.0,0.1922387331724167,3.016148090362549,2.912496566772461,-34.79559326171875,0
1427.4680000000008,3.772928175749257e-05,-0.00019625075219664723,-2.6211355361738242e-05,0.0,0.0,0.0,0.0,-0.002661825390532613,2.997132014570525e-06,0.0008462564437650144,0.9972845315933228,0.0,0.0,0.0,0.18585357069969177,3.019685983657837,2.9207916259765625,-33.639862060546875,0
1437.384,3.458906212472357e-05,-0.00020369158301036805,-6.171275890665129e-05,0.0,0.0,0.0,0.0,-0.0012519938172772527,0.001769408816471696,-0.0005408130818977952,1.0014252662658691,0.0,0.0,0.0,0.1852978616952896,3.0141191482543945,2.9128079414367676,-33.53927993774414,0
1447.308000000001,1.5953404727042653e-05,-0.00019857364532072097,-2.8173561076982878e-05,0.0,0.0,0.0,0.0,0.001069915248081088,0.0012133338022977114,-1.5183621144387871e-05,1.0007526874542236,0.0,0.0,0.0,0.18593616783618927,3.0177226066589355,2.9145736694335938,-33.65481185913086,0
1457.2080000000005,2.4159777240129188e-05,-0.00019900019105989486,-7.879116310505196e-05,0.0,0.0,0.0,0.0,-0.0017265930073335767,0.0014942813431844115,-0.001388178439810872,0.9994020462036133,0.0,0.0,0.0,0.18589083850383759,3.020914316177368,2.9015560150146484,-33.646610260009766,0
1467.1239999999998,-3.536459553288296e-05,-0.0001869266852736473,-6.16320176050067e-05,0.0,0.0,0.0,0.0,-0.0023672610986977816,0.0024031398352235556,-0.0014563139993697405,1.0012907981872559,0.0,0.0,0.0,0.18543586134910583,3.0195260047912598,2.8954811096191406,-33.56425857543945,0
1477.0280000000002,-2.6292302209185436e-05,-0.00017095336806960404,-0.00011245027417317033,0.0,0.0,0.0,0.0,0.0014066374860703945,-0.004234878811985254,0.0016840617172420025,1.0014411211013794,0.0,0.0,0.0,0.19333691895008087,3.0268986225128174,2.904022216796875,-34.99436569213867,0
1486.9619999999995,-1.4369332347996533e-05,-0.00014778811600990593,-6.518010195577517e-05,0.0,0.0,0.0,0.0,0.0025168985594063997,0.00275769573636353,-0.0017282880144193769,0.9990072846412659,0.0,0.0,0.0,0.19238147139549255,3.0261545181274414,2.8977293968200684,-34.82143020629883,0
1496.857,-1.617867746972479e-05,-0.00015615063603036106,-0.00010698767437133938,0.0,0.0,0.0,0.0,-0.0034919721074402332,0.004518125206232071,0.0010122456587851048,1.001168131828308,0.0,0.0,0.0,0.1986226737499237,3.0272035598754883,2.9035556316375732,-35.95109558105469,0
1506.7749999999996,2.0052259060321376e-05,-0.00017355284944642335,-6.582634523510933e-05,0.0,0.0,0.0,0.0,0.00018885446479544044,-0.004700122866779566,0.0026160087436437607,1.0004124641418457,0.0,0.0,0.0,0.19828839600086212,3.0245213508605957,2.8942835330963135,-35.890594482421875,0
1516.6810000000005,2.0055596905876882e-05,-0.00018360228568781167,-9.976746514439583e-05,0.0,0.0,0.0,0.0,0.00047197352978400886,0.00340854050591588,0.0026395523454993963,1.0000859498977661,0.0,0.0,0.0,0.2054014950990677,3.0321848392486572,2.895657777786255,-37.17808151245117,0
1526.6149999999998,-1.8586501028039493e-05,-0.00021218479378148913,-8.776834147283807e-05,0.0,0.0,0.0,0.0,0.0001822769409045577,0.0014126276364549994,0.002113427734002471,0.9985297322273254,0.0,0.0,0.0,0.19832772016525269,3.036576271057129,2.8873775005340576,-35.89771270751953,0
1536.5149999999994,-3.9418882806785405e-05,-0.00020231054804753512,-8.90263108885847e-05,0.0,0.0,0.0,0.0,0.002207151148468256,-0.004644947592169046,0.0012019522255286574,0.9980536103248596,0.0,0.0,0.0,0.19799292087554932,3.0329456329345703,2.8838348388671875,-35.83711242675781,0
1546.434000000001,2.2591698325413745e-06,-0.00019837998843286186,-3.3349584555253386e-05,0.0,0.0,0.0,0.0,-0.003144483547657728,-0.0024925307370722294,-0.00013057701289653778,1.0010755062103271,0.0,0.0,0.0,0.19946709275245667,3.029327630996704,2.878516912460327,-36.10394287109375,0
1556.3320000000003,-4.7333443944808096e-05,-0.0002655561547726393,-2.4732626116019674e-05,0.0,0.0,0.0,0.0,0.0036059890408068895,-0.0009419641573913395,0.0013093664310872555,1.0006333589553833,0.0,0.0,0.0,0.19240857660770416,3.0225954055786133,2.880439519882202,-34.82633590698242,0
1566.2659999999996,-2.3335651349043474e-05,-0.0002451989857945591,3.735872815013863e-05,0.0,0.0,0.0,0.0,0.0025394840631633997,-0.0019915837328881025,0.0010525913676247,0.9999008178710938,0.0,0.0,0.0,0.18533341586589813,3.0290133953094482,2.891749858856201,-33.54571533203125,0
1576.1579999999994,9.029384273162577e-06,-0.00020671813399530947,-2.5100898710661568e-05,0.0,0.0,0.0,0.0,-0.0008666716166771948,-8.535320375813171e-05,-0.0017177769914269447,1.0006741285324097,0.0,0.0,0.0,0.19202597439289093,3.0391688346862793,2.9072771072387695,-34.75708770751953,0
1586.0789999999997,1.2792032975994516e-05,-0.00020819981000386178,1.8387456293567084e-05,0.0,0.0,0.0,0.0,-7.297499541891739e-05,-0.0008243407937698066,-0.002592591568827629,0.9977658987045288,0.0,0.0,0.0,0.19112257659435272,3.037717819213867,2.8990085124969482,-34.59356689453125,0
1595.9840000000004,3.053497493965551e-05,-0.00017028293223120272,-2.561135079304222e-05,0.0,0.0,0.0,0.0,0.0014512690249830484,0.0005961023853160441,0.0005934837972745299,0.9990375638008118,0.0,0.0,0.0,0.19057750701904297,3.0332605838775635,2.8870902061462402,-34.494911193847656,0
1605.9040000000005,1.7245931303477846e-05,-0.0001748431532178074,5.297770258039236e-06,0.0,0.0,0.0,0.0,0.0021187819074839354,0.0023706634528934956,0.0008240879396907985,0.9998379349708557,0.0,0.0,0.0,0.19049964845180511,3.0282888412475586,2.8787970542907715,-34.48081588745117,0
1615.8099999999995,7.300153083633631e-05,-0.00014024633856024593,-9.510463132755831e-05,0.0,0.0,0.0,0.0,-0.0033832977060228586,-0.0012192269787192345,-7.506706606363878e-05,0.9995583295822144,0.0,0.0,0.0,0.19035598635673523,3.028184175491333,2.8817498683929443,-34.454811096191406,0
1625.7309999999998,6.614246376557276e-05,-0.00015309387526940554,-7.59270551498048e-05,0.0,0.0,0.0,0.0,-0.0019526990363374352,0.0040413010865449905,0.0005896923248656094,1.000491738319397,0.0,0.0,0.0,0.19096620380878448,3.024754524230957,2.8793857097625732,-34.56526565551758,0
1635.6399999999994,0.00011122965952381492,-0.00010525615653023124,-0.0001577000366523862,0.0,0.0,0.0,0.0,-0.0018464775057509542,0.00013008990208618343,0.002116604009643197,1.0014737844467163,0.0,0.0,0.0,0.19752195477485657,3.0426197052001953,2.89493989944458,-35.75186538696289,0
1645.559000000001,0.0001116300409194082,-0.0001257738913409412,-0.0001405075890943408,0.0,0.0,0.0,0.0,0.0017217784188687801,0.00010764388571260497,-0.0003073809202760458,0.9999487400054932,0.0,0.0,0.0,0.19009804725646973,3.0469777584075928,2.902960777282715,-34.40812301635742,0
1655.469000000001,0.00011957051901845261,-0.0001423741050530225,-0.00019453269487712532,0.0,0.0,0.0,0.0,-0.00017264671623706818,0.0017929699970409274,-0.0001474230521125719,0.9993078708648682,0.0,0.0,0.0,0.19746112823486328,3.0485036373138428,2.9025344848632812,-35.74085998535156,0
1665.3870000000006,9.286873682867736e-05,-0.00012720507220365107,-0.00017053532064892352,0.0,0.0,0.0,0.0,-0.0009822897845879197,-0.001619368907995522,0.001694705686531961,0.9984729290008545,0.0,0.0,0.0,0.1969006359577179,3.0387980937957764,2.8936960697174072,-35.639404296875,0
1675.300000000001,5.7725443184608594e-05,-0.00014700197789352387,-0.00016332771338056773,0.0,0.0,0.0,0.0,-0.0014884000411257148,0.0023650790099054575,-0.0016168983420357108,0.9993022084236145,0.0,0.0,0.0,0.1962520331144333,3.0379765033721924,2.9053778648376465,-35.522010803222656,0
1685.2200000000012,1.1339996490278281e-05,-0.0001525458210380748,-0.00015935490955598652,0.0,0.0,0.0,0.0,0.002747696591541171,0.004248910117894411,-0.0035657077096402645,0.9983737468719482,0.0,0.0,0.0,0.19751305878162384,3.0381217002868652,2.903536319732666,-35.7502555847168,0
1695.1309999999994,-3.190578718204051e-05,-0.0001738075807224959,-0.00014618405839428306,0.0,0.0,0.0,0.0,0.004192045424133539,0.00494611170142889,0.002188653452321887,0.9981368184089661,0.0,0.0,0.0,0.20282995700836182,3.039499521255493,2.891921043395996,-36.712623596191406,0
1705.0480000000007,-3.009811553056352e-05,-0.00019709166372194886,-0.0001235545933013782,0.0,0.0,0.0,0.0,-0.001899789902381599,-0.0071134744212031364,0.0037948638200759888,0.9997630715370178,0.0,0.0,0.0,0.20220457017421722,3.032580614089966,2.879983425140381,-36.59942626953125,0
1714.9490000000005,-7.986390846781433e-05,-0.0002503475407138467,-0.00011657866707537323,0.0,0.0,0.0,0.0,0.0014161349972710013,-0.00048745310050435364,0.0014048113953322172,1.000306248664856,0.0,0.0,0.0,0.20199774205684662,3.027574300765991,2.87758731842041,-36.56199264526367,0
1724.8610000000008,-7.014676521066576e-05,-0.00023770723782945424,-7.077809277689084e-05,0.0,0.0,0.0,0.0,-0.0004185886064078659,-0.0012216150062158704,-0.0029653776437044144,1.0014623403549194,0.0,0.0,0.0,0.19515645503997803,3.0365192890167236,2.8998959064483643,-35.323707580566406,0
1734.7810000000009,-7.213338540168479e-05,-0.0002474718203302473,-0.0001125933340517804,0.0,0.0,0.0,0.0,-0.0027579343877732754,-0.007990065030753613,-0.0015785912983119488,0.9999280571937561,0.0,0.0,0.0,0.19403289258480072,3.0372793674468994,2.8987655639648438,-35.120338439941406,0
1744.6930000000011,-6.592802674276754e-05,-0.0002501799026504159,-7.38946400815621e-05,0.0,0.0,0.0,0.0,0.00022778482525609434,0.004145369865000248,-0.004038300830870867,1.0005064010620117,0.0,0.0,0.0,0.19467203319072723,3.0299072265625,2.9080376625061035,-35.236026763916016,0
1754.6010000000006,-6.534325802931562e-05,-0.00022161939705256373,-0.0001002306307782419,0.0,0.0,0.0,0.0,0.0006724489503540099,-0.00016196533397305757,0.0030375744681805372,1.0002461671829224,0.0,0.0,0.0,0.2011917531490326,3.0433716773986816,2.918905258178711,-36.41610336303711,0
1764.514000000001,1.04744376585586e-05,-0.00022201087267603725,-4.2057108657900244e-05,0.0,0.0,0.0,0.0,-0.0015565867070108652,-0.0027697428595274687,0.00025715157971717417,0.9992475509643555,0.0,0.0,0.0,0.20131926238536835,3.0425033569335938,2.9102470874786377,-36.43918991088867,0
1774.433000000001,-2.5470495529589243e-05,-0.00024983356706798077,-3.3027641620719805e-05,0.0,0.0,0.0,0.0,0.001971595222130418,-0.0032570664770901203,-0.0012575004948303103,0.998620331287384,0.0,0.0,0.0,0.19249242544174194,3.0427443981170654,2.9118807315826416,-34.84151077270508,0
1784.3490000000002,-2.608373324619606e-05,-0.00028264927095733583,-7.624450972798513e-06,0.0,0.0,0.0,0.0,-0.002450276631861925,-0.0015620103804394603,0.0013365650083869696,0.9992176294326782,0.0,0.0,0.0,0.19247028231620789,3.0398528575897217,2.911058187484741,-34.83750534057617,0
1794.2479999999996,-5.835139018017799e-05,-0.0003067126090172678,-1.9884228095179424e-06,0.0,0.0,0.0,0.0,0.0002668698434717953,0.004219700116664171,0.0004214574000798166,1.0001102685928345,0.0,0.0,0.0,0.19207701086997986,3.046720504760742,2.918776512145996,-34.766319274902344,0
1804.1640000000007,-0.0001089000579668209,-0.0003154671867378056,2.350745489820838e-05,0.0,0.0,0.0,0.0,0.0020984590519219637,0.0011849709553644061,0.0020987328607589006,1.00127112865448,0.0,0.0,0.0,0.19217835366725922,3.0486035346984863,2.9139821529388428,-34.784664154052734,0
1814.0730000000003,-8.067246380960569e-05,-0.0003063011390622705,-4.457818067749031e-05,0.0,0.0,0.0,0.0,-0.0017587237525731325,-0.0014780977508053184,0.002491212682798505,0.999993622303009,0.0,0.0,0.0,0.19210544228553772,3.0463180541992188,2.9076120853424072,-34.77146911621094,0
1823.9940000000006,-9.911910456139594e-05,-0.0003009845386259258,-1.0357222890888806e-05,0.0,0.0,0.0,0.0,-0.002542066155001521,-0.0009207722032442689,0.0010664734290912747,0.9992451667785645,0.0,0.0,0.0,0.19338403642177582,3.047642946243286,2.9158217906951904,-35.00289535522461,0
1833.8999999999996,-8.628789510112256e-05,-0.00029544992139562964,-6.0296417359495535e-05,0.0,0.0,0.0,0.0,-0.0018195612356066704,-0.0007087307749316096,-0.000265967333689332,0.9986326694488525,0.0,0.0,0.0,0.1930997222661972,3.0435802936553955,2.9115796089172363,-34.95143508911133,0
1843.8150000000005,-5.032142871641554e-05,-0.00028350698994472623,-1.2115160643588752e-06,0.0,0.0,0.0,0.0,-0.0004983277758583426,-0.0024215197190642357,0.00031578613561578095,1.000018835067749,0.0,0.0,0.0,0.18635502457618713,3.053309202194214,2.9239649772644043,-33.730628967285156,0
1853.7290000000012,-2.2377447749022394e-05,-0.00023645990586373955,-5.611813685391098e-05,0.0,0.0,0.0,0.0,-0.0035259409341961145,0.001005723257549107,0.0050545139238238335,0.9994261264801025,0.0,0.0,0.0,0.18654082715511322,3.0494327545166016,2.9293973445892334,-33.764259338378906,0
1863.6399999999994,-7.795805868227035e-05,-0.00020255681010894477,-2.6469189833733253e-05,0.0,0.0,0.0,0.0,-0.0023336235899478197,-0.0009401432471349835,0.0008693960844539106,1.000465989112854,0.0,0.0,0.0,0.1879298835992813,3.0491678714752197,2.924976348876953,-34.015682220458984,0
1873.563,-2.2026972146704793e-05,-0.00016152093303389847,-0.00013055503950454295,0.0,0.0,0.0,0.0,0.0006595752784051001,0.0034591301809996367,-0.0007309179636649787,0.999213695526123,0.0,0.0,0.0,0.18765537440776825,3.0453271865844727,2.9211976528167725,-33.96599197387695,0
1883.4830000000002,2.8511898563010618e-05,-0.00016930661513470113,-8.401965169468895e-05,0.0,0.0,0.0,0.0,0.0016909405821934342,0.000581371714361012,0.0017955213552340865,0.9979771375656128,0.0,0.0,0.0,0.1807115077972412,3.0512356758117676,2.92330265045166,-32.709144592285156,0
1893.3819999999996,1.61565221787896e-05,-0.0001747153582982719,-0.00010136636410607025,0.0,0.0,0.0,0.0,-0.0015794644132256508,-0.002534885425120592,-0.00042769795982167125,0.9986287355422974,0.0,0.0,0.0,0.1739443689584732,3.052140951156616,2.9211483001708984,-31.484277725219727,0
1903.2939999999999,1.980174783966504e-05,-0.00019077485194429755,-7.5358351750765e-05,0.0,0.0,0.0,0.0,0.0002453085617162287,0.002550296252593398,-0.0008337608887813985,0.999450147151947,0.0,0.0,0.0,0.16692911088466644,3.0556423664093018,2.9373114109039307,-30.214502334594727,0
1913.2170000000006,2.0519924873951823e-05,-0.00020204129396006465,-0.00011818022176157683,0.0,0.0,0.0,0.0,0.0013890458503738046,-0.0026078936643898487,0.0018829804612323642,1.0010749101638794,0.0,0.0,0.0,0.1753128468990326,3.058206081390381,2.94277286529541,-31.731975555419922,0
1923.1280000000006,1.736531703500077e-05,-0.00019133268506266177,-8.110221097012982e-05,0.0,0.0,0.0,0.0,0.0046155271120369434,0.004318598657846451,0.0025492259301245213,0.9989204406738281,0.0,0.0,0.0,0.16835270822048187,3.066315174102783,2.945063829421997,-30.472177505493164,0
1933.0339999999997,-4.5577929995488375e-05,-0.0002587386406958103,-5.079434049548581e-05,0.0,0.0,0.0,0.0,-0.001763505395501852,0.0016004842473194003,-0.0005630914820358157,1.0007678270339966,0.0,0.0,0.0,0.16182498633861542,3.0562362670898438,2.9339089393615723,-29.290645599365234,0
1942.9449999999997,-0.00010991748422384262,-0.0002453404595144093,-2.7612897611106746e-05,0.0,0.0,0.0,0.0,0.00038834448787383735,-0.0003617781330831349,0.0016364280600100756,0.9994555711746216,0.0,0.0,0.0,0.1621488481760025,3.0514779090881348,2.925992488861084,-29.349262237548828,0
1952.862000000001,-0.00018841853307094425,-0.00032455005566589534,1.8467457266524434e-05,0.0,0.0,0.0,0.0,0.0012323594419285655,-0.0002127470070263371,-0.00011324269144097343,0.9989262223243713,0.0,0.0,0.0,0.16158859431743622,3.0462851524353027,2.925020933151245,-29.24785804748535,0
1962.7659999999996,-0.0001578761002747342,-0.00033404986606910825,7.286295294761658e-05,0.0,0.0,0.0,0.0,0.0002473001950420439,-0.001548771862871945,-0.0035927342250943184,0.9993966817855835,0.0,0.0,0.0,0.16151954233646393,3.037935972213745,2.9164187908172607,-29.2353572845459,0
1972.688,-0.00014377989282365888,-0.0003143163921777159,2.6773979698191397e-05,0.0,0.0,0.0,0.0,0.0005347851547412574,0.0012516711140051484,-0.0015193481231108308,0.9998440742492676,0.0,0.0,0.0,0.1617077887058258,3.0368306636810303,2.925584077835083,-29.269432067871094,0
1982.5969999999998,-0.0001037592301145196,-0.00025268865283578634,0.00010681538697099313,0.0,0.0,0.0,0.0,-0.0009008068591356277,-0.003985067363828421,-3.892884706147015e-05,1.0000746250152588,0.0,0.0,0.0,0.1616048961877823,3.034142255783081,2.919273853302002,-29.25080680847168,0
1992.5159999999996,-0.00010774977272376418,-0.0002632663235999644,7.936184556456283e-05,0.0,0.0,0.0,0.0,0.0002700066252145916,-0.0004930272698402405,-0.0006523509509861469,1.0012199878692627,0.0,0.0,0.0,0.16322806477546692,3.031925678253174,2.9294421672821045,-29.54460334777832,0
2002.4279999999999,-0.0001505375257693231,-0.00026070766034536064,0.00010917033796431497,0.0,0.0,0.0,0.0,-0.0018208754481747746,-0.002768722828477621,0.002126880455762148,1.002110242843628,0.0,0.0,0.0,0.1639198213815689,3.028635263442993,2.926957130432129,-29.66981315612793,0
2012.3400000000001,-0.00011508626630529761,-0.00021146131621208042,4.734581307275221e-05,0.0,0.0,0.0,0.0,-0.0007733912207186222,0.003909831400960684,0.0009334645583294332,0.9996443390846252,0.0,0.0,0.0,0.17269840836524963,3.0509214401245117,2.942441463470459,-31.25875473022461,0
2022.2430000000004,-0.00012127380614401773,-0.00024719879729673266,7.216103404061869e-05,0.0,0.0,0.0,0.0,-0.003031172789633274,-0.005626560188829899,-0.0062625291757285595,0.9982998371124268,0.0,0.0,0.0,0.17243093252182007,3.0508153438568115,2.931504726409912,-31.210342407226562,0
2032.1640000000007,-8.202185563277453e-05,-0.00021391207701526582,-1.6301810319419019e-06,0.0,0.0,0.0,0.0,-0.00033755606273189187,0.0022357627749443054,-0.00014580239076167345,0.9993577003479004,0.0,0.0,0.0,0.18028409779071808,3.067021131515503,2.9491827487945557,-32.63178253173828,0
2042.071,-6.5900560002774e-05,-0.0002276390150655061,3.583023135433905e-05,0.0,0.0,0.0,0.0,-0.002420471515506506,0.001182299805805087,0.0011966448510065675,0.9992705583572388,0.0,0.0,0.0,0.173737034201622,3.079190731048584,2.9498167037963867,-31.446748733520508,0
2052.0020000000004,-3.234094037907198e-05,-0.00020392225997056812,-3.652192754088901e-05,0.0,0.0,0.0,0.0,-0.0007517547346651554,0.002558597829192877,-0.0021522128954529762,1.0000386238098145,0.0,0.0,0.0,0.18100157380104065,3.092132568359375,2.954942464828491,-32.76164627075195,0
2061.8940000000002,-1.002019052975811e-05,-0.00021992613619659096,-2.700595587157295e-06,0.0,0.0,0.0,0.0,6.375779048539698e-05,-0.0030311911832541227,0.0017971445340663195,1.0008082389831543,0.0,0.0,0.0,0.18030819296836853,3.0852560997009277,2.9368488788604736,-32.63614273071289,0
2071.813,9.463470632908866e-06,-0.00021153228590264916,-6.212983862496912e-05,0.0,0.0,0.0,0.0,-0.0009454710525460541,-0.004654168151319027,0.0018436656100675464,1.0009657144546509,0.0,0.0,0.0,0.18771405518054962,3.094944953918457,2.9531655311584473,-33.97661590576172,0
2081.720000000001,8.785165846347809e-06,-0.00020967403543181717,-3.320106407045387e-05,0.0,0.0,0.0,0.0,-0.0016494416631758213,0.001102436101064086,0.0016901768976822495,0.9999410510063171,0.0,0.0,0.0,0.18836496770381927,3.0912320613861084,2.9609310626983643,-34.09443283081055,0
2091.6409999999996,-4.599481326295063e-05,-0.0002706916711758822,-1.1400309631426353e-05,0.0,0.0,0.0,0.0,0.0032997315283864737,0.003156749065965414,-0.0007558056968264282,0.9991872906684875,0.0,0.0,0.0,0.18239666521549225,3.0893681049346924,2.954348087310791,-33.01416015625,0
2101.545,-9.928610234055668e-05,-0.0002540936111472547,1.469913240725873e-05,0.0,0.0,0.0,0.0,-6.216995825525373e-05,-0.001704436494037509,0.002863412257283926,0.9997363090515137,0.0,0.0,0.0,0.18141987919807434,3.083022117614746,2.9522721767425537,-32.83736038208008,0
