timestamp,stateEstimate.x,stateEstimate.y,stateEstimate.z,controller.cmd_thrust,controller.cmd_roll,controller.cmd_pitch,controller.cmd_yaw,controller.r_roll,controller.r_pitch,controller.r_yaw,controller.accelz,controller.actuatorThrust,controller.roll,controller.pitch,controller.yaw,controller.rollRate,controller.pitchRate,controller.yawRate,controller.ctr_yaw
0.0,0.011456905864179134,-0.03617685288190842,0.000426952465204522,0.0,0.0,0.0,0.0,-0.002376188524067402,-0.003898428985849023,0.001995607279241085,1.0002110004425049,0.0,0.0,0.0,-49.20940399169922,9.857433319091797,5.428938388824463,8907.0009765625,0
9.888999999999214,0.011409475468099117,-0.036235030740499496,0.00041254013194702566,0.0,0.0,0.0,0.0,-0.0010527210542932153,-0.003936068620532751,0.00025157787604257464,0.9995341300964355,0.0,0.0,0.0,-49.16158676147461,9.84705638885498,5.432403087615967,8898.345703125,0
19.787000000000262,0.01135765016078949,-0.03629501163959503,0.00039858900709077716,0.0,0.0,0.0,0.0,-0.0012335594510659575,-0.002194011118263006,-0.002062479965388775,1.000555157661438,0.0,0.0,0.0,-49.11363983154297,9.837662696838379,5.437661647796631,8889.6669921875,0
29.656999999999243,0.011301547288894653,-0.036355674266815186,0.00038499163929373026,0.0,0.0,0.0,0.0,0.00315068569034338,-0.002643297193571925,-0.0010412087431177497,0.9992609620094299,0.0,0.0,0.0,-49.065673828125,9.826313018798828,5.442493438720703,8880.984375,0
39.54700000000048,0.011379556730389595,-0.03634369373321533,0.0004443261423148215,0.0,0.0,0.0,0.0,-0.0022451162803918123,0.0037503759376704693,0.0011619343422353268,0.9991496205329895,0.0,0.0,0.0,-49.21293640136719,9.868067741394043,5.44842004776001,8907.6396484375,0
49.42900000000009,0.011327485553920269,-0.03640275448560715,0.0004362738982308656,0.0,0.0,0.0,0.0,0.0011854134500026703,-0.001559743075631559,-9.82393030426465e-05,1.0004689693450928,0.0,0.0,0.0,-49.16492462158203,9.8605375289917,5.44059944152832,8898.94921875,0
59.3130000000001,0.011351256631314754,-0.03635384887456894,0.0004949035355821252,0.0,0.0,0.0,0.0,0.0014215470291674137,-0.0004536505148280412,-0.0015939828008413315,0.9999518990516663,0.0,0.0,0.0,-49.303367614746094,9.900839805603027,5.423782825469971,8924.0078125,0
69.20499999999993,0.01129859033972025,-0.03640688583254814,0.0004933015443384647,0.0,0.0,0.0,0.0,0.00011969560728175566,-0.0015667090192437172,0.0018644497031345963,0.9994803667068481,0.0,0.0,0.0,-49.25600051879883,9.886363983154297,5.424925327301025,8915.4345703125,0
79.09300000000076,0.011245149187743664,-0.03646025434136391,0.0004920345381833613,0.0,0.0,0.0,0.0,-0.004025422967970371,0.00043963021016679704,0.0002708594547584653,0.999043345451355,0.0,0.0,0.0,-49.20838928222656,9.873723030090332,5.429595470428467,8906.81640625,0
88.97099999999955,0.011190962977707386,-0.036513399332761765,0.0004906263202428818,0.0,0.0,0.0,0.0,0.000451823027106002,-0.0023747063241899014,0.0034266915172338486,0.9989302158355713,0.0,0.0,0.0,-49.1596794128418,9.868579864501953,5.430187225341797,8898.0,0
98.86199999999917,0.011270198039710522,-0.03645707666873932,0.0005516771925613284,0.0,0.0,0.0,0.0,0.0020710572134703398,0.0008605749462731183,3.2254247344098985e-05,1.0011436939239502,0.0,0.0,0.0,-49.29962921142578,9.929816246032715,5.420743465423584,8923.3310546875,0
108.7489999999998,0.011591130867600441,-0.03578561916947365,-0.0003179933992214501,0.0,0.0,0.0,0.0,-0.000683953461702913,0.00041444049566052854,-0.0015913845272734761,0.9997074604034424,0.0,0.0,0.0,-49.29632568359375,10.08359432220459,5.338894367218018,8922.7333984375,0
118.6319999999996,0.011602052487432957,-0.03587263077497482,-0.00028665323043242097,0.0,0.0,0.0,0.0,0.002942858962342143,0.0005394257605075836,0.004207730293273926,0.9996494054794312,0.0,0.0,0.0,-49.42174530029297,10.094826698303223,5.351449966430664,8945.43359375,0
128.51800000000003,0.01162037905305624,-0.03566666692495346,-0.00024135981220752,0.0,0.0,0.0,0.0,0.0005240386235527694,0.003540396923199296,-0.0008197076385840774,1.0013049840927124,0.0,0.0,0.0,-49.41023254394531,10.111384391784668,5.319396018981934,8943.349609375,0
138.39799999999923,0.011587732471525669,-0.035676900297403336,-0.00025109946727752686,0.0,0.0,0.0,0.0,0.001666149590164423,-0.0017996185924857855,-0.0035943195689469576,0.9990875720977783,0.0,0.0,0.0,-49.36198425292969,10.09891128540039,5.317019939422607,8934.6171875,0
148.28800000000047,0.011540930718183517,-0.035575591027736664,-0.0001438116014469415,0.0,0.0,0.0,0.0,0.002391784219071269,-0.004444796591997147,0.0023608445189893246,1.0003114938735962,0.0,0.0,0.0,-49.36040115356445,10.10290813446045,5.289063453674316,8934.330078125,0
158.17000000000007,0.011503971181809902,-0.035585228353738785,-0.00014519525575451553,0.0,0.0,0.0,0.0,-0.0012901418376713991,0.00048035418149083853,-0.0018063883762806654,1.0004780292510986,0.0,0.0,0.0,-49.31289291381836,10.083850860595703,5.291274547576904,8925.7314453125,0
168.0679999999993,0.011437137611210346,-0.03550507500767708,-7.101460141711868e-06,0.0,0.0,0.0,0.0,-0.0004594454658217728,0.005120269954204559,-0.000809976423624903,0.9993098378181458,0.0,0.0,0.0,-49.31168746948242,10.08602237701416,5.263415336608887,8925.513671875,0
177.94700000000012,0.011394391767680645,-0.03551425412297249,1.502447048551403e-06,0.0,0.0,0.0,0.0,-0.002215407323092222,-0.0026919939555227757,0.002650727517902851,0.9983214735984802,0.0,0.0,0.0,-49.26414108276367,10.078237533569336,5.255003929138184,8916.908203125,0
187.8259999999991,0.011336296796798706,-0.03546203672885895,9.859784040600061e-05,0.0,0.0,0.0,0.0,0.001655611558817327,0.005560283549129963,0.0002954379888251424,0.9988616704940796,0.0,0.0,0.0,-49.26185989379883,10.072081565856934,5.234925746917725,8916.4951171875,0
197.71500000000015,0.011516465805470943,-0.0357854999601841,0.00021182873751968145,0.0,0.0,0.0,0.0,0.0028545684181153774,6.711441074003233e-06,0.0010260059498250484,0.9998266100883484,0.0,0.0,0.0,-49.37344741821289,10.107719421386719,5.304235458374023,8936.69140625,0
207.60900000000038,0.011574291624128819,-0.03560778498649597,0.00022034565336070955,0.0,0.0,0.0,0.0,0.0011705707293003798,-0.00592602277174592,0.00036932810326106846,0.9990516304969788,0.0,0.0,0.0,-49.36367416381836,10.129765510559082,5.294149875640869,8934.9228515625,0
217.48400000000038,0.011592916212975979,-0.0358278714120388,0.00022412440739572048,0.0,0.0,0.0,0.0,-0.0009104942437261343,0.0005299532786011696,0.00026222437736578286,0.999289870262146,0.0,0.0,0.0,-49.472511291503906,10.132400512695312,5.323436737060547,8954.6220703125,0
227.3780000000006,0.011652414686977863,-0.0356496199965477,0.00022209937742445618,0.0,0.0,0.0,0.0,-0.00043491352698765695,0.0019925041124224663,0.001549831940792501,0.9996702075004578,0.0,0.0,0.0,-49.458839416503906,10.151080131530762,5.3103156089782715,8952.1474609375,0
237.2549999999992,0.01159327756613493,-0.035804785788059235,0.00021085450134705752,0.0,0.0,0.0,0.0,1.847978819569107e-05,-0.0037352335639297962,0.003489923197776079,1.0001757144927979,0.0,0.0,0.0,-49.55774688720703,10.149608612060547,5.313139915466309,8970.05078125,0
247.14199999999983,0.011646916158497334,-0.03562845289707184,0.00020799681078642607,0.0,0.0,0.0,0.0,0.002175875473767519,0.002110122237354517,-0.00016365080955438316,0.9996723532676697,0.0,0.0,0.0,-49.538726806640625,10.158855438232422,5.297665119171143,8966.607421875,0
257.02299999999923,0.011614986695349216,-0.03581393137574196,0.0001875824382295832,0.0,0.0,0.0,0.0,0.001972050638869405,-0.000736513058654964,-0.0020563178695738316,0.9999759793281555,0.0,0.0,0.0,-49.623783111572266,10.15249252319336,5.298697471618652,8982.00390625,0
266.91400000000067,0.011659149080514908,-0.03563757613301277,0.00019452082051429898,0.0,0.0,0.0,0.0,0.0016873676795512438,0.005773369688540697,-0.002279421780258417,0.9990246295928955,0.0,0.0,0.0,-49.60367965698242,10.16291332244873,5.27482271194458,8978.365234375,0
276.7960000000003,0.011615529656410217,-0.03579876571893692,0.0001822771882871166,0.0,0.0,0.0,0.0,0.0025555011816322803,0.004198906011879444,0.000471091887447983,0.9998341798782349,0.0,0.0,0.0,-49.68741226196289,10.166540145874023,5.262503147125244,8993.5205078125,0
286.6890000000003,0.011635341681540012,-0.03568208962678909,0.00018993450794368982,0.0,0.0,0.0,0.0,0.00026584649458527565,-0.0024749762378633022,1.5629904737579636e-05,0.9996861219406128,0.0,0.0,0.0,-49.66469192504883,10.169711112976074,5.234334945678711,8989.4091796875,0
296.5640000000003,0.011600565165281296,-0.035693783313035965,0.0001987998839467764,0.0,0.0,0.0,0.0,0.0005588562344200909,-0.005727424751967192,-0.0020471822936087847,1.0022526979446411,0.0,0.0,0.0,-49.6173095703125,10.161768913269043,5.227336883544922,8980.8330078125,0
306.45800000000054,0.011610650457441807,-0.035500772297382355,0.00023584310838487,0.0,0.0,0.0,0.0,-5.1068032917100936e-05,0.0019142780220136046,0.0035860601346939802,0.9997612833976746,0.0,0.0,0.0,-49.59608840942383,10.187752723693848,5.211062431335449,8976.990234375,0
316.33899999999994,0.011607683263719082,-0.03577107563614845,0.00019153939501848072,0.0,0.0,0.0,0.0,0.001895279623568058,0.0011036824434995651,-0.00031479031895287335,0.999704122543335,0.0,0.0,0.0,-49.67495346069336,10.181563377380371,5.248110771179199,8991.265625,0
326.2330000000002,0.01166241429746151,-0.03556598350405693,0.00020649630459956825,0.0,0.0,0.0,0.0,5.768635310232639e-05,-0.0011888579465448856,-0.0012678424827754498,0.9991016983985901,0.0,0.0,0.0,-49.65097427368164,10.201208114624023,5.2254719734191895,8986.92578125,0
336.1080000000002,0.011614982038736343,-0.035788893699645996,0.00015036738477647305,0.0,0.0,0.0,0.0,-0.0007227218593470752,-0.001828452805057168,-0.0028601428493857384,0.9991872906684875,0.0,0.0,0.0,-49.72597885131836,10.192251205444336,5.238762855529785,9000.5009765625,0
345.9979999999996,0.01165558397769928,-0.03559783473610878,0.00017159739218186587,0.0,0.0,0.0,0.0,-0.0008649586816318333,-0.0033850562758743763,9.760382818058133e-05,1.0001009702682495,0.0,0.0,0.0,-49.69715881347656,10.21131420135498,5.223505020141602,8995.2841796875,0
355.8760000000002,0.011622061021625996,-0.035770390182733536,0.00014405688853003085,0.0,0.0,0.0,0.0,-0.0022317739203572273,0.00024199661856982857,-0.0003563657810445875,0.997992992401123,0.0,0.0,0.0,-49.76631546020508,10.203751564025879,5.241874694824219,9007.8017578125,0
365.77100000000064,0.011622161604464054,-0.03562850505113602,0.00019254219660069793,0.0,0.0,0.0,0.0,-0.001736378064379096,-0.005942638032138348,-0.0007881318451836705,0.9993317723274231,0.0,0.0,0.0,-49.73369598388672,10.21366024017334,5.214123725891113,9001.8984375,0
375.64799999999923,0.011539217084646225,-0.03576907515525818,0.00016229345055762678,0.0,0.0,0.0,0.0,0.0005235692951828241,0.0010852663544937968,0.004030987620353699,0.999879002571106,0.0,0.0,0.0,-49.798683166503906,10.206242561340332,5.236874103546143,9013.66015625,0
385.54299999999967,0.01155091729015112,-0.03560832515358925,0.00019877273007296026,0.0,0.0,0.0,0.0,0.0018979040905833244,0.0007386823417618871,0.002658164594322443,0.9994722604751587,0.0,0.0,0.0,-49.764102935791016,10.218026161193848,5.218351364135742,9007.40234375,0
395.4279999999999,0.011515251360833645,-0.035610150545835495,0.0002043398271780461,0.0,0.0,0.0,0.0,8.477727533318102e-05,0.0032905368134379387,0.0022647278383374214,0.9989012479782104,0.0,0.0,0.0,-49.715789794921875,10.200579643249512,5.207523345947266,8998.6572265625,0
405.3119999999999,0.011473328806459904,-0.03551207855343819,0.0002686803927645087,0.0,0.0,0.0,0.0,0.0024998115841299295,0.0022839903831481934,-0.00385827524587512,0.997493326663971,0.0,0.0,0.0,-49.68756103515625,10.20238208770752,5.182094097137451,8993.546875,0
415.1900000000005,0.011487673036754131,-0.03574191406369209,0.0002479934482835233,0.0,0.0,0.0,0.0,0.0005710841505788267,0.0018702226225286722,0.002161306794732809,0.999025821685791,0.0,0.0,0.0,-49.7552490234375,10.195596694946289,5.212552547454834,9005.798828125,0
425.09000000000015,0.011497195810079575,-0.035607803612947464,0.00028029363602399826,0.0,0.0,0.0,0.0,0.0018589590908959508,0.007457965984940529,0.003546106396242976,1.000478982925415,0.0,0.0,0.0,-49.72475051879883,10.207695960998535,5.191534996032715,9000.279296875,0
434.96399999999994,0.011463002301752567,-0.03560768812894821,0.0002883252454921603,0.0,0.0,0.0,0.0,-0.00032863946398720145,0.0010167233413085341,0.0005574550596065819,0.9971455335617065,0.0,0.0,0.0,-49.675575256347656,10.196133613586426,5.179932117462158,8991.37890625,0
444.85699999999997,0.011457850225269794,-0.03542068600654602,0.0003432738594710827,0.0,0.0,0.0,0.0,0.0007938573835417628,-0.0015307475114241242,0.0018391419434919953,0.997421383857727,0.0,0.0,0.0,-49.64741134643555,10.220415115356445,5.143674850463867,8986.28125,0
454.7440000000006,0.011418627575039864,-0.03541345149278641,0.0003521231119520962,0.0,0.0,0.0,0.0,-0.0005357105401344597,0.0013459703186526895,0.0006042153108865023,1.000342845916748,0.0,0.0,0.0,-49.598751068115234,10.207926750183105,5.141947269439697,8977.4736328125,0
464.6290000000008,0.011384653858840466,-0.03534074127674103,0.00038029029383324087,0.0,0.0,0.0,0.0,-0.0013138871872797608,0.0006507440120913088,0.001959975576028228,0.9973874092102051,0.0,0.0,0.0,-49.57560729980469,10.216614723205566,5.123300552368164,8973.2841796875,0
474.5049999999992,0.011486605741083622,-0.03567228838801384,0.0003516141732688993,0.0,0.0,0.0,0.0,0.0004678783880081028,0.0005883442936465144,0.0007139384979382157,1.001584529876709,0.0,0.0,0.0,-49.64897918701172,10.2212495803833,5.2057976722717285,8986.5634765625,0
484.40300000000025,0.011503886431455612,-0.03553541377186775,0.0003827841719612479,0.0,0.0,0.0,0.0,0.0007268611225299537,0.0009702331153675914,0.004664382431656122,1.000956416130066,0.0,0.0,0.0,-49.61922836303711,10.237117767333984,5.187621593475342,8981.1796875,0
494.28399999999965,0.011548520065844059,-0.03574540093541145,0.0003751477343030274,0.0,0.0,0.0,0.0,0.0009182964568026364,0.004745709244161844,-0.0020290534012019634,0.9987679123878479,0.0,0.0,0.0,-49.68608856201172,10.237367630004883,5.2124199867248535,8993.2802734375,0
504.1720000000005,0.01159663312137127,-0.03554391860961914,0.000399711454520002,0.0,0.0,0.0,0.0,-0.002304601250216365,0.0059601194225251675,0.001854021567851305,0.999255359172821,0.0,0.0,0.0,-49.65916442871094,10.256498336791992,5.184285640716553,8988.4072265625,0
514.0550000000003,0.011587194167077541,-0.03572036698460579,0.0003766797890421003,0.0,0.0,0.0,0.0,-0.0007161905523389578,0.0005549017805606127,0.0033018479589372873,1.0009422302246094,0.0,0.0,0.0,-49.72637176513672,10.257962226867676,5.184940814971924,9000.5732421875,0
523.9419999999991,0.011658416129648685,-0.03550829738378525,0.00036501832073554397,0.0,0.0,0.0,0.0,-0.0008818868082016706,0.004979593679308891,0.006577388383448124,1.0019968748092651,0.0,0.0,0.0,-49.697086334228516,10.286529541015625,5.171990871429443,8995.271484375,0
533.8189999999995,0.011627699248492718,-0.035716645419597626,0.0003125942894257605,0.0,0.0,0.0,0.0,-4.704972525360063e-05,0.0041047693230211735,-0.0005377428606152534,0.9984822869300842,0.0,0.0,0.0,-49.759559631347656,10.274128913879395,5.181216716766357,9006.580078125,0
543.7119999999995,0.011653605848550797,-0.035561319440603256,0.0003388840123079717,0.0,0.0,0.0,0.0,-0.002379740122705698,-0.0005848092841915786,0.00011596982221817598,0.9996443390846252,0.0,0.0,0.0,-49.72648620605469,10.279027938842773,5.151739597320557,9000.59375,0
553.5949999999993,0.011608939617872238,-0.03579408675432205,0.00026433769380673766,0.0,0.0,0.0,0.0,-0.0006507544894702733,-4.6013457904336974e-05,-5.72617536818143e-05,0.9987646341323853,0.0,0.0,0.0,-49.78919219970703,10.270033836364746,5.182619094848633,9011.943359375,0
563.4889999999996,0.011683907359838486,-0.035591524094343185,0.000240803012275137,0.0,0.0,0.0,0.0,-0.0017585133900865912,-0.009040527045726776,0.001463655149564147,0.9992777705192566,0.0,0.0,0.0,-49.755157470703125,10.288773536682129,5.15968132019043,9005.783203125,0
573.3680000000004,0.01159345731139183,-0.03574790805578232,0.0001776192511897534,0.0,0.0,0.0,0.0,-0.002377561992034316,-0.0018331962637603283,-8.579728455515578e-05,0.9984281063079834,0.0,0.0,0.0,-49.8163948059082,10.279990196228027,5.178469181060791,9016.8662109375,0
583.2520000000004,0.011679711751639843,-0.035519350320100784,0.00014029632438905537,0.0,0.0,0.0,0.0,-0.0012173576978966594,-0.0027776099741458893,0.0017079138197004795,0.9979267716407776,0.0,0.0,0.0,-49.783905029296875,10.30980110168457,5.1589155197143555,9010.9853515625,0
593.1360000000004,0.011679252609610558,-0.03571053966879845,8.624039764981717e-05,0.0,0.0,0.0,0.0,0.0009817491518333554,-0.003751417389139533,0.00041120030800811946,0.998052716255188,0.0,0.0,0.0,-49.841365814208984,10.30586051940918,5.196409702301025,9021.3857421875,0
603.0319999999992,0.011758354492485523,-0.03550966456532478,4.101040030946024e-05,0.0,0.0,0.0,0.0,2.748203587543685e-05,-0.0006620215135626495,0.0005548021290451288,0.9975724220275879,0.0,0.0,0.0,-49.810630798339844,10.33057975769043,5.186988353729248,9015.82421875,0
612.9120000000003,0.011742666363716125,-0.035496048629283905,2.2273849026532844e-05,0.0,0.0,0.0,0.0,-0.0006976206204853952,-0.003125998890027404,0.0016594823682680726,0.9975586533546448,0.0,0.0,0.0,-49.76301956176758,10.316474914550781,5.1839985847473145,9007.205078125,0
622.7919999999995,0.01172239612787962,-0.035378482192754745,5.699206667486578e-05,0.0,0.0,0.0,0.0,0.002364381216466427,0.00018711180018726736,0.0010189915774390101,0.9981470704078674,0.0,0.0,0.0,-49.732177734375,10.323868751525879,5.173287391662598,9001.623046875,0
632.6769999999997,0.01167379878461361,-0.03558424115180969,-3.530512185534462e-05,0.0,0.0,0.0,0.0,0.002394256182014942,0.0018471699440851808,-0.0028551926370710135,0.9993472695350647,0.0,0.0,0.0,-49.79208755493164,10.308226585388184,5.204097270965576,9012.4677734375,0
642.5720000000001,0.011649394407868385,-0.035476744174957275,1.5045145119074732e-05,0.0,0.0,0.0,0.0,4.752646418637596e-05,0.004028885159641504,0.002395834308117628,1.0024381875991821,0.0,0.0,0.0,-49.760868072509766,10.306330680847168,5.188722610473633,9006.81640625,0
652.4459999999999,0.011662960983812809,-0.035643380135297775,-2.4889242922654375e-05,0.0,0.0,0.0,0.0,-0.001049437909387052,-0.004613997880369425,0.000935231801122427,1.0005379915237427,0.0,0.0,0.0,-49.81980514526367,10.303342819213867,5.205454349517822,9017.484375,0
662.3400000000001,0.011599010787904263,-0.035585951060056686,6.251265585888177e-05,0.0,0.0,0.0,0.0,7.506766269216314e-05,-0.0019970990251749754,0.002044501481577754,0.9983554482460022,0.0,0.0,0.0,-49.79072570800781,10.29546070098877,5.2025532722473145,9012.2197265625,0
672.2180000000008,0.011631707660853863,-0.035769544541835785,2.6644480385584757e-05,0.0,0.0,0.0,0.0,-0.0014687435468658805,0.0003340071998536587,0.001080676564015448,0.9989579319953918,0.0,0.0,0.0,-49.848854064941406,10.294022560119629,5.2231011390686035,9022.7412109375,0
682.1110000000008,0.011613073758780956,-0.03564722463488579,8.843322575557977e-05,0.0,0.0,0.0,0.0,-0.00223732553422451,-0.0036378439981490374,-0.00030313004390336573,0.9977715015411377,0.0,0.0,0.0,-49.813987731933594,10.292997360229492,5.200738906860352,9016.4306640625,0
691.9899999999998,0.011638038791716099,-0.03578443452715874,7.183013076428324e-05,0.0,0.0,0.0,0.0,-4.472451564652147e-06,-0.003177331294864416,0.003307110397145152,0.997804582118988,0.0,0.0,0.0,-49.86895751953125,10.301480293273926,5.226527214050293,9026.380859375,0
701.8760000000002,0.01164361834526062,-0.03562026098370552,0.00012393869110383093,0.0,0.0,0.0,0.0,-0.0033924852032214403,-0.004380751866847277,0.00033730801078490913,0.9992278814315796,0.0,0.0,0.0,-49.83403778076172,10.310072898864746,5.207230091094971,9020.0595703125,0
711.7610000000004,0.011667647399008274,-0.03578701987862587,9.2153342848178e-05,0.0,0.0,0.0,0.0,-0.0001239713019458577,0.0004352529940661043,0.0009582118946127594,0.9989321827888489,0.0,0.0,0.0,-49.8906135559082,10.3192720413208,5.242611408233643,9030.2998046875,0
721.6530000000002,0.01165239792317152,-0.03569028154015541,0.00014581767027266324,0.0,0.0,0.0,0.0,0.0024438740219920874,0.001699991524219513,0.0033756534103304148,0.9975886344909668,0.0,0.0,0.0,-49.85912322998047,10.31631088256836,5.221200466156006,9024.599609375,0
731.5319999999992,0.011619137600064278,-0.03578346595168114,0.00012640190834645182,0.0,0.0,0.0,0.0,0.001403657253831625,0.004019066691398621,0.00025835135602392256,0.9991628527641296,0.0,0.0,0.0,-49.91145706176758,10.316278457641602,5.224250793457031,9034.072265625,0
741.4249999999993,0.011640425771474838,-0.03560580685734749,0.0001753522374201566,0.0,0.0,0.0,0.0,0.0010945899412035942,-0.003484183456748724,-0.000187865603948012,0.998971700668335,0.0,0.0,0.0,-49.875308990478516,10.322447776794434,5.192227840423584,9027.529296875,0
751.3089999999993,0.011629636399447918,-0.035719338804483414,0.00015438030823133886,0.0,0.0,0.0,0.0,-0.001176253193989396,-0.005864097271114588,-0.0026884984690696,0.9992991089820862,0.0,0.0,0.0,-49.926815032958984,10.3182954788208,5.2196784019470215,9036.8525390625,0
761.1929999999993,0.011652599088847637,-0.03552781045436859,0.00020711477554868907,0.0,0.0,0.0,0.0,0.0017139478586614132,0.0035899486392736435,0.0005862576654180884,0.9990347027778625,0.0,0.0,0.0,-49.889102935791016,10.328039169311523,5.199045658111572,9030.02734375,0
771.0750000000007,0.011645893566310406,-0.03566969558596611,0.00017346594540867954,0.0,0.0,0.0,0.0,0.002683736849576235,0.0073935966938734055,-0.003608074737712741,0.9976475834846497,0.0,0.0,0.0,-49.93840789794922,10.3167724609375,5.196462154388428,9038.951171875,0
780.973,0.011662386357784271,-0.035490695387125015,0.0002310435229446739,0.0,0.0,0.0,0.0,-0.0035017000045627356,-0.0016047272365540266,-0.0005118636763654649,0.9988998174667358,0.0,0.0,0.0,-49.900840759277344,10.319843292236328,5.155753135681152,9032.1513671875,0
790.8469999999998,0.011667553335428238,-0.035634152591228485,0.00020089535973966122,0.0,0.0,0.0,0.0,0.0006182978977449238,0.0037849575746804476,-0.0031567546539008617,0.9995133280754089,0.0,0.0,0.0,-49.952423095703125,10.322489738464355,5.188488483428955,9041.48828125,0
800.741,0.011659595184028149,-0.035521071404218674,0.00025926067610271275,0.0,0.0,0.0,0.0,-0.0014118548715487123,-0.001997312530875206,-0.00024123363255057484,0.998474657535553,0.0,0.0,0.0,-49.914573669433594,10.324105262756348,5.169343948364258,9034.63671875,0
810.6180000000004,0.011679280549287796,-0.03571019321680069,0.00021167879458516836,0.0,0.0,0.0,0.0,0.0019603960681706667,0.00034250758471898735,-0.0008645999478176236,0.9996609091758728,0.0,0.0,0.0,-49.96311950683594,10.31664752960205,5.193210124969482,9043.4228515625,0
820.5190000000002,0.011766958981752396,-0.035451460629701614,0.00021742908575106412,0.0,0.0,0.0,0.0,0.0014342855429276824,0.005899593234062195,-0.0005816416232846677,0.9982082843780518,0.0,0.0,0.0,-49.91887283325195,10.337756156921387,5.1639533042907715,9035.416015625,0
830.3889999999992,0.01174438651651144,-0.03563534468412399,0.0001479607744840905,0.0,0.0,0.0,0.0,-0.00026803408400155604,0.0006391110364347696,-0.00020861568918917328,0.9980161190032959,0.0,0.0,0.0,-49.97005081176758,10.322712898254395,5.171836853027344,9044.677734375,0
840.2870000000003,0.011736923828721046,-0.03551829606294632,0.00021417498646769673,0.0,0.0,0.0,0.0,0.0006114747375249863,-0.005603878293186426,0.00036609949893318117,0.9985978007316589,0.0,0.0,0.0,-49.92109298706055,10.306984901428223,5.168771266937256,9035.81640625,0
850.1669999999995,0.011706407181918621,-0.03567885607481003,0.0001533410686533898,0.0,0.0,0.0,0.0,0.0015985972713679075,-0.0005394101608544588,0.0017553967190906405,0.9979159235954285,0.0,0.0,0.0,-49.97087860107422,10.299256324768066,5.206203937530518,9044.828125,0
860.0640000000003,0.011721648275852203,-0.03551974892616272,0.00021419484983198345,0.0,0.0,0.0,0.0,-0.000954328163061291,-0.0006055417470633984,-0.000901844585314393,0.9984514713287354,0.0,0.0,0.0,-49.92726516723633,10.298571586608887,5.194791316986084,9036.93359375,0
869.9390000000003,0.011724657379090786,-0.03550045192241669,0.00020930904429405928,0.0,0.0,0.0,0.0,-0.0028342113364487886,0.0005592273082584143,-0.002124142600223422,0.9992069602012634,0.0,0.0,0.0,-49.87948226928711,10.287808418273926,5.187180042266846,9028.2861328125,0
879.8259999999991,0.011686610989272594,-0.035412825644016266,0.00029642213485203683,0.0,0.0,0.0,0.0,-0.004225437995046377,-0.0037530979607254267,-0.0006859137793071568,1.0009862184524536,0.0,0.0,0.0,-49.842777252197266,10.2796630859375,5.157313346862793,9021.6416015625,0
889.7049999999999,0.011682274751365185,-0.03538970276713371,0.0002990773937199265,0.0,0.0,0.0,0.0,0.0011287907836958766,0.004619381856173277,-0.00042030162876471877,1.0003057718276978,0.0,0.0,0.0,-49.795040130615234,10.273892402648926,5.157916069030762,9013.001953125,0
899.6010000000006,0.011640476994216442,-0.035329435020685196,0.00037293892819434404,0.0,0.0,0.0,0.0,3.1815005058888346e-05,0.0019896142184734344,-9.241571387974545e-05,0.9994263052940369,0.0,0.0,0.0,-49.76069259643555,10.25930118560791,5.127399921417236,9006.78515625,0
909.4760000000006,0.011629238724708557,-0.03559022396802902,0.0002639265439938754,0.0,0.0,0.0,0.0,-0.0017319510225206614,0.00421837018802762,-0.001921319868415594,0.9983678460121155,0.0,0.0,0.0,-49.81721878051758,10.239572525024414,5.1754655838012695,9017.015625,0
919.3819999999996,0.011638359166681767,-0.035447753965854645,0.0003351307241246104,0.0,0.0,0.0,0.0,0.0003215016913600266,0.0008234567358158529,0.0004358688020147383,0.997477650642395,0.0,0.0,0.0,-49.78527069091797,10.255101203918457,5.1331024169921875,9011.2333984375,0
929.2469999999994,0.011649600230157375,-0.035653527826070786,0.0002830679004546255,0.0,0.0,0.0,0.0,0.00029036912019364536,0.0035303416661918163,4.29173705924768e-05,0.9984605312347412,0.0,0.0,0.0,-49.84209060668945,10.251913070678711,5.151825904846191,9021.517578125,0
939.152,0.011711714789271355,-0.03546368330717087,0.0002926357847172767,0.0,0.0,0.0,0.0,-0.003015926806256175,-0.003623375203460455,-0.0019421763718128204,0.9989832639694214,0.0,0.0,0.0,-49.806705474853516,10.2631196975708,5.137473106384277,9015.1123046875,0
949.0300000000007,0.011624323204159737,-0.03564423322677612,0.000201373768504709,0.0,0.0,0.0,0.0,-0.002795790322124958,-0.0007918589981272817,-0.0005312874563969672,0.9982099533081055,0.0,0.0,0.0,-49.86329650878906,10.245772361755371,5.141719818115234,9025.35546875,0
958.9110000000001,0.011678437702357769,-0.035467930138111115,0.00020345216034911573,0.0,0.0,0.0,0.0,0.005095453932881355,-0.006886664777994156,0.005119954235851765,0.9979977607727051,0.0,0.0,0.0,-49.831363677978516,10.261008262634277,5.1222662925720215,9019.5751953125,0
968.7970000000005,0.011614281684160233,-0.035638418048620224,0.00012277848145458847,0.0,0.0,0.0,0.0,0.0032918790820986032,0.0035418428014963865,0.0023811289574950933,0.9974799156188965,0.0,0.0,0.0,-49.88427734375,10.242114067077637,5.15016508102417,9029.1533203125,0
978.6859999999997,0.011649049818515778,-0.03550199419260025,0.00012423988664522767,0.0,0.0,0.0,0.0,0.0038925050757825375,0.0020669237710535526,0.0023811582941561937,0.9998881816864014,0.0,0.0,0.0,-49.846214294433594,10.248072624206543,5.12433385848999,9022.263671875,0
988.5609999999997,0.011678890325129032,-0.0356837697327137,7.184306741692126e-05,0.0,0.0,0.0,0.0,0.00047898537013679743,-0.0005216356366872787,0.0014662769390270114,1.0004897117614746,0.0,0.0,0.0,-49.899539947509766,10.235697746276855,5.139194965362549,9031.916015625,0
998.4560000000001,0.01172524131834507,-0.03550402820110321,8.586431067669764e-05,0.0,0.0,0.0,0.0,0.004274878650903702,0.003018004819750786,-0.0013969424180686474,0.9974998235702515,0.0,0.0,0.0,-49.86326599121094,10.246695518493652,5.128573894500732,9025.349609375,0
1008.3320000000003,0.011729292571544647,-0.035680580884218216,2.4401091650361195e-05,0.0,0.0,0.0,0.0,0.00017034097982104868,-0.0010199977550655603,7.112820458132774e-05,0.9963180422782898,0.0,0.0,0.0,-49.91490936279297,10.232739448547363,5.142762660980225,9034.697265625,0
1018.2270000000008,0.011759437620639801,-0.03551231697201729,5.203088221605867e-05,0.0,0.0,0.0,0.0,0.0005971516948193312,0.00015441606228705496,0.002349741756916046,0.9982057809829712,0.0,0.0,0.0,-49.878509521484375,10.242254257202148,5.127484321594238,9028.109375,0
1028.107,0.011731486767530441,-0.035652969032526016,-7.50208073441172e-06,0.0,0.0,0.0,0.0,0.0005508169997483492,-0.0008472244953736663,0.0005090812919661403,0.9984571933746338,0.0,0.0,0.0,-49.93070602416992,10.235164642333984,5.144554615020752,9037.556640625,0
1038.0059999999994,0.011758485808968544,-0.035507455468177795,4.3230193114141e-06,0.0,0.0,0.0,0.0,-0.002141234464943409,-0.0010502885561436415,-0.00099805963691324,0.9976673722267151,0.0,0.0,0.0,-49.897499084472656,10.240588188171387,5.131909370422363,9031.5458984375,0
1047.8850000000002,0.01173621416091919,-0.035650648176670074,-5.7413555623497814e-05,0.0,0.0,0.0,0.0,0.002203758340328932,-0.0005329736159183085,0.0036089951172471046,1.000008225440979,0.0,0.0,0.0,-49.94933319091797,10.238521575927734,5.144561767578125,9040.9287109375,0
1057.7700000000004,0.011739755980670452,-0.035502638667821884,-1.1520765838213265e-05,0.0,0.0,0.0,0.0,0.0014235646231099963,0.002805535914376378,0.000247166957706213,1.001047134399414,0.0,0.0,0.0,-49.91461944580078,10.23892593383789,5.128094673156738,9034.64453125,0
1067.6589999999997,0.011739644221961498,-0.035657599568367004,-6.745662540197372e-05,0.0,0.0,0.0,0.0,0.004228250589221716,0.0018538772128522396,-0.0010478614130988717,1.0035537481307983,0.0,0.0,0.0,-49.96488571166992,10.231205940246582,5.128207683563232,9043.7431640625,0
1077.539999999999,0.011749629862606525,-0.03549691662192345,-1.7762418792699464e-05,0.0,0.0,0.0,0.0,-0.0008764834492467344,-0.0017064983258023858,-0.0013821733882650733,1.0005313158035278,0.0,0.0,0.0,-49.92756271362305,10.22866153717041,5.1036481857299805,9036.9873046875,0
1087.4279999999999,0.011740786954760551,-0.03565523028373718,-7.48511592973955e-05,0.0,0.0,0.0,0.0,-0.0011456395732238889,0.0007304850732907653,-0.0022231542970985174,1.000593900680542,0.0,0.0,0.0,-49.97957992553711,10.221325874328613,5.121957302093506,9046.4033203125,0
1097.313,0.011727981269359589,-0.03552341088652611,-3.169240244460525e-06,0.0,0.0,0.0,0.0,-0.000628395879175514,0.0014176733093336225,-0.001835910021327436,1.0010026693344116,0.0,0.0,0.0,-49.94344711303711,10.222212791442871,5.105129718780518,9039.86328125,0
1107.196,0.0117225656285882,-0.035649094730615616,-3.906939673470333e-05,0.0,0.0,0.0,0.0,-0.0007022117497399449,-0.001061139046214521,-0.002228234428912401,0.9979680180549622,0.0,0.0,0.0,-49.992557525634766,10.212204933166504,5.1205339431762695,9048.751953125,0
1117.0849999999991,0.011690964922308922,-0.03554399311542511,5.2216160838725045e-05,0.0,0.0,0.0,0.0,-0.0013750693760812283,0.0028909232933074236,1.31041279018973e-05,0.9989133477210999,0.0,0.0,0.0,-49.95079803466797,10.208074569702148,5.1010661125183105,9041.1943359375,0
1126.9670000000006,0.011671851389110088,-0.0356406606733799,2.976932591991499e-05,0.0,0.0,0.0,0.0,0.0003662508388515562,-0.0005750454729422927,-0.0032487129792571068,0.9973448514938354,0.0,0.0,0.0,-49.99962615966797,10.20441722869873,5.103700160980225,9050.0322265625,0
1136.857,0.011683350428938866,-0.03549180552363396,8.197753777494654e-05,0.0,0.0,0.0,0.0,-0.001273776637390256,0.002008955692872405,-0.0005858477670699358,1.0003210306167603,0.0,0.0,0.0,-49.96329116821289,10.212027549743652,5.0763115882873535,9043.4541015625,0
1146.7479999999996,0.011632494628429413,-0.03562435880303383,2.8425816708477214e-05,0.0,0.0,0.0,0.0,0.000502349401358515,0.004439151380211115,0.002451476640999317,0.9994046688079834,0.0,0.0,0.0,-50.011199951171875,10.201576232910156,5.081743240356445,9052.126953125,0
1156.6309999999994,0.011672991327941418,-0.03543170168995857,6.246736302273348e-05,0.0,0.0,0.0,0.0,0.0009615419548936188,-0.0016694810474291444,-0.0019404395716264844,0.9993517398834229,0.0,0.0,0.0,-49.96669006347656,10.213351249694824,5.060170650482178,9044.0693359375,0
1166.5139999999992,0.011673026718199253,-0.035402167588472366,6.163563375594094e-05,0.0,0.0,0.0,0.0,0.003712770761922002,0.0033159914892166853,0.002859431318938732,1.0007203817367554,0.0,0.0,0.0,-49.918033599853516,10.195463180541992,5.053263187408447,9035.2626953125,0
1176.3979999999992,0.0116034597158432,-0.035337332636117935,0.00018253443704452366,0.0,0.0,0.0,0.0,0.0003110887191724032,-0.00014746125089004636,-0.0010080233914777637,1.002355694770813,0.0,0.0,0.0,-49.88115692138672,10.16928768157959,5.029562473297119,9028.5888671875,0
1186.2829999999994,0.011682933196425438,-0.03555278107523918,0.00016627840523142368,0.0,0.0,0.0,0.0,0.001526556327007711,0.0032590068876743317,0.0004877800529357046,1.0003529787063599,0.0,0.0,0.0,-49.935482025146484,10.166725158691406,5.08288049697876,9038.421875,0
1196.1730000000007,0.011696026660501957,-0.035417817533016205,0.00023372829309664667,0.0,0.0,0.0,0.0,-0.002732682740315795,-4.076425830135122e-05,-0.001820439356379211,0.9986186027526855,0.0,0.0,0.0,-49.89787673950195,10.167459487915039,5.061012268066406,9031.615234375,0
1206.0599999999995,0.011697816662490368,-0.03558192029595375,0.00020108133321627975,0.0,0.0,0.0,0.0,0.002811795100569725,0.005206150934100151,0.0028682644478976727,0.999199390411377,0.0,0.0,0.0,-49.94942855834961,10.160377502441406,5.086641311645508,9040.9453125,0
1215.9490000000005,0.011708483099937439,-0.0354338139295578,0.0002784166135825217,0.0,0.0,0.0,0.0,0.0013305016327649355,0.0018982967594638467,0.0009989015525206923,0.9984357953071594,0.0,0.0,0.0,-49.89959716796875,10.14520263671875,5.08627986907959,9031.92578125,0
1225.8400000000001,0.011697445996105671,-0.035612594336271286,0.0002320378989679739,0.0,0.0,0.0,0.0,-0.00024265440879389644,-0.0012698945356532931,-0.0010910285636782646,0.9977917075157166,0.0,0.0,0.0,-49.95240783691406,10.136411666870117,5.107030868530273,9041.4853515625,0
1235.7180000000008,0.011706375516951084,-0.03548390045762062,0.00029504892881959677,0.0,0.0,0.0,0.0,-0.0031400625593960285,0.004067684058099985,0.0011803818633779883,0.9980617165565491,0.0,0.0,0.0,-49.9036979675293,10.123579025268555,5.105267524719238,9032.66796875,0
1245.5969999999998,0.01170977670699358,-0.03567879647016525,0.0002425597485853359,0.0,0.0,0.0,0.0,0.0010103005915880203,-0.00011305737280054018,0.0003483011678326875,0.9994059205055237,0.0,0.0,0.0,-49.95640182495117,10.115083694458008,5.124876499176025,9042.20703125,0
1255.4869999999992,0.011732097715139389,-0.035509489476680756,0.0003059693844988942,0.0,0.0,0.0,0.0,0.0011097985552623868,-0.0006219430943019688,-0.0030087793711572886,0.999104917049408,0.0,0.0,0.0,-49.91571807861328,10.116425514221191,5.110327243804932,9034.84375,0
1265.3719999999994,0.0116651002317667,-0.03566780313849449,0.00024210917763412,0.0,0.0,0.0,0.0,0.0008175286930054426,-0.00014066360017750412,-0.0015391602646559477,1.0004310607910156,0.0,0.0,0.0,-49.970882415771484,10.102250099182129,5.126057147979736,9044.828125,0
1275.2579999999998,0.011695091612637043,-0.035480547696352005,0.00030317099299281836,0.0,0.0,0.0,0.0,0.0006849814672023058,0.003207788337022066,-0.0027964282780885696,1.0003565549850464,0.0,0.0,0.0,-49.93061828613281,10.10588550567627,5.101047039031982,9037.541015625,0
1285.1419999999998,0.011700217612087727,-0.03568607568740845,0.0002423210971755907,0.0,0.0,0.0,0.0,-0.002922540530562401,0.0059570386074483395,-2.823305294441525e-06,0.9991558194160461,0.0,0.0,0.0,-49.980918884277344,10.091797828674316,5.127710819244385,9046.6455078125,0
1295.0249999999996,0.011724350042641163,-0.0355108305811882,0.0003064219490624964,0.0,0.0,0.0,0.0,0.0007686709868721664,-0.0014290917897596955,0.0010026637464761734,0.9985518455505371,0.0,0.0,0.0,-49.941680908203125,10.10620403289795,5.109463691711426,9039.5439453125,0
1304.9189999999999,0.01172217819839716,-0.035482630133628845,0.00031608768040314317,0.0,0.0,0.0,0.0,-0.0004572233301587403,0.0006944341585040092,-0.0008398083155043423,1.000389814376831,0.0,0.0,0.0,-49.89273452758789,10.095756530761719,5.102424144744873,9030.68359375,0
1314.7970000000005,0.011688572354614735,-0.03539339080452919,0.00039909424958750606,0.0,0.0,0.0,0.0,0.0026007939595729113,0.0029151306953281164,-0.0012299208901822567,0.9968946576118469,0.0,0.0,0.0,-49.85724639892578,10.090311050415039,5.086637020111084,9024.2607421875,0
1324.6849999999995,0.011698580347001553,-0.03564884513616562,0.0003164178051520139,0.0,0.0,0.0,0.0,-0.0012500269804149866,-0.0007639216491952538,-0.0012616398744285107,0.9985617995262146,0.0,0.0,0.0,-49.913360595703125,10.070782661437988,5.136167049407959,9034.41796875,0
1334.5730000000003,0.01171538420021534,-0.035494789481163025,0.00037723692366853356,0.0,0.0,0.0,0.0,0.001255749724805355,0.0021626807283610106,0.0037740578409284353,0.9994576573371887,0.0,0.0,0.0,-49.87674331665039,10.081464767456055,5.123722553253174,9027.7900390625,0
1344.4599999999991,0.01168565358966589,-0.03566134721040726,0.0003227092092856765,0.0,0.0,0.0,0.0,-0.003516163444146514,-0.0021876138634979725,0.002269486663863063,0.9993053674697876,0.0,0.0,0.0,-49.92910385131836,10.068367004394531,5.144931793212891,9037.2666015625,0
1354.3400000000001,0.011734952218830585,-0.035519495606422424,0.00032263691537082195,0.0,0.0,0.0,0.0,0.0003383803414180875,0.0032710544764995575,-0.0005588774802163243,0.9974793791770935,0.0,0.0,0.0,-49.8886833190918,10.086288452148438,5.135451793670654,9029.9501953125,0
1364.232,0.01165695022791624,-0.035650741308927536,0.0002600892330519855,0.0,0.0,0.0,0.0,-0.0014624007744714618,0.0013712673680856824,0.0015554559649899602,0.9973304271697998,0.0,0.0,0.0,-49.9424934387207,10.071451187133789,5.131503582000732,9039.6904296875,0
1374.1180000000004,0.011698349379003048,-0.03547714650630951,0.00027681695064529777,0.0,0.0,0.0,0.0,0.000832931196782738,0.00041757378494367003,-0.00018211650603916496,0.9985902905464172,0.0,0.0,0.0,-49.90739059448242,10.083044052124023,5.107558250427246,9033.3369140625,0
1383.9969999999994,0.011669949628412724,-0.03566509112715721,0.00020434445468708873,0.0,0.0,0.0,0.0,-0.0012016936670988798,0.0018237456679344177,0.0011478096712380648,0.9996083974838257,0.0,0.0,0.0,-49.960899353027344,10.072896957397461,5.114840507507324,9043.0224609375,0
1393.884,0.011722608469426632,-0.03546522185206413,0.00021019861742388457,0.0,0.0,0.0,0.0,0.0017440830124542117,0.0015848386101424694,-0.0008406648994423449,1.0000202655792236,0.0,0.0,0.0,-49.923946380615234,10.091469764709473,5.106263637542725,9036.333984375,0
1403.7780000000002,0.01171346940100193,-0.03543473407626152,0.00020272906112950295,0.0,0.0,0.0,0.0,0.0002784544776659459,0.001296569244004786,-0.000681385223288089,1.0001873970031738,0.0,0.0,0.0,-49.87642288208008,10.075369834899902,5.092654228210449,9027.732421875,0
1413.6630000000005,0.011695122346282005,-0.03531256318092346,0.00025164062390103936,0.0,0.0,0.0,0.0,-0.0016197580844163895,0.0025733034126460552,-0.0011253071716055274,0.9987359642982483,0.0,0.0,0.0,-49.84469985961914,10.07373046875,5.0647454261779785,9021.990234375,0
1423.5480000000007,0.011690862476825714,-0.03552347794175148,0.00017720011237543076,0.0,0.0,0.0,0.0,-0.0012230834690853953,-0.0031663149129599333,0.003210309660062194,1.0000916719436646,0.0,0.0,0.0,-49.90217208862305,10.065397262573242,5.100057601928711,9032.3916015625,0
1433.4400000000005,0.01169219147413969,-0.03542068973183632,0.00020603647863026708,0.0,0.0,0.0,0.0,0.0007770904339849949,-0.0015853488584980369,0.00032588531030341983,1.0004647970199585,0.0,0.0,0.0,-49.86423873901367,10.06822681427002,5.089138031005859,9025.5263671875,0
1443.316999999999,0.011633176356554031,-0.035595037043094635,0.00012565702490974218,0.0,0.0,0.0,0.0,0.0004372091207187623,0.00014335988089442253,-0.000738919829018414,0.9973379969596863,0.0,0.0,0.0,-49.91952896118164,10.049132347106934,5.108534812927246,9035.5341796875,0
1453.196,0.011664233170449734,-0.03541894629597664,0.00014298329188022763,0.0,0.0,0.0,0.0,-0.00019543475355021656,0.0014998905826359987,0.004242926370352507,0.9992149472236633,0.0,0.0,0.0,-49.8854866027832,10.056906700134277,5.08196496963501,9029.3720703125,0
1463.0840000000007,0.011697454378008842,-0.03563583269715309,7.73588617448695e-05,0.0,0.0,0.0,0.0,0.0022017466835677624,-0.003360339440405369,0.0006597649771720171,0.9992617964744568,0.0,0.0,0.0,-49.93593215942383,10.046628952026367,5.108582973480225,9038.501953125,0
1472.9680000000008,0.011703340336680412,-0.03549649193882942,0.00011225605703657493,0.0,0.0,0.0,0.0,0.0007592973997816443,0.0004263131704647094,-6.41568040009588e-05,1.0001624822616577,0.0,0.0,0.0,-49.89949035644531,10.053467750549316,5.085599422454834,9031.90625,0
1482.8610000000008,0.011727339588105679,-0.03568384423851967,6.208359263837337e-05,0.0,0.0,0.0,0.0,-0.000309729395667091,-0.003940655384212732,0.004458707757294178,1.0003769397735596,0.0,0.0,0.0,-49.95473861694336,10.040778160095215,5.09918737411499,9041.90625,0
1492.7420000000002,0.011700524017214775,-0.0355662927031517,0.000136614398797974,0.0,0.0,0.0,0.0,-0.001044795266352594,-0.0060378690250217915,0.00036629688111133873,0.9989418983459473,0.0,0.0,0.0,-49.91526412963867,10.045710563659668,5.094644546508789,9034.76171875,0
1502.6260000000002,0.011641803197562695,-0.03573251888155937,6.782414857298136e-05,0.0,0.0,0.0,0.0,0.0015406791353598237,-0.0036299233324825764,-0.000890251831151545,0.9986754655838013,0.0,0.0,0.0,-49.96989822387695,10.038890838623047,5.1138081550598145,9044.650390625,0
1512.5110000000004,0.011626257561147213,-0.035595204681158066,0.000130714091937989,0.0,0.0,0.0,0.0,0.0015263232635334134,-0.0024007544852793217,0.0007787907379679382,0.9987373948097229,0.0,0.0,0.0,-49.93119430541992,10.036348342895508,5.101337432861328,9037.64453125,0
1522.4079999999994,0.011630586348474026,-0.03577316179871559,8.322358189616352e-05,0.0,0.0,0.0,0.0,0.0027168849483132362,0.003122163936495781,-0.0009669585269875824,1.0004749298095703,0.0,0.0,0.0,-49.98304748535156,10.028742790222168,5.128966331481934,9047.03125,0
1532.2870000000003,0.011633188463747501,-0.03559945896267891,0.00013775101979263127,0.0,0.0,0.0,0.0,-0.001320623210631311,-0.0036431364715099335,0.002147221239283681,0.9994351267814636,0.0,0.0,0.0,-49.945220947265625,10.028718948364258,5.096094608306885,9040.18359375,0
1542.1720000000005,0.011610307730734348,-0.035701002925634384,0.00012080036685802042,0.0,0.0,0.0,0.0,-0.0006677756900899112,-0.0005000102100893855,0.0013865630608052015,0.9952988028526306,0.0,0.0,0.0,-49.99679946899414,10.02522087097168,5.110646724700928,9049.51953125,0
1552.0529999999999,0.01161243673413992,-0.035547565668821335,0.00016078184125944972,0.0,0.0,0.0,0.0,0.004898453131318092,-0.0002449160674586892,0.00016155415505636483,0.997504711151123,0.0,0.0,0.0,-49.94775390625,10.015304565429688,5.110688209533691,9040.642578125,0
1561.9400000000005,0.011588002555072308,-0.035523850470781326,0.00015466794138774276,0.0,0.0,0.0,0.0,0.00022476541926153004,0.0029574783984571695,-0.0010430797701701522,0.9986645579338074,0.0,0.0,0.0,-49.89908218383789,9.995985984802246,5.103878498077393,9031.8330078125,0
1571.8279999999995,0.01159547921270132,-0.0352967344224453,0.00018690551223699003,0.0,0.0,0.0,0.0,-0.0016909047262743115,0.0027186418883502483,-0.0018033790402114391,0.9988663792610168,0.0,0.0,0.0,-49.85968780517578,10.020212173461914,5.063111305236816,9024.7021484375,0
1581.7099999999991,0.011664106510579586,-0.0355474092066288,0.00014042510883882642,0.0,0.0,0.0,0.0,0.0024469667114317417,0.00407475046813488,-0.00014214242401067168,1.0001132488250732,0.0,0.0,0.0,-49.914459228515625,10.023052215576172,5.119004726409912,9034.6162109375,0
1591.6020000000008,0.011620895005762577,-0.03546025976538658,0.00020779797341674566,0.0,0.0,0.0,0.0,0.0003098949964623898,-0.002260237466543913,-0.0020655810367316008,0.9984890222549438,0.0,0.0,0.0,-49.8763427734375,10.017402648925781,5.097754001617432,9027.716796875,0
1601.4809999999998,0.011586349457502365,-0.035624463111162186,0.00015488005010411143,0.0,0.0,0.0,0.0,0.000456335605122149,-0.0012201713398098946,0.0005987438489682972,0.9994096755981445,0.0,0.0,0.0,-49.9310417175293,10.00430965423584,5.131801128387451,9037.6171875,0
1611.3729999999996,0.011566407978534698,-0.03550264984369278,0.00020056833454873413,0.0,0.0,0.0,0.0,-0.004555768333375454,0.0042661079205572605,0.0008801508811302483,0.9967780709266663,0.0,0.0,0.0,-49.892093658447266,10.00484848022461,5.103303909301758,9030.5673828125,0
1621.2579999999998,0.011589433066546917,-0.03569524362683296,0.0001595785142853856,0.0,0.0,0.0,0.0,0.0006803230498917401,1.735362093313597e-05,-0.001397258136421442,0.9988499879837036,0.0,0.0,0.0,-49.94563293457031,10.0095853805542,5.125744819641113,9040.2587890625,0
1631.1450000000004,0.011561245657503605,-0.035572998225688934,0.0002154221583623439,0.0,0.0,0.0,0.0,-0.001239706645719707,0.0025648355949670076,-0.001753241871483624,0.9999358057975769,0.0,0.0,0.0,-49.90855407714844,10.018414497375488,5.11325216293335,9033.546875,0
1641.0239999999994,0.011623733676970005,-0.03577370196580887,0.00018966247444041073,0.0,0.0,0.0,0.0,-0.000488394231069833,0.003949460573494434,-0.0047521586529910564,1.000372052192688,0.0,0.0,0.0,-49.966209411621094,10.016826629638672,5.141709804534912,9043.982421875,0
1650.9120000000003,0.011685848236083984,-0.035521864891052246,0.0001895556488307193,0.0,0.0,0.0,0.0,0.0010203373385593295,-0.004436222370713949,0.0006972055998630822,0.9996358752250671,0.0,0.0,0.0,-49.92582702636719,10.042998313903809,5.111274719238281,9036.673828125,0
1660.8009999999995,0.011679206043481827,-0.03571134805679321,0.000136426038807258,0.0,0.0,0.0,0.0,0.0017975046066567302,-0.0018964194459840655,0.002879422390833497,0.9965659976005554,0.0,0.0,0.0,-49.97884750366211,10.029534339904785,5.142329216003418,9046.2705078125,0
1670.688,0.011648331768810749,-0.03559316694736481,0.0001975977938855067,0.0,0.0,0.0,0.0,-0.00027331028832122684,-0.006242230534553528,-0.0006887669442221522,0.99811851978302,0.0,0.0,0.0,-49.93693161010742,10.028942108154297,5.131459712982178,9038.68359375,0
1680.5830000000005,0.011619006283581257,-0.035574834793806076,0.0001932279410539195,0.0,0.0,0.0,0.0,-0.0029648891650140285,0.0018627491081133485,-0.003540358040481806,0.9986352920532227,0.0,0.0,0.0,-49.88921356201172,10.01424789428711,5.13878870010376,9030.0458984375,0
1690.4619999999995,0.011617126874625683,-0.03538620099425316,0.0002236574364360422,0.0,0.0,0.0,0.0,-0.0021962644532322884,-0.004941212013363838,-0.00018507891218177974,0.999589204788208,0.0,0.0,0.0,-49.85245132446289,10.037487983703613,5.110764980316162,9023.392578125,0
1700.3469999999998,0.011646407656371593,-0.035603854805231094,0.00018136836297344416,0.0,0.0,0.0,0.0,0.0021040227729827166,0.005172548349946737,0.0013225475559011102,0.9994674324989319,0.0,0.0,0.0,-49.91205978393555,10.039128303527832,5.164897918701172,9034.1826171875,0
1710.2270000000008,0.011647638864815235,-0.03545709326863289,0.00021683516388293356,0.0,0.0,0.0,0.0,-0.001048991922289133,0.00020043531549163163,0.0005388648714870214,0.9979844093322754,0.0,0.0,0.0,-49.87689208984375,10.040752410888672,5.138630390167236,9027.8173828125,0
1720.1180000000004,0.011637314222753048,-0.03561491519212723,0.0001806652726372704,0.0,0.0,0.0,0.0,-0.0010972082382068038,0.0004975725896656513,-0.0004041321808472276,0.9988918900489807,0.0,0.0,0.0,-49.9382209777832,10.03846549987793,5.164013385772705,9038.9169921875,0
1730.0069999999996,0.011652096174657345,-0.03548833355307579,0.0001856731396401301,0.0,0.0,0.0,0.0,-0.0006111912662163377,-0.0010283846640959382,-0.0008730939589440823,0.9992789030075073,0.0,0.0,0.0,-49.90165328979492,10.048127174377441,5.149010181427002,9032.298828125,0
1739.8889999999992,0.011634494177997112,-0.03562917187809944,0.00015070047811605036,0.0,0.0,0.0,0.0,0.0004621251136995852,0.00036963430466130376,0.001752784475684166,0.9995284080505371,0.0,0.0,0.0,-49.9625358581543,10.040749549865723,5.1615891456604,9043.318359375,0
1749.7739999999994,0.01164698600769043,-0.03548199310898781,0.00016796212003100663,0.0,0.0,0.0,0.0,-0.002071675145998597,-0.0019572018645703793,0.000211281148949638,1.0003061294555664,0.0,0.0,0.0,-49.925628662109375,10.04465103149414,5.131795883178711,9036.6376953125,0
1759.6589999999997,0.011613906361162663,-0.03563714027404785,0.00011717493180185556,0.0,0.0,0.0,0.0,0.0001638000103412196,0.003774455515667796,0.000833595753647387,1.0004926919937134,0.0,0.0,0.0,-49.981666564941406,10.039112091064453,5.164663314819336,9046.7802734375,0
1769.539999999999,0.011664852499961853,-0.035450588911771774,0.00010024032962974161,0.0,0.0,0.0,0.0,0.0005606096819974482,0.0016799765871837735,0.0008467481820844114,1.0001420974731445,0.0,0.0,0.0,-49.94325637817383,10.04784870147705,5.133767127990723,9039.828125,0
1779.4300000000003,0.011660936288535595,-0.03559030964970589,6.707652210025117e-05,0.0,0.0,0.0,0.0,-0.0013556836638599634,-0.0023691325914114714,-0.0019290480995550752,0.9981693625450134,0.0,0.0,0.0,-49.998252868652344,10.039589881896973,5.148596286773682,9049.7822265625,0
1789.3240000000005,0.011657915078103542,-0.03548445552587509,8.974743104772642e-05,0.0,0.0,0.0,0.0,-0.0027036755345761776,0.001247326610609889,0.0038163154385983944,1.0001710653305054,0.0,0.0,0.0,-49.958656311035156,10.040607452392578,5.1326704025268555,9042.615234375,0
1799.205,0.01167983002960682,-0.03565635532140732,5.3261050197761506e-05,0.0,0.0,0.0,0.0,0.0023987663444131613,0.00693367887288332,0.0005665741045959294,1.0002132654190063,0.0,0.0,0.0,-50.01166915893555,10.04257869720459,5.14898157119751,9052.2119140625,0
1809.0900000000001,0.011641191318631172,-0.03556200489401817,0.0001245493913302198,0.0,0.0,0.0,0.0,-3.236510747228749e-05,0.0010318373097106814,0.0006500286981463432,0.9980900883674622,0.0,0.0,0.0,-49.97175979614258,10.031621932983398,5.110104560852051,9044.98828125,0
1818.9709999999995,0.011657687835395336,-0.03573472052812576,9.018417040351778e-05,0.0,0.0,0.0,0.0,-0.0014407755807042122,-0.001308778184466064,-0.00122353236656636,0.9979380369186401,0.0,0.0,0.0,-50.023807525634766,10.029747009277344,5.1268110275268555,9054.408203125,0
1828.8580000000002,0.011644426733255386,-0.035598184913396835,0.0001485643006162718,0.0,0.0,0.0,0.0,0.0013755573891103268,0.003923814278095961,0.0022139037027955055,0.9990744590759277,0.0,0.0,0.0,-49.98820877075195,10.033879280090332,5.107778549194336,9047.9658203125,0
1838.7389999999996,0.011651069857180119,-0.0357535220682621,0.00012051088560838252,0.0,0.0,0.0,0.0,-0.0032090432941913605,-0.003092818195000291,0.003001607721671462,0.998614490032196,0.0,0.0,0.0,-50.04066848754883,10.025861740112305,5.125661373138428,9057.4609375,0
1848.6239999999998,0.011652651242911816,-0.03558695688843727,0.00017326479428447783,0.0,0.0,0.0,0.0,0.0018918497953563929,-0.004890217911452055,-0.00045982078881934285,0.9990018606185913,0.0,0.0,0.0,-49.990997314453125,10.016955375671387,5.128365516662598,9048.4697265625,0
1858.5120000000006,0.011626021936535835,-0.03557160869240761,0.00017201047739945352,0.0,0.0,0.0,0.0,-0.0009664233075454831,-0.0008576990221627057,-0.0004540348600130528,0.998080313205719,0.0,0.0,0.0,-49.94271469116211,10.001677513122559,5.133063316345215,9039.73046875,0
1868.4079999999994,0.01161098014563322,-0.03545590490102768,0.0001982497633434832,0.0,0.0,0.0,0.0,0.002606484340503812,0.004618465900421143,0.001621111179701984,0.9965999722480774,0.0,0.0,0.0,-49.9058837890625,10.005599021911621,5.111205101013184,9033.064453125,0
1878.2839999999997,0.011580423451960087,-0.035433802753686905,0.00019578132196329534,0.0,0.0,0.0,0.0,0.0007304790779016912,-0.002268650336191058,0.0014635296538472176,0.998641848564148,0.0,0.0,0.0,-49.8574333190918,9.989276885986328,5.1076226234436035,9024.2939453125,0
1888.1659999999993,0.01155169028788805,-0.035328809171915054,0.00021902068692725152,0.0,0.0,0.0,0.0,0.00015102817269507796,-0.0004077344201505184,-0.0009450551006011665,1.001872181892395,0.0,0.0,0.0,-49.82547378540039,9.996053695678711,5.090902328491211,9018.5107421875,0
1898.0550000000003,0.011515137739479542,-0.035302598029375076,0.00021852109057363123,0.0,0.0,0.0,0.0,-0.0007907008402980864,0.002830902813002467,-0.0005288351094350219,0.9974406361579895,0.0,0.0,0.0,-49.77770233154297,9.984498023986816,5.0866522789001465,9009.86328125,0
1907.9519999999993,0.01146920770406723,-0.035212062299251556,0.0002549043856561184,0.0,0.0,0.0,0.0,0.00024435087107121944,0.0003949022211600095,-0.0014440767699852586,0.9981738924980164,0.0,0.0,0.0,-49.74604797363281,9.985084533691406,5.070071220397949,9004.1337890625,0
1917.825999999999,0.01164306327700615,-0.03556438162922859,0.0002203987241955474,0.0,0.0,0.0,0.0,-0.0012930243974551558,-0.00044837576569989324,-0.001987459836527705,0.9980179667472839,0.0,0.0,0.0,-49.81681442260742,9.99001693725586,5.171539783477783,9016.943359375,0
1927.7270000000008,0.011674501933157444,-0.03539017215371132,0.0002467406156938523,0.0,0.0,0.0,0.0,-0.00020445251720957458,-0.005360880400985479,0.001577005605213344,0.9965634346008301,0.0,0.0,0.0,-49.78296661376953,10.01606273651123,5.141285419464111,9010.81640625,0
1937.5930000000008,0.011684324592351913,-0.03562692925333977,0.0001761507010087371,0.0,0.0,0.0,0.0,-0.0007343209581449628,-0.0009236395708285272,0.000398347299778834,0.9967336058616638,0.0,0.0,0.0,-49.84797668457031,10.005938529968262,5.176867961883545,9022.5830078125,0
1947.4850000000006,0.011635573580861092,-0.03556930273771286,0.00024776722420938313,0.0,0.0,0.0,0.0,-0.0033561012241989374,0.002532294485718012,-0.00012963576591573656,0.9970279335975647,0.0,0.0,0.0,-49.815372467041016,10.002340316772461,5.158037185668945,9016.681640625,0
1957.3649999999998,0.011608254164457321,-0.03555837273597717,0.00023951948969624937,0.0,0.0,0.0,0.0,-0.0009546878864057362,-0.0013106230180710554,0.001668694894760847,1.0015233755111694,0.0,0.0,0.0,-49.766788482666016,9.998311042785645,5.146746635437012,9007.8876953125,0
1967.2549999999992,0.011576010845601559,-0.03544829785823822,0.00029665586771443486,0.0,0.0,0.0,0.0,-0.0011620557634159923,-0.00032695828122086823,-0.0013659795513376594,1.002086877822876,0.0,0.0,0.0,-49.734222412109375,9.999874114990234,5.136767387390137,9001.9931640625,0
1977.1360000000004,0.011546279303729534,-0.035429298877716064,0.0002963090082630515,0.0,0.0,0.0,0.0,0.00046942062908783555,0.0037470513489097357,0.0008287755190394819,1.0002412796020508,0.0,0.0,0.0,-49.6861457824707,9.993576049804688,5.132765293121338,8993.2919921875,0
1987.0280000000002,0.011497696861624718,-0.03530433773994446,0.0003777788078878075,0.0,0.0,0.0,0.0,-1.393351521983277e-05,-0.00026036539929918945,-0.000963530910667032,0.9979599118232727,0.0,0.0,0.0,-49.657249450683594,9.995753288269043,5.100133419036865,8988.060546875,0
1996.9040000000005,0.011631287634372711,-0.03564400225877762,0.0003543572092894465,0.0,0.0,0.0,0.0,-0.0007426914526149631,0.003741426160559058,0.000797119690105319,0.9985650777816772,0.0,0.0,0.0,-49.73735809326172,9.995752334594727,5.172649383544922,9002.560546875,0
2006.7960000000003,0.011639217846095562,-0.03550466150045395,0.00039430276956409216,0.0,0.0,0.0,0.0,0.002520705573260784,0.0004264790331944823,-0.000379514938686043,1.0009393692016602,0.0,0.0,0.0,-49.708473205566406,10.006178855895996,5.142482757568359,8997.3330078125,0
2016.6759999999995,0.011611156165599823,-0.035486120730638504,0.000399978831410408,0.0,0.0,0.0,0.0,0.0002169482468161732,-0.007849648594856262,-0.0018476898549124599,0.9983144402503967,0.0,0.0,0.0,-49.660491943359375,9.993745803833008,5.142459392547607,8988.6474609375,0
2026.566999999999,0.011592100374400616,-0.035341087728738785,0.00046588998520746827,0.0,0.0,0.0,0.0,-0.0011096920352429152,-0.005345524754375219,0.0002453736960887909,0.9963874816894531,0.0,0.0,0.0,-49.63323211669922,10.004026412963867,5.131479263305664,8983.71484375,0
2036.4500000000007,0.011620983481407166,-0.03564615547657013,0.00038612671778537333,0.0,0.0,0.0,0.0,0.0021809700410813093,0.007293710485100746,-0.0020333442371338606,0.9987479448318481,0.0,0.0,0.0,-49.70914077758789,9.9981050491333,5.192655086517334,8997.453125,0
2046.3420000000006,0.011615967378020287,-0.03554718941450119,0.0004251505888532847,0.0,0.0,0.0,0.0,0.0018741247477009892,0.0029418296180665493,-7.4811396189033985e-06,0.9991168975830078,0.0,0.0,0.0,-49.6822395324707,9.996650695800781,5.154367923736572,8992.5849609375,0
2056.2170000000006,0.011593366041779518,-0.035531166940927505,0.0004273060185369104,0.0,0.0,0.0,0.0,6.476097041741014e-05,-0.0026234760880470276,0.002134184120222926,0.9999161958694458,0.0,0.0,0.0,-49.634578704833984,9.982930183410645,5.149209022521973,8983.9580078125,0
2066.1090000000004,0.011588077992200851,-0.03540061041712761,0.0004657129175029695,0.0,0.0,0.0,0.0,-0.0022757486440241337,-0.0007696340908296406,0.002091048751026392,0.9989388585090637,0.0,0.0,0.0,-49.60756301879883,9.994391441345215,5.1348185539245605,8979.068359375,0
2075.9879999999994,0.011612547561526299,-0.0357184074819088,0.00037028308724984527,0.0,0.0,0.0,0.0,-0.0005127282347530127,0.0040678358636796474,2.884479908971116e-05,0.9991599321365356,0.0,0.0,0.0,-49.68704605102539,9.987276077270508,5.18682861328125,8993.4541015625,0
2085.892,0.011621925048530102,-0.03560459613800049,0.000398793927161023,0.0,0.0,0.0,0.0,0.0014658967265859246,0.004139716736972332,-0.005208092276006937,0.9995384216308594,0.0,0.0,0.0,-49.661231994628906,9.9939603805542,5.162121295928955,8988.7822265625,0
2095.7729999999992,0.01160841342061758,-0.03580015152692795,0.0003502833133097738,0.0,0.0,0.0,0.0,0.00035219546407461166,0.0009148101089522243,0.004776070360094309,0.9981163740158081,0.0,0.0,0.0,-49.73809814453125,9.989591598510742,5.178092002868652,9002.6953125,0
2105.66,0.011640205979347229,-0.035638030618429184,0.0003618292394094169,0.0,0.0,0.0,0.0,0.00043295431532897055,0.0018046684563159943,-0.001000515534542501,0.9982811212539673,0.0,0.0,0.0,-49.70808029174805,10.00317668914795,5.166844844818115,8997.2607421875,0
2115.530999999999,0.011615844443440437,-0.03562861680984497,0.00035671863588504493,0.0,0.0,0.0,0.0,2.4495200250385096e-06,0.001273122150450945,0.0015095173148438334,0.9995110630989075,0.0,0.0,0.0,-49.66114807128906,9.988322257995605,5.159609794616699,8988.7666015625,0
2125.423999999999,0.01160632073879242,-0.035486627370119095,0.00039435504004359245,0.0,0.0,0.0,0.0,-0.00029711026581935585,0.001384237315505743,-0.00019443650671746582,0.9979987740516663,0.0,0.0,0.0,-49.6363639831543,9.997747421264648,5.135079860687256,8984.28125,0
2135.307999999999,0.011576943099498749,-0.03547284007072449,0.00039115885738283396,0.0,0.0,0.0,0.0,0.001953595317900181,-0.0020085510332137346,0.0011210525408387184,0.9998577833175659,0.0,0.0,0.0,-49.588233947753906,9.98983383178711,5.136297702789307,8975.5693359375,0
2145.1949999999997,0.01153162494301796,-0.035415422171354294,0.00043555014417506754,0.0,0.0,0.0,0.0,-0.0012609028490260243,0.0006718679214827716,-0.00012577540474012494,0.999764084815979,0.0,0.0,0.0,-49.567935943603516,9.983583450317383,5.124833583831787,8971.8955078125,0
2155.0859999999993,0.01152051705867052,-0.03568192571401596,0.0003550459223333746,0.0,0.0,0.0,0.0,-0.00038337288424372673,0.0015577985905110836,-0.000693602894898504,0.9978176355361938,0.0,0.0,0.0,-49.650611877441406,9.980265617370605,5.177199840545654,8986.859375,0
2164.9670000000006,0.011584129184484482,-0.035465918481349945,0.0003348221944179386,0.0,0.0,0.0,0.0,0.004231194965541363,-0.004207046702504158,0.0020160283893346786,0.9994660019874573,0.0,0.0,0.0,-49.62612533569336,10.011194229125977,5.148724555969238,8982.427734375,0
2174.848,0.01159728318452835,-0.03566894307732582,0.0002924079599324614,0.0,0.0,0.0,0.0,-0.0012185877421870828,-0.0051732733845710754,0.0017210106598213315,1.0006961822509766,0.0,0.0,0.0,-49.700435638427734,10.004077911376953,5.188268661499023,8995.8779296875,0
2184.7379999999994,0.011687939055263996,-0.03542677313089371,0.00024022176512517035,0.0,0.0,0.0,0.0,0.0002244636561954394,0.0013716286048293114,0.001824202248826623,0.9989064931869507,0.0,0.0,0.0,-49.679412841796875,10.035025596618652,5.172720909118652,8992.072265625,0
