timestamp,stateEstimate.x,stateEstimate.y,stateEstimate.z,controller.cmd_thrust,controller.cmd_roll,controller.cmd_pitch,controller.cmd_yaw,controller.r_roll,controller.r_pitch,controller.r_yaw,controller.accelz,controller.actuatorThrust,controller.roll,controller.pitch,controller.yaw,controller.rollRate,controller.pitchRate,controller.yawRate,controller.ctr_yaw
0.0,0.02182493731379509,-0.026529232040047646,0.0004053790180478245,0.0,0.0,0.0,0.0,-0.0033748578280210495,-0.002812975086271763,0.0012516541173681617,0.9997816681861877,0.0,0.0,0.0,-11.651461601257324,7.838143825531006,3.1966960430145264,2108.9375,0
9.893000000000029,0.021822379902005196,-0.026552803814411163,0.00040611388976685703,0.0,0.0,0.0,0.0,0.002497567795217037,0.007165532559156418,-0.003144177608191967,0.9994940161705017,0.0,0.0,0.0,-11.639517784118652,7.8318047523498535,3.190032482147217,2106.77587890625,0
19.771999999999025,0.021830884739756584,-0.026523012667894363,0.0003844503662548959,0.0,0.0,0.0,0.0,-0.0009203344816341996,-0.00011075177462771535,0.0018758540973067284,0.999700129032135,0.0,0.0,0.0,-11.652923583984375,7.836329936981201,3.189594030380249,2109.2021484375,0
29.671000000000276,0.021865228191018105,-0.02634478732943535,0.0004384151834528893,0.0,0.0,0.0,0.0,0.00195781490765512,-0.0036281428765505552,-0.0035625873133540154,0.997077226638794,0.0,0.0,0.0,-11.6318359375,7.8650970458984375,3.1818180084228516,2105.38525390625,0
39.54399999999987,0.02181055024266243,-0.026518940925598145,0.0003498610749375075,0.0,0.0,0.0,0.0,0.0016154579352587461,-0.00018685123359318823,0.0014322733040899038,1.0004618167877197,0.0,0.0,0.0,-11.65386962890625,7.824888706207275,3.175504207611084,2109.37353515625,0
49.443999999999505,0.021834783256053925,-0.026346366852521896,0.0004123495309613645,0.0,0.0,0.0,0.0,0.0005984744639135897,-0.002018656814470887,0.003304977435618639,1.0040473937988281,0.0,0.0,0.0,-11.630783081054688,7.855414867401123,3.171539068222046,2105.19482421875,0
59.31499999999869,0.021753493696451187,-0.026486502960324287,0.0003307559818495065,0.0,0.0,0.0,0.0,-0.00016980126383714378,0.0025131218135356903,0.0015617161989212036,1.0020207166671753,0.0,0.0,0.0,-11.651205062866211,7.8228349685668945,3.1686766147613525,2108.89111328125,0
69.21799999999894,0.02178734913468361,-0.02631818875670433,0.0003791620838455856,0.0,0.0,0.0,0.0,0.0008613169193267822,0.0007324060425162315,-0.0014361744979396462,0.9992465972900391,0.0,0.0,0.0,-11.63149356842041,7.848323345184326,3.1573853492736816,2105.323486328125,0
79.08599999999933,0.02176510915160179,-0.026540987193584442,0.0002811336889863014,0.0,0.0,0.0,0.0,-0.0010885857045650482,0.0006162613281048834,0.003092347178608179,1.0008293390274048,0.0,0.0,0.0,-11.643058776855469,7.809203624725342,3.157709836959839,2107.416748046875,0
88.98300000000017,0.021800359711050987,-0.026353944092988968,0.00033716054167598486,0.0,0.0,0.0,0.0,0.0009729622979648411,0.0035046415869146585,-0.0013754050014540553,1.0010857582092285,0.0,0.0,0.0,-11.62031364440918,7.839737892150879,3.1468608379364014,2103.2998046875,0
98.85599999999977,0.021852850914001465,-0.02657189406454563,0.00027681951178237796,0.0,0.0,0.0,0.0,-0.0016408555675297976,-1.702873851172626e-05,-0.0019150306470692158,0.9996752142906189,0.0,0.0,0.0,-11.640149116516113,7.801882743835449,3.1564948558807373,2106.89013671875,0
108.75900000000001,0.021870503202080727,-0.026412753388285637,0.00034923560451716185,0.0,0.0,0.0,0.0,0.0018961814930662513,-0.0009455571416765451,-0.00288567622192204,0.999294102191925,0.0,0.0,0.0,-11.620838165283203,7.829525470733643,3.1390724182128906,2103.394775390625,0
118.62799999999879,0.02182362601161003,-0.02655191347002983,0.0002881836553569883,0.0,0.0,0.0,0.0,0.00023676970158703625,0.0006834683590568602,-0.0003280747914686799,0.9985747337341309,0.0,0.0,0.0,-11.640085220336914,7.807773590087891,3.1322035789489746,2106.878662109375,0
128.53099999999904,0.021849211305379868,-0.026381079107522964,0.00035500756348483264,0.0,0.0,0.0,0.0,0.00014413471217267215,0.0013948437990620732,-0.0031332001090049744,0.9978673458099365,0.0,0.0,0.0,-11.621203422546387,7.8382368087768555,3.123666524887085,2103.4609375,0
138.40899999999965,0.02183009311556816,-0.0265454463660717,0.00029103877022862434,0.0,0.0,0.0,0.0,0.00018904157332144678,0.0023830130230635405,0.0021577952429652214,0.9991337656974792,0.0,0.0,0.0,-11.633468627929688,7.80658483505249,3.1196937561035156,2105.680908203125,0
148.29500000000007,0.021835794672369957,-0.026433024555444717,0.0003548822132870555,0.0,0.0,0.0,0.0,-0.0006069356459192932,0.0035733203403651714,-0.0007558161742053926,0.9993922114372253,0.0,0.0,0.0,-11.612455368041992,7.826038360595703,3.0949783325195312,2101.87744140625,0
158.17100000000028,0.021811947226524353,-0.02657145820558071,0.0003011161752510816,0.0,0.0,0.0,0.0,0.00036086764885112643,-0.00026351521955803037,-0.002826102077960968,0.9992381930351257,0.0,0.0,0.0,-11.631505966186523,7.805190086364746,3.0893919467926025,2105.32568359375,0
168.0689999999995,0.02184499427676201,-0.026407916098833084,0.0003568078391253948,0.0,0.0,0.0,0.0,0.0005039380048401654,-0.004298390820622444,0.0008515497902408242,0.9997752904891968,0.0,0.0,0.0,-11.615143775939941,7.825643062591553,3.082507610321045,2102.3642578125,0
177.9419999999991,0.021785538643598557,-0.026590881869196892,0.00026582001009956,0.0,0.0,0.0,0.0,-0.0038033355958759785,-0.0067793079651892185,-0.0008069972973316908,0.9976322054862976,0.0,0.0,0.0,-11.629728317260742,7.789107799530029,3.093050956726074,2105.00390625,0
187.84000000000015,0.02179187349975109,-0.026426687836647034,0.0003512407129164785,0.0,0.0,0.0,0.0,-0.003522168844938278,-0.006462758872658014,-0.0008999293786473572,0.9987712502479553,0.0,0.0,0.0,-11.6106595993042,7.815197467803955,3.0898420810699463,2101.552490234375,0
197.71299999999974,0.02175917848944664,-0.026609210297465324,0.0002710053522605449,0.0,0.0,0.0,0.0,0.0011946699814870954,-0.00021443322475533932,0.0007803627522662282,1.0009422302246094,0.0,0.0,0.0,-11.625838279724121,7.788177013397217,3.098914384841919,2104.2998046875,0
207.60999999999876,0.02179979905486107,-0.026401961222290993,0.00032452878076583147,0.0,0.0,0.0,0.0,0.001038892543874681,-0.0006613941513933241,-0.0019532006699591875,0.9997060894966125,0.0,0.0,0.0,-11.605171203613281,7.82082462310791,3.0991392135620117,2100.55908203125,0
217.48799999999937,0.021764269098639488,-0.026577506214380264,0.0002432350447634235,0.0,0.0,0.0,0.0,-0.004130555782467127,-0.0020714106503874063,0.001498167053796351,0.9988294839859009,0.0,0.0,0.0,-11.620786666870117,7.784430027008057,3.1019880771636963,2103.385498046875,0
227.3799999999992,0.0218058992177248,-0.02633110247552395,0.0003131097473669797,0.0,0.0,0.0,0.0,-0.001364438678137958,0.0010369173251092434,-0.0008033482590690255,0.9985456466674805,0.0,0.0,0.0,-11.600571632385254,7.833041667938232,3.0954809188842773,2099.7265625,0
237.26000000000022,0.021781958639621735,-0.026535090059041977,0.00021804457355756313,0.0,0.0,0.0,0.0,-0.0007378528825938702,-0.00644219433888793,-0.0001479212223784998,1.0000284910202026,0.0,0.0,0.0,-11.614688873291016,7.798209190368652,3.0954699516296387,2102.28173828125,0
247.15300000000025,0.021800165995955467,-0.02636587992310524,0.0002772134612314403,0.0,0.0,0.0,0.0,0.002708057640120387,0.0035537227522581816,-0.0024271358270198107,0.9987617135047913,0.0,0.0,0.0,-11.597346305847168,7.824557781219482,3.101196050643921,2099.142822265625,0
257.02899999999863,0.02178134024143219,-0.02655506506562233,0.00019203427655156702,0.0,0.0,0.0,0.0,-0.0012295852648094296,-0.009059244766831398,-0.0016351455124095082,0.999839723110199,0.0,0.0,0.0,-11.61172866821289,7.786337852478027,3.1072535514831543,2101.74609375,0
266.9259999999995,0.021792123094201088,-0.02638091705739498,0.0002661554899532348,0.0,0.0,0.0,0.0,0.001235684147104621,0.0064041949808597565,0.002244500909000635,0.9977860450744629,0.0,0.0,0.0,-11.590056419372559,7.813902854919434,3.1120331287384033,2097.8232421875,0
276.79899999999907,0.02180790901184082,-0.026539640501141548,0.0002094584342557937,0.0,0.0,0.0,0.0,0.0022754317615181208,-0.0031273767817765474,0.0006245406693778932,1.0002995729446411,0.0,0.0,0.0,-11.608684539794922,7.786318302154541,3.106809139251709,2101.195068359375,0
286.6880000000001,0.021815944463014603,-0.026368649676442146,0.0002883042034227401,0.0,0.0,0.0,0.0,0.003490633796900511,0.005608174949884415,-0.0030091842636466026,0.9992808103561401,0.0,0.0,0.0,-11.58706283569336,7.807519435882568,3.106940746307373,2097.281494140625,0
296.5699999999997,0.021818876266479492,-0.026525478810071945,0.00022922978678252548,0.0,0.0,0.0,0.0,-0.00024773168843239546,-0.00385816371999681,0.002835480961948633,1.0000954866409302,0.0,0.0,0.0,-11.606602668762207,7.779333114624023,3.0999977588653564,2100.818115234375,0
306.4569999999985,0.021793588995933533,-0.026396485045552254,0.0003369929036125541,0.0,0.0,0.0,0.0,0.004690281115472317,-0.003765048226341605,0.0023605050519108772,0.9998485445976257,0.0,0.0,0.0,-11.587919235229492,7.795032501220703,3.0955560207366943,2097.4365234375,0
316.34499999999935,0.02179257944226265,-0.026551460847258568,0.0002852891047950834,0.0,0.0,0.0,0.0,-0.0034392394591122866,-0.0008399202488362789,0.0011164810275658965,1.0003217458724976,0.0,0.0,0.0,-11.608602523803711,7.757302284240723,3.0964930057525635,2101.179931640625,0
326.2439999999988,0.021773628890514374,-0.02640804648399353,0.0003947336517740041,0.0,0.0,0.0,0.0,0.0013095415197312832,0.0031532999128103256,0.0006751070613972843,1.0009554624557495,0.0,0.0,0.0,-11.587640762329102,7.782290458679199,3.088870048522949,2097.385986328125,0
336.1129999999994,0.021778060123324394,-0.02658047527074814,0.00034563333611004055,0.0,0.0,0.0,0.0,0.00027574552223086357,0.004909762647002935,-0.0005937821697443724,0.99821537733078,0.0,0.0,0.0,-11.607943534851074,7.756811618804932,3.0940003395080566,2101.060791015625,0
346.0100000000002,0.021828681230545044,-0.026382530108094215,0.00039416924118995667,0.0,0.0,0.0,0.0,0.0015520576853305101,0.0022262786515057087,-0.0026630950160324574,0.9979131817817688,0.0,0.0,0.0,-11.58961009979248,7.786488056182861,3.081542730331421,2097.742431640625,0
355.8869999999988,0.021817289292812347,-0.02655027247965336,0.000338992802426219,0.0,0.0,0.0,0.0,-0.0007201126427389681,-0.0030027541797608137,0.0021293351892381907,0.9986711740493774,0.0,0.0,0.0,-11.611288070678711,7.756919860839844,3.077869176864624,2101.666259765625,0
365.7699999999986,0.02181466668844223,-0.026408568024635315,0.0004331406089477241,0.0,0.0,0.0,0.0,-0.0005545048625208437,0.0024604627396911383,-0.0013320395955815911,0.9994125962257385,0.0,0.0,0.0,-11.593169212341309,7.781735420227051,3.071948528289795,2098.38671875,0
375.65899999999965,0.02179301157593727,-0.026577888056635857,0.0003743506676983088,0.0,0.0,0.0,0.0,0.0017315848963335156,0.004004993475973606,-0.004018112551420927,1.0004006624221802,0.0,0.0,0.0,-11.612220764160156,7.755341529846191,3.069704055786133,2101.8349609375,0
385.5460000000003,0.021795906126499176,-0.026453211903572083,0.0004509956925176084,0.0,0.0,0.0,0.0,0.0003843741142190993,-0.0035425066016614437,0.0005355011089704931,0.9988880753517151,0.0,0.0,0.0,-11.593988418579102,7.767536640167236,3.0441689491271973,2098.534912109375,0
395.4309999999987,0.021769672632217407,-0.026611315086483955,0.0003986003575846553,0.0,0.0,0.0,0.0,-0.0026470704469829798,-0.002082053804770112,-0.0018091971287503839,0.9996516704559326,0.0,0.0,0.0,-11.612686157226562,7.747231483459473,3.046119451522827,2101.919189453125,0
405.3169999999991,0.0217994824051857,-0.026420077309012413,0.00047298448043875396,0.0,0.0,0.0,0.0,-0.0037493747659027576,-0.006348493974655867,0.002757498761638999,0.9972897171974182,0.0,0.0,0.0,-11.59272575378418,7.781156539916992,3.0492196083068848,2098.306396484375,0
415.1989999999987,0.021771986037492752,-0.02659681811928749,0.0004095828626304865,0.0,0.0,0.0,0.0,-0.0015410096384584904,-0.001857695751823485,-0.0007769788498990238,0.9991454482078552,0.0,0.0,0.0,-11.611894607543945,7.757019996643066,3.0592474937438965,2101.776123046875,0
425.0839999999989,0.021832317113876343,-0.026396678760647774,0.00044153991620987654,0.0,0.0,0.0,0.0,-0.00171729177236557,-0.002711088629439473,-0.002112674992531538,0.9990437626838684,0.0,0.0,0.0,-11.594894409179688,7.794206142425537,3.056474447250366,2098.698974609375,0
434.96999999999935,0.021741069853305817,-0.02655363827943802,0.0003586950188037008,0.0,0.0,0.0,0.0,0.0001023786244331859,-0.007005864754319191,0.0006979618920013309,0.999995231628418,0.0,0.0,0.0,-11.608720779418945,7.769692897796631,3.0586538314819336,2101.20166015625,0
444.8580000000002,0.021785972639918327,-0.026360472664237022,0.00040058483136817813,0.0,0.0,0.0,0.0,0.0009355639922432601,-0.0007414857391268015,0.000361224781954661,0.9998527765274048,0.0,0.0,0.0,-11.591085433959961,7.804602146148682,3.058852195739746,2098.009521484375,0
454.741,0.021748416125774384,-0.026565684005618095,0.00031102425418794155,0.0,0.0,0.0,0.0,0.0026050303131341934,-0.0038820956833660603,-0.0027255017776042223,0.9988644123077393,0.0,0.0,0.0,-11.608694076538086,7.767760276794434,3.059924602508545,2101.19677734375,0
464.6269999999986,0.021784024313092232,-0.026388075202703476,0.00035357874003238976,0.0,0.0,0.0,0.0,0.0034094853326678276,-0.001646597869694233,0.0021609023679047823,1.0001777410507202,0.0,0.0,0.0,-11.591728210449219,7.791271686553955,3.05625581741333,2098.125732421875,0
474.5149999999994,0.021728605031967163,-0.026527762413024902,0.00028788531199097633,0.0,0.0,0.0,0.0,0.0014383357483893633,0.004359157755970955,0.0009657829068601131,0.9999606013298035,0.0,0.0,0.0,-11.604653358459473,7.764453411102295,3.061755895614624,2100.465087890625,0
484.41100000000006,0.021760322153568268,-0.026339368894696236,0.00033547962084412575,0.0,0.0,0.0,0.0,0.002100627636536956,-0.002172073582187295,0.0005046318401582539,0.9993998408317566,0.0,0.0,0.0,-11.585492134094238,7.7925310134887695,3.0568416118621826,2096.9970703125,0
494.2950000000001,0.02173798717558384,-0.026509439572691917,0.00026738547603599727,0.0,0.0,0.0,0.0,-0.0011004646075889468,-0.002245768206194043,1.374983912683092e-05,0.9990196824073792,0.0,0.0,0.0,-11.598777770996094,7.759276866912842,3.05641508102417,2099.40185546875,0
504.17299999999886,0.021754970774054527,-0.026355687528848648,0.0003169307019561529,0.0,0.0,0.0,0.0,0.0027644687797874212,0.001975616440176964,-0.0016864779172465205,0.999384880065918,0.0,0.0,0.0,-11.587362289428711,7.7537713050842285,3.0600576400756836,2097.335693359375,0
514.0659999999989,0.02173507958650589,-0.026553159579634666,0.00023546020383946598,0.0,0.0,0.0,0.0,0.00031324251904152334,-0.0007394297863356769,-0.003949152771383524,0.9999958276748657,0.0,0.0,0.0,-11.607109069824219,7.720390796661377,3.075650215148926,2100.90966796875,0
523.9409999999989,0.02171485498547554,-0.02640390954911709,0.0003312575863674283,0.0,0.0,0.0,0.0,-0.0049566058441996574,-0.005156184546649456,-0.0003210802678950131,0.9986333250999451,0.0,0.0,0.0,-11.587125778198242,7.746367931365967,3.065312385559082,2097.292724609375,0
533.8359999999993,0.021756481379270554,-0.0265775378793478,0.0002931161434389651,0.0,0.0,0.0,0.0,0.000765359029173851,-0.0033047960605472326,-0.0022582050878554583,0.9980633854866028,0.0,0.0,0.0,-11.607789039611816,7.725541591644287,3.085470676422119,2101.032958984375,0
543.7150000000001,0.021806366741657257,-0.026331763714551926,0.00034560225321911275,0.0,0.0,0.0,0.0,-0.00047725086915306747,-0.0020020317751914263,0.0009524559136480093,0.9987903237342834,0.0,0.0,0.0,-11.591081619262695,7.772747993469238,3.0839686393737793,2098.0087890625,0
553.5999999999985,0.021807311102747917,-0.026517240330576897,0.00028122877120040357,0.0,0.0,0.0,0.0,-0.0018640282796695828,-0.0018270642030984163,0.0030953269451856613,1.0013697147369385,0.0,0.0,0.0,-11.610560417175293,7.7403788566589355,3.0948755741119385,2101.534423828125,0
563.4899999999998,0.0218227356672287,-0.026360012590885162,0.00033960561268031597,0.0,0.0,0.0,0.0,-0.0024529199581593275,0.005128381308168173,0.0010280788410454988,1.000205159187317,0.0,0.0,0.0,-11.590267181396484,7.776554584503174,3.0950098037719727,2097.861328125,0
573.369999999999,0.02184743620455265,-0.026583394035696983,0.00026945589343085885,0.0,0.0,0.0,0.0,0.004000404383987188,0.00302652595564723,-0.0009220966603606939,1.0007615089416504,0.0,0.0,0.0,-11.607498168945312,7.735294818878174,3.0980045795440674,2100.980224609375,0
583.262999999999,0.021866897121071815,-0.026412805542349815,0.00033577324938960373,0.0,0.0,0.0,0.0,-0.0008235943387262523,-0.002591347321867943,0.0012938983272761106,0.9976457953453064,0.0,0.0,0.0,-11.589534759521484,7.7646403312683105,3.0876142978668213,2097.728759765625,0
593.1409999999996,0.021825382485985756,-0.026559578254818916,0.00027804417186416686,0.0,0.0,0.0,0.0,0.00018604549404699355,-0.007144150789827108,0.0014849579893052578,0.9989253282546997,0.0,0.0,0.0,-11.609169006347656,7.737462043762207,3.085116147994995,2101.282470703125,0
603.0319999999992,0.021813293918967247,-0.02640664577484131,0.0003757664526347071,0.0,0.0,0.0,0.0,-0.001219621510244906,0.008436101488769054,-0.0020611260551959276,1.0018446445465088,0.0,0.0,0.0,-11.588521957397461,7.767360210418701,3.083921432495117,2097.545654296875,0
612.9139999999989,0.02180919237434864,-0.026593564078211784,0.00031663288245908916,0.0,0.0,0.0,0.0,-0.00018104980699717999,-0.00010086780821438879,0.0008993791416287422,1.0004514455795288,0.0,0.0,0.0,-11.60533618927002,7.734404563903809,3.0761702060699463,2100.5888671875,0
622.8009999999995,0.021801000460982323,-0.026464788243174553,0.0003982648777309805,0.0,0.0,0.0,0.0,-0.0018982329638674855,-0.008689336478710175,0.0009182181674987078,1.0001256465911865,0.0,0.0,0.0,-11.586747169494629,7.752138614654541,3.057645320892334,2097.224365234375,0
632.6849999999995,0.02173815853893757,-0.026652181521058083,0.00032058151555247605,0.0,0.0,0.0,0.0,2.1595271391561255e-05,0.004316151142120361,-0.004545961041003466,0.9982247948646545,0.0,0.0,0.0,-11.60004711151123,7.718520641326904,3.0666635036468506,2099.631591796875,0
642.5699999999997,0.021747779101133347,-0.02648777700960636,0.0003916613932233304,0.0,0.0,0.0,0.0,-0.002153721172362566,-0.0012490811059251428,-0.0025311443023383617,0.9985929131507874,0.0,0.0,0.0,-11.583514213562012,7.747692584991455,3.076420783996582,2096.63916015625,0
652.4609999999993,0.02174426056444645,-0.026633000001311302,0.0003590725245885551,0.0,0.0,0.0,0.0,-0.0008844112744554877,0.0014282104093581438,-0.001300983363762498,1.0007554292678833,0.0,0.0,0.0,-11.605359077453613,7.723183631896973,3.0725574493408203,2100.593017578125,0
662.3439999999991,0.021715952083468437,-0.026505377143621445,0.00046467388165183365,0.0,0.0,0.0,0.0,6.155555456643924e-05,-0.002164711942896247,-0.0015581039479002357,1.0009199380874634,0.0,0.0,0.0,-11.585098266601562,7.7403740882873535,3.054731845855713,2096.92578125,0
672.226999999999,0.021731380373239517,-0.02666359953582287,0.00044116663048043847,0.0,0.0,0.0,0.0,-0.0010741478763520718,-0.0005106647149659693,0.0010284752352163196,0.9998192191123962,0.0,0.0,0.0,-11.608577728271484,7.720768928527832,3.070535182952881,2101.175537109375,0
682.1119999999992,0.021774953231215477,-0.02645515277981758,0.0004982759128324687,0.0,0.0,0.0,0.0,-0.0007049095002003014,0.0004190097388345748,0.003750464180484414,1.0002140998840332,0.0,0.0,0.0,-11.591646194458008,7.751021862030029,3.0688493251800537,2098.111083984375,0
692.0049999999992,0.02175895683467388,-0.02662750892341137,0.0004530473961494863,0.0,0.0,0.0,0.0,0.000850086857099086,-0.005692628212273121,-0.000804698618594557,1.0000078678131104,0.0,0.0,0.0,-11.609617233276367,7.722334384918213,3.0689046382904053,2101.36376953125,0
701.8919999999998,0.021785655990242958,-0.0264664888381958,0.0005111053469590843,0.0,0.0,0.0,0.0,-0.0004570628807414323,0.0011537660611793399,-0.0012672374723479152,0.9982842803001404,0.0,0.0,0.0,-11.590232849121094,7.745875358581543,3.070483922958374,2097.855224609375,0
711.7699999999986,0.021763859316706657,-0.026633240282535553,0.0004649079928640276,0.0,0.0,0.0,0.0,-0.00035193361691199243,-0.003994752652943134,-0.0016712567303329706,0.9982309341430664,0.0,0.0,0.0,-11.60902214050293,7.715885639190674,3.0833969116210938,2101.256103515625,0
721.6610000000001,0.021803108975291252,-0.026435917243361473,0.0005282108904793859,0.0,0.0,0.0,0.0,1.9162884200341068e-05,0.0006316453800536692,-0.002267293632030487,0.9963654279708862,0.0,0.0,0.0,-11.592387199401855,7.752165794372559,3.072491407394409,2098.2451171875,0
731.5429999999997,0.021771660074591637,-0.02661113440990448,0.0004717311530839652,0.0,0.0,0.0,0.0,0.0018180669285356998,0.0008451946778222919,0.000320380087941885,0.9998140931129456,0.0,0.0,0.0,-11.613097190856934,7.72258186340332,3.0749099254608154,2101.99365234375,0
741.4290000000001,0.021804196760058403,-0.026420969516038895,0.0005357458721846342,0.0,0.0,0.0,0.0,0.000756113906390965,-0.00015966370119713247,-0.0021817954257130623,0.9974109530448914,0.0,0.0,0.0,-11.594169616699219,7.746040344238281,3.0637660026550293,2098.567626953125,0
751.3229999999985,0.021718628704547882,-0.026604250073432922,0.00044854244333691895,0.0,0.0,0.0,0.0,0.001978627871721983,0.0021211595740169287,0.001702520065009594,0.998744010925293,0.0,0.0,0.0,-11.616782188415527,7.711377143859863,3.0680062770843506,2102.66064453125,0
761.1970000000001,0.021781012415885925,-0.02639492228627205,0.00047470585559494793,0.0,0.0,0.0,0.0,0.00035482324892655015,0.00354556180536747,-0.0003673394676297903,1.000519037246704,0.0,0.0,0.0,-11.59437084197998,7.74485445022583,3.068906545639038,2098.604248046875,0
771.0829999999987,0.021705156192183495,-0.0265344325453043,0.00040827965131029487,0.0,0.0,0.0,0.0,0.002321684965863824,-0.0008544520242139697,0.0004687102045863867,1.0017200708389282,0.0,0.0,0.0,-11.617841720581055,7.720478534698486,3.057488203048706,2102.852294921875,0
780.9699999999993,0.02175838313996792,-0.026351409032940865,0.0004282458103261888,0.0,0.0,0.0,0.0,-8.563596929889172e-05,0.0019648668821901083,-0.002323122462257743,1.0000678300857544,0.0,0.0,0.0,-11.60018253326416,7.749004364013672,3.0551810264587402,2099.656005859375,0
790.8539999999994,0.021689889952540398,-0.026514755561947823,0.0003486143541522324,0.0,0.0,0.0,0.0,-0.0008256344590336084,-0.005690883845090866,-0.001775100827217102,1.0001084804534912,0.0,0.0,0.0,-11.619861602783203,7.727054119110107,3.0436413288116455,2103.218017578125,0
800.7469999999994,0.021766167134046555,-0.026303965598344803,0.00034525684895925224,0.0,0.0,0.0,0.0,3.0889601475792006e-05,-0.002470240695402026,0.001760824234224856,1.0000449419021606,0.0,0.0,0.0,-11.596668243408203,7.7609405517578125,3.0508317947387695,2099.02001953125,0
810.6260000000002,0.021767927333712578,-0.02653360366821289,0.0002565279137343168,0.0,0.0,0.0,0.0,-0.0010499958880245686,0.004740159492939711,0.003467259928584099,1.0007174015045166,0.0,0.0,0.0,-11.61323070526123,7.724345684051514,3.061708927154541,2102.017822265625,0
820.518,0.02181902714073658,-0.026342803612351418,0.00027316654450260103,0.0,0.0,0.0,0.0,0.0015116104623302817,0.0018671936122700572,-0.002908973256126046,0.999097466468811,0.0,0.0,0.0,-11.5924654006958,7.756979465484619,3.0578341484069824,2098.25927734375,0
830.3999999999996,0.021848274394869804,-0.026573343202471733,0.00019383759354241192,0.0,0.0,0.0,0.0,-0.0039042155258357525,0.00018265354447066784,0.0022804734762758017,0.9990740418434143,0.0,0.0,0.0,-11.608989715576172,7.726980209350586,3.069850206375122,2101.250244140625,0
840.2839999999997,0.02188962511718273,-0.026392046362161636,0.00022222797269932926,0.0,0.0,0.0,0.0,0.002020830288529396,0.0003067089419346303,-0.0031735049560666084,1.0007832050323486,0.0,0.0,0.0,-11.590368270874023,7.762728214263916,3.0730113983154297,2097.8798828125,0
850.1679999999997,0.02182140201330185,-0.026580102741718292,0.00012384126603137702,0.0,0.0,0.0,0.0,-0.0028711562044918537,-0.002272350713610649,-0.0004825340583920479,1.0005186796188354,0.0,0.0,0.0,-11.60994815826416,7.729954242706299,3.0710253715515137,2101.423583984375,0
860.0589999999993,0.021858930587768555,-0.026388799771666527,0.00015697783965151757,0.0,0.0,0.0,0.0,0.0015620376216247678,0.004494569264352322,0.00010960702638840303,1.0001283884048462,0.0,0.0,0.0,-11.58818244934082,7.768275260925293,3.0654187202453613,2097.484130859375,0
869.9429999999993,0.021862054243683815,-0.02658064290881157,8.211394015233964e-05,0.0,0.0,0.0,0.0,-0.0013857639860361814,-0.002847551368176937,-0.0014525750884786248,0.998124897480011,0.0,0.0,0.0,-11.607685089111328,7.738635540008545,3.066878080368042,2101.013916015625,0
879.8279999999995,0.02183985337615013,-0.026431871578097343,0.0001761348539730534,0.0,0.0,0.0,0.0,0.0007612717454321682,-0.0011254403507336974,0.0009176123421639204,0.9995770454406738,0.0,0.0,0.0,-11.587870597839355,7.762167930603027,3.061736822128296,2097.427490234375,0
889.7139999999999,0.02182573452591896,-0.026568744331598282,0.00012911137309856713,0.0,0.0,0.0,0.0,0.0019362502498552203,-0.0011631663655862212,0.00024731658049859107,1.0002573728561401,0.0,0.0,0.0,-11.606297492980957,7.742630481719971,3.0718295574188232,2100.762939453125,0
899.598,0.021784259006381035,-0.02643279731273651,0.0002493788779247552,0.0,0.0,0.0,0.0,0.0013561360538005829,0.0004406856023706496,0.005669061094522476,0.9999109506607056,0.0,0.0,0.0,-11.587808609008789,7.766075611114502,3.0641961097717285,2097.416259765625,0
909.482,0.02178775891661644,-0.026578906923532486,0.0002136737748514861,0.0,0.0,0.0,0.0,0.002883761888369918,-0.00035148143069818616,-0.002076667034998536,0.9993636012077332,0.0,0.0,0.0,-11.607157707214355,7.751629829406738,3.0806431770324707,2100.918701171875,0
919.3689999999988,0.02180183306336403,-0.026408320292830467,0.00028147525154054165,0.0,0.0,0.0,0.0,0.0008619114523753524,0.0007172116311267018,-0.0012391982600092888,0.9986495971679688,0.0,0.0,0.0,-11.591320037841797,7.769440650939941,3.0676116943359375,2098.052001953125,0
929.2549999999992,0.02176511473953724,-0.026591146364808083,0.00021530153753701597,0.0,0.0,0.0,0.0,-0.002534379716962576,0.0011393532622605562,0.001630441634915769,1.0023770332336426,0.0,0.0,0.0,-11.61007308959961,7.739460468292236,3.061918258666992,2101.4462890625,0
939.152,0.0217362642288208,-0.026477398350834846,0.0003110134566668421,0.0,0.0,0.0,0.0,0.0004783432523254305,0.0019367726054042578,-0.0025290425401180983,1.0021586418151855,0.0,0.0,0.0,-11.589500427246094,7.751114845275879,3.0417275428771973,2097.72265625,0
949.0280000000002,0.021716156974434853,-0.026657404378056526,0.0002611796371638775,0.0,0.0,0.0,0.0,-0.0006574527942575514,-0.0017912877956405282,0.0002674978459253907,0.9981602430343628,0.0,0.0,0.0,-11.608407020568848,7.72257661819458,3.0432586669921875,2101.144775390625,0
958.9120000000003,0.02173241414129734,-0.026460260152816772,0.0003448331553954631,0.0,0.0,0.0,0.0,-0.0014095635851845145,-0.0031191506423056126,-0.001397412153892219,0.9985102415084839,0.0,0.0,0.0,-11.589653015136719,7.754054546356201,3.0338335037231445,2097.750244140625,0
968.7969999999987,0.021745799109339714,-0.02662230283021927,0.00031698570819571614,0.0,0.0,0.0,0.0,-0.0009557385346852243,-0.002387366257607937,-0.0007766515482217073,0.99900221824646,0.0,0.0,0.0,-11.611987113952637,7.735077381134033,3.044741630554199,2101.792724609375,0
978.6829999999991,0.021740904077887535,-0.02647501602768898,0.0004029354022350162,0.0,0.0,0.0,0.0,-0.002670134650543332,-0.0026111097540706396,-0.00046309694880619645,1.0006638765335083,0.0,0.0,0.0,-11.59337329864502,7.7588324546813965,3.0348587036132812,2098.423583984375,0
988.5689999999995,0.021703770384192467,-0.02666749618947506,0.0003405020397622138,0.0,0.0,0.0,0.0,0.0028988178819417953,-0.0006420898134820163,-0.0013048391556367278,0.9984661340713501,0.0,0.0,0.0,-11.609579086303711,7.7290143966674805,3.041034460067749,2101.356689453125,0
998.4560000000001,0.021718380972743034,-0.026507966220378876,0.0004096813208889216,0.0,0.0,0.0,0.0,-0.0008565107709728181,-0.0009625976090319455,0.0010693043004721403,0.9978089332580566,0.0,0.0,0.0,-11.591806411743164,7.750295162200928,3.0374574661254883,2098.139892578125,0
1008.3469999999998,0.021735545247793198,-0.026656581088900566,0.00038665029569528997,0.0,0.0,0.0,0.0,0.005072259809821844,0.004573273006826639,-0.0020283579360693693,0.9992336630821228,0.0,0.0,0.0,-11.610886573791504,7.7335357666015625,3.053858995437622,2101.593505859375,0
1018.2339999999986,0.02185910940170288,-0.026349326595664024,0.00038526341086253524,0.0,0.0,0.0,0.0,0.0005680775502696633,0.00272117811255157,-0.00010995655611623079,0.9995495676994324,0.0,0.0,0.0,-11.590092658996582,7.777650356292725,3.0491418838500977,2097.829833984375,0
1028.110999999999,0.021769212558865547,-0.026525845751166344,0.0002934237418230623,0.0,0.0,0.0,0.0,0.0035200235433876514,-0.004853448364883661,-0.0012474297545850277,1.0003358125686646,0.0,0.0,0.0,-11.611763000488281,7.7471699714660645,3.030020236968994,2101.752197265625,0
1038.0,0.0217865202575922,-0.026404527947306633,0.00033588928636163473,0.0,0.0,0.0,0.0,0.0010011453414335847,-0.0037950477562844753,-0.0012822961434721947,0.9999527931213379,0.0,0.0,0.0,-11.600115776062012,7.734767913818359,3.0360515117645264,2099.64404296875,0
1047.8940000000002,0.021754765883088112,-0.02658778429031372,0.0002617769641801715,0.0,0.0,0.0,0.0,0.0008602862362749875,0.0037152101285755634,0.0017322112107649446,0.9992842674255371,0.0,0.0,0.0,-11.615835189819336,7.701553821563721,3.045046091079712,2102.4892578125,0
1057.7739999999994,0.02183818258345127,-0.026321960613131523,0.00028958608163520694,0.0,0.0,0.0,0.0,-0.001981999957934022,-0.0009084524936042726,0.0016417006263509393,0.9987245798110962,0.0,0.0,0.0,-11.59678840637207,7.749294757843018,3.037912607192993,2099.041748046875,0
1067.6539999999986,0.021799983456730843,-0.02651396580040455,0.00020150281488895416,0.0,0.0,0.0,0.0,0.0008744128281250596,0.002007067436352372,0.0002312614960828796,0.9993371367454529,0.0,0.0,0.0,-11.614127159118652,7.72160005569458,3.0412333011627197,2102.18017578125,0
1077.5469999999987,0.021855855360627174,-0.02627590112388134,0.00024258728080894798,0.0,0.0,0.0,0.0,0.0020463746041059494,-0.004188519436866045,0.004187601152807474,0.999934196472168,0.0,0.0,0.0,-11.596711158752441,7.757303237915039,3.0351083278656006,2099.02783203125,0
1087.4249999999993,0.02182490937411785,-0.026488294824957848,0.00014102733985055238,0.0,0.0,0.0,0.0,0.00041350506944581866,0.002311088377609849,-0.002454366534948349,0.9979884028434753,0.0,0.0,0.0,-11.610954284667969,7.721343517303467,3.0367088317871094,2101.60595703125,0
1097.3189999999995,0.02180597186088562,-0.026358800008893013,0.00022585992701351643,0.0,0.0,0.0,0.0,-0.0023013316094875336,0.000988214509561658,-0.0017379879718646407,1.001309871673584,0.0,0.0,0.0,-11.59949779510498,7.715843677520752,3.036229133605957,2099.5322265625,0
1107.1979999999985,0.02181665413081646,-0.026504863053560257,0.00017671153182163835,0.0,0.0,0.0,0.0,-2.057788697129581e-05,-0.007155839819461107,0.000301111867884174,0.998460590839386,0.0,0.0,0.0,-11.621848106384277,7.69449520111084,3.037175178527832,2103.57763671875,0
1117.0919999999987,0.021774867549538612,-0.02638048306107521,0.0002913832140620798,0.0,0.0,0.0,0.0,0.0014273661654442549,0.0025933743454515934,-0.003340428927913308,0.9986468553543091,0.0,0.0,0.0,-11.604534149169922,7.709007263183594,3.033602714538574,2100.44384765625,0
1126.9689999999991,0.021790312603116035,-0.026543324813246727,0.00024565798230469227,0.0,0.0,0.0,0.0,-0.0007160102832131088,-0.0005205044872127473,0.0008002359536476433,1.000020980834961,0.0,0.0,0.0,-11.626291275024414,7.679961681365967,3.0445125102996826,2104.3818359375,0
1136.8649999999998,0.021763144060969353,-0.02638925053179264,0.00035513407783582807,0.0,0.0,0.0,0.0,0.0010873540304601192,0.002391424495726824,-0.0006281622336246073,0.9991302490234375,0.0,0.0,0.0,-11.605328559875488,7.698155879974365,3.0233774185180664,2100.587646484375,0
1146.7439999999988,0.02176855318248272,-0.026562204584479332,0.0003034223918803036,0.0,0.0,0.0,0.0,0.0011208662763237953,-0.0025139509234577417,0.0032130111940205097,0.9995361566543579,0.0,0.0,0.0,-11.625602722167969,7.668485641479492,3.042351722717285,2104.25732421875,0
1156.637999999999,0.021741030737757683,-0.026441041380167007,0.0003981975605711341,0.0,0.0,0.0,0.0,0.001612527179531753,0.005452471785247326,-0.00032333587296307087,0.9987406134605408,0.0,0.0,0.0,-11.604352951049805,7.684394836425781,3.027717113494873,2100.4111328125,0
1166.5109999999986,0.021690363064408302,-0.026567453518509865,0.0003538342716637999,0.0,0.0,0.0,0.0,0.0021807679440826178,-0.003916757646948099,0.0021487681660801172,0.999845027923584,0.0,0.0,0.0,-11.621109962463379,7.6563401222229,3.0253798961639404,2103.44384765625,0
1176.4039999999986,0.021743163466453552,-0.026349201798439026,0.0003856153634842485,0.0,0.0,0.0,0.0,0.00047094005276449025,0.0026564798317849636,-0.0007329973741434515,1.0007013082504272,0.0,0.0,0.0,-11.599918365478516,7.692304611206055,3.032308340072632,2099.6083984375,0
1186.2929999999997,0.021706074476242065,-0.026507878676056862,0.0003277650976087898,0.0,0.0,0.0,0.0,0.00033749378053471446,0.00415788171812892,0.0017625890905037522,1.0000344514846802,0.0,0.0,0.0,-11.616534233093262,7.66155481338501,3.035754680633545,2102.61572265625,0
1196.1749999999993,0.021737584844231606,-0.026325471699237823,0.0003702241519931704,0.0,0.0,0.0,0.0,0.001373509643599391,0.0019475668668746948,-0.0030084862373769283,0.9977628588676453,0.0,0.0,0.0,-11.597049713134766,7.687241077423096,3.0265161991119385,2099.089111328125,0
1206.0529999999999,0.021695347502827644,-0.026476088911294937,0.00031292811036109924,0.0,0.0,0.0,0.0,-0.003187172580510378,0.004203137941658497,-0.0011380246141925454,0.9968908429145813,0.0,0.0,0.0,-11.616042137145996,7.66456413269043,3.0232768058776855,2102.52685546875,0
1215.9470000000001,0.021688802167773247,-0.026324229314923286,0.00038943748222664,0.0,0.0,0.0,0.0,0.00041790661634877324,-0.003643312491476536,-0.0007529010181315243,0.9976887106895447,0.0,0.0,0.0,-11.596759796142578,7.688502311706543,2.9983439445495605,2099.036376953125,0
1225.824999999999,0.021666429936885834,-0.026352953165769577,0.0003916720161214471,0.0,0.0,0.0,0.0,0.0015002777799963951,0.0007104778778739274,0.002493652980774641,0.9975197315216064,0.0,0.0,0.0,-11.585136413574219,7.676866054534912,2.9998133182525635,2096.9326171875,0
1235.7240000000002,0.021624768152832985,-0.02625931054353714,0.00047469534911215305,0.0,0.0,0.0,0.0,-0.0019301781430840492,-0.00017218721040990204,0.0011856347555294633,1.0000123977661133,0.0,0.0,0.0,-11.5744047164917,7.667726516723633,3.0073158740997314,2094.990478515625,0
1245.5959999999995,0.021751949563622475,-0.026538271456956863,0.0004308527277316898,0.0,0.0,0.0,0.0,0.0005119968554936349,0.0008124664891511202,0.0016344664618372917,0.9994529485702515,0.0,0.0,0.0,-11.594473838806152,7.6256608963012695,3.0431411266326904,2098.622802734375,0
1255.4889999999996,0.021793611347675323,-0.026363465934991837,0.00048096326645463705,0.0,0.0,0.0,0.0,-0.0009949227096512914,-0.006830097176134586,-0.0011889596935361624,0.9988154768943787,0.0,0.0,0.0,-11.576679229736328,7.667275905609131,3.0415730476379395,2095.40185546875,0
1265.375,0.021826233714818954,-0.02661847323179245,0.00040082060149870813,0.0,0.0,0.0,0.0,-0.002213576342910528,-0.00096314144320786,0.002532709389925003,0.9986766576766968,0.0,0.0,0.0,-11.594654083251953,7.626269817352295,3.066153049468994,2098.655517578125,0
1275.2649999999994,0.021877089515328407,-0.026424068957567215,0.00044771903776563704,0.0,0.0,0.0,0.0,-0.002564278431236744,-0.004334560129791498,-0.0013789047952741385,0.9994813203811646,0.0,0.0,0.0,-11.57784652709961,7.66480827331543,3.067314863204956,2095.61328125,0
1285.1399999999994,0.021817760542035103,-0.02657976932823658,0.00037982562207616866,0.0,0.0,0.0,0.0,0.0001868763065431267,0.0002915613877121359,-0.002874561119824648,1.0003418922424316,0.0,0.0,0.0,-11.60175895690918,7.641946792602539,3.0723235607147217,2099.94140625,0
1295.0389999999989,0.02185234986245632,-0.026411760598421097,0.0004267384356353432,0.0,0.0,0.0,0.0,-0.0011621701996773481,0.0016465233638882637,-0.0013858481543138623,1.0014110803604126,0.0,0.0,0.0,-11.58393669128418,7.671530723571777,3.0694241523742676,2096.715576171875,0
1304.9169999999995,0.021826688200235367,-0.026633577421307564,0.000340280617820099,0.0,0.0,0.0,0.0,0.0006049415096640587,-0.0028615775518119335,-7.721869769738987e-05,0.997468113899231,0.0,0.0,0.0,-11.606341361999512,7.639564037322998,3.065894365310669,2100.770751953125,0
1314.804,0.021874060854315758,-0.02644176222383976,0.00038286534254439175,0.0,0.0,0.0,0.0,0.0027467175386846066,0.0003716029750648886,-0.0011710417456924915,0.9978052377700806,0.0,0.0,0.0,-11.589151382446289,7.671512603759766,3.063467264175415,2097.659423828125,0
1324.6819999999989,0.02184438891708851,-0.026639914140105247,0.0003061380994040519,0.0,0.0,0.0,0.0,0.00027077709091827273,0.002224147552624345,-0.001962541602551937,0.9985007643699646,0.0,0.0,0.0,-11.612519264221191,7.640848159790039,3.066511869430542,2101.888916015625,0
1334.5810000000001,0.02187923714518547,-0.02645835466682911,0.00035625469172373414,0.0,0.0,0.0,0.0,-0.0017029778100550175,-0.0003591147833503783,0.0003673851315397769,1.0014594793319702,0.0,0.0,0.0,-11.597334861755371,7.66534948348999,3.0521047115325928,2099.140625,0
1344.4529999999995,0.021826306357979774,-0.026606013998389244,0.0002938395773526281,0.0,0.0,0.0,0.0,9.38384109758772e-05,-0.003935074899345636,-0.0020223448518663645,0.998759388923645,0.0,0.0,0.0,-11.612414360046387,7.646718978881836,3.055574417114258,2101.8701171875,0
1354.3490000000002,0.021844416856765747,-0.026435624808073044,0.0003617143665906042,0.0,0.0,0.0,0.0,0.0028470277320593596,-0.00025129615096375346,0.0019429760286584496,0.9986777901649475,0.0,0.0,0.0,-11.592540740966797,7.676258563995361,3.0575780868530273,2098.27294921875,0
1364.2289999999994,0.021767260506749153,-0.02662571147084236,0.0002711439155973494,0.0,0.0,0.0,0.0,0.0001284231257159263,0.004511560779064894,-0.005192030221223831,0.9995750188827515,0.0,0.0,0.0,-11.606534004211426,7.644248962402344,3.053870439529419,2100.8056640625,0
1374.128999999999,0.021813994273543358,-0.02642475627362728,0.0003113089478574693,0.0,0.0,0.0,0.0,-0.0033175027929246426,-0.009768443182110786,0.0017269373638555408,1.0001541376113892,0.0,0.0,0.0,-11.589591979980469,7.6786322593688965,3.0422298908233643,2097.7392578125,0
1383.9959999999992,0.021760806441307068,-0.02660801261663437,0.00022947731486056,0.0,0.0,0.0,0.0,0.00043680579983629286,-0.0036662654019892216,-0.00024592786212451756,1.0009565353393555,0.0,0.0,0.0,-11.60645580291748,7.654388427734375,3.058877944946289,2100.79150390625,0
1393.8899999999994,0.021757302805781364,-0.0264524444937706,0.0003114408173132688,0.0,0.0,0.0,0.0,-0.0017011184245347977,-0.0022681227419525385,-0.0030674226582050323,1.0017831325531006,0.0,0.0,0.0,-11.591360092163086,7.679327487945557,3.0654823780059814,2098.059326171875,0
1403.7690000000002,0.021703489124774933,-0.02658957429230213,0.0002572043740656227,0.0,0.0,0.0,0.0,0.0010765580227598548,0.0005737110623158514,-0.005810392089188099,1.0022435188293457,0.0,0.0,0.0,-11.602533340454102,7.660647869110107,3.0663797855377197,2100.08154296875,0
1413.6659999999993,0.021711839362978935,-0.02641669474542141,0.00033418062957935035,0.0,0.0,0.0,0.0,-0.0005701337358914316,-0.00029194162925705314,0.0022151689045131207,0.9991009831428528,0.0,0.0,0.0,-11.583683013916016,7.6877827644348145,3.0540430545806885,2096.669677734375,0
1423.5389999999989,0.0216963030397892,-0.026572924107313156,0.00029501598328351974,0.0,0.0,0.0,0.0,9.760928514879197e-05,-0.007108580321073532,-0.00045589354704134166,1.000368595123291,0.0,0.0,0.0,-11.603449821472168,7.661049842834473,3.0604217052459717,2100.24755859375,0
1433.4319999999989,0.02169366553425789,-0.026447219774127007,0.0003663435927592218,0.0,0.0,0.0,0.0,0.0024283058010041714,0.004152878653258085,-0.00032927366555668414,0.9996101260185242,0.0,0.0,0.0,-11.593335151672363,7.652270793914795,3.063507318496704,2098.416748046875,0
1443.312,0.0217287577688694,-0.02661575749516487,0.00034301626146771014,0.0,0.0,0.0,0.0,-0.00024325621780008078,0.0017953518545255065,0.0023894677869975567,0.9989216327667236,0.0,0.0,0.0,-11.61866569519043,7.6289753913879395,3.0840439796447754,2103.00146484375,0
1453.2039999999997,0.021740175783634186,-0.026462169364094734,0.0004145761195104569,0.0,0.0,0.0,0.0,-0.0020862610545009375,-0.0011095729423686862,0.0018422678112983704,1.0004316568374634,0.0,0.0,0.0,-11.600202560424805,7.657524585723877,3.070927858352661,2099.659912109375,0
1463.0810000000001,0.021737879142165184,-0.026633212342858315,0.00037493419949896634,0.0,0.0,0.0,0.0,0.0005431419122032821,0.00019049552793148905,-0.0010961537482216954,0.9981779456138611,0.0,0.0,0.0,-11.620713233947754,7.629007816314697,3.0679805278778076,2103.372314453125,0
1472.9799999999996,0.021765151992440224,-0.02643286995589733,0.0004516164190135896,0.0,0.0,0.0,0.0,-0.0018757869256660342,-0.001710480428300798,-0.00027351852622814476,0.9999468326568604,0.0,0.0,0.0,-11.600629806518555,7.655515193939209,3.0577049255371094,2099.737060546875,0
1482.8599999999988,0.021725909784436226,-0.02664683200418949,0.00037795366370119154,0.0,0.0,0.0,0.0,0.00023969050380401313,0.0024146793875843287,-0.0021386449225246906,0.9997209906578064,0.0,0.0,0.0,-11.616277694702148,7.631567478179932,3.059079170227051,2102.5693359375,0
1492.7479999999996,0.021791009232401848,-0.026418481022119522,0.00041348315426148474,0.0,0.0,0.0,0.0,2.0638333808165044e-05,-0.0018465329194441438,0.0012230353895574808,0.9975863099098206,0.0,0.0,0.0,-11.5971097946167,7.667498588562012,3.056339740753174,2099.10009765625,0
1502.634,0.021809911355376244,-0.02664092369377613,0.0003558677271939814,0.0,0.0,0.0,0.0,0.0015398857649415731,-0.00179947295691818,-0.00012575031723827124,0.9996413588523865,0.0,0.0,0.0,-11.615976333618164,7.630314826965332,3.069028377532959,2102.5146484375,0
1512.5289999999986,0.02185770310461521,-0.02644079364836216,0.0003995636070612818,0.0,0.0,0.0,0.0,0.002474685898050666,-0.00350437150336802,1.1883051229233388e-05,1.0002832412719727,0.0,0.0,0.0,-11.596137046813965,7.663031578063965,3.0674753189086914,2098.923828125,0
1522.402,0.021833153441548347,-0.026649488136172295,0.00032788829412311316,0.0,0.0,0.0,0.0,0.0005892071058042347,-0.004340128507465124,-0.0014364785747602582,1.0007224082946777,0.0,0.0,0.0,-11.611087799072266,7.628983974456787,3.085559368133545,2101.6298828125,0
1532.295,0.021840590983629227,-0.026465483009815216,0.000415135727962479,0.0,0.0,0.0,0.0,-0.0014990564668551087,-0.005747432354837656,0.00352076324634254,0.9994081854820251,0.0,0.0,0.0,-11.59560489654541,7.665222644805908,3.0904204845428467,2098.82763671875,0
1542.1669999999995,0.021825481206178665,-0.026682265102863312,0.0003483906330075115,0.0,0.0,0.0,0.0,0.0002482251438777894,0.004425236489623785,-0.0009009768255054951,1.000293254852295,0.0,0.0,0.0,-11.612181663513184,7.6312408447265625,3.1138529777526855,2101.827880859375,0
1552.0599999999995,0.02186896838247776,-0.026480812579393387,0.00039668180397711694,0.0,0.0,0.0,0.0,0.0010521255899220705,0.0041323816403746605,-0.00045290935668163,0.9984554052352905,0.0,0.0,0.0,-11.594196319580078,7.667023181915283,3.107091188430786,2098.572509765625,0
1561.9389999999985,0.0217952411621809,-0.026678774505853653,0.0003145257360301912,0.0,0.0,0.0,0.0,0.0005626212805509567,-0.0012056375853717327,-0.0015393372159451246,1.0007761716842651,0.0,0.0,0.0,-11.614192008972168,7.635954856872559,3.0985820293426514,2102.19189453125,0
1571.8319999999985,0.0218423530459404,-0.026449397206306458,0.00036678361357189715,0.0,0.0,0.0,0.0,0.0015510381199419498,-0.00018554407870396972,-0.002741061383858323,0.9997842907905579,0.0,0.0,0.0,-11.594874382019043,7.6728386878967285,3.1059093475341797,2098.6953125,0
1581.7219999999998,0.021835269406437874,-0.026644518598914146,0.00030918288393877447,0.0,0.0,0.0,0.0,0.0008151868241839111,0.0012886699987575412,-0.001725314650684595,0.9977666139602661,0.0,0.0,0.0,-11.61663818359375,7.644184589385986,3.1143429279327393,2102.634521484375,0
1591.619999999999,0.0218676645308733,-0.026449277997016907,0.00036713146255351603,0.0,0.0,0.0,0.0,0.00015526858624070883,-0.0008627543575130403,-0.0018754786578938365,0.9975521564483643,0.0,0.0,0.0,-11.59920883178711,7.671729564666748,3.1029157638549805,2099.479736328125,0
1601.4809999999998,0.021776625886559486,-0.02662155218422413,0.00028318376280367374,0.0,0.0,0.0,0.0,-0.0011995792156085372,-0.0003409729397390038,0.004035053309053183,0.9991917014122009,0.0,0.0,0.0,-11.615960121154785,7.641936302185059,3.094099521636963,2102.511962890625,0
1611.3809999999994,0.02180641144514084,-0.026424886658787727,0.00033567773061804473,0.0,0.0,0.0,0.0,0.0014375359751284122,-0.001599744544364512,0.00019645407155621797,0.996913731098175,0.0,0.0,0.0,-11.595219612121582,7.675694465637207,3.093613862991333,2098.7578125,0
1621.2549999999992,0.02175675518810749,-0.026611605659127235,0.00025586888659745455,0.0,0.0,0.0,0.0,-0.0033764573745429516,-0.0041075218468904495,0.0019986797124147415,0.9995197057723999,0.0,0.0,0.0,-11.61313533782959,7.636310577392578,3.093559503555298,2102.00048828125,0
1631.1479999999992,0.02178187295794487,-0.026425160467624664,0.00030252235592342913,0.0,0.0,0.0,0.0,0.0009981926996260881,0.0016759670106694102,-0.00039206931251101196,0.9991419315338135,0.0,0.0,0.0,-11.5945463180542,7.6787638664245605,3.0958921909332275,2098.635986328125,0
1641.0239999999994,0.021735817193984985,-0.026559116318821907,0.00024757208302617073,0.0,0.0,0.0,0.0,-0.0006984115461818874,0.001986355986446142,0.002624106127768755,0.9984193444252014,0.0,0.0,0.0,-11.611944198608398,7.65029764175415,3.1039528846740723,2101.784912109375,0
1650.9229999999989,0.021756993606686592,-0.026371736079454422,0.0003007669001817703,0.0,0.0,0.0,0.0,0.0007560233352705836,-0.0012718169018626213,-0.002590205753222108,0.9997954964637756,0.0,0.0,0.0,-11.589163780212402,7.684000015258789,3.087216377258301,2097.66162109375,0
1660.7960000000003,0.02169637568295002,-0.02651390992105007,0.0002313484437763691,0.0,0.0,0.0,0.0,0.00033220488694496453,-0.0018143787747249007,-0.0018460917053744197,1.0011662244796753,0.0,0.0,0.0,-11.60780143737793,7.652655124664307,3.0724053382873535,2101.03515625,0
1670.6899999999987,0.021709831431508064,-0.026342544704675674,0.0002829521836247295,0.0,0.0,0.0,0.0,0.0013653592905029655,0.001147747621871531,-0.0013186483411118388,0.9982524514198303,0.0,0.0,0.0,-11.589277267456055,7.681519508361816,3.075908660888672,2097.68212890625,0
1680.5699999999997,0.02173496223986149,-0.026568995788693428,0.00020960596157237887,0.0,0.0,0.0,0.0,-0.0027811366599053144,0.004730653949081898,-0.0014531203778460622,1.0002110004425049,0.0,0.0,0.0,-11.605636596679688,7.640089988708496,3.0887038707733154,2100.643310546875,0
1690.4599999999991,0.0217575840651989,-0.02638946659862995,0.00025660323444753885,0.0,0.0,0.0,0.0,0.0010702162981033325,0.00273294560611248,0.00041693076491355896,1.0006742477416992,0.0,0.0,0.0,-11.586627960205078,7.672399520874023,3.086345672607422,2097.20263671875,0
1700.3379999999997,0.021753760054707527,-0.026585707440972328,0.00018579319294076413,0.0,0.0,0.0,0.0,-0.002038175705820322,-0.001360535272397101,0.002429264597594738,0.999980092048645,0.0,0.0,0.0,-11.604642868041992,7.640552043914795,3.083868980407715,2100.46337890625,0
1710.2389999999996,0.021774141117930412,-0.026398060843348503,0.0002458313247188926,0.0,0.0,0.0,0.0,0.006445284932851791,0.005889853462576866,-0.0015809534816071391,0.9992693066596985,0.0,0.0,0.0,-11.586108207702637,7.678488254547119,3.081897735595703,2097.108642578125,0
1720.1099999999988,0.021834684535861015,-0.026610422879457474,0.0001960850931936875,0.0,0.0,0.0,0.0,0.0011614570394158363,-0.0015204671071842313,-0.00014018140791449696,0.9999051690101624,0.0,0.0,0.0,-11.610735893249512,7.638375759124756,3.094480276107788,2101.566162109375,0
1730.0029999999988,0.021847303956747055,-0.026440903544425964,0.0002637679281178862,0.0,0.0,0.0,0.0,-1.8851222876037355e-06,0.003467746078968048,0.00034347904147580266,0.9986827373504639,0.0,0.0,0.0,-11.59224796295166,7.658657550811768,3.0873351097106934,2098.219970703125,0
1739.8819999999996,0.021812714636325836,-0.026581238955259323,0.0002109557535732165,0.0,0.0,0.0,0.0,0.0018459034617990255,-0.0009584285435266793,0.0007221631822176278,0.9978713989257812,0.0,0.0,0.0,-11.613154411315918,7.63456392288208,3.0852904319763184,2102.004150390625,0
1749.777,0.02179090864956379,-0.026435628533363342,0.0003150703269056976,0.0,0.0,0.0,0.0,-0.0019227247685194016,-0.0007729625212959945,0.0032519849482923746,0.998664379119873,0.0,0.0,0.0,-11.601795196533203,7.624428749084473,3.0874083042144775,2099.947998046875,0
1759.6530000000002,0.021765917539596558,-0.02665730193257332,0.00023046562273520976,0.0,0.0,0.0,0.0,-0.000430760788731277,-0.002095509087666869,-0.0030341721139848232,0.9983381032943726,0.0,0.0,0.0,-11.618473052978516,7.587764739990234,3.090989112854004,2102.966796875,0
1769.554,0.02176026813685894,-0.02651875652372837,0.00031005192431621253,0.0,0.0,0.0,0.0,0.0024517225101590157,0.002678602933883667,-0.0020373619627207518,0.997538149356842,0.0,0.0,0.0,-11.600212097167969,7.609007358551025,3.082617998123169,2099.66162109375,0
1779.4359999999997,0.02179333195090294,-0.026700712740421295,0.000270983437076211,0.0,0.0,0.0,0.0,-0.0002617900026962161,0.00034467113437131047,0.001622973126359284,0.9988448023796082,0.0,0.0,0.0,-11.62071418762207,7.5843682289123535,3.083383083343506,2103.372314453125,0
1789.3199999999997,0.021809622645378113,-0.026507234200835228,0.0003567370877135545,0.0,0.0,0.0,0.0,-0.00020176450198050588,0.0007389745442196727,0.0006248708232305944,1.0010790824890137,0.0,0.0,0.0,-11.60084056854248,7.621044635772705,3.0700957775115967,2099.775146484375,0
1799.196,0.02173016034066677,-0.02664969116449356,0.0002901427506003529,0.0,0.0,0.0,0.0,0.000850831507705152,-0.0008091320632956922,0.0033528327476233244,1.0001767873764038,0.0,0.0,0.0,-11.62457275390625,7.595253944396973,3.060753583908081,2104.07080078125,0
1809.0909999999985,0.021754929795861244,-0.02645539678633213,0.00036715614260174334,0.0,0.0,0.0,0.0,0.0004812284023500979,-0.0014750661794096231,-0.0028785387985408306,0.9981002807617188,0.0,0.0,0.0,-11.605653762817383,7.6284332275390625,3.0527193546295166,2100.646484375,0
1818.9740000000002,0.021690450608730316,-0.02657732553780079,0.00031723667052574456,0.0,0.0,0.0,0.0,-0.0002783074742183089,-0.0012043679598718882,-0.0008316569146700203,0.9994530081748962,0.0,0.0,0.0,-11.62382984161377,7.607624053955078,3.0502359867095947,2103.936279296875,0
1828.8709999999992,0.02174132503569126,-0.0263842660933733,0.0003513601841405034,0.0,0.0,0.0,0.0,0.00045149915968067944,-0.0010336078703403473,-0.0011491613695397973,0.9976071715354919,0.0,0.0,0.0,-11.60451602935791,7.641688823699951,3.0436322689056396,2100.4404296875,0
1838.7489999999998,0.02170102670788765,-0.02652626857161522,0.00029818250914104283,0.0,0.0,0.0,0.0,0.0009706785785965621,-0.0024721736554056406,0.0006120831239968538,1.0000110864639282,0.0,0.0,0.0,-11.62663745880127,7.614553928375244,3.0298497676849365,2104.4443359375,0
1848.637999999999,0.021742573007941246,-0.02633397839963436,0.0003381432325113565,0.0,0.0,0.0,0.0,-3.4879017221101094e-06,0.004146188497543335,-0.0008545477176085114,1.0017673969268799,0.0,0.0,0.0,-11.607028007507324,7.646565914154053,3.032334089279175,2100.89501953125,0
1858.5100000000002,0.021756082773208618,-0.026565102860331535,0.00026291547692380846,0.0,0.0,0.0,0.0,0.0010437039891257882,0.0006384787848219275,7.730269862804562e-05,1.0010268688201904,0.0,0.0,0.0,-11.626321792602539,7.611263275146484,3.036675453186035,2104.387451171875,0
1868.4030000000002,0.021786155179142952,-0.026386886835098267,0.0003154108999297023,0.0,0.0,0.0,0.0,-0.0013390667736530304,-0.00203737523406744,0.0024033566005527973,1.0003424882888794,0.0,0.0,0.0,-11.611310958862305,7.642772674560547,3.027534008026123,2101.67041015625,0
1878.2879999999986,0.0217598844319582,-0.026589326560497284,0.00023872590099927038,0.0,0.0,0.0,0.0,-0.0007985028205439448,0.001657484332099557,-0.0017242466565221548,0.9988742470741272,0.0,0.0,0.0,-11.626290321350098,7.608414649963379,3.0304336547851562,2104.381591796875,0
1888.1839999999993,0.021792354062199593,-0.02637249045073986,0.0003039810399059206,0.0,0.0,0.0,0.0,-0.000115189679490868,-0.0026084769051522017,0.0014286111108958721,0.9998919367790222,0.0,0.0,0.0,-11.604316711425781,7.629800796508789,3.029188871383667,2100.404541015625,0
1898.0519999999997,0.02176828123629093,-0.02657800354063511,0.00021444668527692556,0.0,0.0,0.0,0.0,0.0011870685266330838,0.0008465134305879474,0.0035856871400028467,1.0016428232192993,0.0,0.0,0.0,-11.623023986816406,7.589422225952148,3.039382219314575,2103.790283203125,0
1907.9609999999993,0.021735981106758118,-0.026481186971068382,0.00031399924773722887,0.0,0.0,0.0,0.0,-0.0025841223541647196,-0.007313661742955446,-0.0005228024674579501,0.9981456398963928,0.0,0.0,0.0,-11.60266399383545,7.59343957901001,3.03110408782959,2100.105224609375,0
1917.825999999999,0.021717820316553116,-0.02666495367884636,0.0002511006314307451,0.0,0.0,0.0,0.0,0.0032341794576495886,0.00511210085824132,0.001204797183163464,0.9977957606315613,0.0,0.0,0.0,-11.622523307800293,7.565601348876953,3.0455939769744873,2103.69970703125,0
1927.7259999999987,0.02175670862197876,-0.026476934552192688,0.0002949876943603158,0.0,0.0,0.0,0.0,-0.001219826634041965,-0.0010640990221872926,-0.004089272581040859,0.9968229532241821,0.0,0.0,0.0,-11.603808403015137,7.588217258453369,3.0397603511810303,2100.312255859375,0
1937.5949999999993,0.021724140271544456,-0.026660803705453873,0.00022114062448963523,0.0,0.0,0.0,0.0,-0.001837533782236278,0.0004974836483597755,-0.00044862538925372064,0.996797502040863,0.0,0.0,0.0,-11.621150016784668,7.561948299407959,3.043306827545166,2103.451171875,0
1947.4889999999996,0.021761184558272362,-0.026466455310583115,0.00026558799436315894,0.0,0.0,0.0,0.0,0.0012943566543981433,0.0013172412291169167,-0.0025580015499144793,1.0012861490249634,0.0,0.0,0.0,-11.602984428405762,7.590826034545898,3.039015769958496,2100.1630859375,0
1957.3670000000002,0.021755989640951157,-0.02660880610346794,0.00022039229224901646,0.0,0.0,0.0,0.0,-0.00098394975066185,0.0038551390171051025,-0.0019529401324689388,0.9985344409942627,0.0,0.0,0.0,-11.626740455627441,7.566906929016113,3.042203664779663,2104.463134765625,0
1967.262999999999,0.021727222949266434,-0.02651255764067173,0.0003067542565986514,0.0,0.0,0.0,0.0,-0.00030621030600741506,-0.001215674332343042,-0.0008900128887034953,0.998015820980072,0.0,0.0,0.0,-11.60751724243164,7.575324535369873,3.025048017501831,2100.983642578125,0
1977.1389999999992,0.021741997450590134,-0.02665303461253643,0.00028003877378068864,0.0,0.0,0.0,0.0,0.005123661831021309,-0.0063063302077353,0.0030361737590283155,1.0003204345703125,0.0,0.0,0.0,-11.631382942199707,7.551776885986328,3.0337419509887695,2105.303466796875,0
1987.0329999999994,0.021773388609290123,-0.0264785997569561,0.00032367283711209893,0.0,0.0,0.0,0.0,-0.0017872327007353306,-0.0031687659211456776,-0.0011491968762129545,0.9999249577522278,0.0,0.0,0.0,-11.609688758850098,7.564476013183594,3.047785520553589,2101.376708984375,0
1996.9159999999993,0.021724585443735123,-0.026660064235329628,0.0002509172772988677,0.0,0.0,0.0,0.0,0.0009601863566786051,0.0003049678052775562,0.0017945704748854041,1.000539779663086,0.0,0.0,0.0,-11.627859115600586,7.540238857269287,3.060971736907959,2104.66552734375,0
2006.8050000000003,0.021715864539146423,-0.02651226706802845,0.000338018435286358,0.0,0.0,0.0,0.0,-0.0009838792029768229,-0.0007021663477644324,-0.0009529434610158205,0.997955858707428,0.0,0.0,0.0,-11.607856750488281,7.558032035827637,3.0667614936828613,2101.045166015625,0
2016.6839999999993,0.021694034337997437,-0.026690077036619186,0.0002851147437468171,0.0,0.0,0.0,0.0,-0.0008611545781604946,-0.005454665049910545,-0.0009655129979364574,0.9994074702262878,0.0,0.0,0.0,-11.626588821411133,7.5316290855407715,3.075667381286621,2104.435546875,0
2026.5789999999997,0.021691657602787018,-0.02655612677335739,0.0003564023063518107,0.0,0.0,0.0,0.0,-0.00022692618949804455,0.00041845993837341666,0.0015130783431231976,0.9997343420982361,0.0,0.0,0.0,-11.605830192565918,7.547220230102539,3.0840344429016113,2100.678466796875,0
2036.4519999999993,0.021668480709195137,-0.026732677593827248,0.00030399710522033274,0.0,0.0,0.0,0.0,-0.0006468112696893513,0.0010079160565510392,0.001083751325495541,0.9983049631118774,0.0,0.0,0.0,-11.624942779541016,7.52310037612915,3.0853567123413086,2104.1376953125,0
2046.3469999999998,0.021682053804397583,-0.026583131402730942,0.0003644053649622947,0.0,0.0,0.0,0.0,-8.008733857423067e-05,-0.005994852166622877,0.0010352059034630656,0.998271644115448,0.0,0.0,0.0,-11.602156639099121,7.547055244445801,3.085153341293335,2100.013427734375,0
2056.224,0.02164365164935589,-0.026732396334409714,0.00031974143348634243,0.0,0.0,0.0,0.0,-0.0008501730626448989,-0.0049964431673288345,0.0005426911520771682,0.9965406656265259,0.0,0.0,0.0,-11.629209518432617,7.528101444244385,3.1006155014038086,2104.909912109375,0
2066.117,0.021669184789061546,-0.026569776237010956,0.00036357197677716613,0.0,0.0,0.0,0.0,0.0013521647779271007,-0.004880843218415976,-0.00021928732166998088,0.9967438578605652,0.0,0.0,0.0,-11.609747886657715,7.558827877044678,3.103541612625122,2101.387451171875,0
2075.994999999999,0.02169414982199669,-0.026715809479355812,0.00034548412077128887,0.0,0.0,0.0,0.0,0.00028911398840136826,-0.0019398345611989498,-0.0012948224321007729,0.9969276785850525,0.0,0.0,0.0,-11.634808540344238,7.54110050201416,3.122286558151245,2105.92333984375,0
2085.892,0.021708287298679352,-0.026572562754154205,0.0003924541233573109,0.0,0.0,0.0,0.0,0.0007384986383840442,-0.0031527229584753513,-0.0037801924627274275,1.00008225440979,0.0,0.0,0.0,-11.613069534301758,7.559545516967773,3.1253573894500732,2101.98876953125,0
2095.7690000000002,0.021700197830796242,-0.026751911267638206,0.0003520345489960164,0.0,0.0,0.0,0.0,-0.002263108966872096,0.0008319595945067704,-0.0005337863694876432,1.0001459121704102,0.0,0.0,0.0,-11.63698673248291,7.541083335876465,3.130434274673462,2106.317626953125,0
2105.6669999999995,0.021763542667031288,-0.026531701907515526,0.00037205469561740756,0.0,0.0,0.0,0.0,-0.0006928143557161093,0.0014983548317104578,-0.002831106772646308,0.9973737001419067,0.0,0.0,0.0,-11.617155075073242,7.58181619644165,3.128776788711548,2102.72802734375,0
2115.5429999999997,0.021698977798223495,-0.026722745969891548,0.0002881257387343794,0.0,0.0,0.0,0.0,-0.00011400925723137334,-0.0004338228900451213,0.002443634206429124,0.9981533885002136,0.0,0.0,0.0,-11.63815975189209,7.556583881378174,3.1206254959106445,2106.530029296875,0
2125.4389999999985,0.02175588347017765,-0.0265035443007946,0.0003137110034003854,0.0,0.0,0.0,0.0,0.00023685286578256637,-0.004563887137919664,-0.0031158190686255693,0.9986912608146667,0.0,0.0,0.0,-11.618732452392578,7.600085735321045,3.1259100437164307,2103.013427734375,0
2135.3099999999995,0.021743863821029663,-0.026667378842830658,0.00025728673790581524,0.0,0.0,0.0,0.0,0.0010443563805893064,0.0016137640923261642,0.0012965453788638115,0.9988064169883728,0.0,0.0,0.0,-11.643588066101074,7.570982933044434,3.1328041553497314,2107.512451171875,0
2145.214,0.021825093775987625,-0.026406696066260338,0.00027161839534528553,0.0,0.0,0.0,0.0,-0.0021364896092563868,-0.00020344161021057516,-0.0019854740239679813,0.9995831251144409,0.0,0.0,0.0,-11.623177528381348,7.618689060211182,3.128769636154175,2103.818115234375,0
2155.081,0.021766461431980133,-0.026616979390382767,0.00016092119039967656,0.0,0.0,0.0,0.0,0.0008843950927257538,0.0005844900733791292,-0.0005169257055968046,1.000447154045105,0.0,0.0,0.0,-11.641210556030273,7.590405464172363,3.1242759227752686,2107.08203125,0
