timestamp,stateEstimate.x,stateEstimate.y,stateEstimate.z,controller.cmd_thrust,controller.cmd_roll,controller.cmd_pitch,controller.cmd_yaw,controller.r_roll,controller.r_pitch,controller.r_yaw,controller.accelz,controller.actuatorThrust,controller.roll,controller.pitch,controller.yaw,controller.rollRate,controller.pitchRate,controller.yawRate,controller.ctr_yaw
0.0,-0.00014321733033284545,-0.00033342037932015955,0.0003142119094263762,0.0,0.0,0.0,0.0,-0.0018196937162429094,-0.005049662198871374,0.005216724239289761,1.0016008615493774,0.0,0.0,0.0,0.1921890676021576,11.549772262573242,0.876672625541687,-34.78660202026367,0
9.903000000000247,-0.00010964734246954322,-0.0002391505695413798,0.00034121115459129214,0.0,0.0,0.0,0.0,0.0026491647586226463,0.003698647953569889,0.005104961805045605,1.0000014305114746,0.0,0.0,0.0,0.2007974237203598,11.571815490722656,0.8851885795593262,-36.344730377197266,0
19.773000000001048,-0.00014713358541484922,-0.0003468017093837261,0.00030407673330046237,0.0,0.0,0.0,0.0,0.0005779501516371965,-0.00010665899753803387,2.938531179097481e-05,0.9986550807952881,0.0,0.0,0.0,0.18999560177326202,11.55134391784668,0.8714601993560791,-34.389583587646484,0
29.676000000001295,-8.016544597921893e-05,-0.0002308792172698304,0.00029848897247575223,0.0,0.0,0.0,0.0,-0.002865221118554473,0.001992161152884364,0.0037342682480812073,1.0003529787063599,0.0,0.0,0.0,0.2013239711523056,11.566073417663574,0.881345272064209,-36.440040588378906,0
39.552999999999884,-0.00012762921687681228,-0.0003254676703363657,0.0002605789923109114,0.0,0.0,0.0,0.0,-0.002384694293141365,0.0023118520621210337,0.003970201592892408,1.000786304473877,0.0,0.0,0.0,0.18654778599739075,11.547089576721191,0.8693224787712097,-33.76551818847656,0
49.44599999999991,-0.00015273119788616896,-0.0003137537569273263,0.0003278664080426097,0.0,0.0,0.0,0.0,0.001576678710989654,0.00164608599152416,0.001863831770606339,0.9993537664413452,0.0,0.0,0.0,0.19583122432231903,11.557238578796387,0.8567924499511719,-35.44584274291992,0
59.314000000000306,-0.00017223441682290286,-0.00039979381836019456,0.0003110670077148825,0.0,0.0,0.0,0.0,-0.0008389661670662463,-0.006795072462409735,-0.000369908579159528,0.9995352625846863,0.0,0.0,0.0,0.18551363050937653,11.53954029083252,0.8477453589439392,-33.578338623046875,0
69.21200000000135,-0.00012089122174074873,-0.00026992728817276657,0.00033774421899579465,0.0,0.0,0.0,0.0,-0.0028632059693336487,-0.001459380961023271,-0.0006778991082683206,0.9980257749557495,0.0,0.0,0.0,0.19507421553134918,11.561066627502441,0.8565822243690491,-35.30881881713867,0
79.09100000000035,-0.0001733650715323165,-0.0003076031571254134,0.0003297531802672893,0.0,0.0,0.0,0.0,0.002624718938022852,0.002990929875522852,0.0006762601551599801,0.9990821480751038,0.0,0.0,0.0,0.1952328085899353,11.547992706298828,0.8473023772239685,-35.337528228759766,0
88.97800000000097,-0.00014056562213227153,-0.00021714770991820842,0.00035886422847397625,0.0,0.0,0.0,0.0,-0.0006111203692853451,-0.0008932735654525459,0.0009215554455295205,0.9996071457862854,0.0,0.0,0.0,0.20026551187038422,11.572105407714844,0.8554542064666748,-36.24845504760742,0
98.86000000000058,-0.00017490728350821882,-0.0002824472903739661,0.0003457639249972999,0.0,0.0,0.0,0.0,0.0016570640727877617,0.009492429904639721,-0.00046055461280047894,0.9996501207351685,0.0,0.0,0.0,0.18707099556922913,11.561153411865234,0.8473232388496399,-33.86022186279297,0
108.75500000000102,-0.0001068154742824845,-0.00016975257312878966,0.00033390280441381037,0.0,0.0,0.0,0.0,0.003080514492467046,0.002017039805650711,0.002294762060046196,1.0004057884216309,0.0,0.0,0.0,0.19539274275302887,11.578134536743164,0.8432977199554443,-35.36647033691406,0
118.62700000000041,-0.00014014143380336463,-0.00024894619127735496,0.0003098946763202548,0.0,0.0,0.0,0.0,-0.002780343173071742,0.0006223754025995731,0.0035441548097878695,1.0001803636550903,0.0,0.0,0.0,0.18276210129261017,11.563742637634277,0.8286910653114319,-33.08030700683594,0
128.52700000000004,-0.0001346093777101487,-0.00019094138406217098,0.00035473244497552514,0.0,0.0,0.0,0.0,-0.00035104434937238693,0.0003423140733502805,0.0014377925544977188,0.9975723028182983,0.0,0.0,0.0,0.19404226541519165,11.570289611816406,0.8400101065635681,-35.12203598022461,0
138.39800000000105,-0.00016298395348712802,-0.00026185749447904527,0.00033957508276216686,0.0,0.0,0.0,0.0,0.002580594038590789,0.0044053527526557446,0.002684846753254533,0.9974687099456787,0.0,0.0,0.0,0.19510899484157562,11.563077926635742,0.8402737379074097,-35.31511306762695,0
148.29399999999987,-0.00014292825653683394,-0.00019249258912168443,0.00036878258106298745,0.0,0.0,0.0,0.0,0.0005195240373723209,-0.003787387628108263,0.003101434325799346,0.997916579246521,0.0,0.0,0.0,0.20290829241275787,11.574438095092773,0.8405340909957886,-36.726802825927734,0
158.17200000000048,-0.00016966929251793772,-0.0002671022084541619,0.0003504716441966593,0.0,0.0,0.0,0.0,-0.0020356907043606043,-0.0004742791934404522,0.000604593544267118,0.9962778687477112,0.0,0.0,0.0,0.2028346061706543,11.557402610778809,0.8468238115310669,-36.713462829589844,0
168.0630000000001,-0.00015959428856149316,-0.00023977314413059503,0.00036769351572729647,0.0,0.0,0.0,0.0,-0.0010741337900981307,0.002954628085717559,-0.0022677979432046413,0.9988709092140198,0.0,0.0,0.0,0.21115724742412567,11.561042785644531,0.8447586894035339,-38.219886779785156,0
177.95000000000073,-0.0001908102276502177,-0.0002952558861579746,0.0003555020084604621,0.0,0.0,0.0,0.0,-0.003158907638862729,-0.0019436143338680267,0.0016633368795737624,0.9991580843925476,0.0,0.0,0.0,0.21101650595664978,11.54879379272461,0.8417364358901978,-38.19440841674805,0
187.84400000000096,-0.00017946797015611082,-0.00024682548246346414,0.00037809027708135545,0.0,0.0,0.0,0.0,0.001138336956501007,0.0027057535480707884,0.0001725097099551931,0.9994788765907288,0.0,0.0,0.0,0.2208637297153473,11.559850692749023,0.8480116724967957,-39.976776123046875,0
197.71500000000015,-0.00019703767611645162,-0.0003153224242851138,0.0003693881444633007,0.0,0.0,0.0,0.0,0.00012965207861270756,-0.00018303350952919573,0.001667820499278605,1.0008994340896606,0.0,0.0,0.0,0.20789791643619537,11.546380043029785,0.8380352854728699,-37.62993621826172,0
207.6110000000008,-0.00016066216630861163,-0.00021052501688245684,0.0003902189200744033,0.0,0.0,0.0,0.0,8.409561269218102e-05,-0.0012673558667302132,-0.002256113337352872,1.0001578330993652,0.0,0.0,0.0,0.21549434959888458,11.562106132507324,0.8383534550666809,-39.004905700683594,0
217.4980000000014,-0.0001829047832870856,-0.0002923674474004656,0.00036890877527184784,0.0,0.0,0.0,0.0,-0.0010597718646749854,0.005426929332315922,0.004751461558043957,0.9974867701530457,0.0,0.0,0.0,0.21540716290473938,11.547657012939453,0.8318957686424255,-38.9891242980957,0
227.37900000000081,-0.00010924084926955402,-0.00018594195717014372,0.0003394258674234152,0.0,0.0,0.0,0.0,0.0007788799703121185,0.00287173711694777,-0.0029654628597199917,0.9991942048072815,0.0,0.0,0.0,0.22549475729465485,11.56423282623291,0.8447084426879883,-40.81500244140625,0
237.26100000000042,-0.00015329102461691946,-0.00025374561664648354,0.0003131597477477044,0.0,0.0,0.0,0.0,-0.0003266222192905843,-0.0031832712702453136,-9.096600842894986e-05,0.9995516538619995,0.0,0.0,0.0,0.22615240514278412,11.55349063873291,0.8339892625808716,-40.93403625488281,0
247.15099999999984,-0.00010064202797366306,-0.00016093133308459073,0.000298577913781628,0.0,0.0,0.0,0.0,-0.002632373245432973,0.00025525898672640324,0.0015638381009921432,0.9980186820030212,0.0,0.0,0.0,0.23389752209186554,11.57156753540039,0.8379490375518799,-42.33591842651367,0
257.02800000000025,-0.00011651946988422424,-0.00027762551326304674,0.00025872373953461647,0.0,0.0,0.0,0.0,-0.002065035281702876,-0.006213916931301355,-0.0024961938615888357,0.9996880888938904,0.0,0.0,0.0,0.2208300232887268,11.556153297424316,0.8283084630966187,-39.97067642211914,0
266.9220000000005,-7.611113687744364e-05,-0.00017813297745306045,0.0002627483627293259,0.0,0.0,0.0,0.0,-0.0005255337455309927,-0.001655655330978334,-0.0017700931057333946,0.9994314908981323,0.0,0.0,0.0,0.229721337556839,11.569183349609375,0.8445638418197632,-41.58001708984375,0
276.8000000000011,-0.00010528109123697504,-0.0002828687720466405,0.0002218330482719466,0.0,0.0,0.0,0.0,-6.058034341549501e-05,-0.006184506230056286,0.004981234669685364,1.0002869367599487,0.0,0.0,0.0,0.21520064771175385,11.549004554748535,0.838623046875,-38.951744079589844,0
286.6920000000009,-6.916371057741344e-05,-0.0001906075340230018,0.00022327250917442143,0.0,0.0,0.0,0.0,6.357512120302999e-06,0.00022309306950774044,0.000549866002984345,1.0001393556594849,0.0,0.0,0.0,0.22488246858119965,11.564321517944336,0.8510172963142395,-40.70417785644531,0
296.57600000000093,-0.0001266642357222736,-0.00024532913812436163,0.00019595635239966214,0.0,0.0,0.0,0.0,9.377361857332289e-05,-0.00016071501886472106,0.0027908605989068747,0.9992188811302185,0.0,0.0,0.0,0.2140362411737442,11.553427696228027,0.8631267547607422,-38.74098205566406,0
306.47000000000116,-0.00014488535816781223,-0.00019631211762316525,0.0002464014105498791,0.0,0.0,0.0,0.0,0.0025658197700977325,-0.004601328168064356,0.002632160671055317,0.9997801184654236,0.0,0.0,0.0,0.222608283162117,11.559563636779785,0.861005425453186,-40.292545318603516,0
316.34900000000016,-0.00016129262803588063,-0.00025397358695045114,0.0002390306326560676,0.0,0.0,0.0,0.0,0.0006956474971957505,0.0033616216387599707,-0.0007177797378972173,1.000589370727539,0.0,0.0,0.0,0.2095976024866104,11.548169136047363,0.8546593189239502,-37.937583923339844,0
326.2390000000014,-0.00015764027193654329,-0.00017408501298632473,0.00028108441620133817,0.0,0.0,0.0,0.0,0.0017962214769795537,-0.00029872736195102334,0.00036960653960704803,0.9985373020172119,0.0,0.0,0.0,0.2189788818359375,11.558570861816406,0.8632489442825317,-39.63561248779297,0
336.1140000000014,-0.00016540687647648156,-0.0002305555681232363,0.0002793400199152529,0.0,0.0,0.0,0.0,0.0030409053433686495,0.0033447458408772945,0.0024808065500110388,0.9998422265052795,0.0,0.0,0.0,0.2126467227935791,11.540210723876953,0.8460471630096436,-38.48947525024414,0
346.0070000000014,-0.00016419010353274643,-0.0001561400858918205,0.00032763168564997613,0.0,0.0,0.0,0.0,0.0023195852991193533,-0.00188315543346107,0.0012082670582458377,1.0002251863479614,0.0,0.0,0.0,0.22454330325126648,11.545256614685059,0.8488131165504456,-40.642784118652344,0
355.8850000000002,-0.00015073257964104414,-0.00023644317116122693,0.0003267017600592226,0.0,0.0,0.0,0.0,0.0004882970242761075,0.0027906689792871475,0.0036538823042064905,0.9992230534553528,0.0,0.0,0.0,0.2245400846004486,11.531357765197754,0.844978392124176,-40.6422004699707,0
365.78400000000147,-0.00015339643869083375,-0.0002059029066003859,0.00035884868702851236,0.0,0.0,0.0,0.0,-0.0020079230889678,-0.003025547368451953,-0.0004602910776156932,0.9984180927276611,0.0,0.0,0.0,0.23047570884227753,11.532014846801758,0.8442036509513855,-41.71656036376953,0
375.65600000000086,-0.00017017779464367777,-0.00027811428299173713,0.00035480616497807205,0.0,0.0,0.0,0.0,0.002583899302408099,-0.0035775569267570972,0.0011328236432746053,1.0003784894943237,0.0,0.0,0.0,0.2173759639263153,11.518360137939453,0.835361123085022,-39.345481872558594,0
385.5490000000009,-0.00015012391668278724,-0.0001770287926774472,0.0003917351714335382,0.0,0.0,0.0,0.0,-0.0020998239051550627,-0.002498436253517866,-0.001345101511105895,1.0007736682891846,0.0,0.0,0.0,0.22495955228805542,11.534296035766602,0.8415088653564453,-40.7181282043457,0
395.4290000000001,-0.00017577566904947162,-0.000261220324318856,0.0003752274496946484,0.0,0.0,0.0,0.0,0.002312325406819582,0.002454988891258836,0.0033145700581371784,0.9991223216056824,0.0,0.0,0.0,0.2250586897134781,11.523141860961914,0.839358925819397,-40.7360725402832,0
405.3240000000005,-0.00015779559907969087,-0.0001743677130434662,0.0004042419313918799,0.0,0.0,0.0,0.0,0.003298087976872921,0.0036373070906847715,3.0718943889951333e-05,0.9971614480018616,0.0,0.0,0.0,0.22511768341064453,11.508942604064941,0.8348143100738525,-40.74674987792969,0
415.1990000000005,-0.00017750330152921379,-0.00026534878998063505,0.00039283744990825653,0.0,0.0,0.0,0.0,0.0006150748231448233,0.0019583883695304394,0.0006846134783700109,0.9989205002784729,0.0,0.0,0.0,0.2117346227169037,11.486770629882812,0.8283504247665405,-38.32439041137695,0
425.09600000000137,-0.0001650986960157752,-0.00021766565623693168,0.0004060202627442777,0.0,0.0,0.0,0.0,-0.0019298064289614558,-0.00018070820078719407,0.00028247799491509795,0.999961256980896,0.0,0.0,0.0,0.2170581966638565,11.490971565246582,0.8263216614723206,-39.2879638671875,0
434.97000000000116,-0.00017828625277616084,-0.00029668823117390275,0.0003971850674133748,0.0,0.0,0.0,0.0,-0.0012472592061385512,0.0022897112648934126,0.0001755336270434782,1.0010513067245483,0.0,0.0,0.0,0.21754036843776703,11.480636596679688,0.8257157206535339,-39.37523651123047,0
444.8690000000006,-0.00014924368588253856,-0.00019224651623517275,0.00042117334669455886,0.0,0.0,0.0,0.0,0.001652756123803556,-0.0029608255717903376,0.0008042093249969184,0.9993166327476501,0.0,0.0,0.0,0.22589166462421417,11.499622344970703,0.8413137793540955,-40.886837005615234,0
454.741,-0.000161759540787898,-0.0002831813180819154,0.00040809312486089766,0.0,0.0,0.0,0.0,-0.00041970485472120345,-0.0018001741264015436,0.004088769666850567,0.9976885318756104,0.0,0.0,0.0,0.21422289311885834,11.481857299804688,0.8460070490837097,-38.7747688293457,0
464.6350000000002,-9.978759771911427e-05,-0.00016496806347277015,0.0003961979818996042,0.0,0.0,0.0,0.0,-0.001370851183310151,-0.001017141155898571,0.00025101989740505815,0.998396635055542,0.0,0.0,0.0,0.22201287746429443,11.498038291931152,0.863345742225647,-40.18476867675781,0
474.51800000000003,-0.00014810696302447468,-0.00024203445354942232,0.0003675357438623905,0.0,0.0,0.0,0.0,-0.0009639911004342139,-0.006013061385601759,0.001425892231054604,0.9998523592948914,0.0,0.0,0.0,0.22261734306812286,11.485799789428711,0.8611518144607544,-40.294185638427734,0
484.4220000000005,-9.580872574588284e-05,-0.0001429864059900865,0.00035770219983533025,0.0,0.0,0.0,0.0,0.003342039417475462,-0.000843566725961864,0.0008937368402257562,1.000288724899292,0.0,0.0,0.0,0.22928927838802338,11.504830360412598,0.8692201972007751,-41.50181579589844,0
494.2920000000013,-0.00013470703561324626,-0.00022670459293294698,0.00032544738496653736,0.0,0.0,0.0,0.0,-0.000995267299003899,-0.0023708355147391558,-0.001976907020434737,0.9994208216667175,0.0,0.0,0.0,0.21771594882011414,11.488234519958496,0.8616193532943726,-39.407020568847656,0
504.1800000000003,-7.01972603565082e-05,-8.482363045914099e-05,0.00032356285373680294,0.0,0.0,0.0,0.0,-0.003789515933021903,-0.0009146266966126859,-0.001435304176993668,0.9975607395172119,0.0,0.0,0.0,0.22476565837860107,11.510704040527344,0.8776344060897827,-40.68303298950195,0
514.0600000000013,-8.561207505408674e-05,-0.00022111822909209877,0.000270875112619251,0.0,0.0,0.0,0.0,-0.001725648413412273,0.00022000678291078657,0.00288515561260283,0.9975374937057495,0.0,0.0,0.0,0.21581682562828064,11.488896369934082,0.8704660534858704,-39.06327438354492,0
523.9560000000001,-6.306448631221429e-05,-0.0001483070373069495,0.0002896403311751783,0.0,0.0,0.0,0.0,0.0026217265985906124,-0.004647233057767153,-0.0011036578798666596,0.9965391755104065,0.0,0.0,0.0,0.22839243710041046,11.503303527832031,0.8832191228866577,-41.33948516845703,0
533.8290000000015,-3.7605237594107166e-05,-0.00025440388708375394,0.0002680144680198282,0.0,0.0,0.0,0.0,-0.0034812872763723135,0.003319061128422618,0.009200732223689556,0.9985472559928894,0.0,0.0,0.0,0.21553295850753784,11.480988502502441,0.8911527395248413,-39.01189422607422,0
543.723,-5.154905011295341e-05,-0.00021478503185790032,0.0003191434370819479,0.0,0.0,0.0,0.0,0.0033832762856036425,0.004283437039703131,-0.00036091843503527343,0.9980684518814087,0.0,0.0,0.0,0.22447524964809418,11.490975379943848,0.8910310864448547,-40.63046646118164,0
553.5990000000002,-0.00012105970381526276,-0.00031086470698937774,0.00026776353479363024,0.0,0.0,0.0,0.0,0.0004150439635850489,-0.0026377413887530565,0.002519838511943817,0.9994139075279236,0.0,0.0,0.0,0.21219883859157562,11.47385311126709,0.8735166192054749,-38.408409118652344,0
563.496000000001,-0.00010754219692898914,-0.00022329411876853555,0.00030241807689890265,0.0,0.0,0.0,0.0,-0.0030926207546144724,-0.005004324018955231,-4.821069887839258e-05,1.0007563829421997,0.0,0.0,0.0,0.22004060447216034,11.485340118408203,0.8817585706710815,-39.82778549194336,0
573.375,-0.00015306305431295186,-0.00028101049247197807,0.0002827931893989444,0.0,0.0,0.0,0.0,-0.000626585038844496,0.0010822537587955594,0.0008285591029562056,0.9988111257553101,0.0,0.0,0.0,0.2076740860939026,11.478805541992188,0.8947151899337769,-37.589420318603516,0
583.264000000001,-0.000138937117299065,-0.00020884077821392566,0.0003140504122711718,0.0,0.0,0.0,0.0,-0.0021053438540548086,0.0024646806996315718,0.0032692488748580217,0.996972918510437,0.0,0.0,0.0,0.214206263422966,11.496516227722168,0.9011420607566833,-38.771759033203125,0
593.1419999999998,-0.00016070069978013635,-0.000273545942036435,0.000302885688142851,0.0,0.0,0.0,0.0,-0.0008624826441518962,-0.002972070360556245,-0.0010875753359869123,0.9965490698814392,0.0,0.0,0.0,0.2154955118894577,11.486580848693848,0.8951117396354675,-39.0051155090332,0
603.0439999999999,-0.0001455698802601546,-0.00020405184477567673,0.0003327041049487889,0.0,0.0,0.0,0.0,0.0006773926434107125,-0.003643754869699478,0.0007343913894146681,0.9985745549201965,0.0,0.0,0.0,0.223469078540802,11.499831199645996,0.8992865085601807,-40.44834518432617,0
612.9250000000011,-0.0001590659812791273,-0.0002743496443144977,0.0003204623353667557,0.0,0.0,0.0,0.0,0.001375772524625063,-0.00031973436125554144,0.0014265816425904632,0.9987211227416992,0.0,0.0,0.0,0.21642954647541046,11.495288848876953,0.8955242037773132,-39.17417526245117,0
622.8090000000011,-0.0001071739025064744,-0.00017486275464762002,0.0003142811474390328,0.0,0.0,0.0,0.0,-0.0004948470159433782,-0.003195341909304261,0.0015674358000978827,0.9984087347984314,0.0,0.0,0.0,0.22402118146419525,11.511265754699707,0.9020897746086121,-40.54827880859375,0
632.6850000000013,-0.00014999584527686238,-0.00023557688109576702,0.00029090227326378226,0.0,0.0,0.0,0.0,0.0022049229592084885,0.004071474075317383,0.0012557429727166891,1.0007325410842896,0.0,0.0,0.0,0.22445854544639587,11.503531455993652,0.9055827856063843,-40.627445220947266,0
642.5790000000015,-0.0001527509739389643,-0.00022682113922201097,0.0003109971294179559,0.0,0.0,0.0,0.0,0.0017589215422049165,0.0028259516693651676,-0.00010761340672615916,1.0006091594696045,0.0,0.0,0.0,0.23446312546730042,11.504310607910156,0.9086763858795166,-42.43829345703125,0
652.4560000000001,-0.00015816750237718225,-0.0003460799634922296,0.0002791054139379412,0.0,0.0,0.0,0.0,-0.0006015278049744666,-0.00030863319989293814,-0.0027209955733269453,0.9983522891998291,0.0,0.0,0.0,0.22222797572612762,11.48062515258789,0.902855396270752,-40.22370529174805,0
662.3490000000002,-0.00012880738358944654,-0.00024282040249090642,0.00030593975679948926,0.0,0.0,0.0,0.0,0.0016800269950181246,-0.0025176554918289185,-0.000253813253948465,0.9986363649368286,0.0,0.0,0.0,0.2296845018863678,11.494519233703613,0.9051964282989502,-41.57334899902344,0
672.2390000000014,-0.00015320013335440308,-0.0003375704400241375,0.00028119704802520573,0.0,0.0,0.0,0.0,-0.0018683841917663813,0.0018938009161502123,-0.0018811480840668082,0.9991854429244995,0.0,0.0,0.0,0.21618878841400146,11.483051300048828,0.904836118221283,-39.13059997558594,0
682.1270000000004,-9.065883932635188e-05,-0.00022626265126746148,0.000266628892859444,0.0,0.0,0.0,0.0,0.0011109812185168266,0.003438645275309682,-0.00033305774559266865,0.9976894855499268,0.0,0.0,0.0,0.2243645191192627,11.502366065979004,0.9194536209106445,-40.61042404174805,0
691.9989999999998,-0.00015065738989505917,-0.000277187762549147,0.00024529683287255466,0.0,0.0,0.0,0.0,0.0011892272159457207,-0.0017350626876577735,-0.0007019775803200901,0.9986543655395508,0.0,0.0,0.0,0.21096521615982056,11.496047019958496,0.8842610716819763,-38.18512725830078,0
701.893,-0.0001401528570568189,-0.00021193306019995362,0.000274277466814965,0.0,0.0,0.0,0.0,-0.0008021809044294059,0.0023811713326722383,-0.002595827216282487,0.9986949563026428,0.0,0.0,0.0,0.21047459542751312,11.481804847717285,0.8798105716705322,-38.096317291259766,0
711.7700000000004,-0.0001472126314183697,-0.000314595497911796,0.00024640586343593895,0.0,0.0,0.0,0.0,0.0008640895248390734,-0.007028431631624699,-0.0020942091941833496,1.0005651712417603,0.0,0.0,0.0,0.19800402224063873,11.462835311889648,0.8935588002204895,-35.8391227722168,0
721.6680000000015,-0.00012845192395616323,-0.0002177112764911726,0.00027817647787742317,0.0,0.0,0.0,0.0,-0.001578258816152811,0.0035308615770190954,-0.0007477625622414052,1.0003401041030884,0.0,0.0,0.0,0.20373386144638062,11.482248306274414,0.8959341049194336,-36.87623596191406,0
731.5439999999999,-0.00015445133612956852,-0.00027250152197666466,0.00026855242322199047,0.0,0.0,0.0,0.0,0.0007080519571900368,0.0009510262752883136,0.0018010534113273025,0.9995942115783691,0.0,0.0,0.0,0.20328745245933533,11.470563888549805,0.8895375728607178,-36.79543685913086,0
741.4400000000005,-0.0001452755241189152,-0.00019843647896777838,0.0003004944301210344,0.0,0.0,0.0,0.0,-0.0009869911009445786,0.0037163756787776947,-0.0003800915728788823,0.9995065927505493,0.0,0.0,0.0,0.215158611536026,11.484210968017578,0.8898540735244751,-38.94413757324219,0
751.3130000000001,-0.00017246398783754557,-0.00026366044767200947,0.00029253526008687913,0.0,0.0,0.0,0.0,0.0002267571398988366,-0.004480285570025444,0.005048791412264109,0.9994056820869446,0.0,0.0,0.0,0.20123611390590668,11.464113235473633,0.8685152530670166,-36.424137115478516,0
761.2070000000003,-0.00015655229799449444,-0.00017629610374569893,0.0003227229753974825,0.0,0.0,0.0,0.0,0.0011352200526744127,0.002685337094590068,-8.399034413741902e-05,1.0001832246780396,0.0,0.0,0.0,0.2120533585548401,11.478800773620605,0.8663142919540405,-38.382076263427734,0
771.085000000001,-0.00016117272025439888,-0.0002520696434658021,0.00031800559372641146,0.0,0.0,0.0,0.0,0.0007466600509360433,0.004405575338751078,-0.0003556705196388066,0.9998371005058289,0.0,0.0,0.0,0.2131713628768921,11.466626167297363,0.8752415776252747,-38.584442138671875,0
780.9790000000012,-0.00016572471940889955,-0.0002108044718625024,0.00035981403198093176,0.0,0.0,0.0,0.0,-0.00105514214374125,0.00044180359691381454,0.003166249254718423,0.996044397354126,0.0,0.0,0.0,0.22441118955612183,11.471970558166504,0.8725866675376892,-40.618873596191406,0
790.8640000000014,-0.00018658910994417965,-0.0002811518788803369,0.0003587589890230447,0.0,0.0,0.0,0.0,-0.001335818669758737,-0.0016010899562388659,-0.0018484522588551044,0.9984628558158875,0.0,0.0,0.0,0.21037019789218903,11.456502914428711,0.8577778339385986,-38.07742691040039,0
800.7530000000006,-0.00020510693138930947,-0.00025538180489093065,0.00041324461926706135,0.0,0.0,0.0,0.0,0.001710914191789925,0.0024129694793373346,0.0029058598447591066,1.000507116317749,0.0,0.0,0.0,0.21729257702827454,11.46329116821289,0.8606893420219421,-39.33039093017578,0
810.6310000000012,-0.00021812359045725316,-0.00033310113940387964,0.0004091870505362749,0.0,0.0,0.0,0.0,0.0006145800580270588,0.005858307704329491,-0.00224174908362329,0.9990240931510925,0.0,0.0,0.0,0.21688312292099,11.44525146484375,0.8568015098571777,-39.25627899169922,0
820.5290000000005,-0.00021888368064537644,-0.0002798130735754967,0.00045778887579217553,0.0,0.0,0.0,0.0,-0.0011179239954799414,0.0032572150230407715,-0.0006477243732661009,0.9970881938934326,0.0,0.0,0.0,0.21690544486045837,11.429610252380371,0.849293053150177,-39.260318756103516,0
830.4050000000007,-0.0002334754535695538,-0.00035013456363230944,0.0004642366257030517,0.0,0.0,0.0,0.0,-0.0011682470794767141,-0.0011977930553257465,0.0035806396044790745,0.9987833499908447,0.0,0.0,0.0,0.20177096128463745,11.413057327270508,0.8432359099388123,-36.52094650268555,0
840.2950000000001,-0.00021744550031144172,-0.0002897662343457341,0.0004934648750349879,0.0,0.0,0.0,0.0,-0.0016079619526863098,1.798258745111525e-05,-0.0018144272034987807,0.9990828633308411,0.0,0.0,0.0,0.2085871547460556,11.418741226196289,0.8465749621391296,-37.75468826293945,0
850.1820000000007,-0.0002293818979524076,-0.00037077016895636916,0.0004937489284202456,0.0,0.0,0.0,0.0,-0.000577593978960067,-6.977745215408504e-05,0.0019724697340279818,0.9989519119262695,0.0,0.0,0.0,0.20850048959255219,11.407780647277832,0.8411038517951965,-37.7390022277832,0
860.0810000000001,-0.00017044460400938988,-0.0002691288245841861,0.000482991395983845,0.0,0.0,0.0,0.0,-0.0009076916612684727,0.007099348586052656,0.003176444210112095,0.9958733916282654,0.0,0.0,0.0,0.21443293988704681,11.432188987731934,0.8617358803749084,-38.81278610229492,0
869.9440000000013,-0.0001926493423525244,-0.0003953998093493283,0.0004539150686468929,0.0,0.0,0.0,0.0,-3.480998566374183e-05,-0.005692247301340103,-0.0017291567055508494,0.9975128173828125,0.0,0.0,0.0,0.20059318840503693,11.40934944152832,0.8359768986701965,-36.30776596069336,0
879.8370000000014,-0.0001461599749745801,-0.00031286635203287005,0.00044789243838749826,0.0,0.0,0.0,0.0,-0.0008158330456353724,0.003075418993830681,0.001957858679816127,0.9992750287055969,0.0,0.0,0.0,0.2106093168258667,11.42475700378418,0.8398029208183289,-38.120704650878906,0
889.7150000000001,-0.000173377018654719,-0.000424927071435377,0.00041702226735651493,0.0,0.0,0.0,0.0,0.0002748214756138623,0.0025753844529390335,-0.000811006932053715,0.9977050423622131,0.0,0.0,0.0,0.19876107573509216,11.403406143188477,0.8446992039680481,-35.97614669799805,0
899.6000000000004,-0.00011128919868497178,-0.0002851985045708716,0.0004156733048148453,0.0,0.0,0.0,0.0,0.0001969211152754724,-0.002034827833995223,0.005221934523433447,0.9977765083312988,0.0,0.0,0.0,0.20962846279144287,11.431550025939941,0.8495683073997498,-37.94316864013672,0
909.4920000000002,-0.00015445072494912893,-0.0003854476672131568,0.0003800222766585648,0.0,0.0,0.0,0.0,0.0023829101119190454,0.0037853913381695747,-0.00040303755667991936,0.9990888237953186,0.0,0.0,0.0,0.1961246132850647,11.418821334838867,0.8437315225601196,-35.49894332885742,0
919.3919999999998,-7.347104110522196e-05,-0.00024832942290231586,0.00034741428680717945,0.0,0.0,0.0,0.0,0.0006450257496908307,-0.0027313202153891325,0.0036126705817878246,0.9978632926940918,0.0,0.0,0.0,0.206206813454628,11.440672874450684,0.8610358834266663,-37.3238410949707,0
929.2650000000012,-0.0001221799320774153,-0.0003436794795561582,0.0003036812413483858,0.0,0.0,0.0,0.0,-0.0006248519639484584,-0.0004498836933635175,0.003002752549946308,0.9958813786506653,0.0,0.0,0.0,0.19548450410366058,11.424010276794434,0.8519816994667053,-35.38308334350586,0
939.148000000001,-4.743048702948727e-05,-0.0001739015569910407,0.00029106889269314706,0.0,0.0,0.0,0.0,-0.0023571932688355446,0.00098855746909976,-0.0029168177861720324,0.9978934526443481,0.0,0.0,0.0,0.20568162202835083,11.456588745117188,0.8833895325660706,-37.228782653808594,0
949.0340000000015,-9.901105659082532e-05,-0.0002776064211502671,0.00023295266146305948,0.0,0.0,0.0,0.0,0.0014072887133806944,0.007218603510409594,0.002663627965375781,0.9981322884559631,0.0,0.0,0.0,0.19880516827106476,11.437642097473145,0.8734565377235413,-35.984130859375,0
958.9260000000013,-6.302238762145862e-05,-0.00019359428551979363,0.00022131120203994215,0.0,0.0,0.0,0.0,0.0015811305493116379,0.00033586719655431807,-0.00015030686336103827,0.9960550665855408,0.0,0.0,0.0,0.20585082471370697,11.4522066116333,0.8768652677536011,-37.25940704345703,0
968.8090000000011,-0.00010431939153932035,-0.00028090373962186277,0.00017253922123927623,0.0,0.0,0.0,0.0,-0.0005484065623022616,0.0026959239039570093,0.004178533796221018,0.9995722770690918,0.0,0.0,0.0,0.19972461462020874,11.429719924926758,0.8514392971992493,-36.15055465698242,0
978.6900000000005,-7.32519110897556e-05,-0.00019949373381678015,0.0001623238786123693,0.0,0.0,0.0,0.0,0.0008268367382697761,0.000821189081761986,-0.001410741708241403,1.000104546546936,0.0,0.0,0.0,0.20799687504768372,11.44332504272461,0.8616021275520325,-37.647850036621094,0
988.5810000000001,-0.00012525077909231186,-0.00023856844927649945,0.00013145532284397632,0.0,0.0,0.0,0.0,0.000390656350646168,-0.002210496459156275,-0.00372143043205142,1.001306176185608,0.0,0.0,0.0,0.20862823724746704,11.428031921386719,0.8496955037117004,-37.76212692260742,0
998.4590000000007,-0.00011758081382140517,-0.00018536443531047553,0.0001336011482635513,0.0,0.0,0.0,0.0,-0.0015352199552580714,0.0012113486882299185,0.0007746581686660647,0.9996597766876221,0.0,0.0,0.0,0.2168385088443756,11.436812400817871,0.8449154496192932,-39.248199462890625,0
1008.3610000000008,-0.00010792855027830228,-0.00027864868752658367,0.00010473982547409832,0.0,0.0,0.0,0.0,-0.0023318263702094555,0.0008289521210826933,0.0008395257173106074,0.9986714720726013,0.0,0.0,0.0,0.2021084874868393,11.419698715209961,0.8462269902229309,-36.58203887939453,0
1018.237000000001,-0.00010101408406626433,-0.00019696596427820623,0.00012723830877803266,0.0,0.0,0.0,0.0,0.00022985896794125438,-1.9388629880268127e-05,-0.0005198267754167318,0.9993323087692261,0.0,0.0,0.0,0.21519793570041656,11.434392929077148,0.840779185295105,-38.951255798339844,0
1028.121000000001,-0.00013413646956905723,-0.0002287509269081056,0.00011605274630710483,0.0,0.0,0.0,0.0,-0.001704492373391986,-0.0018982953624799848,-0.00046484230551868677,0.998870313167572,0.0,0.0,0.0,0.20331750810146332,11.42834758758545,0.8331387042999268,-36.80087661743164,0
1038.0120000000006,-0.00012542269541881979,-0.00016804409096948802,0.00012459815479815006,0.0,0.0,0.0,0.0,-0.0007967660785652697,0.004369023256003857,0.0014695462305098772,0.9992085695266724,0.0,0.0,0.0,0.21226227283477783,11.439998626708984,0.8379291296005249,-38.41989517211914,0
1047.9050000000007,-0.00013673596549779177,-0.00021472819207701832,0.00011665093916235492,0.0,0.0,0.0,0.0,-0.0002105139719787985,0.00016384810442104936,-0.0016653678612783551,1.0003738403320312,0.0,0.0,0.0,0.19775152206420898,11.430418014526367,0.8283131122589111,-35.793418884277344,0
1057.7750000000015,-0.00013392322580330074,-0.00015442837320733815,0.00013938169286120683,0.0,0.0,0.0,0.0,-0.0011113454820588231,0.0007896362221799791,0.0016425338108092546,1.0003430843353271,0.0,0.0,0.0,0.20746836066246033,11.447507858276367,0.8190299868583679,-37.552188873291016,0
1067.6710000000003,-0.00014014029875397682,-0.00021769279555883259,0.00013012852286919951,0.0,0.0,0.0,0.0,0.001301614916883409,-0.005866467487066984,0.001676425221376121,1.0000584125518799,0.0,0.0,0.0,0.19184908270835876,11.42996883392334,0.8181384801864624,-34.72507095336914,0
1077.5439999999999,-0.00013594343909062445,-0.00016994110774248838,0.00014932789781596512,0.0,0.0,0.0,0.0,-0.0010896476451307535,0.005319064948707819,-0.0005162305315025151,0.9984205961227417,0.0,0.0,0.0,0.20223982632160187,11.443784713745117,0.8355856537818909,-36.605812072753906,0
1087.4350000000013,-0.0001530649169581011,-0.00022449257085099816,0.00014188386558089405,0.0,0.0,0.0,0.0,0.0023943488486111164,0.002557208528742194,-0.00046910878154449165,0.9991278648376465,0.0,0.0,0.0,0.20224909484386444,11.427370071411133,0.8272432684898376,-36.607486724853516,0
1097.3200000000015,-0.0001941632217494771,-0.00019863902707584202,0.00020479514205362648,0.0,0.0,0.0,0.0,0.0007739109569229186,-0.0009015245013870299,0.001457263482734561,0.9977344274520874,0.0,0.0,0.0,0.21037691831588745,11.435673713684082,0.7994872331619263,-38.07863998413086,0
1107.2090000000007,-0.0002134717651642859,-0.00025524175725877285,0.00020233944815117866,0.0,0.0,0.0,0.0,0.0010821231408044696,-0.0015053101815283298,0.00048077866085805,0.998051643371582,0.0,0.0,0.0,0.20958362519741058,11.421858787536621,0.8100835680961609,-37.935054779052734,0
1117.0860000000011,-0.00023295819119084626,-0.00018232708680443466,0.00024491953081451356,0.0,0.0,0.0,0.0,0.00047298488789238036,0.0043280888348817825,0.0010791169479489326,0.999828577041626,0.0,0.0,0.0,0.21976323425769806,11.44120979309082,0.8127466440200806,-39.777584075927734,0
1126.978000000001,-0.0002542191359680146,-0.000241000612732023,0.00024337469949387014,0.0,0.0,0.0,0.0,0.0002036231744568795,0.0006445375620387495,0.000991460750810802,1.0000900030136108,0.0,0.0,0.0,0.22058352828025818,11.432032585144043,0.8162238597869873,-39.92605972290039,0
1136.8590000000004,-0.00028800321160815656,-0.0002157521084882319,0.0002885901485569775,0.0,0.0,0.0,0.0,-2.2137770429253578e-05,0.006554941646754742,0.004135409370064735,0.9997078776359558,0.0,0.0,0.0,0.22754529118537903,11.445479393005371,0.8177127838134766,-41.18614959716797,0
1146.7520000000004,-0.00031297156237997115,-0.0002729407569859177,0.0002917539677582681,0.0,0.0,0.0,0.0,-0.0002938138204626739,-0.0019325601169839501,0.002516875509172678,1.000382900238037,0.0,0.0,0.0,0.2286880910396576,11.435331344604492,0.8161169290542603,-41.39299774169922,0
1156.6350000000002,-0.0003335112996865064,-0.00016704207519069314,0.00034833658719435334,0.0,0.0,0.0,0.0,-0.00010515961184864864,0.001362031209282577,-1.0810299500008114e-05,0.9979913830757141,0.0,0.0,0.0,0.23777714371681213,11.474967002868652,0.826312243938446,-43.03813552856445,0
1166.527,-0.0003579845651984215,-0.0002153083769371733,0.00035589950857684016,0.0,0.0,0.0,0.0,-0.002942704362794757,0.0020177301485091448,0.0001898498012451455,0.997175395488739,0.0,0.0,0.0,0.2377777397632599,11.46263599395752,0.831599771976471,-43.038246154785156,0
1176.4009999999998,-0.0003730900934897363,-0.00010521076910663396,0.0004131789901293814,0.0,0.0,0.0,0.0,0.0006100944010540843,-0.0024742051027715206,-0.0025959841441363096,0.9983962774276733,0.0,0.0,0.0,0.2504603862762451,11.506450653076172,0.8380374312400818,-45.33382797241211,0
1186.2960000000003,-0.00039712584111839533,-0.00014457466022577137,0.00042091147042810917,0.0,0.0,0.0,0.0,0.0004239235131535679,0.003841630881652236,-7.379776798188686e-05,0.9973090291023254,0.0,0.0,0.0,0.2504345774650574,11.488332748413086,0.8400934934616089,-45.329158782958984,0
1196.1720000000005,-0.00040941161569207907,-9.550899267196655e-05,0.0004527184064500034,0.0,0.0,0.0,0.0,-0.003391502657905221,0.0009472708916291595,0.00021071986702736467,0.9985641837120056,0.0,0.0,0.0,0.26084697246551514,11.500429153442383,0.8429553508758545,-47.21382141113281,0
1206.0640000000003,-0.0004307688504923135,-0.00013003901403862983,0.0004590724129229784,0.0,0.0,0.0,0.0,-0.0007114700274541974,-0.00249235681258142,-0.0017003236571326852,0.9988062977790833,0.0,0.0,0.0,0.26171326637268066,11.492305755615234,0.83939528465271,-47.37062072753906,0
1215.9520000000011,-0.00046991868293844163,-9.318918455392122e-05,0.0005142131703905761,0.0,0.0,0.0,0.0,0.0009251028532162309,0.0027964122127741575,-0.0011474421480670571,1.0000641345977783,0.0,0.0,0.0,0.2684278190135956,11.509757041931152,0.852687418460846,-48.585968017578125,0
1225.8380000000016,-0.0004908105474896729,-0.0001235076051671058,0.0005234224954620004,0.0,0.0,0.0,0.0,0.002361385617405176,0.005418548360466957,-0.00011367768456693739,0.9992360472679138,0.0,0.0,0.0,0.2683784067630768,11.492769241333008,0.8459671139717102,-48.5770263671875,0
1235.7200000000012,-0.0005050166510045528,-8.928612805902958e-05,0.0005565608153119683,0.0,0.0,0.0,0.0,0.001548298168927431,0.0032200822606682777,-9.261428203899413e-05,0.998978316783905,0.0,0.0,0.0,0.2781751751899719,11.508321762084961,0.8476165533065796,-50.35026168823242,0
1245.6190000000006,-0.0005259377066977322,-0.00011988255573669448,0.0005674518761225045,0.0,0.0,0.0,0.0,-0.0015476488042622805,0.000640367332380265,-0.0021820843685418367,0.9993180632591248,0.0,0.0,0.0,0.2783372402191162,11.495450973510742,0.8472692370414734,-50.37959289550781,0
1255.4880000000012,-0.0005217798170633614,-5.167376366443932e-05,0.0005992716760374606,0.0,0.0,0.0,0.0,-0.005265208892524242,0.0009532705298624933,0.0007242729770950973,1.0005443096160889,0.0,0.0,0.0,0.2893851697444916,11.524030685424805,0.8583605885505676,-52.379295349121094,0
1265.3790000000008,-0.0005424041301012039,-7.764379552099854e-05,0.0006112689734436572,0.0,0.0,0.0,0.0,0.0025606886483728886,0.0037513819988816977,0.000209154182812199,0.9988179206848145,0.0,0.0,0.0,0.29011231660842896,11.51894760131836,0.8562028408050537,-52.51090621948242,0
1275.2570000000014,-0.0005359245114959776,-1.4547740647685714e-05,0.0006375149823725224,0.0,0.0,0.0,0.0,-0.0011481288820505142,0.0020910357125103474,-0.001122593879699707,0.9971807599067688,0.0,0.0,0.0,0.2901425361633301,11.501744270324707,0.8426470160484314,-52.51637649536133,0
1285.1540000000005,-0.000553870399016887,-3.5865836252924055e-05,0.0006492686225101352,0.0,0.0,0.0,0.0,-0.00036723483935929835,0.002032103482633829,2.5838648070930503e-05,0.9994232058525085,0.0,0.0,0.0,0.2895461618900299,11.492231369018555,0.8276306986808777,-52.40843200683594,0
1295.0280000000002,-0.000572050514165312,-5.856755160493776e-05,0.0006600026972591877,0.0,0.0,0.0,0.0,-0.0011729737743735313,0.001224036910571158,0.003289143554866314,0.9963569641113281,0.0,0.0,0.0,0.2897457480430603,11.481191635131836,0.8167970180511475,-52.444557189941406,0
1304.9300000000003,-0.0005906473379582167,-8.184371108654886e-05,0.0006696723867207766,0.0,0.0,0.0,0.0,0.00021527217177208513,-9.235817560693249e-05,0.00043946580262854695,0.9972417950630188,0.0,0.0,0.0,0.290213406085968,11.470620155334473,0.8171714544296265,-52.52920150756836,0
1314.800000000001,-0.0006106615182943642,-0.00010674264922272414,0.0006771159823983908,0.0,0.0,0.0,0.0,0.00043464390910230577,-0.0018207646207883954,-0.0013930448330938816,0.9981329441070557,0.0,0.0,0.0,0.29099079966545105,11.4598970413208,0.8265051245689392,-52.66991424560547,0
1324.701000000001,-0.00028504617512226105,-0.00038510863669216633,0.0007887499523349106,0.0,0.0,0.0,0.0,-0.0027481745928525925,0.003258628072217107,-0.00014441188250202686,1.000033974647522,0.0,0.0,0.0,0.2689908742904663,11.384381294250488,0.8761136531829834,-48.68788528442383,0
1334.5730000000003,-0.0002939147816505283,-0.00042922465945594013,0.0007939827046357095,0.0,0.0,0.0,0.0,0.003914846573024988,-0.004967625252902508,0.0024639449547976255,0.9988991618156433,0.0,0.0,0.0,0.2685115933418274,11.373685836791992,0.8664052486419678,-48.601131439208984,0
1344.4720000000016,-0.0003061690949834883,-0.0004993280163034797,0.000771712395362556,0.0,0.0,0.0,0.0,0.0006959145539440215,0.00021594660938717425,0.0009453753009438515,0.9983651041984558,0.0,0.0,0.0,0.2609741985797882,11.348796844482422,0.8767891526222229,-47.23685073852539,0
1354.3420000000006,-0.0003148613031953573,-0.0005498144309967756,0.0007747879135422409,0.0,0.0,0.0,0.0,-0.0012021089205518365,0.004231353756040335,-0.0014474570052698255,0.9982151389122009,0.0,0.0,0.0,0.2605757713317871,11.33454704284668,0.8688957095146179,-47.164730072021484,0
1364.237000000001,-0.00034585094545036554,-0.0005903009441681206,0.0007833063718862832,0.0,0.0,0.0,0.0,-0.001147976377978921,0.0016210154863074422,0.00013995049812365323,0.9981865286827087,0.0,0.0,0.0,0.25323718786239624,11.32967758178711,0.8655792474746704,-45.8364372253418,0
1374.1140000000014,-0.0003549177199602127,-0.000645723775960505,0.0007846630178391933,0.0,0.0,0.0,0.0,-0.0002754656889010221,-0.0035979875829070807,0.0012608215911313891,0.9985033273696899,0.0,0.0,0.0,0.2524612843990326,11.318978309631348,0.8547506332397461,-45.69599151611328,0
1384.0220000000008,-0.0003634849563241005,-0.0007018700707703829,0.0007903461810201406,0.0,0.0,0.0,0.0,0.002274472499266267,0.0026589168701320887,-0.0010561563540250063,0.9963862895965576,0.0,0.0,0.0,0.23094581067562103,11.305171012878418,0.8487221598625183,-41.80165100097656,0
1393.8960000000006,-0.0003725444548763335,-0.0007635739748366177,0.0007895235321484506,0.0,0.0,0.0,0.0,-0.003406442468985915,-0.0007330639637075365,0.0004157555813435465,0.9955651760101318,0.0,0.0,0.0,0.22993865609169006,11.290858268737793,0.8324747085571289,-41.619354248046875,0
1403.786,-0.0003923633776139468,-0.0008064229623414576,0.0008090217015706003,0.0,0.0,0.0,0.0,0.0026074687484651804,0.0015826341696083546,-0.0025056402664631605,0.9979830384254456,0.0,0.0,0.0,0.22132013738155365,11.289741516113281,0.827748715877533,-40.059383392333984,0
1413.6599999999999,-0.00040234578773379326,-0.0008727522799745202,0.0008041568798944354,0.0,0.0,0.0,0.0,0.0016626791330054402,0.0031481764744967222,0.002771860919892788,0.9971693158149719,0.0,0.0,0.0,0.22104917466640472,11.274581909179688,0.8292807340621948,-40.010337829589844,0
1423.554,-0.00044013524893671274,-0.0008693694253452122,0.0008646259666420519,0.0,0.0,0.0,0.0,0.001728458097204566,-0.0020555881783366203,0.004263150971382856,0.9972784519195557,0.0,0.0,0.0,0.20143423974514008,11.295385360717773,0.8021501302719116,-36.46000289916992,0
1433.437,-0.00045162669266574085,-0.0009341254481114447,0.0008611021330580115,0.0,0.0,0.0,0.0,0.001853226451203227,0.004473896697163582,-0.003953105304390192,0.997687041759491,0.0,0.0,0.0,0.2021033763885498,11.285751342773438,0.8013052344322205,-36.581111907958984,0
1443.3370000000014,-0.0004641643608920276,-0.0009222832741215825,0.000932444294448942,0.0,0.0,0.0,0.0,-0.001779843121767044,-0.005017160903662443,0.0033559990115463734,0.9997541308403015,0.0,0.0,0.0,0.1958422064781189,11.3046293258667,0.783764123916626,-35.44783020019531,0
1453.2020000000011,-0.00047686108155176044,-0.000987810781225562,0.0009324333514086902,0.0,0.0,0.0,0.0,0.0010972849559038877,-0.004698004107922316,-0.0005056926747784019,0.9989656805992126,0.0,0.0,0.0,0.1963767409324646,11.293540000915527,0.7832722663879395,-35.544578552246094,0
1463.1010000000006,-0.0004969519795849919,-0.0009793571662157774,0.001001069089397788,0.0,0.0,0.0,0.0,0.0031376138795167208,-0.002447600243613124,-0.0006556131411343813,0.9995313882827759,0.0,0.0,0.0,0.19010914862155914,11.31946086883545,0.7787976861000061,-34.41013717651367,0
1472.9830000000002,-0.0005133989616297185,-0.0010453475406393409,0.0010069746058434248,0.0,0.0,0.0,0.0,0.0009417246328666806,0.0016482550418004394,-0.0010909616248682141,0.9994018077850342,0.0,0.0,0.0,0.19064658880233765,11.299936294555664,0.7804269790649414,-34.50741195678711,0
1482.8649999999998,-0.0005602026358246803,-0.0010361176682636142,0.0010631083277985454,0.0,0.0,0.0,0.0,-0.0018549562664702535,-0.00283124390989542,-0.00227727135643363,0.9979065656661987,0.0,0.0,0.0,0.17208974063396454,11.324722290039062,0.7531297206878662,-31.14858627319336,0
1492.746000000001,-0.0005836919299326837,-0.0011019136290997267,0.0010735366959124804,0.0,0.0,0.0,0.0,0.0028182598762214184,0.0035192323848605156,0.000484562071505934,0.9981018304824829,0.0,0.0,0.0,0.17122727632522583,11.314970970153809,0.7600256204605103,-30.992477416992188,0
1502.6370000000006,-0.0006027743220329285,-0.0010854529682546854,0.001157203922048211,0.0,0.0,0.0,0.0,0.0006386545719578862,-0.006116666831076145,-0.000844003283418715,0.9994025230407715,0.0,0.0,0.0,0.15191550552845,11.335993766784668,0.743040919303894,-27.497007369995117,0
1512.514000000001,-0.0006301471730694175,-0.0011508552124723792,0.0011724845971912146,0.0,0.0,0.0,0.0,-0.0038071423768997192,0.0011705629294738173,0.0010126212146133184,0.9992215633392334,0.0,0.0,0.0,0.1519750952720642,11.326024055480957,0.7590897679328918,-27.50779151916504,0
1522.4130000000005,-0.000641946098767221,-0.001157470396719873,0.0012516709975898266,0.0,0.0,0.0,0.0,-0.0025447639636695385,-0.0021148640662431717,0.003563835984095931,1.0004023313522339,0.0,0.0,0.0,0.15176938474178314,11.317911148071289,0.7597403526306152,-27.47056007385254,0
1532.286,-0.00023440102813765407,-0.000450371386250481,0.00012322717520873994,0.0,0.0,0.0,0.0,-0.0004076514742337167,-0.0001042314397636801,0.0014360175700858235,1.0010584592819214,0.0,0.0,0.0,0.164506196975708,11.46564769744873,0.8301917314529419,-29.775949478149414,0
1542.1800000000003,-0.0002459023962728679,-0.000435148918768391,0.00015689866268076003,0.0,0.0,0.0,0.0,-0.0012901739683002234,0.002917642705142498,-0.003649989375844598,1.000199317932129,0.0,0.0,0.0,0.1458292007446289,11.466946601867676,0.826833963394165,-26.395376205444336,0
1552.0600000000013,-0.0001865435770014301,-0.0002935862576123327,0.00018680196080822498,0.0,0.0,0.0,0.0,-0.001843394711613655,-0.002106923609972,0.002510140649974346,0.9995675683021545,0.0,0.0,0.0,0.15977519750595093,11.486173629760742,0.8297479748725891,-28.91963005065918,0
1561.960000000001,-0.0002010129246627912,-0.0003296986687928438,0.00018098884902428836,0.0,0.0,0.0,0.0,-4.61140189145226e-05,5.662592957378365e-05,0.0004232058417983353,0.9979864954948425,0.0,0.0,0.0,0.15999549627304077,11.475496292114258,0.8338422775268555,-28.959501266479492,0
1571.8290000000015,-0.00019782263552770019,-0.00023772381246089935,0.00023828382836654782,0.0,0.0,0.0,0.0,0.001110790646634996,0.0017714201239868999,0.003408030141144991,0.997997522354126,0.0,0.0,0.0,0.1740448772907257,11.472944259643555,0.838739812374115,-31.502470016479492,0
1581.7270000000008,-0.00018689669377636164,-0.00029439799254760146,0.00024108128855004907,0.0,0.0,0.0,0.0,-0.002408004831522703,-0.003474756609648466,-0.000278454419458285,0.9982811808586121,0.0,0.0,0.0,0.15781660377979279,11.459234237670898,0.828490674495697,-28.56511688232422,0
1591.603000000001,-0.00018607659148983657,-0.00028768987976945937,0.00033406357397325337,0.0,0.0,0.0,0.0,0.000938178098294884,-0.0031097442843019962,-0.0018473266391083598,1.0001308917999268,0.0,0.0,0.0,0.16957779228687286,11.456904411315918,0.838003933429718,-30.693920135498047,0
1601.496000000001,-0.00020015504560433328,-0.00033032606006599963,0.0003364448493812233,0.0,0.0,0.0,0.0,-0.0019155855989083648,-0.0038315285928547382,-0.000338058453053236,0.9994261860847473,0.0,0.0,0.0,0.1697022169828415,11.44625186920166,0.8447434902191162,-30.71643829345703,0
1611.3720000000012,-0.00017351546557620168,-0.00022321124561131,0.0003698734799399972,0.0,0.0,0.0,0.0,0.0030764176044613123,0.007979081012308598,-0.0006918758735992014,0.9990066885948181,0.0,0.0,0.0,0.18264706432819366,11.452330589294434,0.8519616723060608,-33.05948257446289,0
1621.2650000000012,-0.0001791502145351842,-0.00031338463304564357,0.0003560138284228742,0.0,0.0,0.0,0.0,-8.971957868197933e-06,0.005464314017444849,0.003968088887631893,0.9981458783149719,0.0,0.0,0.0,0.16840465366840363,11.431977272033691,0.8318939805030823,-30.481578826904297,0
1631.143,-0.00015552924014627934,-0.0002259555330965668,0.0003842181758955121,0.0,0.0,0.0,0.0,0.0033523105084896088,0.005378840025514364,-0.0019137761555612087,0.9961364269256592,0.0,0.0,0.0,0.18254856765270233,11.432918548583984,0.8265024423599243,-33.041656494140625,0
1641.049000000001,-0.0001818852761061862,-0.0003186951216775924,0.00036096456460654736,0.0,0.0,0.0,0.0,0.003498429199680686,0.0012932340614497662,0.003315781941637397,0.9995247721672058,0.0,0.0,0.0,0.16726496815681458,11.411049842834473,0.8128287196159363,-30.27528953552246,0
1650.9140000000007,-0.00011583060404518619,-0.00019879745377693325,0.00033968480420298874,0.0,0.0,0.0,0.0,-0.0025034756399691105,0.003665685886517167,0.0026351541746407747,1.0006638765335083,0.0,0.0,0.0,0.18195976316928864,11.412320137023926,0.8191643953323364,-32.93507385253906,0
1660.809000000001,-0.00015964198973961174,-0.00028080830816179514,0.00031006167409941554,0.0,0.0,0.0,0.0,0.0021389152389019728,0.000895201344974339,0.001042488613165915,1.000231385231018,0.0,0.0,0.0,0.16707539558410645,11.402912139892578,0.8011290431022644,-30.24098014831543,0
1670.6890000000003,-0.000137369119329378,-0.00030268545378930867,0.00031944981310516596,0.0,0.0,0.0,0.0,0.0019372465321794152,-0.0012271397281438112,0.002186548663303256,0.998136579990387,0.0,0.0,0.0,0.1587812602519989,11.3886137008667,0.795311450958252,-28.739723205566406,0
1680.5750000000007,-0.0001456818572478369,-0.00035633795778267086,0.0003175002639181912,0.0,0.0,0.0,0.0,-0.0022174434270709753,-0.0013797142310068011,-0.00023055248311720788,0.9966650009155273,0.0,0.0,0.0,0.1579686552286148,11.374289512634277,0.8046494722366333,-28.592639923095703,0
1690.4580000000005,-0.0001258838310604915,-0.0003254085604567081,0.0003389646881259978,0.0,0.0,0.0,0.0,-0.0015428205952048302,0.0014064762508496642,0.00196658493950963,0.997441291809082,0.0,0.0,0.0,0.15917962789535522,11.381242752075195,0.805884599685669,-28.811830520629883,0
1700.3450000000012,-0.00013183726696297526,-0.0003840617137029767,0.0003355171356815845,0.0,0.0,0.0,0.0,-0.003075471380725503,-0.004943872801959515,0.001742292195558548,0.9983351826667786,0.0,0.0,0.0,0.15928475558757782,11.375012397766113,0.8089450597763062,-28.83085823059082,0
1710.2309999999998,-8.336147584486753e-05,-0.0003613230073824525,0.0003666550910566002,0.0,0.0,0.0,0.0,0.0012049396755173802,0.00556024769321084,0.004755533766001463,0.9982577562332153,0.0,0.0,0.0,0.15955013036727905,11.378902435302734,0.8214750289916992,-28.878890991210938,0
1720.1200000000008,-8.918774256017059e-05,-0.00042262504575774074,0.00036383714177645743,0.0,0.0,0.0,0.0,-0.0005768896662630141,-0.00036378749064169824,-0.003158343955874443,1.0002803802490234,0.0,0.0,0.0,0.1611385941505432,11.36428451538086,0.8123285174369812,-29.166404724121094,0
1730.005000000001,-0.00010576709610177204,-0.0003234233590774238,0.00031247278093360364,0.0,0.0,0.0,0.0,0.0003301186370663345,0.003279279451817274,-0.002284333109855652,0.9974563121795654,0.0,0.0,0.0,0.16268697381019592,11.375579833984375,0.8008810877799988,-29.446666717529297,0
1739.8990000000013,-0.00011330078268656507,-0.00038412489811889827,0.0003053177206311375,0.0,0.0,0.0,0.0,0.002514591906219721,-0.0014108408940955997,0.003161509521305561,0.9978485703468323,0.0,0.0,0.0,0.1622672826051712,11.366287231445312,0.7929750084877014,-29.37070083618164,0
1749.777,-0.00011529448966030031,-0.0003032506792806089,0.00025794300017878413,0.0,0.0,0.0,0.0,-0.0018628955585882068,0.002137265633791685,-0.0009165825322270393,0.9986045956611633,0.0,0.0,0.0,0.16705133020877838,11.375776290893555,0.790273904800415,-30.236621856689453,0
1759.6580000000013,-0.00012580494512803853,-0.00036519812420010567,0.0002447929873596877,0.0,0.0,0.0,0.0,-0.0012823499273508787,0.0016816712450236082,-0.0001525681436760351,0.997006893157959,0.0,0.0,0.0,0.16670358180999756,11.367339134216309,0.7924920916557312,-30.17367935180664,0
1769.5460000000003,-0.00012280877854209393,-0.00030268350383266807,0.00020893910550512373,0.0,0.0,0.0,0.0,-0.000716997601557523,0.0021980348974466324,0.0008623441681265831,0.9976884722709656,0.0,0.0,0.0,0.16146588325500488,11.37370777130127,0.7790801525115967,-29.22564697265625,0
1779.4300000000003,-0.00013400866009760648,-0.00036656262818723917,0.00019072272698394954,0.0,0.0,0.0,0.0,0.00033991035888902843,0.004263622220605612,0.0054338788613677025,0.9976038336753845,0.0,0.0,0.0,0.16181409358978271,11.365885734558105,0.7702093720436096,-29.288673400878906,0
1789.3160000000007,-0.00015350748435594141,-0.0002698427706491202,0.0002455786452628672,0.0,0.0,0.0,0.0,-0.0019431904656812549,-0.0024658767506480217,0.0004355037526693195,0.9996689558029175,0.0,0.0,0.0,0.15745079517364502,11.381336212158203,0.7651036381721497,-28.4989070892334,0
1799.2120000000014,-0.000167962207342498,-0.00033374803024344146,0.00023057975340634584,0.0,0.0,0.0,0.0,0.0029376086313277483,0.002995532238855958,-0.0010006969096139073,1.0010181665420532,0.0,0.0,0.0,0.1577850580215454,11.372403144836426,0.7646971344947815,-28.55940818786621,0
1809.0860000000011,-0.00017020138329826295,-0.00027177383890375495,0.00026612309738993645,0.0,0.0,0.0,0.0,0.0023426366969943047,7.336670387303457e-05,-0.002047736430540681,0.9962475895881653,0.0,0.0,0.0,0.15339340269565582,11.379288673400879,0.7584664821624756,-27.76451301574707,0
1818.973,-0.0001875436573754996,-0.0003386128810234368,0.0002559422282502055,0.0,0.0,0.0,0.0,-0.001683930866420269,-0.004801493603736162,-0.0018563906196504831,0.996506929397583,0.0,0.0,0.0,0.15317188203334808,11.366104125976562,0.7541170120239258,-27.724416732788086,0
1828.8580000000002,-0.0002400069060968235,-0.00030682317446917295,0.00034406132181175053,0.0,0.0,0.0,0.0,-0.003177648177370429,-9.038660937221721e-05,-0.0009321034303866327,0.9986720085144043,0.0,0.0,0.0,0.1667325645685196,11.367178916931152,0.7639515995979309,-30.178926467895508,0
1838.7440000000006,-0.0002595090481918305,-0.00037664661067537963,0.00033770286245271564,0.0,0.0,0.0,0.0,0.0007977100904099643,-0.00778717128559947,0.001993414480239153,0.999533474445343,0.0,0.0,0.0,0.16632211208343506,11.36047649383545,0.7576401233673096,-30.104631423950195,0
1848.6360000000004,-0.0002728982362896204,-0.00026294990675523877,0.0003364598087500781,0.0,0.0,0.0,0.0,0.000843687157612294,-0.0028533446602523327,-0.0008432004251517355,0.9994519352912903,0.0,0.0,0.0,0.17980200052261353,11.378246307373047,0.7736595273017883,-32.544517517089844,0
1858.5210000000006,-0.0002924785076174885,-0.00033077699481509626,0.000330632203258574,0.0,0.0,0.0,0.0,-0.004165056627243757,-0.004171275068074465,0.0009062192984856665,0.999534010887146,0.0,0.0,0.0,0.17954501509666443,11.369834899902344,0.770308792591095,-32.49800491333008,0
1868.4040000000005,-0.0002021873224293813,-0.0002682260819710791,0.0003351898049004376,0.0,0.0,0.0,0.0,-0.002200077520683408,0.001700064865872264,0.00017786292301025242,0.9985778331756592,0.0,0.0,0.0,0.1757790744304657,11.387323379516602,0.794072687625885,-31.816362380981445,0
1878.2870000000003,-0.00021946095512248576,-0.00033797993091866374,0.0003302785335108638,0.0,0.0,0.0,0.0,-0.000572407094296068,-0.005046941805630922,0.0015821439446881413,0.998009204864502,0.0,0.0,0.0,0.1750786304473877,11.37816047668457,0.7867242097854614,-31.68958282470703,0
1888.1720000000005,-0.0002182272874051705,-0.00035438212216831744,0.00039679883047938347,0.0,0.0,0.0,0.0,-0.000668004562612623,-0.00016524909005966038,-0.001993481768295169,0.9976509213447571,0.0,0.0,0.0,0.1712830513715744,11.380096435546875,0.7939314246177673,-31.002574920654297,0
1898.058000000001,-0.00024053186643868685,-0.00042492628563195467,0.00039554666727781296,0.0,0.0,0.0,0.0,-0.003223967971280217,-0.002093789167702198,0.0008596178377047181,0.9981791377067566,0.0,0.0,0.0,0.1702037900686264,11.36383056640625,0.7943627834320068,-30.80722427368164,0
1907.9430000000011,-0.00029464211547747254,-0.0003221771330572665,0.00038273207610473037,0.0,0.0,0.0,0.0,0.0009670633007772267,0.003624693024903536,-0.00025321796420030296,1.000158429145813,0.0,0.0,0.0,0.16416007280349731,11.387701988220215,0.7934367060661316,-29.713298797607422,0
1917.8370000000014,-0.0003236281918361783,-0.00039195254794321954,0.0003787365567404777,0.0,0.0,0.0,0.0,0.0033321918454021215,0.002509772079065442,0.0013128798454999924,0.998950719833374,0.0,0.0,0.0,0.16456753015518188,11.37079906463623,0.7824713587760925,-29.787052154541016,0
1927.7240000000002,-0.00020761662744916975,-0.0002980288118124008,0.00036592010292224586,0.0,0.0,0.0,0.0,-0.0024031060747802258,-0.006103500723838806,-0.0010887079406529665,0.9962488412857056,0.0,0.0,0.0,0.15848980844020844,11.385303497314453,0.7964004874229431,-28.68697166442871,0
1937.6010000000006,-0.00023282966867554933,-0.00036793272010982037,0.0003605265519581735,0.0,0.0,0.0,0.0,-0.0034080571494996548,-0.0065437196753919125,0.0030535391997545958,0.9960247874259949,0.0,0.0,0.0,0.15732033550739288,11.375274658203125,0.8014573454856873,-28.47529411315918,0
1947.487000000001,-0.00018798938253894448,-0.0003005263570230454,0.0003597338800318539,0.0,0.0,0.0,0.0,0.0005534632364287972,-0.0014380572829395533,-0.0012684689136222005,0.9982635974884033,0.0,0.0,0.0,0.1579560786485672,11.388472557067871,0.8188300728797913,-28.590364456176758,0
1957.3760000000002,-0.00021342627587728202,-0.0003684579860419035,0.00034975711605511606,0.0,0.0,0.0,0.0,-0.0007175522623583674,-0.0003188722184859216,0.0003094215353485197,1.000760555267334,0.0,0.0,0.0,0.15816542506217957,11.37480640411377,0.8321183323860168,-28.62825584411621,0
1967.2579999999998,-0.0001669887569732964,-0.0003495253040455282,0.00033349310979247093,0.0,0.0,0.0,0.0,0.0014507960295304656,-0.0013887661043554544,0.002099802019074559,1.0001400709152222,0.0,0.0,0.0,0.15697678923606873,11.38184642791748,0.8376479148864746,-28.413110733032227,0
1977.1460000000006,-0.0001898674527183175,-0.00041630049236118793,0.00032374600414186716,0.0,0.0,0.0,0.0,0.0019230750622227788,-0.005096915178000927,0.0007189291063696146,0.9995378851890564,0.0,0.0,0.0,0.15704017877578735,11.3711519241333,0.840036928653717,-28.42458724975586,0
1987.0330000000013,-0.00015408487524837255,-0.00035399312037043273,0.00031703917193226516,0.0,0.0,0.0,0.0,0.0014868697617202997,0.0014231388922780752,-0.0019394842674955726,0.9982959032058716,0.0,0.0,0.0,0.1573086827993393,11.383477210998535,0.858721911907196,-28.473182678222656,0
1996.9150000000009,-0.00017700153694022447,-0.00042148501961492,0.0003080374444834888,0.0,0.0,0.0,0.0,0.0013261893764138222,0.0010745873441919684,-0.001620844705030322,0.9990310072898865,0.0,0.0,0.0,0.15680448710918427,11.376541137695312,0.8534401655197144,-28.381921768188477,0
2006.8070000000007,-0.00011565844033611938,-0.00028831689269281924,0.00026255453121848404,0.0,0.0,0.0,0.0,-0.0010176049545407295,-0.00010711905633797869,-0.0006177581963129342,0.9990159273147583,0.0,0.0,0.0,0.15059427917003632,11.402178764343262,0.8563068509101868,-27.257863998413086,0
2016.6890000000003,-0.00013698457041755319,-0.0003521466860547662,0.0002497081004548818,0.0,0.0,0.0,0.0,0.00025607572752051055,0.002079783705994487,0.0005958406254649162,0.9970837831497192,0.0,0.0,0.0,0.15046826004981995,11.392215728759766,0.849800169467926,-27.23505401611328,0
2026.5740000000005,-0.0001269959466299042,-0.000291770527837798,0.00021662851213477552,0.0,0.0,0.0,0.0,0.0030672550201416016,-0.0011084526777267456,9.123886411543936e-05,0.9991095662117004,0.0,0.0,0.0,0.1468460112810135,11.402848243713379,0.8518003821372986,-26.579421997070312,0
2036.460000000001,-0.0001473344600526616,-0.00035247713094577193,0.00019978781347163022,0.0,0.0,0.0,0.0,-0.0023800525814294815,3.9004822610877454e-05,-0.0018352415645495057,0.9988497495651245,0.0,0.0,0.0,0.1458791196346283,11.386421203613281,0.8539333343505859,-26.40441131591797,0
2046.344000000001,-0.0001677339751040563,-0.000279624859103933,0.00023742653138469905,0.0,0.0,0.0,0.0,0.0018723099492490292,0.003603565040975809,0.0006405295571312308,0.9987398386001587,0.0,0.0,0.0,0.15531787276268005,11.404850006103516,0.8525463938713074,-28.11284637451172,0
2056.2300000000014,-0.00018862217257265002,-0.00033795423223637044,0.00022341507428791374,0.0,0.0,0.0,0.0,-0.002914123237133026,0.0015913961688056588,0.005805191583931446,0.9982149004936218,0.0,0.0,0.0,0.15520867705345154,11.39148998260498,0.8457228541374207,-28.09307861328125,0
2066.115,-0.00018644914962351322,-0.0002581700391601771,0.00026427986449562013,0.0,0.0,0.0,0.0,-0.0016830724198371172,-0.001202842453494668,0.001993723912164569,0.9964133501052856,0.0,0.0,0.0,0.15292206406593323,11.408382415771484,0.8511157035827637,-27.679197311401367,0
2076.001,-0.00020449230214580894,-0.0003154513251502067,0.00025230651954188943,0.0,0.0,0.0,0.0,-0.0008273401181213558,-0.0014493189519271255,0.0009524393826723099,1.0018612146377563,0.0,0.0,0.0,0.15295489132404327,11.39810562133789,0.8601197600364685,-27.685138702392578,0
2085.889000000001,-0.00018935783009510487,-0.0002506635501049459,0.0002781884977594018,0.0,0.0,0.0,0.0,0.0006042192107997835,-0.006957636214792728,-0.0020004562102258205,0.9978323578834534,0.0,0.0,0.0,0.15616396069526672,11.41159439086914,0.8577167987823486,-28.265987396240234,0
2095.7740000000013,-0.0002078929974231869,-0.0003049600054509938,0.0002688690146896988,0.0,0.0,0.0,0.0,0.003294008783996105,-0.0026397418696433306,0.0004336712008807808,0.9982094168663025,0.0,0.0,0.0,0.15632233023643494,11.399707794189453,0.8769926428794861,-28.294654846191406,0
