timestamp,stateEstimate.x,stateEstimate.y,stateEstimate.z,controller.cmd_thrust,controller.cmd_roll,controller.cmd_pitch,controller.cmd_yaw,controller.r_roll,controller.r_pitch,controller.r_yaw,controller.accelz,controller.actuatorThrust,controller.roll,controller.pitch,controller.yaw,controller.rollRate,controller.pitchRate,controller.yawRate,controller.ctr_yaw
0.0,-0.0007957086199894547,0.00018882211588788778,-0.0007304601022042334,0.0,0.0,0.0,0.0,-0.000868096889462322,-0.00018847969477064908,0.0014604746829718351,0.9998246431350708,0.0,0.0,0.0,0.27213096618652344,0.42102691531181335,5.970076560974121,-49.256248474121094,0
9.925000000001091,-0.0008590056677348912,0.00019529773271642625,-0.0007553495233878493,0.0,0.0,0.0,0.0,-0.0006467963685281575,-0.0008560511050745845,-0.0009664183016866446,0.9998499155044556,0.0,0.0,0.0,0.27202776074409485,0.42227306962013245,5.966040134429932,-49.23756790161133,0
19.81999999999971,-0.0008837700006552041,0.0002320498024346307,-0.0008203797042369843,0.0,0.0,0.0,0.0,0.0003262595273554325,-0.0017755551962181926,-0.0018386848969385028,0.9990828037261963,0.0,0.0,0.0,0.27128076553344727,0.42312803864479065,5.964968204498291,-49.102359771728516,0
29.744000000000597,-0.0009511317475698888,0.00023816250904928893,-0.00084900320507586,0.0,0.0,0.0,0.0,0.001183641841635108,-0.00032547078444622457,0.001438181265257299,1.0000627040863037,0.0,0.0,0.0,0.27160215377807617,0.42381787300109863,5.9563727378845215,-49.160526275634766,0
39.64300000000003,-0.0009833506774157286,0.00026049657026305795,-0.0009173687431029975,0.0,0.0,0.0,0.0,0.0029123537242412567,-0.0033714401070028543,0.0033524560276418924,1.0001417398452759,0.0,0.0,0.0,0.2710909843444824,0.4177161455154419,5.946866035461426,-49.0680046081543,0
49.5619999999999,-0.0010535024339333177,0.0002653369156178087,-0.0009501867461949587,0.0,0.0,0.0,0.0,-0.000549496035091579,0.0049822465516626835,-0.002005040179938078,0.9996973872184753,0.0,0.0,0.0,0.27097252011299133,0.4165433347225189,5.947110652923584,-49.046566009521484,0
59.465000000000146,-0.0011263989144936204,0.0002611147065181285,-0.0009978055022656918,0.0,0.0,0.0,0.0,-0.0024971268139779568,-0.002312376629561186,-0.00021199157345108688,0.999422550201416,0.0,0.0,0.0,0.270248681306839,0.4195270836353302,5.929190158843994,-48.91554641723633,0
69.39400000000023,-0.0012025126488879323,0.0002642323379404843,-0.0010319857392460108,0.0,0.0,0.0,0.0,0.0011081603588536382,0.0008329053525812924,-0.0010306148324161768,0.9987888932228088,0.0,0.0,0.0,0.2693431079387665,0.41413408517837524,5.928593635559082,-48.75164031982422,0
79.28900000000067,-0.001295144553296268,0.00023978558601811528,-0.001080904621630907,0.0,0.0,0.0,0.0,0.0008145191823132336,0.00019393040565773845,-0.0013155089691281319,0.9985893368721008,0.0,0.0,0.0,0.2682498097419739,0.4147663414478302,5.920977592468262,-48.55374526977539,0
89.21000000000095,-0.0013751134974882007,0.00023754796711727977,-0.0011175007093697786,0.0,0.0,0.0,0.0,-0.0023666934575885534,0.0006486513302661479,0.0011366833932697773,1.0001882314682007,0.0,0.0,0.0,0.2682964503765106,0.4116632044315338,5.9169206619262695,-48.56219482421875,0
99.11200000000099,-0.0014150507049635053,0.0002609585062600672,-0.0011875423369929194,0.0,0.0,0.0,0.0,-0.001893421751447022,0.004257214721292257,-0.0013526073889806867,0.9987008571624756,0.0,0.0,0.0,0.2681119740009308,0.41321665048599243,5.907761096954346,-48.528804779052734,0
109.03499999999985,-0.0014965294394642115,0.0002592983946669847,-0.0012288328725844622,0.0,0.0,0.0,0.0,-0.001765257096849382,-0.008101250976324081,0.0006254848558455706,0.9983564019203186,0.0,0.0,0.0,0.2672165036201477,0.41599011421203613,5.898284912109375,-48.36671829223633,0
118.9380000000001,-0.0015094801783561707,0.00029196060495451093,-0.0013225057628005743,0.0,0.0,0.0,0.0,-0.0018441505962982774,-0.0003006296756211668,-0.0036185740027576685,0.9997822642326355,0.0,0.0,0.0,0.26657697558403015,0.4132900536060333,5.90089750289917,-48.25096130371094,0
128.85300000000097,-0.0015931737143546343,0.00029419202473945916,-0.0013711981009691954,0.0,0.0,0.0,0.0,-0.0005683005438186228,0.0011405096156522632,-0.0012435505632311106,1.0003124475479126,0.0,0.0,0.0,0.26500922441482544,0.41389912366867065,5.90134859085083,-47.96719741821289,0
138.75600000000122,-0.0016055693849921227,0.00035941871465183794,-0.0014569124905392528,0.0,0.0,0.0,0.0,-0.0011888571316376328,0.0004244692390784621,-0.0011088225292041898,1.0000317096710205,0.0,0.0,0.0,0.26488974690437317,0.41348084807395935,5.896251201629639,-47.94557571411133,0
148.6800000000003,-0.001691402168944478,0.00036905420711264014,-0.0015104594640433788,0.0,0.0,0.0,0.0,0.0013294701930135489,0.0035702220629900694,-0.0008359477506019175,1.0000745058059692,0.0,0.0,0.0,0.2656370997428894,0.41618454456329346,5.884380340576172,-48.080841064453125,0
158.58500000000095,-0.0017190349753946066,0.0003993152058683336,-0.0016121732769533992,0.0,0.0,0.0,0.0,0.00039637417648918927,-0.00044375425204634666,-0.0029560644179582596,1.0001741647720337,0.0,0.0,0.0,0.26528415083885193,0.406130313873291,5.870983600616455,-48.01696014404297,0
168.50600000000122,-0.0018063524039462209,0.000407899497076869,-0.001670733792707324,0.0,0.0,0.0,0.0,-0.002686042571440339,0.0010386266512796283,-0.0022060887422412634,1.0005241632461548,0.0,0.0,0.0,0.26445111632347107,0.4043932259082794,5.860640048980713,-47.866180419921875,0
178.40300000000025,-0.0018383736023679376,0.0004715115646831691,-0.0017551225610077381,0.0,0.0,0.0,0.0,-0.0024646681267768145,0.0006931426469236612,0.0019335054093971848,1.0019606351852417,0.0,0.0,0.0,0.2629028558731079,0.404742956161499,5.862789630889893,-47.5859375,0
188.32400000000052,-0.0019285209709778428,0.00048256409354507923,-0.0018161132466048002,0.0,0.0,0.0,0.0,-0.0022457223385572433,-0.0005946421297267079,0.00020045683777425438,1.0007737874984741,0.0,0.0,0.0,0.2629576027393341,0.4074355959892273,5.85462760925293,-47.595848083496094,0
198.22400000000016,-0.0019701591227203608,0.0005047775921411812,-0.0019168987637385726,0.0,0.0,0.0,0.0,0.00031658029183745384,0.0050019812770187855,0.0021684570237994194,1.0008472204208374,0.0,0.0,0.0,0.26336416602134705,0.40507006645202637,5.850741386413574,-47.66944122314453,0
208.15099999999984,-0.002060534665361047,0.0005176187842153013,-0.0019796015694737434,0.0,0.0,0.0,0.0,-6.564333307323977e-05,-0.005583352409303188,-0.003370990278199315,1.0000824928283691,0.0,0.0,0.0,0.2635101079940796,0.39999374747276306,5.841136932373047,-47.69585418701172,0
218.05099999999948,-0.002113604685291648,0.0005841139936819673,-0.002055904595181346,0.0,0.0,0.0,0.0,-0.0006332813063636422,0.0010231001069769263,-0.0012804666766896844,0.9987033605575562,0.0,0.0,0.0,0.262596994638443,0.40097084641456604,5.842953205108643,-47.53057861328125,0
227.96900000000096,-0.0022055453155189753,0.0006016326951794326,-0.0021202745847404003,0.0,0.0,0.0,0.0,0.0015778751112520695,0.0038926287088543177,0.0011910594766959548,1.0012800693511963,0.0,0.0,0.0,0.2618395984172821,0.3991914987564087,5.831840515136719,-47.393489837646484,0
237.875,-0.0022680514957755804,0.000656544347293675,-0.002203448675572872,0.0,0.0,0.0,0.0,-0.00020718724408652633,-0.006611053831875324,0.005110578145831823,1.0012348890304565,0.0,0.0,0.0,0.262323260307312,0.3938460350036621,5.819570064544678,-47.48103332519531,0
247.78700000000026,-0.0023641767911612988,0.0006791623891331255,-0.0022690100595355034,0.0,0.0,0.0,0.0,0.0014248681254684925,-0.002991636749356985,0.0023076478391885757,1.000822901725769,0.0,0.0,0.0,0.2628047466278076,0.3883824646472931,5.819050312042236,-47.56818389892578,0
257.7039999999997,-0.002429158193990588,0.0007384181953966618,-0.002349237212911248,0.0,0.0,0.0,0.0,0.0013279275735840201,0.000724881305359304,-2.134002534148749e-05,0.9993807673454285,0.0,0.0,0.0,0.26337409019470215,0.388456255197525,5.820821285247803,-47.67123794555664,0
267.6149999999998,-0.0025249191094189882,0.0007650823681615293,-0.0024150959216058254,0.0,0.0,0.0,0.0,-0.00017770440899766982,0.0006521210889331996,0.0003197046753484756,1.000398874282837,0.0,0.0,0.0,0.26280897855758667,0.38748928904533386,5.819657802581787,-47.568946838378906,0
277.52100000000064,-0.002582940272986889,0.0007732372032478452,-0.002519343513995409,0.0,0.0,0.0,0.0,0.004418533761054277,-0.0002726090606302023,0.0032831034623086452,1.000271201133728,0.0,0.0,0.0,0.2633443772792816,0.38703495264053345,5.817917823791504,-47.665855407714844,0
287.4349999999995,-0.0026819147169589996,0.0008006997522898018,-0.0025882385671138763,0.0,0.0,0.0,0.0,-0.0005241308826953173,-0.00029328311211429536,0.0038233818486332893,1.0006221532821655,0.0,0.0,0.0,0.26366400718688965,0.3773408830165863,5.810328960418701,-47.72371292114258,0
297.34599999999955,-0.0027483687736094,0.0008458797819912434,-0.002682893304154277,0.0,0.0,0.0,0.0,0.0013850630493834615,-0.0026315331924706697,0.0021755313500761986,1.001307725906372,0.0,0.0,0.0,0.2640818655490875,0.37241265177726746,5.797468185424805,-47.799339294433594,0
307.2600000000002,-0.0028514934238046408,0.0008747324463911355,-0.0027530582156032324,0.0,0.0,0.0,0.0,0.00029714417178183794,0.0011569525813683867,-0.0016249234322458506,1.0002509355545044,0.0,0.0,0.0,0.2627376914024353,0.367552787065506,5.797051906585693,-47.55604553222656,0
317.16899999999987,-0.0029180466663092375,0.0008860325906425714,-0.0028606324922293425,0.0,0.0,0.0,0.0,0.0024713908787816763,0.004868208430707455,0.0006368099711835384,1.0018173456192017,0.0,0.0,0.0,0.26897427439689636,0.36396291851997375,5.801130294799805,-48.684879302978516,0
327.0799999999999,-0.0030258125625550747,0.0009124408825300634,-0.002932635834440589,0.0,0.0,0.0,0.0,-0.0014828426064923406,-0.005760147236287594,0.0017573087243363261,1.0020476579666138,0.0,0.0,0.0,0.2698025405406952,0.36104616522789,5.790128231048584,-48.83479309082031,0
336.9950000000008,-0.003092448692768812,0.0009300025412812829,-0.0030368855223059654,0.0,0.0,0.0,0.0,0.0007598419324494898,0.00015359300596173853,-0.0019075976451858878,1.002243995666504,0.0,0.0,0.0,0.2698154151439667,0.3588520586490631,5.787693500518799,-48.83712387084961,0
346.90899999999965,-0.003202928928658366,0.00095589947886765,-0.0031088399700820446,0.0,0.0,0.0,0.0,-0.0015515490667894483,-0.005455815698951483,-0.002573431236669421,1.0022543668746948,0.0,0.0,0.0,0.26955631375312805,0.36261287331581116,5.790468692779541,-48.790225982666016,0
356.8199999999997,-0.0032680321019142866,0.0009718377259559929,-0.003215811448171735,0.0,0.0,0.0,0.0,0.000687023566570133,0.0006590500706806779,-0.0008691688417457044,1.0013439655303955,0.0,0.0,0.0,0.26837313175201416,0.36591705679893494,5.786743640899658,-48.57606887817383,0
366.728000000001,-0.0033811365719884634,0.0009978809393942356,-0.0032876208424568176,0.0,0.0,0.0,0.0,0.00018970797827932984,0.005732296966016293,-0.0006479818839579821,0.9994255304336548,0.0,0.0,0.0,0.2684094309806824,0.36792126297950745,5.793874740600586,-48.582645416259766,0
376.6360000000004,-0.003455959027633071,0.001032175961881876,-0.0033888383768498898,0.0,0.0,0.0,0.0,0.0026898595970124006,0.0047755129635334015,-0.001992336707189679,0.998171865940094,0.0,0.0,0.0,0.26894766092300415,0.3623141646385193,5.775362014770508,-48.6800651550293,0
386.5519999999997,-0.0035710574593394995,0.0010574543848633766,-0.0034631770104169846,0.0,0.0,0.0,0.0,-0.002013517078012228,-0.0001556081260787323,-0.0009177048923447728,0.9986839890480042,0.0,0.0,0.0,0.26840314269065857,0.3585098385810852,5.755232334136963,-48.581504821777344,0
396.46700000000055,-0.0036587512586265802,0.0011256311554461718,-0.0035639330744743347,0.0,0.0,0.0,0.0,0.001517304452136159,0.003990445751696825,0.0028019393794238567,0.9996126890182495,0.0,0.0,0.0,0.2673013210296631,0.3555614948272705,5.746022701263428,-48.3820686340332,0
406.3639999999996,-0.0037771440111100674,0.0011525206500664353,-0.0036431243643164635,0.0,0.0,0.0,0.0,-0.0027119957376271486,-0.005649394355714321,-0.002713392488658428,0.9982590675354004,0.0,0.0,0.0,0.2685529589653015,0.35308870673179626,5.731084823608398,-48.608619689941406,0
416.28700000000026,-0.0038557304069399834,0.0012110598618164659,-0.0037486569490283728,0.0,0.0,0.0,0.0,-0.002494289306923747,0.002376594115048647,-0.0011902012629434466,1.0004231929779053,0.0,0.0,0.0,0.2675323784351349,0.3511413037776947,5.730684280395508,-48.423892974853516,0
426.1890000000003,-0.003978112246841192,0.001239013858139515,-0.0038325642235577106,0.0,0.0,0.0,0.0,-0.0014699525199830532,0.0017639441648498178,-0.002277917927131057,1.0014491081237793,0.0,0.0,0.0,0.26748254895210266,0.34923306107521057,5.736042499542236,-48.41487503051758,0
436.1040000000012,-0.004056301899254322,0.0012569550890475512,-0.003952558618038893,0.0,0.0,0.0,0.0,0.0026881161611527205,0.0006361629930324852,-0.0018112878315150738,1.0007603168487549,0.0,0.0,0.0,0.26804736256599426,0.35667577385902405,5.723121166229248,-48.51710891723633,0
446.01400000000103,-0.0041832709684967995,0.0012794181238859892,-0.004039041697978973,0.0,0.0,0.0,0.0,0.0036858164239674807,-0.0018553416011855006,-0.0004177158698439598,1.0004500150680542,0.0,0.0,0.0,0.26756560802459717,0.3521021008491516,5.715230464935303,-48.429901123046875,0
455.9269999999997,-0.00426245154812932,0.0013028302928432822,-0.004153241869062185,0.0,0.0,0.0,0.0,0.0004501032817643136,-0.0022068535909056664,-0.0021231304854154587,0.9991553425788879,0.0,0.0,0.0,0.2663861811161041,0.34226900339126587,5.7039899826049805,-48.2164306640625,0
465.83699999999953,-0.004393091890960932,0.0013245341833680868,-0.004242405761033297,0.0,0.0,0.0,0.0,0.0001887251273728907,0.003523610532283783,-0.0025725860614329576,0.9981828927993774,0.0,0.0,0.0,0.2651810050010681,0.3450034260749817,5.697119235992432,-47.998291015625,0
475.75,-0.004480205941945314,0.0013837454607710242,-0.004362727981060743,0.0,0.0,0.0,0.0,-0.0001266052422579378,0.00036721513606607914,-0.0003978080058004707,1.000906229019165,0.0,0.0,0.0,0.2639012932777405,0.3461756408214569,5.691140651702881,-47.766658782958984,0
485.6660000000011,-0.004614773206412792,0.0014081603148952127,-0.004456864204257727,0.0,0.0,0.0,0.0,0.00227391067892313,0.004464857745915651,-0.0012648898409679532,0.998294472694397,0.0,0.0,0.0,0.26310670375823975,0.33935660123825073,5.677267551422119,-47.62283706665039,0
495.58400000000074,-0.004705235827714205,0.001473520533181727,-0.0045725759118795395,0.0,0.0,0.0,0.0,9.50183948589256e-06,0.004315434955060482,0.00318040675483644,0.9992762804031372,0.0,0.0,0.0,0.2618897557258606,0.3429747223854065,5.665492057800293,-47.402565002441406,0
505.4850000000006,-0.004844659008085728,0.0014998795231804252,-0.004670394584536552,0.0,0.0,0.0,0.0,-0.0020676269195973873,0.0018672434380277991,0.004237996879965067,1.0007556676864624,0.0,0.0,0.0,0.26206281781196594,0.3444463610649109,5.652531623840332,-47.43388748168945,0
515.4050000000007,-0.004865891765803099,0.0015386195154860616,-0.0047949329018592834,0.0,0.0,0.0,0.0,0.0035853409208357334,-0.0008601283188909292,1.511693699285388e-05,1.001776099205017,0.0,0.0,0.0,0.2622702717781067,0.34218084812164307,5.640555381774902,-47.47144317626953,0
525.3070000000007,-7.420175097649917e-05,-0.00010634484351612628,-0.00018030655337497592,0.0,0.0,0.0,0.0,0.0007493658922612667,0.0010122258681803942,0.00032815575832501054,0.9993752241134644,0.0,0.0,0.0,0.2684461772441864,0.22666192054748535,5.932488918304443,-48.589290618896484,0
535.2250000000004,-9.486341150477529e-05,-6.696877971990034e-05,-0.00020933292398694903,0.0,0.0,0.0,0.0,-0.0015983774792402983,-0.002544729970395565,-0.000644287618342787,0.9988841414451599,0.0,0.0,0.0,0.2674183249473572,0.22378957271575928,5.919895172119141,-48.40324783325195,0
545.1319999999996,-0.0001410782424500212,-8.079584949882701e-05,-0.00022429625096265227,0.0,0.0,0.0,0.0,0.00040040109888650477,0.0008057642844505608,0.0005434635677374899,0.9996548891067505,0.0,0.0,0.0,0.2675667107105255,0.22396104037761688,5.9231438636779785,-48.43010711669922,0
555.0550000000003,-0.00019569252617657185,-9.319689706899226e-05,-0.0002211374812759459,0.0,0.0,0.0,0.0,0.001933789113536477,0.0026176038663834333,6.176377792144194e-05,1.0008668899536133,0.0,0.0,0.0,0.26739442348480225,0.22950859367847443,5.910829067230225,-48.398921966552734,0
564.9510000000009,-9.277248318539932e-05,-0.00012540728494059294,-0.00013567564019467682,0.0,0.0,0.0,0.0,-0.0004713464586529881,0.0026983313728123903,-0.0052244230173528194,0.9996309280395508,0.0,0.0,0.0,0.2738906145095825,0.2171349674463272,5.920680046081543,-49.57474899291992,0
574.871000000001,-0.00010568830475676805,-0.00011389338760636747,-0.0001917959889397025,0.0,0.0,0.0,0.0,0.0003630909777712077,0.0009363458957523108,-0.0036600190214812756,0.9992490410804749,0.0,0.0,0.0,0.2732715308666229,0.21767090260982513,5.909412384033203,-49.46268844604492,0
584.7720000000008,-0.0001578225928824395,-0.00013220265100244433,-0.00020290614338591695,0.0,0.0,0.0,0.0,0.003499681828543544,0.0036150640808045864,0.0004340524028521031,1.0000890493392944,0.0,0.0,0.0,0.27186286449432373,0.21658484637737274,5.899773597717285,-49.20772171020508,0
594.6980000000003,-0.00017186510376632214,-6.960051541682333e-05,-0.0002502579882275313,0.0,0.0,0.0,0.0,-0.0008069733157753944,0.004355910234153271,0.00028405128978192806,1.002484679222107,0.0,0.0,0.0,0.27118951082229614,0.2158716470003128,5.88931131362915,-49.085838317871094,0
604.5910000000003,-7.848853420000523e-05,-9.960056195268407e-05,-0.00017614025273360312,0.0,0.0,0.0,0.0,-5.280965524434578e-06,0.0005233990959823132,-0.007717679720371962,1.0016175508499146,0.0,0.0,0.0,0.2712136507034302,0.21324068307876587,5.865761756896973,-49.090206146240234,0
614.518,-9.01435996638611e-05,-5.567763219005428e-05,-0.00021576459403149784,0.0,0.0,0.0,0.0,0.0013154823100194335,-0.001255935407243669,-0.0035039056092500687,1.001643419265747,0.0,0.0,0.0,0.2704375982284546,0.21144944429397583,5.870316982269287,-48.949745178222656,0
624.4140000000007,-0.00014560305862687528,-7.812112744431943e-05,-0.0002203707117587328,0.0,0.0,0.0,0.0,-0.0006015911349095404,-0.0008435414056293666,0.0019652387127280235,0.9983905553817749,0.0,0.0,0.0,0.2695712745189667,0.21273113787174225,5.865328311920166,-48.79293441772461,0
634.3310000000001,-0.0001684755552560091,-2.330350980628282e-05,-0.00025102205108851194,0.0,0.0,0.0,0.0,-0.0005085844895802438,-3.061897587031126e-05,0.0022682170383632183,0.9988313317298889,0.0,0.0,0.0,0.26885703206062317,0.21312084794044495,5.864679336547852,-48.66366195678711,0
644.2360000000008,-0.0002273756399517879,-4.664302468881942e-05,-0.00025736435782164335,0.0,0.0,0.0,0.0,0.002694613765925169,-0.0003121500485576689,0.0007658533286303282,1.0004884004592896,0.0,0.0,0.0,0.26853707432746887,0.207208052277565,5.8575944900512695,-48.605743408203125,0
654.1669999999995,-0.000263621419435367,-5.437656909634825e-06,-0.00029410081333480775,0.0,0.0,0.0,0.0,-0.001981846522539854,-0.0014269363600760698,-0.0008949224720709026,1.0004936456680298,0.0,0.0,0.0,0.26905715465545654,0.21315571665763855,5.844507694244385,-48.69987487792969,0
664.0609999999997,-0.0003243745304644108,-2.8381273295963183e-05,-0.00030326738487929106,0.0,0.0,0.0,0.0,-0.0009244690299965441,0.00014228950021788478,0.0005955832311883569,0.9989044070243835,0.0,0.0,0.0,0.267584890127182,0.20711898803710938,5.83901834487915,-48.43339538574219,0
673.9799999999996,-0.0003783247957471758,-2.885806497943122e-05,-0.00032634695526212454,0.0,0.0,0.0,0.0,-0.0007759179570712149,0.0022009992972016335,5.131476791575551e-05,1.0013115406036377,0.0,0.0,0.0,0.26741334795951843,0.2076406031847,5.82956075668335,-48.402347564697266,0
683.8870000000006,-0.00011987161269644275,-0.00014981334970798343,-0.00011072878260165453,0.0,0.0,0.0,0.0,0.0038272126112133265,0.0008436238276772201,0.0006901639862917364,0.9992074370384216,0.0,0.0,0.0,0.2757883369922638,0.18559634685516357,5.912172794342041,-49.918243408203125,0
693.8019999999997,-0.00016782050079200417,-0.00020355565357021987,-0.00011784290836658329,0.0,0.0,0.0,0.0,-0.001888561644591391,0.002146278042346239,-0.001256464747712016,0.9993032217025757,0.0,0.0,0.0,0.274221271276474,0.1904715597629547,5.8964762687683105,-49.63459777832031,0
703.7039999999997,-0.00021639645274262875,-0.00023610507196281105,-0.0001123638212447986,0.0,0.0,0.0,0.0,0.002935596974566579,-0.002717592753469944,0.0016828669467940927,1.0006085634231567,0.0,0.0,0.0,0.27494922280311584,0.18361727893352509,5.888942718505859,-49.766357421875,0
713.6270000000004,-0.00020972428319510072,-0.00017331464914605021,-0.00017474820197094232,0.0,0.0,0.0,0.0,-0.0017797283362597227,-0.0014308433746919036,0.0010239535477012396,1.0002398490905762,0.0,0.0,0.0,0.27544090151786804,0.17527896165847778,5.886262893676758,-49.855350494384766,0
723.5290000000005,-0.00025858223671093583,-0.0002073724172078073,-0.0001745743938954547,0.0,0.0,0.0,0.0,-0.00023586458701174706,-0.002371840411797166,-0.0009607587708160281,1.0008935928344727,0.0,0.0,0.0,0.2765180468559265,0.18044237792491913,5.888591766357422,-50.050315856933594,0
733.4470000000001,-0.0002620524319354445,-9.715049964142963e-05,-0.000225966825382784,0.0,0.0,0.0,0.0,0.0018404079601168633,0.002738713985309005,-0.0018621883355081081,1.0009167194366455,0.0,0.0,0.0,0.2765410244464874,0.1743333637714386,5.889237403869629,-50.054473876953125,0
743.3500000000004,-0.0003106957592535764,-0.00012748222798109055,-0.00022862080368213356,0.0,0.0,0.0,0.0,0.0012260040966793895,-0.002463473239913583,0.003954606596380472,1.001564621925354,0.0,0.0,0.0,0.2751525938510895,0.18127630650997162,5.877409934997559,-49.80316925048828,0
753.2790000000005,-0.0003248034627176821,-5.534418596653268e-05,-0.00028156096232123673,0.0,0.0,0.0,0.0,-0.001444030087441206,-0.0017882040701806545,-0.002696939976885915,1.001842975616455,0.0,0.0,0.0,0.27588823437690735,0.17251774668693542,5.878591060638428,-49.93632125854492,0
763.1740000000009,-0.00011091884516645223,-0.00015193996659945697,-9.474714897805825e-05,0.0,0.0,0.0,0.0,0.002513906452804804,-0.0021071862429380417,0.001941549126058817,1.0001962184906006,0.0,0.0,0.0,0.28341853618621826,0.152520552277565,5.94620943069458,-51.299320220947266,0
773.094000000001,-8.885720308171585e-05,-8.349486597580835e-05,-0.00013934158778283745,0.0,0.0,0.0,0.0,-0.002963361330330372,-0.0011191826779395342,0.0010620695538818836,1.0009387731552124,0.0,0.0,0.0,0.2827637195587158,0.1540597826242447,5.951028347015381,-51.18079376220703,0
782.996000000001,-5.80946471018251e-05,-0.00012115258869016543,-0.00010556251072557643,0.0,0.0,0.0,0.0,0.0028330101631581783,0.0005041186232119799,0.0035901053342968225,1.0015355348587036,0.0,0.0,0.0,0.2886607050895691,0.15180717408657074,5.951451778411865,-52.24816131591797,0
792.9179999999997,-6.470968219218776e-05,-0.0001301819138461724,-0.00014104116417001933,0.0,0.0,0.0,0.0,-0.00010267580364597961,-0.0018463985761627555,-0.0004888364928774536,1.0000226497650146,0.0,0.0,0.0,0.2885480523109436,0.15526776015758514,5.948859691619873,-52.2277717590332,0
802.8170000000009,-0.0001064977768692188,-0.00016419292660430074,-0.0001336679415544495,0.0,0.0,0.0,0.0,0.0014202650636434555,-0.0015948807122185826,-1.2576426343002822e-05,0.9996504783630371,0.0,0.0,0.0,0.2877138555049896,0.15544311702251434,5.939687728881836,-52.0767822265625,0
812.7380000000012,-0.00013832311378791928,-0.00016546032566111535,-0.00013143430987838656,0.0,0.0,0.0,0.0,0.0012149405665695667,0.001282324781641364,-0.0009495337726548314,1.002051830291748,0.0,0.0,0.0,0.2881562113761902,0.15681058168411255,5.942974090576172,-52.1568489074707,0
822.6400000000012,-8.713617717148736e-05,-0.00019650407193694264,-6.515714630950242e-05,0.0,0.0,0.0,0.0,0.0035018560010939837,-0.002948496490716934,0.0010459203040227294,0.9998672008514404,0.0,0.0,0.0,0.296568900346756,0.1504688858985901,5.9484052658081055,-53.67955780029297,0
832.5570000000007,-7.1944814408198e-05,-0.00016009158571250737,-0.00010986349661834538,0.0,0.0,0.0,0.0,-0.0005688579403795302,0.004171034321188927,0.0011612140806391835,1.0009561777114868,0.0,0.0,0.0,0.296041339635849,0.15100517868995667,5.9370903968811035,-53.58407211303711,0
842.4629999999997,-0.00011763408838305622,-0.00020076126384083182,-0.00010058892075903714,0.0,0.0,0.0,0.0,0.0015897277044132352,0.0007112001185305417,-0.0017099663382396102,0.9990924000740051,0.0,0.0,0.0,0.29614999890327454,0.1499922275543213,5.937634468078613,-53.60374069213867,0
852.3909999999996,-0.0001096304549719207,-0.00012772245099768043,-0.00013962587399873883,0.0,0.0,0.0,0.0,0.0017091872869059443,0.003169917967170477,-0.003134399186819792,1.0004969835281372,0.0,0.0,0.0,0.2955966889858246,0.1464904099702835,5.9278883934021,-53.50358963012695,0
862.2860000000001,-8.628722571302205e-05,-0.00015115532733034343,-7.659513357793912e-05,0.0,0.0,0.0,0.0,0.0006733416812494397,0.0034197766799479723,-0.0015453032683581114,1.0013432502746582,0.0,0.0,0.0,0.29335373640060425,0.14391864836215973,5.9122314453125,-53.09761428833008,0
872.2049999999999,-3.249950168537907e-05,-6.356970698107034e-05,-0.00016902273637242615,0.0,0.0,0.0,0.0,-0.0004231788916513324,-0.003918074537068605,-0.0006540902541019022,0.999413251876831,0.0,0.0,0.0,0.29196444153785706,0.13942895829677582,5.891027450561523,-52.84614181518555,0
882.1090000000004,-8.321620407514274e-05,-9.886155021376908e-05,-0.00016491234418936074,0.0,0.0,0.0,0.0,0.0005525994929485023,1.285124426431139e-06,-0.00047586692380718887,1.0008584260940552,0.0,0.0,0.0,0.2927151322364807,0.14160682260990143,5.888803005218506,-52.982017517089844,0
892.0320000000011,-0.00010124459367943928,-5.388347926782444e-05,-0.00018692066078074276,0.0,0.0,0.0,0.0,-0.004202959593385458,-0.0003056995337828994,0.001935190986841917,1.0004955530166626,0.0,0.0,0.0,0.2925272285938263,0.1385907679796219,5.886770725250244,-52.94801330566406,0
901.9320000000007,-0.0001543094404041767,-8.833657193463296e-05,-0.00018421534332446754,0.0,0.0,0.0,0.0,-0.0009346397127956152,0.0016286798054352403,-0.0015956658171489835,1.0002057552337646,0.0,0.0,0.0,0.29200562834739685,0.1448492705821991,5.890826225280762,-52.853599548339844,0
911.866,-0.0002036997175309807,-0.00010882125206990167,-0.0001861198979895562,0.0,0.0,0.0,0.0,-0.002527605975046754,0.0020210666116327047,0.0021877209655940533,1.0000841617584229,0.0,0.0,0.0,0.29246440529823303,0.14702337980270386,5.879746913909912,-52.93663787841797,0
921.7600000000002,-0.00026015174807980657,-0.0001472626463510096,-0.00018323436961509287,0.0,0.0,0.0,0.0,0.0010814393172040582,0.0011347414692863822,-0.000978992902673781,0.9972209930419922,0.0,0.0,0.0,0.2922319769859314,0.15157532691955566,5.873589515686035,-52.894569396972656,0
931.6820000000007,-0.0002782767405733466,-7.748065399937332e-05,-0.0002291013952344656,0.0,0.0,0.0,0.0,0.0002587081107776612,0.0022422082256525755,-0.0034627190325409174,0.998605489730835,0.0,0.0,0.0,0.29211607575416565,0.14954525232315063,5.864543437957764,-52.87358856201172,0
941.5830000000005,-0.00030437507666647434,-3.7111669371370226e-05,-0.00013075619062874466,0.0,0.0,0.0,0.0,-0.0005651884712278843,0.0022512238938361406,-0.002827147487550974,1.0005799531936646,0.0,0.0,0.0,0.2916434705257416,0.15040281414985657,5.853055477142334,-52.78805160522461,0
951.5040000000008,-0.00026409165002405643,6.322229455690831e-05,-0.00023578337277285755,0.0,0.0,0.0,0.0,-0.0020590880885720253,0.004159568343311548,-0.0012585457880049944,1.0000214576721191,0.0,0.0,0.0,0.28997838497161865,0.15142782032489777,5.84091329574585,-52.486663818359375,0
961.4079999999994,-0.00031977053731679916,3.071890023420565e-05,-0.00024054534151218832,0.0,0.0,0.0,0.0,-0.002555844374001026,-0.0033321138471364975,0.0011418338399380445,1.000217080116272,0.0,0.0,0.0,0.28949210047721863,0.14934107661247253,5.824178695678711,-52.398651123046875,0
971.3250000000007,-0.0003458872379269451,3.002492303494364e-05,-0.0002877362130675465,0.0,0.0,0.0,0.0,0.00037497765151783824,-0.0001121989989769645,-0.003226920496672392,0.9998956918716431,0.0,0.0,0.0,0.2839537262916565,0.1627352237701416,5.83306360244751,-51.39619064331055,0
981.2309999999998,-0.00040670347516424954,-3.206714609405026e-06,-0.00029496580827981234,0.0,0.0,0.0,0.0,0.0011233888799324632,-0.0030951397493481636,0.00419442867860198,0.9998440742492676,0.0,0.0,0.0,0.28199175000190735,0.16640040278434753,5.830837726593018,-51.04106903076172,0
991.1489999999994,-0.0004352162650320679,2.420331657049246e-05,-0.000348557106917724,0.0,0.0,0.0,0.0,0.0009068494546227157,-0.00020666580530814826,-0.00022863659251015633,1.0007169246673584,0.0,0.0,0.0,0.2826996445655823,0.16614799201488495,5.834136962890625,-51.1692008972168,0
1001.0480000000007,-0.0004981628153473139,-9.857973054749891e-06,-0.00035888218553736806,0.0,0.0,0.0,0.0,0.0013053605798631907,0.002675047144293785,-0.0006056271959096193,1.0010417699813843,0.0,0.0,0.0,0.2827090620994568,0.1649274080991745,5.826262474060059,-51.170902252197266,0
1010.9680000000008,-0.00052526721265167,2.825311094056815e-05,-0.0004168320447206497,0.0,0.0,0.0,0.0,-0.00018792605260387063,0.0009323139092884958,0.00021311167802195996,0.9993947744369507,0.0,0.0,0.0,0.28149211406707764,0.16270384192466736,5.810225009918213,-50.95063400268555,0
1020.8700000000008,-0.000587812508456409,-7.450547855114564e-06,-0.00042938394472002983,0.0,0.0,0.0,0.0,-0.0041021727956831455,0.0032907831482589245,-0.0003772049967665225,0.9991446733474731,0.0,0.0,0.0,0.28105428814888,0.16172367334365845,5.8048601150512695,-50.87137985229492,0
1030.795,-0.0006156860035844147,-1.5184174117166549e-05,-0.0005059991963207722,0.0,0.0,0.0,0.0,0.0008374863537028432,0.003828221233561635,-0.006499164737761021,1.0016685724258423,0.0,0.0,0.0,0.28104379773139954,0.1665264517068863,5.790992736816406,-50.86948776245117,0
1040.6930000000011,-3.258788274251856e-05,-0.0002962659054901451,-9.019563003676012e-05,0.0,0.0,0.0,0.0,0.0015395163791254163,-0.0032130347099155188,0.0014483066042885184,1.0000985860824585,0.0,0.0,0.0,0.27324315905570984,0.1155945286154747,5.9314093589782715,-49.457550048828125,0
1050.6130000000012,-1.4640709196100943e-05,-0.00026069412706419826,-0.00013044028310105205,0.0,0.0,0.0,0.0,0.0005478020175360143,0.00013104508980177343,0.0013997509377077222,1.0005854368209839,0.0,0.0,0.0,0.27395206689834595,0.11502927541732788,5.930601596832275,-49.58586883544922,0
1060.518,-4.811540566151962e-05,-0.0003109630197286606,-0.00012662855442613363,0.0,0.0,0.0,0.0,-0.0010823048651218414,0.005958242807537317,-0.0010670316405594349,0.9998157024383545,0.0,0.0,0.0,0.273093581199646,0.11623845249414444,5.922929763793945,-49.43048095703125,0
1070.4359999999997,-4.402684862725437e-05,-0.0002688865642994642,-0.00015801575500518084,0.0,0.0,0.0,0.0,-0.0018544003833085299,0.0026381739880889654,0.0030724613461643457,0.9985003471374512,0.0,0.0,0.0,0.27288076281547546,0.12082821875810623,5.912222385406494,-49.3919563293457,0
1080.3500000000004,-7.814358832547441e-05,-0.0003167892573401332,-0.00015653425361961126,0.0,0.0,0.0,0.0,0.0030472250655293465,0.003934954293072224,0.00025910348631441593,0.9977524280548096,0.0,0.0,0.0,0.2726636230945587,0.12313846498727798,5.896766185760498,-49.352657318115234,0
1090.2630000000008,-8.618032734375447e-05,-0.0002760413335636258,-0.0001887667312985286,0.0,0.0,0.0,0.0,0.0008936403319239616,-0.004563892725855112,0.0020312934648245573,1.000211238861084,0.0,0.0,0.0,0.272260844707489,0.11307734996080399,5.880555152893066,-49.279754638671875,0
1100.1679999999997,-0.0001252145884791389,-0.0003216741024516523,-0.00019188567239325494,0.0,0.0,0.0,0.0,0.001277179573662579,-0.001452130964025855,-0.0017557075479999185,0.9991945028305054,0.0,0.0,0.0,0.2728476822376251,0.10971721261739731,5.884300231933594,-49.38597106933594,0
1110.08,-0.00013652861525770277,-0.0002677857701200992,-0.00023394015443045646,0.0,0.0,0.0,0.0,-0.0007116704364307225,-0.0015591944102197886,-0.003300886368378997,0.9999005794525146,0.0,0.0,0.0,0.272404283285141,0.10541794449090958,5.878020763397217,-49.30571746826172,0
1119.9899999999998,-0.00017636240227147937,-0.00030979610164649785,-0.00024052134540397674,0.0,0.0,0.0,0.0,-0.00011234065459575504,0.0018474964890629053,-0.005929290316998959,1.0004212856292725,0.0,0.0,0.0,0.27135735750198364,0.10467083007097244,5.869121551513672,-49.11621856689453,0
1129.9009999999998,-0.00018883083248510957,-0.0001951525773620233,-0.0002616590936668217,0.0,0.0,0.0,0.0,0.0010982600506395102,0.005698671564459801,-0.0005162705201655626,1.0009894371032715,0.0,0.0,0.0,0.2692258358001709,0.14827749133110046,5.873833656311035,-48.73041534423828,0
1139.8270000000011,-0.00022914547298569232,-0.00023175665410235524,-0.0002684679930098355,0.0,0.0,0.0,0.0,-0.000292174459900707,0.0025354577228426933,-0.0031248661689460278,1.001616358757019,0.0,0.0,0.0,0.26861077547073364,0.1447548121213913,5.858765602111816,-48.619083404541016,0
1149.723,-0.00024333693727385253,-0.000205680524231866,-0.000316813588142395,0.0,0.0,0.0,0.0,-0.0023602175060659647,0.00022690571495331824,0.0007687592296861112,0.9984775185585022,0.0,0.0,0.0,0.26818016171455383,0.1449037343263626,5.851839065551758,-48.54114532470703,0
1159.639000000001,-0.00028503077919594944,-0.00024239739286713302,-0.0003247297427151352,0.0,0.0,0.0,0.0,0.000414722046116367,0.004162057768553495,0.005228355992585421,0.9979792237281799,0.0,0.0,0.0,0.26818594336509705,0.14116448163986206,5.846336841583252,-48.54219436645508,0
1169.5560000000005,-0.00027815159410238266,-0.00014599313726648688,-0.0003965517971664667,0.0,0.0,0.0,0.0,0.0007121117669157684,0.0021973836701363325,-0.00242045009508729,1.0015243291854858,0.0,0.0,0.0,0.2672325074672699,0.18263556063175201,5.859052658081055,-48.36960983276367,0
1179.451000000001,-0.00032292172545567155,-0.00017578006372787058,-0.00041103039984591305,0.0,0.0,0.0,0.0,0.002436460694298148,-0.0022833815310150385,0.0008794948807917535,1.0012871026992798,0.0,0.0,0.0,0.2672431170940399,0.18258965015411377,5.846104621887207,-48.37153625488281,0
1189.3700000000008,-0.0003458400024101138,-9.452076483285055e-05,-0.0004305549373384565,0.0,0.0,0.0,0.0,0.0017762212082743645,-0.0018703301902860403,0.001201349776238203,0.9990503787994385,0.0,0.0,0.0,0.26903629302978516,0.2155056893825531,5.853160381317139,-48.696102142333984,0
1199.2810000000009,-0.0003957220178563148,-0.00011660659220069647,-0.0004438337928149849,0.0,0.0,0.0,0.0,8.223476470448077e-05,-0.0030102638993412256,-0.0003145876689814031,0.9987276792526245,0.0,0.0,0.0,0.26855894923210144,0.20500439405441284,5.843100547790527,-48.609703063964844,0
1209.1930000000011,-0.000420181080698967,-6.032210512785241e-05,-0.0004774612607434392,0.0,0.0,0.0,0.0,0.00126011879183352,-0.0010620394023135304,-0.00025613338220864534,1.0004146099090576,0.0,0.0,0.0,0.2680484652519226,0.20834188163280487,5.840272903442383,-48.517311096191406,0
1219.1040000000012,-0.0004732825909741223,-7.906630344223231e-05,-0.000493658590130508,0.0,0.0,0.0,0.0,-0.0022907271049916744,0.002753903390839696,0.0021091867238283157,1.0009747743606567,0.0,0.0,0.0,0.26740744709968567,0.20835916697978973,5.8321919441223145,-48.401283264160156,0
1229.014000000001,-0.0005019874079152942,-2.355852848268114e-05,-0.000521874288097024,0.0,0.0,0.0,0.0,0.0007300663273781538,-0.002820218214765191,-0.0024019998963922262,0.9993400573730469,0.0,0.0,0.0,0.2672874331474304,0.21107348799705505,5.820669651031494,-48.379554748535156,0
1238.9259999999995,-0.00012341595720499754,-0.00015957282448653132,-0.00015162657655309886,0.0,0.0,0.0,0.0,-0.001599100767634809,-0.003744562389329076,0.0024746849667280912,0.9992190003395081,0.0,0.0,0.0,0.2724677622318268,0.1912301778793335,5.893196105957031,-49.31720733642578,0
1248.835000000001,-0.00016325947945006192,-0.00016926770331338048,-0.00014899570669513196,0.0,0.0,0.0,0.0,0.0018588803941383958,-0.00011980537965428084,0.001391928642988205,0.998493492603302,0.0,0.0,0.0,0.27192050218582153,0.19611802697181702,5.896363258361816,-49.21815490722656,0
1258.7489999999998,-0.00020863137615378946,-0.00018882514268625528,-0.00015037703269626945,0.0,0.0,0.0,0.0,0.002424949547275901,-0.003523472463712096,-0.0008001545211300254,1.0017575025558472,0.0,0.0,0.0,0.27128246426582336,0.1969722956418991,5.895378589630127,-49.1026611328125,0
1268.666000000001,-0.0002411014138488099,-0.00015850340423639864,-0.00016308696649502963,0.0,0.0,0.0,0.0,-0.00031117431353777647,0.0030823436100035906,-0.00046320795081555843,1.0004750490188599,0.0,0.0,0.0,0.27064815163612366,0.1947680562734604,5.893535614013672,-48.98785400390625,0
1278.5640000000003,-0.0002919473045039922,-0.00017705139180179685,-0.00016384122136514634,0.0,0.0,0.0,0.0,0.0010220473632216454,-0.0014307871460914612,-0.0029196094255894423,0.9984191656112671,0.0,0.0,0.0,0.2693876624107361,0.1965426802635193,5.881161212921143,-48.75970458984375,0
1288.4830000000002,-0.00031082110945135355,-0.00014352257130667567,-0.00023728185624349862,0.0,0.0,0.0,0.0,-0.00031175269396044314,-0.0015820373082533479,0.0012371329357847571,0.9992919564247131,0.0,0.0,0.0,0.26924923062324524,0.19155974686145782,5.879697799682617,-48.734642028808594,0
1298.3909999999996,-0.0003635417961049825,-0.00016175716882571578,-0.0002443421399220824,0.0,0.0,0.0,0.0,-0.000736196234356612,-0.0035655435640364885,7.148347503971308e-05,1.0004035234451294,0.0,0.0,0.0,0.2700861692428589,0.1970115303993225,5.883291721343994,-48.88613510131836,0
1308.299000000001,-0.00037188956048339605,-4.920204810332507e-05,-0.0003472263924777508,0.0,0.0,0.0,0.0,0.0010838644811883569,0.0025054558645933867,-0.003957157954573631,1.0001994371414185,0.0,0.0,0.0,0.2695380747318268,0.1957540214061737,5.885131359100342,-48.78692626953125,0
1318.2150000000001,-0.0004246158932801336,-6.46342959953472e-05,-0.00036112265661358833,0.0,0.0,0.0,0.0,0.003140703309327364,-0.0015708798309788108,-0.0038865169044584036,1.002206802368164,0.0,0.0,0.0,0.26846402883529663,0.19441193342208862,5.879620552062988,-48.59252166748047,0
1328.1229999999996,-0.00045316750765778124,6.904075235070195e-06,-0.0004219478869345039,0.0,0.0,0.0,0.0,0.00384698249399662,-0.001261561643332243,0.002219533547759056,1.0020701885223389,0.0,0.0,0.0,0.2671978175640106,0.18969738483428955,5.877111911773682,-48.363338470458984,0
1338.0390000000007,-0.0005056948866695166,-7.1130707510747015e-06,-0.00043618609197437763,0.0,0.0,0.0,0.0,0.0034732422791421413,-0.003903171746060252,-0.0008896887884475291,1.0012229681015015,0.0,0.0,0.0,0.2675500512123108,0.18557865917682648,5.870589256286621,-48.427093505859375,0
1347.9449999999997,-0.0005407126736827195,-2.729556399572175e-06,-0.000507709919475019,0.0,0.0,0.0,0.0,-0.001621114555746317,0.0014575610402971506,0.0007750942022539675,0.9994025826454163,0.0,0.0,0.0,0.2667780816555023,0.18149471282958984,5.866522312164307,-48.2873649597168,0
1357.8649999999998,-0.000596035155467689,-1.9106828403891996e-05,-0.0005237024743109941,0.0,0.0,0.0,0.0,-0.0024115697015076876,-0.006462499964982271,-0.0012747911969199777,0.9991078972816467,0.0,0.0,0.0,0.26680517196655273,0.1841244101524353,5.859587669372559,-48.29226303100586,0
1367.7690000000002,-0.0006487247883342206,-1.0318228305550292e-05,-0.000543508562259376,0.0,0.0,0.0,0.0,-8.694919233676046e-05,-0.0032334320712834597,-0.0010426428634673357,0.9988484978675842,0.0,0.0,0.0,0.2662351429462433,0.18945051729679108,5.859377861022949,-48.18909454345703,0
1377.687,-0.0007049308042041957,-2.6151623387704603e-05,-0.0005611609085462987,0.0,0.0,0.0,0.0,0.0013818414881825447,0.000122552111861296,-0.002531225560232997,1.0016547441482544,0.0,0.0,0.0,0.2663814425468445,0.19362710416316986,5.86616325378418,-48.215576171875,0
1387.5900000000001,-0.000749376427847892,-4.31203625339549e-06,-0.0005976957618258893,0.0,0.0,0.0,0.0,-0.00020343871437944472,-0.001378200831823051,-0.0011165522737428546,0.9992850422859192,0.0,0.0,0.0,0.2656794786453247,0.1898939460515976,5.859598636627197,-48.08851623535156,0
1397.5040000000008,-0.0008046755101531744,-1.7773840227164328e-05,-0.0006166044622659683,0.0,0.0,0.0,0.0,-0.0038353758864104748,-0.0007981560193002224,-0.000974311784375459,0.9999418258666992,0.0,0.0,0.0,0.2654149532318115,0.18845537304878235,5.856930732727051,-48.0406379699707,0
1407.4130000000005,-0.0008216893766075373,2.3282660549739376e-05,-0.0007147545693442225,0.0,0.0,0.0,0.0,-0.0021488098427653313,0.0022474450524896383,-0.0030697856564074755,0.9996246099472046,0.0,0.0,0.0,0.26539602875709534,0.19432494044303894,5.8548784255981445,-48.03721237182617,0
1417.3340000000007,-0.0008787693222984672,1.3978944480186328e-05,-0.000739781535230577,0.0,0.0,0.0,0.0,-0.0058001307770609856,0.0027844225987792015,0.003867845982313156,0.9998259544372559,0.0,0.0,0.0,0.2651045024394989,0.197674959897995,5.852292537689209,-47.984439849853516,0
1427.2350000000006,-0.0008968011825345457,5.3686257160734385e-05,-0.0008386794943362474,0.0,0.0,0.0,0.0,0.001601231168024242,0.00036684246151708066,-0.004653547424823046,0.9989255666732788,0.0,0.0,0.0,0.26593562960624695,0.20427797734737396,5.840973854064941,-48.1348762512207,0
1437.1550000000007,-0.0009570684051141143,4.252167127560824e-05,-0.0008694148855283856,0.0,0.0,0.0,0.0,0.003239583922550082,0.0008229942177422345,0.0004904663073830307,0.999855637550354,0.0,0.0,0.0,0.26416251063346863,0.2012607604265213,5.833666801452637,-47.813941955566406,0
1447.0640000000003,-0.0009802766144275665,7.162758993217722e-05,-0.0009608010295778513,0.0,0.0,0.0,0.0,0.001677427557297051,0.0036248222459107637,0.00023078705999068916,0.9992388486862183,0.0,0.0,0.0,0.26412710547447205,0.20019963383674622,5.820634365081787,-47.807533264160156,0
1456.9799999999996,-0.00014587173063773662,-0.0001931889564730227,-0.00017058290541172028,0.0,0.0,0.0,0.0,-0.0001478985941503197,-0.0022953443694859743,-0.0005859936936758459,0.9979349970817566,0.0,0.0,0.0,0.26835906505584717,0.16379746794700623,5.973077774047852,-48.57352066040039,0
1466.8780000000006,-0.0001321948948316276,-0.00015353414346463978,-0.0002226804499514401,0.0,0.0,0.0,0.0,-0.0013200740795582533,0.0017096787923946977,-0.0027604904025793076,0.9993659257888794,0.0,0.0,0.0,0.2690584361553192,0.16048450767993927,5.9693522453308105,-48.70010757446289,0
1476.8029999999999,-0.00015843352593947202,-0.00017164826567750424,-0.0002312933502253145,0.0,0.0,0.0,0.0,-0.003699657041579485,0.002141762524843216,0.000830173259600997,1.002301573753357,0.0,0.0,0.0,0.26895347237586975,0.15814785659313202,5.958947658538818,-48.681114196777344,0
1486.701000000001,-0.00016078291810117662,-0.00010714003292378038,-0.0002582096785772592,0.0,0.0,0.0,0.0,-0.0001979804947040975,0.0005416830535978079,-0.003138472093269229,0.9994324445724487,0.0,0.0,0.0,0.2682970464229584,0.163056880235672,5.947534561157227,-48.56230163574219,0
1496.6180000000004,-0.0001915573375299573,-0.00012210092972964048,-0.0002666227228473872,0.0,0.0,0.0,0.0,-0.0001392623089486733,0.0010435713920742273,-0.0011173755628988147,0.9990670084953308,0.0,0.0,0.0,0.26804211735725403,0.1629551500082016,5.935556888580322,-48.51615905761719,0
1506.523000000001,-0.00020854118338320404,-4.599563908413984e-05,-0.0002812449529301375,0.0,0.0,0.0,0.0,-0.00031332028447650373,0.00413861870765686,0.0021368167363107204,1.0006667375564575,0.0,0.0,0.0,0.26764488220214844,0.15831413865089417,5.928323745727539,-48.44425582885742,0
1516.4400000000005,-0.0002441394899506122,-5.895799768040888e-05,-0.000290373049210757,0.0,0.0,0.0,0.0,0.00020652159582823515,-0.0018662759102880955,-0.003093453822657466,1.0006837844848633,0.0,0.0,0.0,0.2672624886035919,0.15370143949985504,5.913154125213623,-48.37504577636719,0
1526.3459999999995,-0.00026870437432080507,-1.5230237295327242e-05,-0.00032214628299698234,0.0,0.0,0.0,0.0,0.0014385252725332975,-0.0016359778819605708,0.0013672737404704094,1.0005710124969482,0.0,0.0,0.0,0.2659236490726471,0.14957791566848755,5.904484748840332,-48.13270950317383,0
1536.2569999999996,-0.00030961327138356864,-2.9124334105290473e-05,-0.00033149414230138063,0.0,0.0,0.0,0.0,-0.001096139196306467,-0.004528400953859091,-0.002477015135809779,0.9985686540603638,0.0,0.0,0.0,0.26634669303894043,0.14800214767456055,5.902160167694092,-48.20928192138672,0
1546.1689999999999,-0.0003379072586540133,2.1174328139750287e-05,-0.0003646773984655738,0.0,0.0,0.0,0.0,-0.001019850722514093,0.0012593013234436512,-0.0021615868899971247,1.0011223554611206,0.0,0.0,0.0,0.2653181254863739,0.14943049848079681,5.907109260559082,-48.02310562133789,0
1556.085000000001,-0.0003798127290792763,8.024456292332616e-06,-0.0003758553648367524,0.0,0.0,0.0,0.0,-0.0013099624775350094,-0.0037819365970790386,0.0019786113407462835,0.99906325340271,0.0,0.0,0.0,0.2655515968799591,0.15417242050170898,5.903487205505371,-48.065364837646484,0
1565.991,-0.0004248476470820606,-1.3143328033038415e-05,-0.0003851010696962476,0.0,0.0,0.0,0.0,-0.0020366713870316744,0.0026270330417901278,-0.0007740946020931005,0.999912440776825,0.0,0.0,0.0,0.26617127656936646,0.15810270607471466,5.902268886566162,-48.17753219604492,0
1575.9120000000003,-0.000469414284452796,-2.8445345378713682e-05,-0.0003961603215429932,0.0,0.0,0.0,0.0,0.0012021419825032353,0.0014561561401933432,-0.0028116710018366575,1.000246286392212,0.0,0.0,0.0,0.26551198959350586,0.16304348409175873,5.894742965698242,-48.05819320678711,0
1585.8140000000003,-0.0005311497952789068,-3.221571387257427e-05,-0.00036023001302964985,0.0,0.0,0.0,0.0,0.0011337172472849488,0.00023211108054965734,-0.0011318603064864874,1.0006434917449951,0.0,0.0,0.0,0.2646982967853546,0.16288690268993378,5.886445999145508,-47.91091537475586,0
1595.7250000000004,-0.0005828152061440051,-4.9108624807558954e-05,-0.000367699220078066,0.0,0.0,0.0,0.0,-0.0021617943421006203,0.0032375638838857412,-0.0035343633498996496,1.001062035560608,0.0,0.0,0.0,0.26410284638404846,0.16053657233715057,5.880178451538086,-47.80314254760742,0
1605.6370000000006,-0.0006186393438838422,-3.71294045180548e-05,-0.00041543584666214883,0.0,0.0,0.0,0.0,-0.002157018054276705,0.0002059347607428208,0.0026020414661616087,0.9988338351249695,0.0,0.0,0.0,0.26296377182006836,0.16315248608589172,5.8676371574401855,-47.596961975097656,0
1615.549000000001,-0.00014260708121582866,-0.0002283718786202371,2.0336645320639946e-05,0.0,0.0,0.0,0.0,-0.0015669449931010604,-0.003823664039373398,0.0017123318975791335,1.0003677606582642,0.0,0.0,0.0,0.26789557933807373,0.1354072391986847,5.975765228271484,-48.48963165283203,0
1625.460000000001,-0.00010537020716583356,-0.00016117676568683237,-6.116870645200834e-05,0.0,0.0,0.0,0.0,0.0021561391185969114,0.007378058508038521,0.0004169415624346584,0.9993986487388611,0.0,0.0,0.0,0.2690697908401489,0.1345614343881607,5.980343341827393,-48.70216369628906,0
1635.371000000001,-0.00013857752492185682,-0.00018577603623270988,-5.723165668314323e-05,0.0,0.0,0.0,0.0,-0.0004884661757387221,-0.0008909786702133715,0.004587823059409857,1.0004756450653076,0.0,0.0,0.0,0.26829254627227783,0.13355512917041779,5.96301794052124,-48.56148910522461,0
1645.2880000000005,-0.00012690736912190914,-0.000110466884507332,-0.0001083793758880347,0.0,0.0,0.0,0.0,-0.00026992824859917164,0.0015486277407035232,-0.0008937037782743573,0.9972485303878784,0.0,0.0,0.0,0.2685930132865906,0.1363368183374405,5.957152843475342,-48.615867614746094,0
1655.1939999999995,-9.754803613759577e-05,-0.00014294125139713287,-7.391697727143764e-05,0.0,0.0,0.0,0.0,-5.3064348321640864e-05,0.0012873708037659526,0.0020761487539857626,0.9970631003379822,0.0,0.0,0.0,0.26716503500938416,0.1395735740661621,5.94598913192749,-48.357398986816406,0
1665.1049999999996,-4.660023842006922e-05,-5.852463800692931e-05,-0.0001707708725007251,0.0,0.0,0.0,0.0,-0.0022870900575071573,0.0015659923665225506,0.0015676111215725541,0.9997475147247314,0.0,0.0,0.0,0.2672262489795685,0.13898199796676636,5.93687629699707,-48.36848068237305,0
1675.0190000000002,-8.533404616173357e-05,-8.511899795848876e-05,-0.00017961663252208382,0.0,0.0,0.0,0.0,0.001662830589339137,0.0015795356594026089,0.0006714340997859836,0.9985830783843994,0.0,0.0,0.0,0.26735159754753113,0.1435752511024475,5.9336628913879395,-48.39117431640625,0
1684.9310000000005,-8.53655074024573e-05,-5.1033435738645494e-05,-0.0002446198486723006,0.0,0.0,0.0,0.0,-0.0031335358507931232,0.001648361561819911,-0.0005544985760934651,0.9980787634849548,0.0,0.0,0.0,0.26734107732772827,0.14202159643173218,5.924624443054199,-48.38926696777344,0
1694.8410000000003,-0.00013144918193574995,-8.004968549357727e-05,-0.0002594696416053921,0.0,0.0,0.0,0.0,0.000354631629306823,0.003679542103782296,-0.004582619294524193,0.9978622198104858,0.0,0.0,0.0,0.2659720480442047,0.14598314464092255,5.908587455749512,-48.14147186279297,0
1704.7540000000008,-0.0001682029978837818,-5.65447480767034e-05,-0.00028334857779555023,0.0,0.0,0.0,0.0,-0.0023698010481894016,0.0027560738380998373,-1.7874413970275782e-05,1.0001814365386963,0.0,0.0,0.0,0.2645292580127716,0.14433810114860535,5.897672653198242,-47.88032150268555,0
1714.6640000000007,-0.00020513076742645353,-9.785316251509357e-06,-0.0003120305191259831,0.0,0.0,0.0,0.0,-0.0007713785744272172,0.0005690613179467618,0.0028862489853054285,1.0003862380981445,0.0,0.0,0.0,0.2633889615535736,0.15063390135765076,5.881206512451172,-47.67392349243164,0
1724.5730000000003,-0.0002562652516644448,-3.4852182579925284e-05,-0.0003311476029921323,0.0,0.0,0.0,0.0,-0.0019817014690488577,0.0037276390939950943,-0.0016135397600010037,0.9996196031570435,0.0,0.0,0.0,0.26234209537506104,0.15038061141967773,5.8749494552612305,-47.484439849853516,0
1734.4860000000008,-0.00029854875174351037,-4.409783286973834e-05,-0.0003828330081887543,0.0,0.0,0.0,0.0,0.0013985303230583668,0.0024096856359392405,-0.0015237060142681003,0.9980196952819824,0.0,0.0,0.0,0.2616191506385803,0.1529122143983841,5.8671417236328125,-47.35358428955078,0
1744.3960000000006,-0.00035533879417926073,-7.106429256964475e-05,-0.0004046387621201575,0.0,0.0,0.0,0.0,0.001973567297682166,-0.002491285325959325,0.00043594720773398876,0.9987428784370422,0.0,0.0,0.0,0.26050662994384766,0.149723082780838,5.8531999588012695,-47.152217864990234,0
1754.317000000001,-0.00010579120862530544,-9.96343806036748e-05,-0.00023876251361798495,0.0,0.0,0.0,0.0,0.00013005617074668407,-0.0051836976781487465,0.004543105140328407,1.0008080005645752,0.0,0.0,0.0,0.2638315260410309,0.14253775775432587,5.9146928787231445,-47.7540283203125,0
1764.2299999999996,-6.456218397943303e-05,-0.00011419208749430254,-0.00020148124895058572,0.0,0.0,0.0,0.0,-0.003373098326846957,-0.0006071221432648599,-0.0020356185268610716,0.9971247315406799,0.0,0.0,0.0,0.27074530720710754,0.14292755722999573,5.926487922668457,-49.00544357299805,0
1774.1329999999998,-0.00012250123836565763,-0.00013923140068072826,-0.000195872868061997,0.0,0.0,0.0,0.0,0.0001765355555107817,-0.0011489579919725657,0.00332190515473485,0.9994573593139648,0.0,0.0,0.0,0.2695174515247345,0.1435205638408661,5.9158406257629395,-48.7831916809082,0
1784.0519999999997,-0.00017191306687891483,-0.000170356739545241,-0.00020631133520510048,0.0,0.0,0.0,0.0,0.0014064025599509478,0.001153772696852684,-0.002318704966455698,1.0007469654083252,0.0,0.0,0.0,0.2688165307044983,0.14185574650764465,5.915596008300781,-48.65633010864258,0
1793.964,-0.0001819841272663325,-0.0001456957106711343,-0.00026595668168738484,0.0,0.0,0.0,0.0,0.0006563932984136045,0.0016232706839218736,-4.736032224172959e-06,1.002665638923645,0.0,0.0,0.0,0.26840201020240784,0.14221881330013275,5.902463912963867,-48.581302642822266,0
1803.8639999999996,-0.00023376866010949016,-0.00017954599752556533,-0.00027888859040103853,0.0,0.0,0.0,0.0,-3.8329999370034784e-05,0.001581197022460401,0.00213055731728673,1.0018219947814941,0.0,0.0,0.0,0.26835280656814575,0.1421826034784317,5.887095928192139,-48.5723876953125,0
1813.7810000000009,-0.0002527988108340651,-0.00013875456352252513,-0.0003363520954735577,0.0,0.0,0.0,0.0,0.00413094786927104,0.001128889387473464,-0.0016839522868394852,1.0014904737472534,0.0,0.0,0.0,0.26908251643180847,0.142592191696167,5.864892482757568,-48.7044677734375,0
1823.6900000000005,-0.0003037437563762069,-0.0001717612612992525,-0.0003492094110697508,0.0,0.0,0.0,0.0,-0.002600410021841526,-0.006872842088341713,0.001362445647828281,1.0005918741226196,0.0,0.0,0.0,0.2687811851501465,0.1374443620443344,5.861006259918213,-48.649925231933594,0
1833.598,-0.000329607748426497,-0.00012450508074834943,-0.00040033168625086546,0.0,0.0,0.0,0.0,-0.0030180662870407104,0.0034782516304403543,-0.00010819602903211489,0.9997074007987976,0.0,0.0,0.0,0.26893898844718933,0.137324720621109,5.86027193069458,-48.678489685058594,0
1843.509,-0.00038084504194557667,-0.00015666228136979043,-0.00041441296343691647,0.0,0.0,0.0,0.0,-0.0006795690860599279,-0.00021262445079628378,-0.002963203238323331,1.00253427028656,0.0,0.0,0.0,0.26779523491859436,0.14219419658184052,5.85679292678833,-48.471466064453125,0
1853.424000000001,-0.00038893884629942477,-6.0110520280431956e-05,-0.0004991197492927313,0.0,0.0,0.0,0.0,-0.0007507223635911942,-0.0006930978270247579,-0.0014049360761418939,1.0000866651535034,0.0,0.0,0.0,0.2681944668292999,0.1871756762266159,5.8892316818237305,-48.543731689453125,0
1863.3320000000003,-0.0004379772290121764,-8.709625399205834e-05,-0.0005158993881195784,0.0,0.0,0.0,0.0,-0.00015046434418763965,0.0011928091989830136,0.0027860687114298344,0.9997996687889099,0.0,0.0,0.0,0.2673531472682953,0.1867254674434662,5.885657787322998,-48.39145278930664,0
1873.2440000000006,-0.0004664423759095371,-4.519753929344006e-06,-0.000553081335965544,0.0,0.0,0.0,0.0,-0.0011076711816713214,-0.004005891736596823,-0.0010445211082696915,1.0004229545593262,0.0,0.0,0.0,0.26786941289901733,0.21863454580307007,5.888613700866699,-48.48489761352539,0
1883.1550000000007,-0.0005188795039430261,-2.3257507564267144e-05,-0.0005709939869120717,0.0,0.0,0.0,0.0,0.0011432153405621648,-0.002706932369619608,-0.0014553973451256752,0.9993167519569397,0.0,0.0,0.0,0.26764893531799316,0.21915526688098907,5.895345687866211,-48.44498825073242,0
1893.0660000000007,-0.0005537683027796447,-8.54717018228257e-06,-0.0006255877669900656,0.0,0.0,0.0,0.0,0.002208456164225936,0.006607513874769211,-0.004858823958784342,1.0000818967819214,0.0,0.0,0.0,0.26803717017173767,0.21932515501976013,5.892930030822754,-48.51526641845703,0
1902.978000000001,-0.00060926319565624,-2.6559631805866957e-05,-0.0006461982848122716,0.0,0.0,0.0,0.0,0.0002615678240545094,0.00251843873411417,0.0016585466219112277,0.9996669888496399,0.0,0.0,0.0,0.26653143763542175,0.21571503579616547,5.880622863769531,-48.24272537231445,0
1912.889000000001,-0.0006369919865392148,5.253678318695165e-05,-0.0006881328881718218,0.0,0.0,0.0,0.0,-0.0015117638977244496,0.0007775441627018154,0.002040841383859515,0.9990074038505554,0.0,0.0,0.0,0.2665657699108124,0.2498452365398407,5.8894267082214355,-48.248939514160156,0
1922.800000000001,-0.0006937349098734558,3.901559466612525e-05,-0.0007111805025488138,0.0,0.0,0.0,0.0,0.0001805946958484128,-0.001118926564231515,-0.0006957041332498193,1.000916600227356,0.0,0.0,0.0,0.2658737897872925,0.250669926404953,5.882448196411133,-48.12368392944336,0
1932.7119999999995,-0.0007035037269815803,0.00011042918777093291,-0.0007908610277809203,0.0,0.0,0.0,0.0,-0.0012395979138091207,-0.003740361426025629,0.0011703898198902607,0.9997130632400513,0.0,0.0,0.0,0.2671397030353546,0.28698277473449707,5.908450603485107,-48.352813720703125,0
1942.6229999999996,-0.0007617245428264141,0.00010150759044336155,-0.0008184384787455201,0.0,0.0,0.0,0.0,-0.0023297483567148447,-0.003096221014857292,0.0035875458270311356,1.0000568628311157,0.0,0.0,0.0,0.2667728066444397,0.28871428966522217,5.906410217285156,-48.286407470703125,0
1952.5349999999999,-0.0007976453634910285,0.00011092217027908191,-0.0008823628886602819,0.0,0.0,0.0,0.0,0.0008974747615866363,0.00582254771143198,0.0002467777521815151,1.0019500255584717,0.0,0.0,0.0,0.26657605171203613,0.29093503952026367,5.913817882537842,-48.250797271728516,0
1962.4449999999997,-0.0008602113230153918,0.0001016770547721535,-0.0009116471046581864,0.0,0.0,0.0,0.0,-0.003026501275599003,0.0005551804206334054,-0.0016448645619675517,1.0016828775405884,0.0,0.0,0.0,0.2656845450401306,0.2951558530330658,5.903511047363281,-48.08943176269531,0
1972.357,-0.0009011541842482984,0.0001593979832250625,-0.0009463616879656911,0.0,0.0,0.0,0.0,-0.002244918840005994,-2.6683344913180918e-05,0.0017516217194497585,1.0019744634628296,0.0,0.0,0.0,0.2648966908454895,0.2954678237438202,5.896841526031494,-47.94682312011719,0
1982.268,-0.0009674679022282362,0.00015384171274490654,-0.0009730326710268855,0.0,0.0,0.0,0.0,-0.0015220448840409517,0.0005943392752669752,-0.0019329567439854145,0.9985974431037903,0.0,0.0,0.0,0.2653725743293762,0.2967241704463959,5.893191337585449,-48.032962799072266,0
1992.1800000000003,-0.001032687840051949,0.00017276829748880118,-0.0009969675447791815,0.0,0.0,0.0,0.0,-0.003435911377891898,-0.0048122042790055275,0.0015840836567804217,0.9970859289169312,0.0,0.0,0.0,0.26519522070884705,0.29606524109840393,5.881813049316406,-48.0008659362793,0
2002.0930000000008,-0.00010441181802889332,-0.0001580925891175866,-0.00013679557014256716,0.0,0.0,0.0,0.0,0.0025109907146543264,0.0008874988998286426,-0.0009600751800462604,0.9991775155067444,0.0,0.0,0.0,0.27051419019699097,0.2475224882364273,6.075127124786377,-48.96360778808594,0
2012.005000000001,-0.0001263999001821503,-0.0001528377179056406,-0.00012941122986376286,0.0,0.0,0.0,0.0,0.0022924405056983232,3.453178578638472e-05,0.002968789543956518,1.000023603439331,0.0,0.0,0.0,0.2697433531284332,0.24544955790042877,6.067203044891357,-48.8240852355957,0
2021.916000000001,-0.00015712171443738043,-0.00017361495702061802,-0.00012377847451716661,0.0,0.0,0.0,0.0,-0.0008693794952705503,-0.0007189011666923761,0.0028891724068671465,1.0023800134658813,0.0,0.0,0.0,0.27001988887786865,0.24233727157115936,6.067703723907471,-48.87413787841797,0
2031.8289999999997,-0.00018139247549697757,-0.00021268891578074545,-0.00014238203584682196,0.0,0.0,0.0,0.0,-0.0032877761404961348,0.002108247485011816,-0.0007899743504822254,1.0047967433929443,0.0,0.0,0.0,0.2700827717781067,0.24742601811885834,6.06072998046875,-48.885520935058594,0
2041.7389999999996,-0.00021380498947110027,-0.0002359581703785807,-0.00013571248564403504,0.0,0.0,0.0,0.0,0.0019454658031463623,-0.0011416042689234018,0.005259227007627487,1.0020395517349243,0.0,0.0,0.0,0.2704269289970398,0.24482068419456482,6.056856632232666,-48.947811126708984,0
2051.6579999999994,-0.00023097099619917572,-0.00019351259106770158,-0.00014161478611640632,0.0,0.0,0.0,0.0,-0.00284314202144742,0.0031410958617925644,-0.0020006203558295965,0.9968860149383545,0.0,0.0,0.0,0.2692995071411133,0.24504441022872925,6.049382209777832,-48.74374771118164,0
2061.559000000001,-0.00026472550234757364,-0.00021754176123067737,-0.00013136313646100461,0.0,0.0,0.0,0.0,-0.00029241020092740655,0.005286794155836105,0.005359097849577665,0.9994503855705261,0.0,0.0,0.0,0.2696879506111145,0.25019562244415283,6.045327663421631,-48.814048767089844,0
2071.4709999999995,-0.0002656555734574795,-0.00010755476250778884,-0.00018292904132977128,0.0,0.0,0.0,0.0,0.0004882821813225746,0.000837956671603024,-0.0024992693215608597,1.0017716884613037,0.0,0.0,0.0,0.26955121755599976,0.25186997652053833,6.0279412269592285,-48.789302825927734,0
2081.3819999999996,-0.00030092973611317575,-0.00012916841660626233,-0.0001793871051631868,0.0,0.0,0.0,0.0,-0.0003700233355630189,0.004612379241734743,-0.004529195372015238,1.0001227855682373,0.0,0.0,0.0,0.2691747546195984,0.24691076576709747,6.015247344970703,-48.72116470336914,0
2091.3060000000005,-0.0003093764535151422,-4.411028930917382e-05,-0.00023428082931786776,0.0,0.0,0.0,0.0,-0.0017111283959820867,-4.1175509977620095e-05,0.0021092239767313004,1.0018494129180908,0.0,0.0,0.0,0.2679375410079956,0.25085553526878357,6.000186920166016,-48.49722671508789,0
2101.2090000000007,-0.00010710442438721657,-0.00013774228864349425,-5.625791527563706e-05,0.0,0.0,0.0,0.0,0.0011713845888152719,0.002386050531640649,0.0031367354094982147,1.0002055168151855,0.0,0.0,0.0,0.27425578236579895,0.23659822344779968,6.048123359680176,-49.64084243774414,0
