timestamp,stateEstimate.x,stateEstimate.y,stateEstimate.z,controller.cmd_thrust,controller.cmd_roll,controller.cmd_pitch,controller.cmd_yaw,controller.r_roll,controller.r_pitch,controller.r_yaw,controller.accelz,controller.actuatorThrust,controller.roll,controller.pitch,controller.yaw,controller.rollRate,controller.pitchRate,controller.yawRate,controller.ctr_yaw
0.0,0.0010640693362802267,-0.009538112208247185,-6.072503310861066e-06,0.0,0.0,0.0,0.0,2.9142322091502137e-05,0.0016084731323644519,-0.00010432933777337894,0.9990428686141968,0.0,0.0,0.0,-7.401271820068359,1.2291332483291626,4.544679641723633,1339.6448974609375,0
9.90899999999965,0.0011249469825997949,-0.009557094424962997,3.7410762161016464e-05,0.0,0.0,0.0,0.0,-0.0009083135519176722,0.004240643233060837,0.0012141737388446927,0.9992735385894775,0.0,0.0,0.0,-7.404453277587891,1.221888780593872,4.562624931335449,1340.2208251953125,0
19.822000000000116,0.001079997862689197,-0.00957703497260809,3.165891394019127e-05,0.0,0.0,0.0,0.0,-0.0002972703077830374,0.0006657199701294303,0.0022981215734034777,1.0010459423065186,0.0,0.0,0.0,-7.404755592346191,1.2173978090286255,4.550759315490723,1340.2755126953125,0
29.733000000000175,0.0011109319748356938,-0.009565576910972595,7.541023660451174e-05,0.0,0.0,0.0,0.0,0.00016906428209040314,0.006454032380133867,-0.00029823582735843956,1.0005512237548828,0.0,0.0,0.0,-7.397173881530762,1.2121599912643433,4.537506580352783,1338.9031982421875,0
39.64800000000105,0.0010906412499025464,-0.009528523311018944,6.03315893386025e-05,0.0,0.0,0.0,0.0,-0.0022835975978523493,-0.0008365311659872532,-0.0014449191512539983,1.0013155937194824,0.0,0.0,0.0,-7.397963523864746,1.2122896909713745,4.532393455505371,1339.046142578125,0
49.5580000000009,0.0010980564402416348,-0.009563741274178028,7.899577758507803e-05,0.0,0.0,0.0,0.0,0.004614511504769325,0.0024800782557576895,-0.0006849048659205437,1.000670313835144,0.0,0.0,0.0,-7.404204845428467,1.2156991958618164,4.532308101654053,1340.17578125,0
59.46800000000076,0.001075193053111434,-0.009539500810205936,5.956958557362668e-05,0.0,0.0,0.0,0.0,-2.589930227259174e-05,0.00284936954267323,0.0027190810069441795,1.0018309354782104,0.0,0.0,0.0,-7.409282207489014,1.21579909324646,4.530086994171143,1341.0947265625,0
69.37800000000061,0.001162408385425806,-0.009633020497858524,4.360376260592602e-05,0.0,0.0,0.0,0.0,-0.00162186857778579,-0.0037501242477446795,0.002288867486640811,0.9998289942741394,0.0,0.0,0.0,-7.410542964935303,1.209746241569519,4.524658679962158,1341.322998046875,0
79.28499999999985,0.001115615013986826,-0.009625296108424664,5.538522600545548e-05,0.0,0.0,0.0,0.0,-0.0007377443253062665,0.0001975888735614717,-0.00013167971337679774,1.0023670196533203,0.0,0.0,0.0,-7.402374267578125,1.2045978307724,4.515835285186768,1339.8443603515625,0
89.19800000000032,0.001206729095429182,-0.009564093314111233,1.6257812603726052e-05,0.0,0.0,0.0,0.0,-0.0008651707321405411,0.0011920585529878736,-0.0009456779807806015,1.0014634132385254,0.0,0.0,0.0,-7.4062180519104,1.226896047592163,4.527699947357178,1340.5401611328125,0
99.11499999999978,0.001161355641670525,-0.009554455988109112,2.6386469471617602e-05,0.0,0.0,0.0,0.0,-0.003069054801017046,-0.0026663902681320906,0.0009583527571521699,1.0003612041473389,0.0,0.0,0.0,-7.399328708648682,1.226127028465271,4.517582893371582,1339.293212890625,0
109.02900000000045,0.001154340454377234,-0.009588170796632767,-8.452530892100185e-06,0.0,0.0,0.0,0.0,0.0007922826916910708,-0.002690077293664217,-0.0015905267791822553,1.0000475645065308,0.0,0.0,0.0,-7.41013240814209,1.2251521348953247,4.529731750488281,1341.2486572265625,0
118.92900000000009,0.0011051674373447895,-0.009577912278473377,1.6621925169602036e-07,0.0,0.0,0.0,0.0,-0.0013757024426013231,0.00024693013983778656,-0.0010386653011664748,0.999121904373169,0.0,0.0,0.0,-7.403340816497803,1.2176283597946167,4.522092819213867,1340.0194091796875,0
128.84400000000096,0.0011969079496338964,-0.009634955786168575,-2.1768986698589288e-05,0.0,0.0,0.0,0.0,0.0021338663063943386,-0.00048597771092318,-0.00010307809861842543,0.998548686504364,0.0,0.0,0.0,-7.404653072357178,1.2229617834091187,4.51271915435791,1340.2569580078125,0
138.7559999999994,0.0011467256117612123,-0.009626565501093864,-1.6518306438229047e-05,0.0,0.0,0.0,0.0,0.0029635352548211813,0.004116063006222248,0.0014346211683005095,1.0017741918563843,0.0,0.0,0.0,-7.39846658706665,1.2205479145050049,4.502744197845459,1339.1370849609375,0
148.66600000000108,0.0011512258788570762,-0.009628551080822945,-4.653840005630627e-05,0.0,0.0,0.0,0.0,0.0024927842896431684,0.00020340271294116974,8.417676872340962e-05,1.0018038749694824,0.0,0.0,0.0,-7.401291847229004,1.2247724533081055,4.500153541564941,1339.6484375,0
158.57200000000012,0.0010970591101795435,-0.009620350785553455,-4.240065027261153e-05,0.0,0.0,0.0,0.0,2.409692115179496e-06,-0.002298034494742751,0.0007019551703706384,1.0016849040985107,0.0,0.0,0.0,-7.393556594848633,1.2200816869735718,4.489588737487793,1338.2484130859375,0
168.4860000000008,0.0011443252442404628,-0.009628231637179852,-0.00013201100227888674,0.0,0.0,0.0,0.0,0.0002507805766072124,0.0007490136194974184,-0.003504194086417556,0.9998997449874878,0.0,0.0,0.0,-7.40717077255249,1.2232633829116821,4.5120530128479,1340.7125244140625,0
178.39600000000064,0.0010890134144574404,-0.009619935415685177,-0.00013198725355323404,0.0,0.0,0.0,0.0,0.000639541307464242,-0.005079462192952633,-0.0005194185650907457,0.9994465112686157,0.0,0.0,0.0,-7.399930000305176,1.2233015298843384,4.508235931396484,1339.4019775390625,0
188.3060000000005,0.001203862251713872,-0.009539368562400341,-0.00021766219288110733,0.0,0.0,0.0,0.0,-0.0013180481037124991,-0.0035695494152605534,-0.0016403428744524717,0.9997770190238953,0.0,0.0,0.0,-7.4025115966796875,1.2507455348968506,4.522347450256348,1339.8692626953125,0
198.21800000000076,0.0011499067768454552,-0.009527964517474174,-0.00022446902585215867,0.0,0.0,0.0,0.0,-0.0016496388707309961,-0.002446762751787901,0.0005888252635486424,1.0002615451812744,0.0,0.0,0.0,-7.395483493804932,1.2521547079086304,4.533003330230713,1338.59716796875,0
208.12900000000081,0.0011165732285007834,-0.009514210745692253,-0.00027146528009325266,0.0,0.0,0.0,0.0,0.0015157137531787157,0.001097324537113309,-4.4726781197823584e-05,1.0013178586959839,0.0,0.0,0.0,-7.413561820983887,1.258183479309082,4.534010410308838,1341.869384765625,0
218.03800000000047,0.001060929149389267,-0.009500876069068909,-0.00028087408281862736,0.0,0.0,0.0,0.0,0.00015965632337611169,0.002949002431705594,0.0032842992804944515,1.0014634132385254,0.0,0.0,0.0,-7.406290531158447,1.2523810863494873,4.525811195373535,1340.55322265625,0
227.94900000000052,0.0011317802127450705,-0.009565272368490696,-0.00021886783360969275,0.0,0.0,0.0,0.0,0.0011226623319089413,0.00017679197480902076,-0.0001603257842361927,0.9988607168197632,0.0,0.0,0.0,-7.406381607055664,1.2422651052474976,4.5122456550598145,1340.5697021484375,0
237.8719999999994,0.001191505347378552,-0.00958597008138895,-0.00019655980577226728,0.0,0.0,0.0,0.0,0.0011214299593120813,-0.0009506465285085142,0.000659603625535965,0.9987723231315613,0.0,0.0,0.0,-7.3987627029418945,1.2453722953796387,4.510850429534912,1339.190673828125,0
247.77499999999964,0.0011489753378555179,-0.009571744129061699,-0.00021478679263964295,0.0,0.0,0.0,0.0,-0.00020386622054502368,0.0031248589511960745,-0.004165641497820616,0.999964714050293,0.0,0.0,0.0,-7.402382850646973,1.2456438541412354,4.507740020751953,1339.845947265625,0
257.6820000000007,0.0011968074832111597,-0.009535781107842922,-0.00016143475659191608,0.0,0.0,0.0,0.0,-0.003070761449635029,0.001436446444131434,-0.004092907998710871,1.0009812116622925,0.0,0.0,0.0,-7.408275604248047,1.2511848211288452,4.528656482696533,1340.91259765625,0
267.59500000000116,0.0011167729971930385,-0.009582254104316235,-0.00015023667947389185,0.0,0.0,0.0,0.0,0.002812502672895789,0.0013944159727543592,-0.003446345217525959,1.001114845275879,0.0,0.0,0.0,-7.409727096557617,1.2435963153839111,4.520005226135254,1341.17529296875,0
277.5030000000006,0.0011802450753748417,-0.009554607793688774,-8.747380343265831e-05,0.0,0.0,0.0,0.0,0.00024071612278930843,0.004433112684637308,-0.005339077208191156,0.9990155100822449,0.0,0.0,0.0,-7.415602684020996,1.2545421123504639,4.5369462966918945,1342.2388916015625,0
287.4150000000009,0.0011612999951466918,-0.009494883008301258,-0.00010820335592143238,0.0,0.0,0.0,0.0,-0.0004743930767290294,0.0035566503647714853,0.0006545398500747979,1.0006321668624878,0.0,0.0,0.0,-7.42121696472168,1.2623114585876465,4.526361465454102,1343.255126953125,0
297.3279999999995,0.001216631499119103,-0.009420549497008324,-3.100219328189269e-05,0.0,0.0,0.0,0.0,0.00013142198440618813,0.0025566117838025093,0.0043663643300533295,1.0009427070617676,0.0,0.0,0.0,-7.414261341094971,1.258663535118103,4.513814449310303,1341.99609375,0
307.237000000001,0.0011719167232513428,-0.009440073743462563,-4.269763667252846e-05,0.0,0.0,0.0,0.0,0.0008305222727358341,-0.002550416626036167,-0.00010562301031313837,1.001927137374878,0.0,0.0,0.0,-7.414371490478516,1.256058931350708,4.509061813354492,1342.015869140625,0
317.16300000000047,0.0011745848460122943,-0.009411938488483429,2.473660970281344e-06,0.0,0.0,0.0,0.0,0.0020340876653790474,0.003964443691074848,-0.0009579150937497616,1.0015724897384644,0.0,0.0,0.0,-7.415811538696289,1.25298011302948,4.521652698516846,1342.2767333984375,0
327.0580000000009,0.0011378598865121603,-0.009448175318539143,-2.2943646399653517e-05,0.0,0.0,0.0,0.0,-0.0012656333856284618,0.0026032349560409784,0.004257802851498127,1.00157630443573,0.0,0.0,0.0,-7.4186811447143555,1.2420612573623657,4.515078544616699,1342.7960205078125,0
336.97500000000036,0.0012618985492736101,-0.009405296295881271,6.853699596831575e-05,0.0,0.0,0.0,0.0,0.0011173021048307419,0.0022418140433728695,-0.0010753206443041563,1.0021920204162598,0.0,0.0,0.0,-7.410388469696045,1.2401344776153564,4.498625755310059,1341.294921875,0
346.880000000001,0.0012171363923698664,-0.009442619979381561,6.442260200856254e-05,0.0,0.0,0.0,0.0,-0.003754924051463604,0.00161132519133389,-0.002986946841701865,1.000836968421936,0.0,0.0,0.0,-7.412968635559082,1.228046178817749,4.496190071105957,1341.761962890625,0
356.8009999999995,0.0012576450826600194,-0.009436034597456455,0.0001231579080922529,0.0,0.0,0.0,0.0,-0.0004233046784065664,0.00029173280927352607,-0.0017617098055779934,0.9998890161514282,0.0,0.0,0.0,-7.418414115905762,1.2308986186981201,4.499887466430664,1342.747802734375,0
366.7029999999995,0.001234377850778401,-0.009424077346920967,0.00010800050949910656,0.0,0.0,0.0,0.0,0.0035550910979509354,0.0013552522286772728,2.9530781830544583e-05,1.0000766515731812,0.0,0.0,0.0,-7.424184799194336,1.2347077131271362,4.497917175292969,1343.7923583984375,0
376.6180000000004,0.0012870122445747256,-0.009395483881235123,0.0001770402304828167,0.0,0.0,0.0,0.0,-0.00024184977519325912,0.0023405123502016068,0.005939720664173365,0.9991281628608704,0.0,0.0,0.0,-7.416386127471924,1.2301853895187378,4.49856424331665,1342.380615234375,0
386.52599999999984,0.0012515540001913905,-0.009446370415389538,0.00015982610057108104,0.0,0.0,0.0,0.0,0.0033105104230344296,0.0030481372959911823,-0.0001335315901087597,1.000112533569336,0.0,0.0,0.0,-7.419125080108643,1.2200901508331299,4.489110946655273,1342.87646484375,0
396.4359999999997,0.0012669021962210536,-0.009450538083910942,0.00020629422215279192,0.0,0.0,0.0,0.0,-0.0019307613838464022,-0.0005075529916211963,-0.004801399540156126,0.9999877214431763,0.0,0.0,0.0,-7.423759460449219,1.212790608406067,4.490227222442627,1343.71533203125,0
406.34599999999955,0.0012556801084429026,-0.009459668770432472,0.00016706301539670676,0.0,0.0,0.0,0.0,0.0010171207832172513,0.0026173111982643604,8.027283183764666e-05,1.0001194477081299,0.0,0.0,0.0,-7.416717529296875,1.2099807262420654,4.4852213859558105,1342.440673828125,0
416.2579999999998,0.0011980232084169984,-0.009486405178904533,0.00017372907313983887,0.0,0.0,0.0,0.0,-0.00034911191323772073,0.00040089149842970073,0.001127375289797783,1.0014746189117432,0.0,0.0,0.0,-7.418310642242432,1.2003953456878662,4.475010395050049,1342.72900390625,0
426.16699999999946,0.001243195845745504,-0.009405833669006824,8.535893721273169e-05,0.0,0.0,0.0,0.0,0.0010641819098964334,0.002003404311835766,-0.0013768426142632961,1.0010178089141846,0.0,0.0,0.0,-7.420055866241455,1.215059518814087,4.483287334442139,1343.0450439453125,0
436.0789999999997,0.0012177571188658476,-0.009442229755222797,9.294778283219784e-05,0.0,0.0,0.0,0.0,0.00022209079179447144,0.000819848501123488,-0.0055128438398242,1.0015723705291748,0.0,0.0,0.0,-7.422003269195557,1.2095438241958618,4.481575965881348,1343.3973388671875,0
445.996000000001,0.0011944426223635674,-0.009453854523599148,5.5332031479338184e-05,0.0,0.0,0.0,0.0,0.0017508859746158123,-0.0009070854284800589,-0.003069512080401182,1.0017338991165161,0.0,0.0,0.0,-7.422992706298828,1.2055684328079224,4.486342430114746,1343.576416015625,0
455.90200000000004,0.0011657977011054754,-0.009522893466055393,4.586641807691194e-05,0.0,0.0,0.0,0.0,-0.0017483398551121354,1.4114040823187679e-05,-0.0013728922931477427,1.0019168853759766,0.0,0.0,0.0,-7.428398132324219,1.1853488683700562,4.492623805999756,1344.554931640625,0
465.8209999999999,0.0011249152012169361,-0.009518375620245934,3.371460843482055e-05,0.0,0.0,0.0,0.0,0.0025188156869262457,0.0031151871662586927,0.0006638795020990074,1.0005171298980713,0.0,0.0,0.0,-7.429657459259033,1.1903430223464966,4.487350940704346,1344.7828369140625,0
475.72400000000016,0.0011369662825018167,-0.009577840566635132,4.242901559337042e-05,0.0,0.0,0.0,0.0,0.0018474465468898416,0.0001356384454993531,0.005801749881356955,1.0005462169647217,0.0,0.0,0.0,-7.428695201873779,1.1773903369903564,4.493618965148926,1344.608642578125,0
485.63800000000083,0.0011048855958506465,-0.00955367274582386,2.5737816031323746e-05,0.0,0.0,0.0,0.0,0.0002531310892663896,-0.003075728891417384,-0.000644067709799856,1.0000237226486206,0.0,0.0,0.0,-7.429410457611084,1.1878691911697388,4.493725776672363,1344.738037109375,0
495.54399999999987,0.0011522985296323895,-0.009646403603255749,2.8688335078186356e-05,0.0,0.0,0.0,0.0,-0.0008556938846595585,0.004085912834852934,-0.0006956241559237242,0.9981651902198792,0.0,0.0,0.0,-7.433430194854736,1.1650254726409912,4.516709804534912,1345.4656982421875,0
505.46299999999974,0.001134552527219057,-0.009584843181073666,4.765004177897936e-06,0.0,0.0,0.0,0.0,0.0007284379680640996,-0.0016182409599423409,0.0009348565363325179,1.000097632408142,0.0,0.0,0.0,-7.434299468994141,1.1810972690582275,4.511523246765137,1345.623046875,0
515.3649999999998,0.0011561884311959147,-0.009640972130000591,7.458269919879967e-06,0.0,0.0,0.0,0.0,-0.0023315437138080597,0.0027327165007591248,-0.001955924555659294,1.0023953914642334,0.0,0.0,0.0,-7.426729679107666,1.181565284729004,4.51251220703125,1344.2529296875,0
525.2849999999999,0.0010840418981388211,-0.00964768324047327,2.6005745894508436e-05,0.0,0.0,0.0,0.0,-0.0016168332658708096,0.002438171999529004,-0.0018898191628977656,1.0008718967437744,0.0,0.0,0.0,-7.431782245635986,1.1809484958648682,4.496118545532227,1345.1673583984375,0
535.1869999999999,0.0011484272545203567,-0.009749040007591248,2.4716589905438013e-05,0.0,0.0,0.0,0.0,0.0017990823835134506,-0.0005833911709487438,-0.0007939941715449095,1.0008567571640015,0.0,0.0,0.0,-7.425113677978516,1.1808481216430664,4.480050086975098,1343.9603271484375,0
545.1080000000002,0.0011040972312912345,-0.009737146086990833,1.7410022337571718e-05,0.0,0.0,0.0,0.0,-0.0008795933099463582,0.0015069071669131517,-0.00028744892915710807,1.0003752708435059,0.0,0.0,0.0,-7.4271650314331055,1.1789008378982544,4.483019828796387,1344.3316650390625,0
555.009,0.00109547667670995,-0.009830803610384464,5.205850811762502e-06,0.0,0.0,0.0,0.0,0.0029789006803184748,-0.0023086033761501312,0.0017116243252530694,1.0013333559036255,0.0,0.0,0.0,-7.429621696472168,1.1586534976959229,4.504671573638916,1344.7763671875,0
564.9349999999995,0.0011033153859898448,-0.009731332771480083,-3.562960046110675e-05,0.0,0.0,0.0,0.0,-0.0007073167362250388,0.0014137141406536102,-0.0007330994703806937,1.0017943382263184,0.0,0.0,0.0,-7.432888984680176,1.174337387084961,4.510555267333984,1345.36767578125,0
574.8299999999999,0.0011015291092917323,-0.009817460551857948,-4.685177555074915e-05,0.0,0.0,0.0,0.0,0.00025936029851436615,-0.004092759918421507,0.0034494304563850164,0.9987824559211731,0.0,0.0,0.0,-7.4342474937438965,1.1640387773513794,4.51406192779541,1345.613525390625,0
584.7489999999998,0.0011104893637821078,-0.009696596302092075,-8.165829058270901e-05,0.0,0.0,0.0,0.0,-0.001277600065805018,-0.0014065105933696032,-0.0026129481848329306,0.9991767406463623,0.0,0.0,0.0,-7.434434413909912,1.1820247173309326,4.5311455726623535,1345.6474609375,0
594.652,0.0010978739010170102,-0.009767427109181881,-9.579440666129813e-05,0.0,0.0,0.0,0.0,-0.0009716272470541298,-0.0019094737945124507,0.003731692908331752,1.0013751983642578,0.0,0.0,0.0,-7.4372944831848145,1.171688437461853,4.536584377288818,1346.1650390625,0
604.5730000000003,0.0010857407469302416,-0.009691412560641766,-0.00012584254727698863,0.0,0.0,0.0,0.0,0.001465285662561655,0.00019806920317932963,0.0013761647278442979,0.999500036239624,0.0,0.0,0.0,-7.437370300292969,1.1887328624725342,4.540421009063721,1346.178955078125,0
614.4740000000002,0.0010607362492009997,-0.009709297679364681,-0.00012819971016142517,0.0,0.0,0.0,0.0,-0.0009169553522951901,0.00014307961100712419,0.0009790371404960752,1.0001850128173828,0.0,0.0,0.0,-7.429867267608643,1.1906874179840088,4.534339904785156,1344.82080078125,0
624.3960000000006,0.0010519346687942743,-0.009614967741072178,-0.00016368029173463583,0.0,0.0,0.0,0.0,0.00013847662194166332,-0.0032578238751739264,-0.001157422550022602,0.9987726211547852,0.0,0.0,0.0,-7.430638313293457,1.2088820934295654,4.52437162399292,1344.96044921875,0
634.2960000000003,0.0010961779626086354,-0.009595637209713459,-0.0001279442512895912,0.0,0.0,0.0,0.0,-0.00011332581198075786,-0.002443611156195402,0.002499707043170929,1.0005388259887695,0.0,0.0,0.0,-7.4219651222229,1.209238886833191,4.524337291717529,1343.3905029296875,0
644.2129999999997,0.0010852987179532647,-0.009534360840916634,-0.00017383924569003284,0.0,0.0,0.0,0.0,-0.002600614447146654,-0.0004305029578972608,-0.0015218056505545974,0.9996725916862488,0.0,0.0,0.0,-7.421821594238281,1.22153902053833,4.536290645599365,1343.364501953125,0
654.1190000000006,0.0010551748564466834,-0.009514891542494297,-0.00016124671674333513,0.0,0.0,0.0,0.0,0.001123703201301396,-0.0005855854833498597,-0.0010829685488715768,0.9985658526420593,0.0,0.0,0.0,-7.428637981414795,1.223224401473999,4.539348125457764,1344.5982666015625,0
664.0400000000009,0.001036768197081983,-0.00945720262825489,-0.00019953132141381502,0.0,0.0,0.0,0.0,0.00230070180259645,-0.00047876150347292423,-0.0013452002312988043,1.0006089210510254,0.0,0.0,0.0,-7.431562900543213,1.2271932363510132,4.534140586853027,1345.127685546875,0
673.9400000000005,0.0010225408477708697,-0.009422839619219303,-0.00017742624913807958,0.0,0.0,0.0,0.0,0.001281891716644168,0.002456624759361148,-0.000646282103843987,1.0017670392990112,0.0,0.0,0.0,-7.434337139129639,1.2252440452575684,4.544297695159912,1345.6298828125,0
683.866,0.0010376088321208954,-0.009357012808322906,-0.0002567158080637455,0.0,0.0,0.0,0.0,-0.00039202251355163753,0.004900610540062189,-0.0059248944744467735,1.001617431640625,0.0,0.0,0.0,-7.4364447593688965,1.2355315685272217,4.544978618621826,1346.01123046875,0
693.764000000001,0.0009866574546322227,-0.009334377944469452,-0.00026567629538476467,0.0,0.0,0.0,0.0,0.0034312973730266094,0.001597907394170761,0.0035540948156267405,0.9996830821037292,0.0,0.0,0.0,-7.429971694946289,1.231410026550293,4.520866394042969,1344.8397216796875,0
703.6820000000007,0.0009360976982861757,-0.009378578513860703,-0.00030195974977687,0.0,0.0,0.0,0.0,-0.0009241091902367771,-0.003437720239162445,0.003521264297887683,0.998047947883606,0.0,0.0,0.0,-7.431251525878906,1.2019461393356323,4.506955623626709,1345.0712890625,0
713.5840000000007,0.0008835817570798099,-0.009360583499073982,-0.00031245313584804535,0.0,0.0,0.0,0.0,-0.0008255431894212961,0.003543883329257369,-0.0006434749229811132,0.9997200965881348,0.0,0.0,0.0,-7.422178268432617,1.2001234292984009,4.504077911376953,1343.4290771484375,0
723.5079999999998,0.0008464521379210055,-0.009396328590810299,-0.0003629852144513279,0.0,0.0,0.0,0.0,-0.0005194214172661304,-0.0035173550713807344,0.0024461359716951847,0.9999741911888123,0.0,0.0,0.0,-7.425537109375,1.1887062788009644,4.5080060958862305,1344.0369873046875,0
733.4070000000011,0.0010037404717877507,-0.009290342219173908,-0.00013740453869104385,0.0,0.0,0.0,0.0,0.00020551237685140222,0.0012274096952751279,-0.0012496501440182328,1.0008937120437622,0.0,0.0,0.0,-7.4314069747924805,1.2297992706298828,4.572390556335449,1345.099609375,0
743.3289999999997,0.000936547527089715,-0.009351314976811409,-0.00013676150410901755,0.0,0.0,0.0,0.0,0.0018275192705914378,-8.871476165950298e-05,-0.0015602319035679102,0.9989438652992249,0.0,0.0,0.0,-7.432461261749268,1.21428644657135,4.574831962585449,1345.290283203125,0
753.228000000001,0.0011159824207425117,-0.009264164604246616,1.4310553524410352e-05,0.0,0.0,0.0,0.0,-0.0012141871266067028,-0.002716404851526022,-0.008208386600017548,1.0009336471557617,0.0,0.0,0.0,-7.429040908813477,1.2345572710037231,4.608741283416748,1344.671142578125,0
763.1499999999996,0.0010652522323653102,-0.009351413697004318,-1.0615581231832039e-05,0.0,0.0,0.0,0.0,-0.0027148255612701178,-0.0006793145439587533,0.0012805742444470525,1.0022327899932861,0.0,0.0,0.0,-7.434258460998535,1.222144365310669,4.604435443878174,1345.61572265625,0
773.0490000000009,0.0011381027288734913,-0.009255362674593925,9.207960101775825e-05,0.0,0.0,0.0,0.0,0.00034466548822820187,0.0016932054422795773,0.0026027304120361805,1.0010685920715332,0.0,0.0,0.0,-7.425841808319092,1.2238351106643677,4.602325439453125,1344.0921630859375,0
782.9660000000003,0.0011030479799956083,-0.009294006042182446,7.251343049574643e-05,0.0,0.0,0.0,0.0,-0.0010519394418224692,-0.002390414709225297,0.002078882185742259,1.0008587837219238,0.0,0.0,0.0,-7.428883075714111,1.2160614728927612,4.588399887084961,1344.642578125,0
792.8719999999994,0.0011204591719433665,-0.00927720032632351,0.0001172708289232105,0.0,0.0,0.0,0.0,-0.0010978730861097574,-0.0006233033491298556,-0.0014793758746236563,0.9997374415397644,0.0,0.0,0.0,-7.421998977661133,1.2088245153427124,4.588376998901367,1343.3966064453125,0
802.7910000000011,0.0010544569231569767,-0.009350903332233429,0.00012514743139036,0.0,0.0,0.0,0.0,0.001806369866244495,-0.0007852966664358974,-0.0031417629215866327,0.999448835849762,0.0,0.0,0.0,-7.424081325531006,1.2064958810806274,4.5838799476623535,1343.7734375,0
812.6930000000011,0.0011062853736802936,-0.009428933262825012,0.00014507434389088303,0.0,0.0,0.0,0.0,-0.004074821714311838,0.0053844694048166275,0.0037848581559956074,1.0000100135803223,0.0,0.0,0.0,-7.430254936218262,1.1946202516555786,4.595842361450195,1344.8909912109375,0
822.6190000000006,0.0010296107502654195,-0.00951952114701271,0.00016051421698648483,0.0,0.0,0.0,0.0,-0.0025283547583967447,0.0010626177536323667,-0.0011487264418974519,1.0000561475753784,0.0,0.0,0.0,-7.423336982727051,1.1983541250228882,4.58711051940918,1343.6387939453125,0
832.5149999999994,0.001083187642507255,-0.009593677707016468,0.00018051089136861265,0.0,0.0,0.0,0.0,0.00036161631578579545,0.0004196705704089254,-0.0019118220079690218,1.0003798007965088,0.0,0.0,0.0,-7.4158806800842285,1.199434757232666,4.58602237701416,1342.2891845703125,0
842.4279999999999,0.0011155072133988142,-0.009540432132780552,0.00010802766337292269,0.0,0.0,0.0,0.0,-0.0006577061722055078,0.001510619418695569,0.0001356126886093989,1.002192497253418,0.0,0.0,0.0,-7.418773651123047,1.2120964527130127,4.580132007598877,1342.8128662109375,0
852.3360000000011,0.0011506120208650827,-0.009696146473288536,7.704241579631343e-05,0.0,0.0,0.0,0.0,-0.0023640466388314962,-0.002362011931836605,0.0006811260245740414,1.0019878149032593,0.0,0.0,0.0,-7.411570072174072,1.2071833610534668,4.571330547332764,1341.5089111328125,0
862.2520000000004,0.0011742748320102692,-0.009637832641601562,1.3147124263923615e-05,0.0,0.0,0.0,0.0,-0.0003981732006650418,0.0015268372371792793,0.0003563875216059387,0.9986077547073364,0.0,0.0,0.0,-7.415868282318115,1.221476674079895,4.581221580505371,1342.2869873046875,0
872.1579999999994,0.0011146353790536523,-0.009799083694815636,-5.720978515455499e-05,0.0,0.0,0.0,0.0,-0.0001472760777687654,-0.0023136010859161615,-0.0014316834276542068,1.000226616859436,0.0,0.0,0.0,-7.408163547515869,1.2209787368774414,4.578887462615967,1340.8922119140625,0
882.0720000000001,0.0011870430316776037,-0.009636287577450275,-0.00015599279140587896,0.0,0.0,0.0,0.0,-0.001456712489016354,-0.002930619055405259,-0.0008179370779544115,1.0009334087371826,0.0,0.0,0.0,-7.4099626541137695,1.2529104948043823,4.589078426361084,1341.2178955078125,0
891.9799999999996,0.0010351913515478373,-0.009795363061130047,-0.00026899517979472876,0.0,0.0,0.0,0.0,0.00146489089820534,0.0023935367353260517,0.0017355767777189612,1.0020684003829956,0.0,0.0,0.0,-7.401780605316162,1.253036379814148,4.585258960723877,1339.7369384765625,0
901.8940000000002,0.001053342130035162,-0.009669537656009197,-0.00033345434349030256,0.0,0.0,0.0,0.0,0.0016395838465541601,-0.0007442929781973362,-0.0030447097960859537,1.0011265277862549,0.0,0.0,0.0,-7.402430534362793,1.2731480598449707,4.592170238494873,1339.8546142578125,0
911.8070000000007,0.0009570903494022787,-0.009880593977868557,-0.00046125464723445475,0.0,0.0,0.0,0.0,0.0004495187313295901,0.00360139855183661,-0.0015181908383965492,0.9975786805152893,0.0,0.0,0.0,-7.397582054138184,1.228069543838501,4.587602138519287,1338.97705078125,0
921.7129999999997,0.0009774400386959314,-0.009699356742203236,-0.0005212922696955502,0.0,0.0,0.0,0.0,0.00015910566435195506,-0.004502216354012489,-0.0005554530071094632,0.9989469647407532,0.0,0.0,0.0,-7.401895999908447,1.2598166465759277,4.578704833984375,1339.7578125,0
931.6229999999996,0.0009204894886352122,-0.009697805158793926,-0.0005509057082235813,0.0,0.0,0.0,0.0,0.0015380895929411054,0.0025024462956935167,-0.0031544624362140894,1.0000793933868408,0.0,0.0,0.0,-7.3944411277771,1.2587863206863403,4.588498592376709,1338.4085693359375,0
941.5349999999999,0.0008875192143023014,-0.009614299051463604,-0.0005869000451639295,0.0,0.0,0.0,0.0,-0.003125882474705577,0.0016745338216423988,0.00240688887424767,1.0013277530670166,0.0,0.0,0.0,-7.3992919921875,1.2811205387115479,4.588614463806152,1339.2864990234375,0
951.4449999999997,0.0009192104917019606,-0.00988983828574419,-0.0007355232373811305,0.0,0.0,0.0,0.0,0.0005116715328767896,0.005398537963628769,-0.0019984932150691748,1.0020956993103027,0.0,0.0,0.0,-7.398605823516846,1.2179749011993408,4.606212615966797,1339.162353515625,0
961.3559999999998,0.0008683362975716591,-0.00978713110089302,-0.0007330428925342858,0.0,0.0,0.0,0.0,0.0032862492371350527,0.005784368142485619,-0.002295952057465911,1.0012460947036743,0.0,0.0,0.0,-7.403788089752197,1.2437474727630615,4.593528747558594,1340.100341796875,0
971.2669999999998,0.0009343804558739066,-0.009965095669031143,-0.0008079527760855854,0.0,0.0,0.0,0.0,-0.0006053687538951635,0.004146540071815252,-0.004916150122880936,1.0009595155715942,0.0,0.0,0.0,-7.396329402923584,1.2415270805358887,4.582666873931885,1338.750244140625,0
981.1779999999999,0.0008855066844262183,-0.009865155443549156,-0.0008077608072198927,0.0,0.0,0.0,0.0,0.0022768937051296234,0.003394590225070715,0.0036719199270009995,0.999072253704071,0.0,0.0,0.0,-7.399141788482666,1.2601653337478638,4.56019401550293,1339.2593994140625,0
991.0930000000008,0.0009600524208508432,-0.010003698989748955,-0.0008535241358913481,0.0,0.0,0.0,0.0,-0.0008803633973002434,-0.005218657664954662,-0.0006380842532962561,0.9991978406906128,0.0,0.0,0.0,-7.398244380950928,1.2390316724777222,4.5758185386657715,1339.0970458984375,0
1000.9989999999998,0.0009120515314862132,-0.009872214868664742,-0.0008398763020522892,0.0,0.0,0.0,0.0,0.0025034137070178986,-0.0008068191818892956,-0.004224614705890417,1.0008597373962402,0.0,0.0,0.0,-7.3990349769592285,1.266052007675171,4.569589614868164,1339.239990234375,0
1010.9110000000001,0.0008590486249886453,-0.009877050295472145,-0.000869586830958724,0.0,0.0,0.0,0.0,0.0003606072277761996,0.0009061602177098393,0.0006080899620428681,1.0012283325195312,0.0,0.0,0.0,-7.392872333526611,1.2603821754455566,4.56327486038208,1338.12451171875,0
1020.8220000000001,0.0007952102459967136,-0.00972941517829895,-0.0008358432678505778,0.0,0.0,0.0,0.0,-0.001348487101495266,-0.00045840718667022884,0.001959402346983552,1.0032025575637817,0.0,0.0,0.0,-7.3967180252075195,1.2991200685501099,4.552034378051758,1338.8206787109375,0
1030.732,0.0010288739576935768,-0.009801113046705723,-0.0007344699697569013,0.0,0.0,0.0,0.0,-0.0012256758054718375,-0.006075958721339703,0.002897396218031645,1.0037157535552979,0.0,0.0,0.0,-7.388917922973633,1.2871915102005005,4.619508743286133,1337.4088134765625,0
1040.652,0.0009623599471524358,-0.009714947082102299,-0.0006842772127129138,0.0,0.0,0.0,0.0,-0.002654720563441515,8.511853229720145e-05,-0.0017490113386884332,1.002817988395691,0.0,0.0,0.0,-7.3918986320495605,1.3052077293395996,4.616420745849609,1337.9483642578125,0
1050.5599999999995,0.0011863911058753729,-0.009681755676865578,-0.0005537922843359411,0.0,0.0,0.0,0.0,0.0009241357911378145,0.0004291126097086817,-0.002743807155638933,1.0006710290908813,0.0,0.0,0.0,-7.38244104385376,1.320717215538025,4.653442859649658,1336.236572265625,0
1060.4660000000003,0.0011312003480270505,-0.009647694416344166,-0.0005136748077347875,0.0,0.0,0.0,0.0,0.0017558973049744964,-0.0012431470677256584,0.0014636742416769266,0.9987589120864868,0.0,0.0,0.0,-7.388893127441406,1.321899175643921,4.657162666320801,1337.404296875,0
1070.3790000000008,0.0012459635036066175,-0.009537859819829464,-0.000377315329387784,0.0,0.0,0.0,0.0,-0.001543136197142303,-0.00250926217995584,-0.0008637604769319296,0.9991579651832581,0.0,0.0,0.0,-7.391027450561523,1.3380813598632812,4.662942409515381,1337.7906494140625,0
1080.2880000000005,0.0012273684842512012,-0.009481366723775864,-0.0003704703995026648,0.0,0.0,0.0,0.0,0.0031891376711428165,-0.0014665178023278713,0.001715556951239705,1.0005428791046143,0.0,0.0,0.0,-7.39453649520874,1.3494813442230225,4.665343284606934,1338.42578125,0
1090.1980000000003,0.0011845125118270516,-0.009464574977755547,-0.00034715794026851654,0.0,0.0,0.0,0.0,0.005569175351411104,-0.0031282745767384768,-0.0008638398721814156,1.001495122909546,0.0,0.0,0.0,-7.387289524078369,1.3477022647857666,4.67757511138916,1337.114013671875,0
1100.1090000000004,0.0011668727966025472,-0.00941515900194645,-0.0003495479468256235,0.0,0.0,0.0,0.0,-0.0006955416756682098,-0.004319822881370783,0.002101097023114562,1.0033438205718994,0.0,0.0,0.0,-7.390063762664795,1.3571795225143433,4.68068265914917,1337.6162109375,0
1110.0200000000004,0.0013041135389357805,-0.00920235738158226,-9.005335596157238e-05,0.0,0.0,0.0,0.0,-0.0023659958969801664,0.0005699771572835743,-0.006834923755377531,1.0005156993865967,0.0,0.0,0.0,-7.385473728179932,1.3961384296417236,4.705325126647949,1336.785400390625,0
1119.9310000000005,0.001224073930643499,-0.00927784014493227,-2.97093629342271e-05,0.0,0.0,0.0,0.0,-0.0001235735253430903,-0.00021235043823253363,-0.00019136018818244338,0.9970847368240356,0.0,0.0,0.0,-7.388239860534668,1.3754535913467407,4.690659523010254,1337.2861328125,0
1129.8510000000006,0.0013876095181331038,-0.009111065417528152,0.00018768773588817567,0.0,0.0,0.0,0.0,-0.004909856710582972,0.001427556504495442,0.0021831532940268517,0.9990657567977905,0.0,0.0,0.0,-7.393441200256348,1.4041348695755005,4.724154472351074,1338.2275390625,0
1139.7540000000008,0.001310964347794652,-0.009228188544511795,0.0002405231789452955,0.0,0.0,0.0,0.0,-0.0016702355351299047,-0.00044761289609596133,-0.00027429923648014665,1.0016179084777832,0.0,0.0,0.0,-7.396387577056885,1.386057734489441,4.716880798339844,1338.7608642578125,0
1149.666000000001,0.001273907721042633,-0.009198896586894989,0.00029796030139550567,0.0,0.0,0.0,0.0,0.0018167931120842695,0.0016517008189111948,-0.00018356184591539204,1.0000160932540894,0.0,0.0,0.0,-7.388953685760498,1.386508822441101,4.719934940338135,1337.415283203125,0
1159.5820000000003,0.0012599785113707185,-0.009279881604015827,0.00028711772756651044,0.0,0.0,0.0,0.0,0.0009463309543207288,-0.0014330376870930195,-0.0005335526657290757,0.999024510383606,0.0,0.0,0.0,-7.390838146209717,1.3671607971191406,4.722314834594727,1337.75634765625,0
1169.4860000000008,0.0012224180391058326,-0.009255846962332726,0.00034022098407149315,0.0,0.0,0.0,0.0,0.0023672510869801044,-0.0043691243045032024,0.003827009815722704,1.000370979309082,0.0,0.0,0.0,-7.3843536376953125,1.361183524131775,4.720184326171875,1336.582763671875,0
1179.3989999999994,0.0012007183395326138,-0.009341001510620117,0.00033574196277186275,0.0,0.0,0.0,0.0,0.0019260530825704336,-0.00032032979652285576,-0.0005576180992648005,0.9998000860214233,0.0,0.0,0.0,-7.388703346252441,1.331628680229187,4.7344746589660645,1337.3701171875,0
1189.313,0.0011618457501754165,-0.009322099387645721,0.0003843067097477615,0.0,0.0,0.0,0.0,0.0020800295751541853,-0.0002377007040195167,0.0012928011128678918,0.9987612962722778,0.0,0.0,0.0,-7.3809967041015625,1.3322463035583496,4.730043411254883,1335.9752197265625,0
1199.219000000001,0.0011553767835721374,-0.009391802363097668,0.0003583883517421782,0.0,0.0,0.0,0.0,0.0002484443539287895,-0.001112719182856381,0.0026126462034881115,0.9987053871154785,0.0,0.0,0.0,-7.384179592132568,1.30183744430542,4.744339942932129,1336.5511474609375,0
1209.130000000001,0.0011189503129571676,-0.009379263035953045,0.00040000828448683023,0.0,0.0,0.0,0.0,-0.0016813958063721657,0.0022787866182625294,-0.000180057279067114,0.9992589354515076,0.0,0.0,0.0,-7.375883102416992,1.3038475513458252,4.748958587646484,1335.0494384765625,0
1219.041000000001,0.001134541817009449,-0.009473057463765144,0.0003393036895431578,0.0,0.0,0.0,0.0,0.0017680079909041524,0.0021658570040017366,-0.0023781645577400923,0.9998875856399536,0.0,0.0,0.0,-7.377594470977783,1.2750062942504883,4.766358375549316,1335.359375,0
1228.951000000001,0.0011034294730052352,-0.009468353353440762,0.0003718720399774611,0.0,0.0,0.0,0.0,-0.0005192288663238287,-0.003610054263845086,0.0013066100655123591,1.0011823177337646,0.0,0.0,0.0,-7.370319366455078,1.2634694576263428,4.762483596801758,1334.04248046875,0
1238.8649999999998,0.0010711639188230038,-0.009464590810239315,0.00040477054426446557,0.0,0.0,0.0,0.0,-0.0016167726134881377,-0.003974933177232742,-0.0038617427926510572,0.9999232888221741,0.0,0.0,0.0,-7.361858367919922,1.2600698471069336,4.765475273132324,1332.510986328125,0
1248.773000000001,0.0010377838043496013,-0.009461687877774239,0.00043847638880833983,0.0,0.0,0.0,0.0,-0.0004886036622337997,0.000942109851166606,-0.0011870175367221236,0.9974187612533569,0.0,0.0,0.0,-7.354543209075928,1.265113115310669,4.775185585021973,1331.18701171875,0
1258.6859999999997,0.0011488617165014148,-0.009469668380916119,0.00031097541796043515,0.0,0.0,0.0,0.0,-0.00026421190705150366,-0.001034261891618371,-0.002934598596766591,0.999787449836731,0.0,0.0,0.0,-7.361355304718018,1.2793222665786743,4.825214385986328,1332.419921875,0
1268.6049999999996,0.0011259425664320588,-0.009464520961046219,0.0003308612504042685,0.0,0.0,0.0,0.0,0.0022050817497074604,0.0032082682009786367,0.000928616093005985,1.0023247003555298,0.0,0.0,0.0,-7.354207515716553,1.285449504852295,4.833066940307617,1331.1260986328125,0
1278.505000000001,0.0011609657667577267,-0.009487643837928772,0.0002812361344695091,0.0,0.0,0.0,0.0,0.0005556905525736511,0.0034906386863440275,0.00030378694646060467,1.0024220943450928,0.0,0.0,0.0,-7.3608622550964355,1.2734822034835815,4.852641582489014,1332.3306884765625,0
1288.4220000000005,0.0011437522480264306,-0.009481568820774555,0.0002981169964186847,0.0,0.0,0.0,0.0,-0.0016943509690463543,-0.0025166489649564028,0.001840019365772605,1.0026161670684814,0.0,0.0,0.0,-7.354323863983154,1.2711776494979858,4.841430187225342,1331.147216796875,0
1298.3270000000011,0.00121227593626827,-0.00949109997600317,0.00023280098685063422,0.0,0.0,0.0,0.0,-0.0021920984145253897,-0.0006912466487847269,0.004373848903924227,0.9999383687973022,0.0,0.0,0.0,-7.354777812957764,1.2753257751464844,4.868252277374268,1331.2294921875,0
1308.2479999999996,0.0012007829500362277,-0.009482832625508308,0.00024810046306811273,0.0,0.0,0.0,0.0,0.000630740134511143,-0.00444189365953207,0.000568329356610775,1.0004926919937134,0.0,0.0,0.0,-7.347874641418457,1.2719783782958984,4.857602596282959,1329.97998046875,0
1318.1509999999998,0.0012574347201734781,-0.00949917733669281,0.0001939857902470976,0.0,0.0,0.0,0.0,0.0006886286428198218,0.002311777789145708,0.00020840739307459444,1.0016642808914185,0.0,0.0,0.0,-7.358184814453125,1.2700988054275513,4.8842453956604,1331.8460693359375,0
1328.0650000000005,0.0012484756298363209,-0.009494703263044357,0.00020508913439698517,0.0,0.0,0.0,0.0,-0.004182472825050354,-0.0032769094686955214,0.000829436001367867,1.0018255710601807,0.0,0.0,0.0,-7.349943161010742,1.2727720737457275,4.874178886413574,1330.354248046875,0
1337.9750000000004,0.00123827182687819,-0.009491871111094952,0.0002179039001930505,0.0,0.0,0.0,0.0,0.00119122548494488,-0.005276710260659456,-0.0014728123787790537,1.0005159378051758,0.0,0.0,0.0,-7.343498706817627,1.2720369100570679,4.87355899810791,1329.1878662109375,0
1347.8909999999996,0.0012265131808817387,-0.009490086697041988,0.0002326098328921944,0.0,0.0,0.0,0.0,0.003444896312430501,0.0007124431431293488,0.00045580233563669026,1.0009151697158813,0.0,0.0,0.0,-7.3351616859436035,1.2727079391479492,4.869325160980225,1327.6788330078125,0
1357.800000000001,0.0012133923592045903,-0.009489620104432106,0.00024806041619740427,0.0,0.0,0.0,0.0,0.0012047585332766175,0.0032435525208711624,-0.0004188544407952577,1.0018779039382935,0.0,0.0,0.0,-7.327671527862549,1.2656290531158447,4.859045028686523,1326.3232421875,0
1367.7129999999997,0.0011995509266853333,-0.009489689953625202,0.0002646596694830805,0.0,0.0,0.0,0.0,-0.001799806603230536,-0.004954870790243149,0.004575288854539394,1.0007026195526123,0.0,0.0,0.0,-7.319393157958984,1.2619318962097168,4.857425689697266,1324.82470703125,0
1377.6139999999996,0.0011830776929855347,-0.009488056413829327,0.00028487303643487394,0.0,0.0,0.0,0.0,0.0009552882984280586,0.0005822929670102894,0.0009755215141922235,1.0011202096939087,0.0,0.0,0.0,-7.310803413391113,1.2613860368728638,4.865232944488525,1323.27001953125,0
1387.5329999999994,0.00104021024890244,-0.009801729582250118,-0.00020361387578304857,0.0,0.0,0.0,0.0,0.00017340767954010516,-0.0036685143131762743,0.0027045723982155323,1.0021790266036987,0.0,0.0,0.0,-7.318953514099121,1.154974102973938,4.866060256958008,1324.7451171875,0
1397.4439999999995,0.001019028713926673,-0.009822682477533817,-0.0002089101617457345,0.0,0.0,0.0,0.0,-0.002669502981007099,0.0029481262899935246,0.00397759024053812,1.002035140991211,0.0,0.0,0.0,-7.31129789352417,1.155705213546753,4.866224765777588,1323.3594970703125,0
1407.3600000000006,0.000998301082290709,-0.009844821877777576,-0.0002119513665093109,0.0,0.0,0.0,0.0,0.00012319738743826747,-0.002558792009949684,-0.0006632734439335763,1.0018943548202515,0.0,0.0,0.0,-7.302811622619629,1.1536113023757935,4.860823631286621,1321.823486328125,0
1417.2610000000004,0.0009773635538294911,-0.009868714027106762,-0.0002126779145328328,0.0,0.0,0.0,0.0,0.0009230493451468647,0.0009803081629797816,0.000726373225916177,1.000213384628296,0.0,0.0,0.0,-7.294772148132324,1.1517577171325684,4.85721492767334,1320.368408203125,0
1427.1800000000003,0.0009142226772382855,-0.009880000725388527,-0.00021229831327218562,0.0,0.0,0.0,0.0,-0.0012593636056408286,0.0019482225179672241,0.0020688639488071203,1.0007708072662354,0.0,0.0,0.0,-7.310625076293945,1.1499900817871094,4.845266819000244,1323.2376708984375,0
1437.08,0.0008890052558854222,-0.009905939921736717,-0.0002111407375195995,0.0,0.0,0.0,0.0,-0.0013396778376773,-4.930828799842857e-05,-0.0031524174846708775,0.9999008178710938,0.0,0.0,0.0,-7.303060054779053,1.1429085731506348,4.835322856903076,1321.868408203125,0
1447.005000000001,0.0008251832914538682,-0.009851965121924877,-0.00013255908561404794,0.0,0.0,0.0,0.0,0.00033898791298270226,-0.0020573928486555815,0.003759523155167699,0.9994969367980957,0.0,0.0,0.0,-7.319964408874512,1.1752487421035767,4.818583965301514,1324.9281005859375,0
1456.902,0.0007956763147376478,-0.009874913841485977,-0.00012584331852849573,0.0,0.0,0.0,0.0,-2.991523979289923e-05,0.006031843367964029,-0.0015516227576881647,1.0009952783584595,0.0,0.0,0.0,-7.310450077056885,1.17179274559021,4.815648078918457,1323.2060546875,0
1466.826000000001,0.0008601260487921536,-0.009809086099267006,-3.148294490529224e-05,0.0,0.0,0.0,0.0,-0.0009544838685542345,-0.001909942366182804,0.002372885122895241,1.0023984909057617,0.0,0.0,0.0,-7.313573360443115,1.2058112621307373,4.817564487457275,1323.7713623046875,0
1476.7240000000002,0.0008319136104546487,-0.009826194494962692,-1.6849015082698315e-05,0.0,0.0,0.0,0.0,-0.0010488582774996758,-0.003178240032866597,-0.0029381143394857645,1.0013772249221802,0.0,0.0,0.0,-7.307102680206299,1.2075501680374146,4.805963516235352,1322.6002197265625,0
1486.643,0.0009226530673913658,-0.00975703913718462,7.737123087281361e-05,0.0,0.0,0.0,0.0,0.0009332761401310563,0.001478907885029912,-0.002324922475963831,1.0039911270141602,0.0,0.0,0.0,-7.307656764984131,1.2455335855484009,4.817142963409424,1322.700439453125,0
1496.5470000000005,0.0008931018528528512,-0.0097691984847188,0.00010305623436579481,0.0,0.0,0.0,0.0,-0.0014235239941626787,0.0018848134204745293,0.0008904684218578041,1.0002144575119019,0.0,0.0,0.0,-7.300298690795898,1.2433040142059326,4.816335678100586,1321.36865234375,0
1506.4660000000003,0.0009497591527178884,-0.00973125733435154,0.00017695905989967287,0.0,0.0,0.0,0.0,-0.0020065491553395987,0.0012437381083145738,0.001513930968940258,0.9997532963752747,0.0,0.0,0.0,-7.2921247482299805,1.2446717023849487,4.805280685424805,1319.8890380859375,0
1516.3680000000004,0.0009191407007165253,-0.009741738438606262,0.00021116601419635117,0.0,0.0,0.0,0.0,0.0030634866561740637,0.0019721505232155323,1.1838227692351211e-05,1.0003541707992554,0.0,0.0,0.0,-7.284259796142578,1.2341163158416748,4.8050312995910645,1318.4654541015625,0
1526.2880000000005,0.0008870342862792313,-0.009751773439347744,0.0002453411871101707,0.0,0.0,0.0,0.0,-0.002739756368100643,0.0057285986840724945,-0.0018673541489988565,1.0007717609405518,0.0,0.0,0.0,-7.276352882385254,1.2332184314727783,4.794764041900635,1317.0343017578125,0
1536.1890000000003,0.0008520245901308954,-0.009760826826095581,0.00028011834365315735,0.0,0.0,0.0,0.0,0.0023595381062477827,0.005718278232961893,-0.003602334763854742,1.000493049621582,0.0,0.0,0.0,-7.268540859222412,1.2375742197036743,4.778703212738037,1315.620361328125,0
1546.121000000001,0.0008140915888361633,-0.009769757278263569,0.0003158108738716692,0.0,0.0,0.0,0.0,0.0014887379948049784,-0.0011526880552992225,-0.0006429044879041612,0.9989926218986511,0.0,0.0,0.0,-7.262921333312988,1.2404276132583618,4.763399124145508,1314.6031494140625,0
1556.0120000000006,0.0007751545635983348,-0.00977888610213995,0.0003516535216476768,0.0,0.0,0.0,0.0,-0.0006976511795073748,0.0012556399451568723,-0.003563903970643878,1.0008798837661743,0.0,0.0,0.0,-7.2566819190979,1.23976469039917,4.751101016998291,1313.473876953125,0
1565.9320000000007,0.0009635849855840206,-0.009799486957490444,0.00042826181743294,0.0,0.0,0.0,0.0,-0.0012979566818103194,-0.005059228278696537,-0.00031965126981958747,0.9986324906349182,0.0,0.0,0.0,-7.253756046295166,1.2367041110992432,4.844301700592041,1312.9443359375,0
1575.8330000000005,0.0010777536081150174,-0.009482813067734241,-0.00015205582894850522,0.0,0.0,0.0,0.0,-0.000995527720078826,-0.004795157350599766,-0.0009751201141625643,0.9988875985145569,0.0,0.0,0.0,-7.269233226776123,1.3061250448226929,4.863264560699463,1315.74560546875,0
1585.755000000001,0.0011376859620213509,-0.009511350654065609,-0.00010263764124829322,0.0,0.0,0.0,0.0,-0.0007558610523119569,0.0004274339589755982,0.002680942416191101,1.001569390296936,0.0,0.0,0.0,-7.261483669281006,1.3064532279968262,4.862300395965576,1314.3428955078125,0
1595.6550000000007,0.0011339284246787429,-0.00948516745120287,-0.00012451282236725092,0.0,0.0,0.0,0.0,0.0007272494258359075,0.006897175684571266,0.0005451886099763215,1.0002115964889526,0.0,0.0,0.0,-7.273011207580566,1.3115530014038086,4.866846561431885,1316.429443359375,0
1605.576000000001,0.0011822017841041088,-0.009561404585838318,-0.00012021423754049465,0.0,0.0,0.0,0.0,0.003207409754395485,0.0020575167145580053,0.0015067490749061108,1.000655174255371,0.0,0.0,0.0,-7.26609468460083,1.3030980825424194,4.846790313720703,1315.1776123046875,0
1615.478000000001,0.0012108401861041784,-0.009515730664134026,-0.00017849638243205845,0.0,0.0,0.0,0.0,0.00031773708178661764,-0.005186592694371939,-0.0011721740011125803,1.0000845193862915,0.0,0.0,0.0,-7.278415679931641,1.3106799125671387,4.846461772918701,1317.40771484375,0
1625.402,0.0011254673590883613,-0.009643305093050003,-0.00025506308884359896,0.0,0.0,0.0,0.0,0.0035873299930244684,0.005428279750049114,0.0007269440102390945,0.9999318718910217,0.0,0.0,0.0,-7.288580894470215,1.2994238138198853,4.843746185302734,1319.24755859375,0
1635.2980000000007,0.0011648404179140925,-0.00955327320843935,-0.00030926024192012846,0.0,0.0,0.0,0.0,-0.0023754434660077095,0.0012589244870468974,0.0033039390109479427,1.0038866996765137,0.0,0.0,0.0,-7.301110744476318,1.308885097503662,4.834507465362549,1321.515625,0
1645.2219999999998,0.001137918676249683,-0.009645060636103153,-0.00034998581395484507,0.0,0.0,0.0,0.0,-0.00016633303312119097,0.0028712947387248278,0.0014532596105709672,1.0014865398406982,0.0,0.0,0.0,-7.30124044418335,1.299494981765747,4.820836067199707,1321.5391845703125,0
1655.1200000000008,0.0011235635029152036,-0.00961074698716402,-0.0003520280006341636,0.0,0.0,0.0,0.0,0.0003966831718571484,5.743700239690952e-05,-0.0006079387967474759,1.0020250082015991,0.0,0.0,0.0,-7.306780815124512,1.3087314367294312,4.814154148101807,1322.5418701171875,0
1665.0370000000003,0.0011003430699929595,-0.009754796512424946,-0.0004112969618290663,0.0,0.0,0.0,0.0,-0.002393026603385806,0.0049390350468456745,0.0015705997357144952,1.0010762214660645,0.0,0.0,0.0,-7.310388565063477,1.288090467453003,4.812536716461182,1323.19482421875,0
1674.9430000000011,0.0010961752850562334,-0.009694182313978672,-0.0004214556247461587,0.0,0.0,0.0,0.0,-0.0021929098293185234,0.0007450188277289271,-0.0005775837926194072,0.999045193195343,0.0,0.0,0.0,-7.321195602416992,1.301027774810791,4.80617094039917,1325.15087890625,0
1684.866,0.0010802359320223331,-0.009837483987212181,-0.0004749950021505356,0.0,0.0,0.0,0.0,-0.0017735987203195691,-0.0015183613868430257,-0.0002901970874518156,0.9992715120315552,0.0,0.0,0.0,-7.3313751220703125,1.2927320003509521,4.806454658508301,1326.9935302734375,0
1694.764000000001,0.0010628888849169016,-0.009747450239956379,-0.0004627422022167593,0.0,0.0,0.0,0.0,0.0006551995757035911,0.004001416731625795,0.00012022900773445144,1.0011495351791382,0.0,0.0,0.0,-7.342295169830322,1.306227445602417,4.804809093475342,1328.969970703125,0
1704.684000000001,0.0010886925738304853,-0.009857000783085823,-0.0004978712531737983,0.0,0.0,0.0,0.0,-0.0007271337090060115,-0.004477319773286581,-3.411513171158731e-05,0.9994585514068604,0.0,0.0,0.0,-7.33560848236084,1.2982800006866455,4.7895073890686035,1327.7596435546875,0
1714.5869999999995,0.0010468753753229976,-0.009792319498956203,-0.00046513910638168454,0.0,0.0,0.0,0.0,-0.0008298922330141068,-0.00041737325955182314,-0.000545932853128761,1.0017998218536377,0.0,0.0,0.0,-7.344382286071777,1.3130701780319214,4.788748264312744,1329.3477783203125,0
1724.5120000000006,0.0010283779120072722,-0.009843576699495316,-0.0004825683427043259,0.0,0.0,0.0,0.0,-0.0004341930616647005,0.010795101523399353,-0.0005997635889798403,1.000842809677124,0.0,0.0,0.0,-7.3362274169921875,1.3082728385925293,4.795065402984619,1327.8717041015625,0
1734.4099999999999,0.000976826180703938,-0.009806070476770401,-0.00044485487160272896,0.0,0.0,0.0,0.0,0.0007390545797534287,-0.004171636421233416,0.006145663559436798,0.999504029750824,0.0,0.0,0.0,-7.343891620635986,1.3163259029388428,4.778054237365723,1329.2589111328125,0
1744.326000000001,0.0009754492784850299,-0.009818870574235916,-0.00043246475979685783,0.0,0.0,0.0,0.0,0.002679598517715931,-0.0005982465809211135,0.0008668724331073463,0.9994231462478638,0.0,0.0,0.0,-7.341429233551025,1.3152070045471191,4.777493476867676,1328.813232421875,0
1754.232,0.0009722631657496095,-0.009705821983516216,-0.00042925248271785676,0.0,0.0,0.0,0.0,-0.000250159646384418,0.002082133200019598,-0.0032788021489977837,1.0014450550079346,0.0,0.0,0.0,-7.34840726852417,1.321251392364502,4.77074670791626,1330.0762939453125,0
1764.1540000000005,0.0009311931789852679,-0.009733552113175392,-0.00043621830991469324,0.0,0.0,0.0,0.0,0.0016707921167835593,-1.957131280505564e-05,-0.0004863865324296057,1.002414345741272,0.0,0.0,0.0,-7.350076198577881,1.323198914527893,4.76882266998291,1330.3782958984375,0
1774.0519999999997,0.0009038414573296905,-0.009668945334851742,-0.00042732685687951744,0.0,0.0,0.0,0.0,-0.0030794660560786724,-0.001545727252960205,0.0013651116751134396,1.0032466650009155,0.0,0.0,0.0,-7.3584065437316895,1.3246923685073853,4.770623207092285,1331.88623046875,0
1783.9740000000002,0.000994027592241764,-0.00967845693230629,-0.0003733499033842236,0.0,0.0,0.0,0.0,0.0015627791872248054,-0.00157632096670568,-0.00171057996340096,1.0012134313583374,0.0,0.0,0.0,-7.350627899169922,1.322381854057312,4.771679401397705,1330.4781494140625,0
1793.8729999999996,0.0009625477832742035,-0.00965398270636797,-0.0003671909507829696,0.0,0.0,0.0,0.0,0.0011441030073910952,0.0008708071545697749,-0.0006112480768933892,0.9996337294578552,0.0,0.0,0.0,-7.3543620109558105,1.3295502662658691,4.772822856903076,1331.1541748046875,0
1803.7929999999997,0.0009786414448171854,-0.009655009023845196,-0.00032491880119778216,0.0,0.0,0.0,0.0,0.0005530706839635968,-0.004017879255115986,0.002119451528415084,0.9998162984848022,0.0,0.0,0.0,-7.360445499420166,1.329319715499878,4.771811008453369,1332.25537109375,0
1813.701000000001,0.0009964571800082922,-0.009548252448439598,-0.00035166353336535394,0.0,0.0,0.0,0.0,-0.000569312134757638,0.003378594061359763,-0.002685995539650321,0.9997283816337585,0.0,0.0,0.0,-7.366934776306152,1.3469182252883911,4.771485328674316,1333.429931640625,0
1823.6190000000006,0.0011218251893296838,-0.009551208466291428,-0.00027537450660020113,0.0,0.0,0.0,0.0,-0.004197163041681051,-0.010815802030265331,0.005765936803072691,0.9989836812019348,0.0,0.0,0.0,-7.372838973999023,1.3520736694335938,4.790289878845215,1334.4986572265625,0
1833.518,0.001143401488661766,-0.009464236907660961,-0.0003109473327640444,0.0,0.0,0.0,0.0,0.0027829897589981556,0.002562924288213253,-0.002130358014255762,0.9992992877960205,0.0,0.0,0.0,-7.375309467315674,1.3692033290863037,4.80684232711792,1334.9456787109375,0
1843.4349999999995,0.0012293554609641433,-0.009374812245368958,-0.0002130240754922852,0.0,0.0,0.0,0.0,-0.001498945988714695,0.0055622681975364685,-0.00042322551598772407,0.9992905259132385,0.0,0.0,0.0,-7.368282318115234,1.3675100803375244,4.810730457305908,1333.673828125,0
1853.339,0.0011965950252488256,-0.009382758289575577,-0.00021173192362766713,0.0,0.0,0.0,0.0,-0.00021432079665828496,0.0004544024704955518,0.0015360296238213778,0.9997643828392029,0.0,0.0,0.0,-7.3722076416015625,1.3689671754837036,4.799556255340576,1334.3843994140625,0
1863.2630000000008,0.0013131523737683892,-0.00931310560554266,-0.00010656553786247969,0.0,0.0,0.0,0.0,-0.002212255960330367,-0.001040458562783897,-0.0015563948545604944,0.999714195728302,0.0,0.0,0.0,-7.37222146987915,1.3801642656326294,4.816255569458008,1334.38671875,0
1873.161,0.001235709059983492,-0.009403510950505733,-6.918433064129204e-05,0.0,0.0,0.0,0.0,-0.001071036560460925,0.005257918033748865,0.001405823277309537,0.9991823434829712,0.0,0.0,0.0,-7.377058982849121,1.3706697225570679,4.812144756317139,1335.2623291015625,0
1883.0779999999995,0.0013639136450365186,-0.009335563518106937,4.3986583477817476e-05,0.0,0.0,0.0,0.0,-0.0013190371682867408,9.553818381391466e-05,-0.0022282099816948175,0.9995816349983215,0.0,0.0,0.0,-7.369529724121094,1.3695658445358276,4.804345607757568,1333.8995361328125,0
1892.9830000000002,0.001305595738813281,-0.009391482919454575,7.679109694436193e-05,0.0,0.0,0.0,0.0,-0.003050943836569786,0.0026040764059871435,0.008864574134349823,1.0005189180374146,0.0,0.0,0.0,-7.373708724975586,1.3571555614471436,4.806032657623291,1334.656005859375,0
1902.907000000001,0.0013825121568515897,-0.00933635700494051,0.000173295964486897,0.0,0.0,0.0,0.0,-0.001921938732266426,-0.00437362864613533,-0.0013740601716563106,1.0009766817092896,0.0,0.0,0.0,-7.365983963012695,1.3593394756317139,4.795583724975586,1333.2578125,0
1912.8099999999995,0.0013534452300518751,-0.009365897625684738,0.00018358448869548738,0.0,0.0,0.0,0.0,-0.0004833716666325927,0.003911860287189484,-0.0037840064615011215,1.0026488304138184,0.0,0.0,0.0,-7.370010852813721,1.3511759042739868,4.797852993011475,1333.9866943359375,0
1922.732,0.0014202197780832648,-0.00926091056317091,0.00030472796061076224,0.0,0.0,0.0,0.0,0.0023726853542029858,0.0029172012582421303,-0.001549950335174799,0.998384416103363,0.0,0.0,0.0,-7.363869667053223,1.357910394668579,4.787952899932861,1332.8751220703125,0
1932.6290000000008,0.0013596899807453156,-0.009383243508636951,0.0003268360742367804,0.0,0.0,0.0,0.0,0.004003471229225397,0.0008537817629985511,-0.00036140321753919125,0.9996401071548462,0.0,0.0,0.0,-7.370499610900879,1.333870530128479,4.78853702545166,1334.0750732421875,0
1942.5439999999999,0.0014031153405085206,-0.00928851030766964,0.00044067096314392984,0.0,0.0,0.0,0.0,-0.0031758060213178396,-0.0017604687018319964,0.0009688163991086185,0.9995720386505127,0.0,0.0,0.0,-7.362504482269287,1.325870394706726,4.772684574127197,1332.6279296875,0
1952.455,0.0013391140382736921,-0.009388892911374569,0.00047506458940915763,0.0,0.0,0.0,0.0,-0.0009120205068029463,0.0005126763135194778,0.0008277191664092243,1.0003799200057983,0.0,0.0,0.0,-7.364712715148926,1.3082581758499146,4.775644779205322,1333.0277099609375,0
1962.375,0.001342303236015141,-0.009318012744188309,0.000567873299587518,0.0,0.0,0.0,0.0,0.005299251526594162,0.004898499231785536,-0.000527223281096667,1.0024995803833008,0.0,0.0,0.0,-7.3635172843933105,1.316683053970337,4.775735378265381,1332.8114013671875,0
1972.277,0.0012984650675207376,-0.009426718577742577,0.0005731593118980527,0.0,0.0,0.0,0.0,-0.0018287727143615484,0.008348126895725727,-0.002949497662484646,1.0013446807861328,0.0,0.0,0.0,-7.371255874633789,1.2935078144073486,4.76939582824707,1334.2120361328125,0
1982.196,0.0013019650941714644,-0.009374421089887619,0.000661407713778317,0.0,0.0,0.0,0.0,-0.001020360621623695,0.00015595484001096338,0.0010341235902160406,1.0009113550186157,0.0,0.0,0.0,-7.371618747711182,1.3014070987701416,4.759085655212402,1334.2777099609375,0
1992.0969999999998,0.0013105605030432343,-0.00939774140715599,0.0006301822722889483,0.0,0.0,0.0,0.0,0.002782518044114113,0.0019928684923797846,-0.0014877659268677235,0.9992505311965942,0.0,0.0,0.0,-7.378026485443115,1.2978425025939941,4.763947486877441,1335.4375,0
2002.0290000000005,0.001286943443119526,-0.009421691298484802,0.0006720747333019972,0.0,0.0,0.0,0.0,-0.0005208838265389204,-0.006401976104825735,0.0010934736346825957,1.0009512901306152,0.0,0.0,0.0,-7.380912780761719,1.2856990098953247,4.759995937347412,1335.9599609375,0
2011.92,0.0012843598378822207,-0.009475961327552795,0.0006338738021440804,0.0,0.0,0.0,0.0,0.00024374133499804884,0.00419794162735343,0.0005609855288639665,1.0017824172973633,0.0,0.0,0.0,-7.386653900146484,1.2844547033309937,4.7771406173706055,1336.9990234375,0
2021.839,0.0012665927642956376,-0.009473519399762154,0.0006857243133708835,0.0,0.0,0.0,0.0,0.000550880387891084,-0.0014153963420540094,-0.0008943850407376885,1.0020692348480225,0.0,0.0,0.0,-7.390124320983887,1.2817444801330566,4.782553195953369,1337.627197265625,0
2031.7450000000008,0.0012737363576889038,-0.009495697915554047,0.0006385113811120391,0.0,0.0,0.0,0.0,-0.005289904307574034,-0.0014401254011318088,0.0013521190267056227,1.0016924142837524,0.0,0.0,0.0,-7.394038677215576,1.274751901626587,4.794435501098633,1338.335693359375,0
2041.6650000000009,0.0011618353892117739,-0.009603302925825119,0.0006105201318860054,0.0,0.0,0.0,0.0,-0.0012363605201244354,-0.001798666431568563,0.001879941439256072,1.001509189605713,0.0,0.0,0.0,-7.393687725067139,1.269660234451294,4.792718887329102,1338.272216796875,0
2051.572,0.001199243008159101,-0.009563392028212547,0.0005431951722130179,0.0,0.0,0.0,0.0,0.0013930313289165497,0.00596155971288681,-0.00141033751424402,1.0004130601882935,0.0,0.0,0.0,-7.397514343261719,1.277087926864624,4.803150653839111,1338.96484375,0
2061.4889999999996,0.001118360203690827,-0.009613383561372757,0.0005263451021164656,0.0,0.0,0.0,0.0,-0.0004294184618629515,-0.0034056357108056545,-0.0017860722728073597,0.9979203343391418,0.0,0.0,0.0,-7.390521049499512,1.2729016542434692,4.789588928222656,1337.698974609375,0
2071.3909999999996,0.0011690063402056694,-0.009525058791041374,0.000442569114966318,0.0,0.0,0.0,0.0,-0.0002945759042631835,0.002833419945091009,0.00014985646703280509,0.9990794658660889,0.0,0.0,0.0,-7.394786834716797,1.2884435653686523,4.80405855178833,1338.47119140625,0
2081.313,0.0010308013297617435,-0.009671683423221111,0.0003405408642720431,0.0,0.0,0.0,0.0,0.00014737871242687106,-0.0042638215236365795,0.0005333730950951576,0.9997218251228333,0.0,0.0,0.0,-7.387248516082764,1.2921704053878784,4.791069984436035,1337.106689453125,0
2091.210000000001,0.001100410707294941,-0.009571753442287445,0.00021049720817245543,0.0,0.0,0.0,0.0,-0.001077947556041181,-0.0013185915304347873,-0.002783107338473201,1.0012717247009277,0.0,0.0,0.0,-7.3893208503723145,1.3100786209106445,4.807850360870361,1337.481689453125,0
2101.129000000001,0.000955269206315279,-0.009693501517176628,9.921144373947755e-05,0.0,0.0,0.0,0.0,-0.0011079342802986503,-0.004535119514912367,-0.0019126819679513574,1.001217246055603,0.0,0.0,0.0,-7.382678508758545,1.3107786178588867,4.805837631225586,1336.2794189453125,0
2111.035,0.0010204723803326488,-0.009552703239023685,-2.901288098655641e-05,0.0,0.0,0.0,0.0,-0.0006483628530986607,0.000775654218159616,0.0029195609968155622,0.9998204708099365,0.0,0.0,0.0,-7.3853654861450195,1.340717077255249,4.823361396789551,1336.7657470703125,0
2120.942000000001,0.000839519954752177,-0.009698236361145973,-0.00017473235493525863,0.0,0.0,0.0,0.0,-0.0025675008073449135,-0.0026097733061760664,0.0007999222143553197,1.0016772747039795,0.0,0.0,0.0,-7.388209342956543,1.309030532836914,4.801634788513184,1337.280517578125,0
2130.8459999999995,0.0008820501388981938,-0.009530899114906788,-0.00028500138432718813,0.0,0.0,0.0,0.0,0.0011582591105252504,0.00165111618116498,-0.0007133570616133511,1.0007551908493042,0.0,0.0,0.0,-7.390097141265869,1.3406977653503418,4.806991100311279,1337.6221923828125,0
2140.763000000001,0.0008136147516779602,-0.009720293805003166,-0.0004310753138270229,0.0,0.0,0.0,0.0,0.0001264572492800653,0.0003757259692065418,-0.004867024719715118,1.001591444015503,0.0,0.0,0.0,-7.38948392868042,1.3046187162399292,4.798181533813477,1337.51123046875,0
2150.674000000001,0.0008349616546183825,-0.009582550264894962,-0.0005349048296920955,0.0,0.0,0.0,0.0,-0.0012662661029025912,0.0003925136988982558,0.0003803283325396478,1.001021146774292,0.0,0.0,0.0,-7.391271591186523,1.33052659034729,4.793637275695801,1337.8348388671875,0
