timestamp,stateEstimate.x,stateEstimate.y,stateEstimate.z,controller.cmd_thrust,controller.cmd_roll,controller.cmd_pitch,controller.cmd_yaw,controller.r_roll,controller.r_pitch,controller.r_yaw,controller.accelz,controller.actuatorThrust,controller.roll,controller.pitch,controller.yaw,controller.rollRate,controller.pitchRate,controller.yawRate,controller.ctr_yaw
0.0,0.0160677470266819,-0.005092857405543327,0.00039074537926353514,0.0,0.0,0.0,0.0,0.0022531715221703053,-0.0021081792656332254,-0.001435916405171156,1.0000900030136108,0.0,0.0,0.0,-9.027483940124512,1.2326431274414062,5.173782825469971,1633.9925537109375,0
9.90899999999965,0.0160367488861084,-0.005109425634145737,0.0003906668280251324,0.0,0.0,0.0,0.0,0.001311285188421607,-0.00018409095355309546,0.0017442329553887248,1.0006669759750366,0.0,0.0,0.0,-9.02656364440918,1.2259762287139893,5.172031402587891,1633.8260498046875,0
19.827000000001135,0.016009977087378502,-0.0050683654844760895,0.0003536351432558149,0.0,0.0,0.0,0.0,-0.001970789162442088,0.0012337149819359183,0.0006075455457903445,0.9992169737815857,0.0,0.0,0.0,-9.027207374572754,1.2362146377563477,5.176726341247559,1633.9425048828125,0
29.729999999999563,0.016021965071558952,-0.005124091170728207,0.0003491172392386943,0.0,0.0,0.0,0.0,-0.00010593077604426071,0.0006082901963964105,0.0063768490217626095,0.9987469911575317,0.0,0.0,0.0,-9.03095531463623,1.2229059934616089,5.183953285217285,1634.620849609375,0
39.63999999999942,0.015959277749061584,-0.005102226044982672,0.00035118768573738635,0.0,0.0,0.0,0.0,0.0027648042887449265,-0.0035363587085157633,-0.0019170574378222227,0.9989373683929443,0.0,0.0,0.0,-9.021360397338867,1.2228246927261353,5.187465667724609,1632.88427734375,0
49.556000000000495,0.015904182568192482,-0.005103378091007471,0.0003284631238784641,0.0,0.0,0.0,0.0,0.0008455714560113847,0.00530101265758276,9.49793538893573e-05,0.9984539151191711,0.0,0.0,0.0,-9.022947311401367,1.2191916704177856,5.185859203338623,1633.1715087890625,0
59.46800000000076,0.015836376696825027,-0.005082583520561457,0.00032645792816765606,0.0,0.0,0.0,0.0,-0.0010873940773308277,0.003703694324940443,0.0018309274455532432,1.0012810230255127,0.0,0.0,0.0,-9.013148307800293,1.216230034828186,5.178988933563232,1631.397705078125,0
69.38000000000102,0.015796074643731117,-0.005075250752270222,0.00027955826953984797,0.0,0.0,0.0,0.0,0.004770052619278431,-0.0005336675094440579,-0.0013021104969084263,1.0001884698867798,0.0,0.0,0.0,-9.018632888793945,1.214835286140442,5.173606872558594,1632.390625,0
79.28399999999965,0.015725456178188324,-0.005055203568190336,0.0002739733608905226,0.0,0.0,0.0,0.0,-0.0006944577326066792,0.003632442792877555,0.0020895604975521564,0.9990680813789368,0.0,0.0,0.0,-9.008498191833496,1.2127186059951782,5.162708282470703,1630.5562744140625,0
89.20299999999952,0.01564009301364422,-0.004964742809534073,0.00020211304945405573,0.0,0.0,0.0,0.0,-0.004229605197906494,5.833139948663302e-05,-0.0024870482739061117,0.999850332736969,0.0,0.0,0.0,-9.000200271606445,1.225113868713379,5.171474933624268,1629.05419921875,0
99.10599999999977,0.01564009301364422,-0.004964742809534073,0.00020211304945405573,0.0,0.0,0.0,0.0,-0.001637432724237442,0.010370724834501743,-0.0016914816806092858,0.9998309016227722,0.0,0.0,0.0,-9.000200271606445,1.225113868713379,5.171474933624268,1629.05419921875,0
109.02599999999984,0.015497080981731415,-0.0049632336013019085,0.00016789704386610538,0.0,0.0,0.0,0.0,-0.0014712645206600428,-0.004107828252017498,-0.0011443449184298515,0.9996768236160278,0.0,0.0,0.0,-8.995530128479004,1.2179603576660156,5.13646936416626,1628.208740234375,0
118.92799999999988,0.015497080981731415,-0.0049632336013019085,0.00016789704386610538,0.0,0.0,0.0,0.0,-0.0012561192270368338,0.0028318450786173344,-0.0027905518654733896,1.0001168251037598,0.0,0.0,0.0,-8.995530128479004,1.2179603576660156,5.13646936416626,1628.208740234375,0
128.84799999999996,0.015444817021489143,-0.004954886622726917,0.0001163742272183299,0.0,0.0,0.0,0.0,-0.002518049906939268,-0.0036824694834649563,0.003448871895670891,0.9989128112792969,0.0,0.0,0.0,-8.996735572814941,1.2223049402236938,5.154848575592041,1628.4271240234375,0
138.75900000000001,0.015367514453828335,-0.004936934448778629,0.00010123205720447004,0.0,0.0,0.0,0.0,0.0007936141337268054,0.0013702294090762734,0.0003138860920444131,0.9996668696403503,0.0,0.0,0.0,-8.987210273742676,1.2195582389831543,5.152126312255859,1626.702880859375,0
148.6740000000009,0.015322848223149776,-0.004940418992191553,4.5626064093085006e-05,0.0,0.0,0.0,0.0,-0.00010950129944831133,0.000771553663071245,-0.0028941426426172256,1.0017372369766235,0.0,0.0,0.0,-8.989316940307617,1.2150897979736328,5.160661697387695,1627.084228515625,0
158.57700000000114,0.015243695117533207,-0.004923765081912279,2.7429359761299565e-05,0.0,0.0,0.0,0.0,0.0035309032537043095,-0.0020689833909273148,0.0009870084468275309,1.0011858940124512,0.0,0.0,0.0,-8.980448722839355,1.2082256078720093,5.155853748321533,1625.47900390625,0
168.4989999999998,0.01526534091681242,-0.004858463536947966,-5.484530993271619e-05,0.0,0.0,0.0,0.0,-0.00121723348274827,0.003338996786624193,0.0002547157637309283,1.0009342432022095,0.0,0.0,0.0,-8.987548828125,1.2409354448318481,5.182036876678467,1626.7642822265625,0
178.39500000000044,0.015191433019936085,-0.004831146914511919,-7.629893661942333e-05,0.0,0.0,0.0,0.0,-0.0004462289216462523,0.0016122350934892893,-0.002606460126116872,1.0010031461715698,0.0,0.0,0.0,-8.978362083435059,1.2351484298706055,5.1799845695495605,1625.101318359375,0
188.32500000000073,0.015175462700426579,-0.0048372759483754635,-0.0001554588961880654,0.0,0.0,0.0,0.0,-0.0017151444917544723,0.007718636188656092,0.0015020794235169888,1.0005499124526978,0.0,0.0,0.0,-8.984467506408691,1.2252931594848633,5.194422245025635,1626.2064208984375,0
198.21700000000055,0.01510202419012785,-0.0048117078840732574,-0.0001800019235815853,0.0,0.0,0.0,0.0,8.542616706108674e-05,0.0020377151668071747,-0.0018255668692290783,0.9985393285751343,0.0,0.0,0.0,-8.975982666015625,1.229360580444336,5.177126884460449,1624.6707763671875,0
208.1329999999998,0.015112255699932575,-0.004764876794070005,-0.0002580996078904718,0.0,0.0,0.0,0.0,0.001531482907012105,-0.0026540583930909634,-0.0018394615035504103,0.9977213144302368,0.0,0.0,0.0,-8.982242584228516,1.2458628416061401,5.193624019622803,1625.8037109375,0
218.04100000000108,0.015040524303913116,-0.004734538495540619,-0.0002881266118492931,0.0,0.0,0.0,0.0,0.003978149499744177,0.0004451457061804831,-0.003608927596360445,0.9988470077514648,0.0,0.0,0.0,-8.97337532043457,1.2474604845046997,5.1756672859191895,1624.19873046875,0
227.95800000000054,0.01503844652324915,-0.004740023519843817,-0.00038589414907619357,0.0,0.0,0.0,0.0,0.0015426432946696877,0.002438540570437908,-0.00034808446071110666,0.997144877910614,0.0,0.0,0.0,-8.977396011352539,1.2391406297683716,5.197336196899414,1624.926513671875,0
237.86299999999937,0.01496584340929985,-0.004710791166871786,-0.0004251440113876015,0.0,0.0,0.0,0.0,-0.0053520300425589085,-0.0047677261754870415,-0.0011936781229451299,0.9983465671539307,0.0,0.0,0.0,-8.96789836883545,1.2344721555709839,5.187996864318848,1623.2073974609375,0
247.78200000000106,0.014889721758663654,-0.004681365564465523,-0.0004661109414882958,0.0,0.0,0.0,0.0,0.005840898957103491,0.004273403435945511,-0.0012599428882822394,0.9999716877937317,0.0,0.0,0.0,-8.959734916687012,1.2301682233810425,5.179718971252441,1621.7298583984375,0
257.6869999999999,0.014810520224273205,-0.004651257302612066,-0.000508689321577549,0.0,0.0,0.0,0.0,0.00022188806906342506,-0.0010335660772398114,-0.0019259470282122493,0.9995285868644714,0.0,0.0,0.0,-8.950566291809082,1.237419843673706,5.1828155517578125,1620.0701904296875,0
267.60699999999997,0.014729321002960205,-0.004620607942342758,-0.0005518901743926108,0.0,0.0,0.0,0.0,0.0005308973486535251,-0.0021380300167948008,-0.0001655715750530362,1.0014137029647827,0.0,0.0,0.0,-8.942255973815918,1.235074758529663,5.167792797088623,1618.5662841796875,0
277.505000000001,0.014645644463598728,-0.00458948640152812,-0.0005947627360001206,0.0,0.0,0.0,0.0,0.0032286366913467646,-0.0029769819229841232,-0.00426947558298707,0.9999286532402039,0.0,0.0,0.0,-8.9335355758667,1.2329877614974976,5.1693902015686035,1616.9876708984375,0
287.4230000000007,0.016147136688232422,-0.00522208446636796,0.000520962115842849,0.0,0.0,0.0,0.0,0.0010524099925532937,0.0006509477971121669,-0.00046763886348344386,0.997444212436676,0.0,0.0,0.0,-8.949841499328613,1.1387945413589478,5.436654567718506,1619.939208984375,0
297.32700000000114,0.016128836199641228,-0.005222373642027378,0.000518408662173897,0.0,0.0,0.0,0.0,0.0014334006700664759,-0.0005400378140620887,0.0010164993582293391,1.000255823135376,0.0,0.0,0.0,-8.941532135009766,1.1339730024337769,5.425412654876709,1618.4349365234375,0
307.2520000000004,0.016154654324054718,-0.005252131726592779,0.0005090098129585385,0.0,0.0,0.0,0.0,0.0003303607227280736,0.003643225645646453,0.0023263092152774334,1.0002241134643555,0.0,0.0,0.0,-8.933186531066895,1.1260825395584106,5.420515060424805,1616.924560546875,0
317.14999999999964,0.01613389141857624,-0.005256624426692724,0.0005044587887823582,0.0,0.0,0.0,0.0,0.0019035565201193094,0.005787195637822151,-0.0011264963541179895,1.0016015768051147,0.0,0.0,0.0,-8.923486709594727,1.1258600950241089,5.418271541595459,1615.1688232421875,0
327.0670000000009,0.016094770282506943,-0.005267363507300615,0.0004955107579007745,0.0,0.0,0.0,0.0,-0.002872462384402752,-0.0022406235802918673,0.0008194252732209861,1.0019057989120483,0.0,0.0,0.0,-8.940380096435547,1.1158201694488525,5.403384685516357,1618.2265625,0
336.97099999999955,0.016070779412984848,-0.005273349583148956,0.0004929210408590734,0.0,0.0,0.0,0.0,0.0034346000757068396,0.0005676863365806639,-0.002419876866042614,0.9995266199111938,0.0,0.0,0.0,-8.931599617004395,1.1193647384643555,5.393927097320557,1616.6373291015625,0
346.8909999999996,0.01604415848851204,-0.0052787307649850845,0.0004917248734273016,0.0,0.0,0.0,0.0,-0.0006696972413919866,0.00038782163755968213,-0.0013252563076093793,0.9986628890037537,0.0,0.0,0.0,-8.923128128051758,1.117857575416565,5.387852191925049,1615.10400390625,0
356.7960000000003,0.016014719381928444,-0.005282967817038298,0.0004902169457636774,0.0,0.0,0.0,0.0,0.0010170554742217064,0.0008780431817285717,-0.005108661483973265,0.9993165731430054,0.0,0.0,0.0,-8.914437294006348,1.116764783859253,5.381711006164551,1613.53076171875,0
366.71600000000035,0.0159833412617445,-0.00528635922819376,0.0004878161707893014,0.0,0.0,0.0,0.0,-0.0020568734034895897,0.0015157953603193164,-0.0027181210462003946,0.9992183446884155,0.0,0.0,0.0,-8.904594421386719,1.1173831224441528,5.378805637359619,1611.749267578125,0
376.6149999999998,0.01595037430524826,-0.005290589760988951,0.0004847428936045617,0.0,0.0,0.0,0.0,0.001044163596816361,0.004964638967067003,-0.0007394692511297762,1.000243067741394,0.0,0.0,0.0,-8.896232604980469,1.1227636337280273,5.368876934051514,1610.2359619140625,0
386.5410000000011,0.015915049239993095,-0.00529589643701911,0.00048133949167095125,0.0,0.0,0.0,0.0,-0.002963289385661483,-0.0015611815033480525,-0.0004874630249105394,1.0026977062225342,0.0,0.0,0.0,-8.888470649719238,1.1181129217147827,5.351687431335449,1608.8309326171875,0
396.4380000000001,0.015876291319727898,-0.005301978439092636,0.00047870006528683007,0.0,0.0,0.0,0.0,0.002338891848921776,0.0006924521876499057,0.0022994750179350376,1.0002617835998535,0.0,0.0,0.0,-8.879972457885742,1.111409306526184,5.34660005569458,1607.29248046875,0
406.3600000000006,0.015789512544870377,-0.0053182486444711685,0.000477720721391961,0.0,0.0,0.0,0.0,0.0010915074963122606,-0.0019980038050562143,-0.0013011011760681868,0.9987022876739502,0.0,0.0,0.0,-8.86186408996582,1.1083892583847046,5.331417083740234,1604.014892578125,0
416.2610000000004,0.015789512544870377,-0.0053182486444711685,0.000477720721391961,0.0,0.0,0.0,0.0,-0.0006437214906327426,0.0010183812119066715,0.0010957664344459772,0.999954104423523,0.0,0.0,0.0,-8.86186408996582,1.1083892583847046,5.331417083740234,1604.014892578125,0
426.1790000000001,0.015688806772232056,-0.00533877732232213,0.0004768801445607096,0.0,0.0,0.0,0.0,-0.0011254871496930718,0.0004927795380353928,-0.001789627829566598,1.001444697380066,0.0,0.0,0.0,-8.842677116394043,1.106037974357605,5.324405193328857,1600.5421142578125,0
436.08200000000033,0.015688806772232056,-0.00533877732232213,0.0004768801445607096,0.0,0.0,0.0,0.0,-0.0002125044265994802,0.0037113733123987913,-0.001643603085540235,0.9995784163475037,0.0,0.0,0.0,-8.842677116394043,1.106037974357605,5.324405193328857,1600.5421142578125,0
446.005000000001,0.01583266630768776,-0.00535599747672677,0.0005509314360097051,0.0,0.0,0.0,0.0,0.0026716776192188263,-0.001006237929686904,0.002381332917138934,0.9996998310089111,0.0,0.0,0.0,-8.847273826599121,1.1150113344192505,5.3803558349609375,1601.3741455078125,0
455.90400000000045,0.01583266630768776,-0.00535599747672677,0.0005509314360097051,0.0,0.0,0.0,0.0,-0.00035596295492723584,0.003433849662542343,-0.0020328194368630648,0.9986192584037781,0.0,0.0,0.0,-8.847273826599121,1.1150113344192505,5.3803558349609375,1601.3741455078125,0
465.8220000000001,0.015852805227041245,-0.005363884381949902,0.0005861347308382392,0.0,0.0,0.0,0.0,-0.00011180919682374224,0.0008988352492451668,1.6420597603428178e-05,1.001753330230713,0.0,0.0,0.0,-8.860197067260742,1.1155563592910767,5.395824909210205,1603.713134765625,0
475.728000000001,0.01587354764342308,-0.005406107287853956,0.000600028142798692,0.0,0.0,0.0,0.0,-0.0033278069458901882,0.0005764898378401995,0.002920942846685648,1.0010147094726562,0.0,0.0,0.0,-8.877420425415039,1.1116976737976074,5.4151997566223145,1606.8306884765625,0
485.64899999999943,0.015959536656737328,-0.00512224156409502,5.034243440604769e-05,0.0,0.0,0.0,0.0,0.002804698422551155,0.002678155666217208,-0.0036262066569179296,1.0013951063156128,0.0,0.0,0.0,-8.889501571655273,1.171903371810913,5.427611827850342,1609.0174560546875,0
495.5509999999995,0.016040321439504623,-0.005166409071534872,8.840091322781518e-05,0.0,0.0,0.0,0.0,-0.0027746849227696657,0.00297962361946702,0.001279368414543569,1.0001177787780762,0.0,0.0,0.0,-8.906432151794434,1.1669914722442627,5.42914342880249,1612.0819091796875,0
505.47099999999955,0.01599908620119095,-0.0051426636055111885,9.813795622903854e-05,0.0,0.0,0.0,0.0,-0.0002628509537316859,0.0014758417382836342,-0.00010066234972327948,1.0003012418746948,0.0,0.0,0.0,-8.91639518737793,1.1787433624267578,5.413406848907471,1613.88525390625,0
515.3760000000002,0.0160516444593668,-0.005196199286729097,0.00011697768059093505,0.0,0.0,0.0,0.0,0.0010145007399842143,-0.0011267188237980008,0.002105673775076866,1.0010334253311157,0.0,0.0,0.0,-8.93165397644043,1.1767137050628662,5.411916255950928,1616.6470947265625,0
525.2919999999995,0.015986818820238113,-0.005229781847447157,0.0001396696170559153,0.0,0.0,0.0,0.0,-0.0009441975271329284,0.002213091356679797,0.003795590018853545,1.001328706741333,0.0,0.0,0.0,-8.943962097167969,1.1757673025131226,5.405797004699707,1618.8751220703125,0
535.1930000000011,0.016044994816184044,-0.005253208801150322,0.00017558912804815918,0.0,0.0,0.0,0.0,-0.00012088030052836984,0.001134346006438136,-0.0024204642977565527,1.0024430751800537,0.0,0.0,0.0,-8.941184043884277,1.1711970567703247,5.399392127990723,1618.3720703125,0
545.1229999999996,0.015981776639819145,-0.0052613308653235435,0.00020587998733390123,0.0,0.0,0.0,0.0,-6.516539724543691e-05,0.0031802526209503412,4.9992933782050386e-05,1.001784324645996,0.0,0.0,0.0,-8.950632095336914,1.173845648765564,5.398192405700684,1620.082275390625,0
555.0149999999994,0.01603684201836586,-0.005271319765597582,0.0002520850975997746,0.0,0.0,0.0,0.0,0.0008412866154685616,0.0032032467424869537,0.0017956207739189267,0.9995036125183105,0.0,0.0,0.0,-8.950727462768555,1.1743828058242798,5.3902788162231445,1620.099365234375,0
564.9330000000009,0.01598375290632248,-0.005268956068903208,0.0002781398652587086,0.0,0.0,0.0,0.0,-7.13131666998379e-05,0.002386353211477399,-0.004050794057548046,1.0005336999893188,0.0,0.0,0.0,-8.957832336425781,1.1713197231292725,5.377299785614014,1621.385498046875,0
574.8369999999995,0.016009552404284477,-0.005299171432852745,0.0003106813528575003,0.0,0.0,0.0,0.0,0.0014328283723443747,0.0011573417577892542,-0.0010636356892064214,0.9981988668441772,0.0,0.0,0.0,-8.969088554382324,1.1741282939910889,5.374762058258057,1623.4228515625,0
584.7669999999998,0.015996398404240608,-0.0052558183670043945,0.0002982613514177501,0.0,0.0,0.0,0.0,0.0011800539214164019,0.0004399570752866566,-0.0011768811382353306,1.0004373788833618,0.0,0.0,0.0,-8.977224349975586,1.1806386709213257,5.360461711883545,1624.8955078125,0
594.6589999999997,0.01605762355029583,-0.00527866231277585,0.0003440314903855324,0.0,0.0,0.0,0.0,-0.00041333455010317266,-0.0024460090789943933,-0.0003462706517893821,0.999580979347229,0.0,0.0,0.0,-8.986102104187012,1.1827455759048462,5.3757405281066895,1626.5023193359375,0
604.5799999999999,0.016010209918022156,-0.005272252019494772,0.00036092198570258915,0.0,0.0,0.0,0.0,0.00036529882345348597,-0.0019261027919128537,-0.004552312195301056,0.9989966750144958,0.0,0.0,0.0,-8.988842964172363,1.183974266052246,5.36278772354126,1626.99853515625,0
614.4860000000008,0.01605512760579586,-0.005296010989695787,0.0004045882960781455,0.0,0.0,0.0,0.0,0.0012738383375108242,-0.0016823492478579283,-0.0006783940480090678,1.001076579093933,0.0,0.0,0.0,-8.997352600097656,1.1810762882232666,5.372492790222168,1628.5386962890625,0
624.4009999999998,0.01607578620314598,-0.005184178706258535,0.00037117392639629543,0.0,0.0,0.0,0.0,0.0012212335132062435,-0.003471610601991415,0.0027248822152614594,1.000502586364746,0.0,0.0,0.0,-9.002145767211914,1.1949944496154785,5.371077060699463,1629.40625,0
634.3029999999999,0.016025615856051445,-0.005184920504689217,0.0003846150648314506,0.0,0.0,0.0,0.0,-0.0016743899323046207,0.00293242116458714,-0.0018701128428801894,0.9993391036987305,0.0,0.0,0.0,-8.992061614990234,1.1941461563110352,5.3722124099731445,1627.5810546875,0
644.2240000000002,0.016019506379961967,-0.005167525727301836,0.00033870007609948516,0.0,0.0,0.0,0.0,0.0020858875941485167,0.003423473797738552,0.001963661517947912,1.0000883340835571,0.0,0.0,0.0,-8.996949195861816,1.197817325592041,5.3765668869018555,1628.4656982421875,0
654.1270000000004,0.015965064987540245,-0.005167608615010977,0.00034711428452283144,0.0,0.0,0.0,0.0,0.0003740887332241982,-0.0012890807120129466,-0.0011986446334049106,1.0003694295883179,0.0,0.0,0.0,-8.987710952758789,1.2074867486953735,5.352912425994873,1626.7935791015625,0
664.0460000000003,0.015908902511000633,-0.005168044939637184,0.00035538076190277934,0.0,0.0,0.0,0.0,-0.0011869770241901278,-0.0003337233210913837,-0.0005814636824652553,0.9986501932144165,0.0,0.0,0.0,-8.979365348815918,1.2028089761734009,5.346951961517334,1625.2830810546875,0
673.9560000000001,0.015851395204663277,-0.005168815143406391,0.0003639259375631809,0.0,0.0,0.0,0.0,-0.0008285451913252473,-0.0005370324361138046,-0.0018409612821415067,1.0003341436386108,0.0,0.0,0.0,-8.969252586364746,1.1962921619415283,5.337948322296143,1623.4525146484375,0
683.8690000000006,0.015820307657122612,-0.005149512551724911,0.00033013842767104506,0.0,0.0,0.0,0.0,-0.0006814309163019061,0.00016599752416368574,0.002132164314389229,1.0010164976119995,0.0,0.0,0.0,-8.973605155944824,1.202452301979065,5.349697589874268,1624.2403564453125,0
693.7690000000002,0.015763357281684875,-0.005148970056325197,0.00033520767465233803,0.0,0.0,0.0,0.0,0.00032356168958358467,0.0018405795563012362,-0.0013814903795719147,1.0001804828643799,0.0,0.0,0.0,-8.96608829498291,1.204603910446167,5.337642192840576,1622.8797607421875,0
703.6880000000001,0.015737229958176613,-0.005124450195580721,0.00029402936343103647,0.0,0.0,0.0,0.0,0.002331024268642068,0.0018817831296473742,-0.0002677238662727177,1.001011848449707,0.0,0.0,0.0,-8.971007347106934,1.2161517143249512,5.345729827880859,1623.7701416015625,0
713.6020000000008,0.015680503100156784,-0.005121828056871891,0.00029699120204895735,0.0,0.0,0.0,0.0,-0.0005032307817600667,0.0006063709151931107,-0.001928673475049436,1.0016775131225586,0.0,0.0,0.0,-8.962949752807617,1.2094714641571045,5.3366289138793945,1622.311767578125,0
723.5120000000006,0.01568549871444702,-0.005034890957176685,0.0002265969815198332,0.0,0.0,0.0,0.0,0.0016166638815775514,-0.0004496967594604939,-0.0023741365876048803,1.000572681427002,0.0,0.0,0.0,-8.971059799194336,1.2500369548797607,5.357088565826416,1623.77978515625,0
733.4130000000005,0.015630805864930153,-0.005024100188165903,0.00022594918846152723,0.0,0.0,0.0,0.0,0.0016544725513085723,-0.005879792384803295,0.0019262677524238825,0.9996635913848877,0.0,0.0,0.0,-8.962120056152344,1.248706579208374,5.350584030151367,1622.16162109375,0
743.3330000000005,0.01560928300023079,-0.005019076634198427,0.00016314617823809385,0.0,0.0,0.0,0.0,-0.0037874553818255663,-0.0022545307874679565,0.001158632105216384,0.9991717338562012,0.0,0.0,0.0,-8.971206665039062,1.2533934116363525,5.3570475578308105,1623.8062744140625,0
753.237000000001,0.01555285882204771,-0.005010730586946011,0.0001586478902027011,0.0,0.0,0.0,0.0,-0.0009550039540044963,0.002217895584180951,-0.00016597584180999547,0.9981831312179565,0.0,0.0,0.0,-8.961934089660645,1.2456194162368774,5.363590240478516,1622.1279296875,0
763.1560000000009,0.01549820601940155,-0.0049240863882005215,8.508968312526122e-05,0.0,0.0,0.0,0.0,0.003342506242915988,0.0018649129197001457,0.000982627272605896,0.9986563920974731,0.0,0.0,0.0,-8.961114883422852,1.2803410291671753,5.376476764678955,1621.9796142578125,0
773.0580000000009,0.01549820601940155,-0.0049240863882005215,8.508968312526122e-05,0.0,0.0,0.0,0.0,-0.0014757680473849177,-0.0038613963406533003,-0.0004530047590378672,0.9997867345809937,0.0,0.0,0.0,-8.961114883422852,1.2803410291671753,5.376476764678955,1621.9796142578125,0
782.9840000000004,0.015431650914251804,-0.004926140885800123,-2.8088350518373773e-05,0.0,0.0,0.0,0.0,-0.0006680344231426716,4.038286988361506e-06,-0.002945678774267435,1.001067876815796,0.0,0.0,0.0,-8.956390380859375,1.276996374130249,5.387575626373291,1621.1243896484375,0
792.880000000001,0.015431650914251804,-0.004926140885800123,-2.8088350518373773e-05,0.0,0.0,0.0,0.0,-0.0002344512613490224,-0.001348293386399746,0.0005284494254738092,1.0000616312026978,0.0,0.0,0.0,-8.956390380859375,1.276996374130249,5.387575626373291,1621.1243896484375,0
802.8000000000011,0.015358583070337772,-0.00491446815431118,-0.00013510789722204208,0.0,0.0,0.0,0.0,0.0024015712551772594,-0.004852655343711376,0.0011483983835205436,0.9992512464523315,0.0,0.0,0.0,-8.951092720031738,1.2763854265213013,5.398741722106934,1620.1656494140625,0
812.7039999999997,0.015358583070337772,-0.00491446815431118,-0.00013510789722204208,0.0,0.0,0.0,0.0,0.001413985388353467,-0.0017160752322524786,-0.0021265323739498854,1.0000324249267578,0.0,0.0,0.0,-8.951092720031738,1.2763854265213013,5.398741722106934,1620.1656494140625,0
822.630000000001,0.015318562276661396,-0.004918722435832024,-0.0002071749186143279,0.0,0.0,0.0,0.0,0.0018467396730557084,-0.002043006243184209,0.000847125833388418,1.0008734464645386,0.0,0.0,0.0,-8.961403846740723,1.270720362663269,5.4038777351379395,1622.031982421875,0
832.5329999999994,0.015259496867656708,-0.004904916975647211,-0.00023422722006216645,0.0,0.0,0.0,0.0,0.002680128673091531,0.002950006164610386,0.0011474787024781108,1.0007277727127075,0.0,0.0,0.0,-8.952544212341309,1.264999508857727,5.398025035858154,1620.4283447265625,0
842.4470000000001,0.01519855298101902,-0.004889936652034521,-0.0002604154287837446,0.0,0.0,0.0,0.0,-0.0034475119318813086,-0.0037897243164479733,-0.0015207184478640556,1.0003125667572021,0.0,0.0,0.0,-8.944514274597168,1.2603418827056885,5.390961647033691,1618.9749755859375,0
852.3469999999998,0.015136158093810081,-0.004874065052717924,-0.00028585715335793793,0.0,0.0,0.0,0.0,0.0006471897359006107,0.0008369215647689998,0.0016589682782068849,1.0002139806747437,0.0,0.0,0.0,-8.936043739318848,1.2532755136489868,5.391833782196045,1617.4415283203125,0
862.2700000000004,0.015072018839418888,-0.004855818580836058,-0.00031095591839402914,0.0,0.0,0.0,0.0,0.0003417271072976291,0.003127365605905652,-0.003378765657544136,1.0002731084823608,0.0,0.0,0.0,-8.926654815673828,1.2480034828186035,5.380916118621826,1615.7421875,0
872.1679999999997,0.015896759927272797,-0.005135796032845974,0.0004273681261111051,0.0,0.0,0.0,0.0,-0.0005520074046216905,-0.003981651272624731,-0.0017359084449708462,1.0006217956542969,0.0,0.0,0.0,-8.934636116027832,1.2165054082870483,5.532523155212402,1617.1868896484375,0
882.0910000000003,0.015868686139583588,-0.005125540774315596,0.0004309992946218699,0.0,0.0,0.0,0.0,0.002125789178535342,-0.006185370497405529,0.0013288884656503797,1.0003165006637573,0.0,0.0,0.0,-8.925799369812012,1.2118427753448486,5.530665397644043,1615.58740234375,0
891.9920000000002,0.0159269068390131,-0.005168612580746412,0.0004336332785896957,0.0,0.0,0.0,0.0,-0.0025227710139006376,-0.0006160091725178063,0.0034214998595416546,0.9987205266952515,0.0,0.0,0.0,-8.934857368469238,1.2000994682312012,5.5422186851501465,1617.2269287109375,0
901.9089999999997,0.01589915156364441,-0.005158137064427137,0.00043719966197386384,0.0,0.0,0.0,0.0,-0.0003777559904847294,0.0005321054486557841,-0.004792892839759588,1.0000640153884888,0.0,0.0,0.0,-8.925586700439453,1.2035975456237793,5.54595947265625,1615.548828125,0
911.8140000000003,0.01594657264649868,-0.005162594374269247,0.0004423870996106416,0.0,0.0,0.0,0.0,0.00046218614443205297,0.003870064625516534,-0.001747845089994371,1.0000035762786865,0.0,0.0,0.0,-8.94308853149414,1.2009315490722656,5.549607753753662,1618.7169189453125,0
921.732,0.01591780222952366,-0.00515064736828208,0.0004454068548511714,0.0,0.0,0.0,0.0,0.0017127562314271927,-0.0003692555474117398,-0.0027317849453538656,1.001443862915039,0.0,0.0,0.0,-8.935389518737793,1.202545166015625,5.547850608825684,1617.3231201171875,0
931.639000000001,0.015908971428871155,-0.005132002290338278,0.0004578350344672799,0.0,0.0,0.0,0.0,5.247182707535103e-05,-0.00013296074757818133,0.00220125331543386,1.0019029378890991,0.0,0.0,0.0,-8.939265251159668,1.2021005153656006,5.539279460906982,1618.0247802734375,0
941.5470000000005,0.01588091440498829,-0.005119152367115021,0.0004637700621969998,0.0,0.0,0.0,0.0,0.0017771522980183363,0.0010332640958949924,0.003368449630215764,0.9980443120002747,0.0,0.0,0.0,-8.928540229797363,1.1979516744613647,5.540792465209961,1616.0836181640625,0
951.4580000000005,0.015922032296657562,-0.005138280335813761,0.00044903429807163775,0.0,0.0,0.0,0.0,-0.001595567329786718,2.7334968763170764e-05,0.0037528732791543007,0.9988834261894226,0.0,0.0,0.0,-8.934334754943848,1.184945821762085,5.540474891662598,1617.1322021484375,0
961.371000000001,0.01589309796690941,-0.005131992511451244,0.0004535726911853999,0.0,0.0,0.0,0.0,-0.0015940426383167505,-0.0044045415706932545,0.0004392555565573275,0.9992180466651917,0.0,0.0,0.0,-8.924745559692383,1.177862524986267,5.537970542907715,1615.3966064453125,0
971.2829999999994,0.01596779376268387,-0.005158967338502407,0.00043983160867355764,0.0,0.0,0.0,0.0,0.002100226003676653,-0.001172754680737853,-0.0009218120248988271,1.0008927583694458,0.0,0.0,0.0,-8.921253204345703,1.1678956747055054,5.554421901702881,1614.7645263671875,0
981.1900000000005,0.01593671552836895,-0.005156028084456921,0.00044199792318977416,0.0,0.0,0.0,0.0,-0.0014408378629013896,0.0014248652150854468,0.001974606653675437,1.0023878812789917,0.0,0.0,0.0,-8.91269588470459,1.1636766195297241,5.547743320465088,1613.2156982421875,0
991.107,0.01601911149919033,-0.0051875547505915165,0.00043467668001540005,0.0,0.0,0.0,0.0,-0.0028447499498724937,0.0006563183851540089,0.0003513754054438323,0.9980173707008362,0.0,0.0,0.0,-8.924636840820312,1.159206748008728,5.5632452964782715,1615.3770751953125,0
1001.0130000000008,0.015988841652870178,-0.0051899198442697525,0.0004384311323519796,0.0,0.0,0.0,0.0,0.0019805249758064747,0.0024692611768841743,-0.0013886067317798734,1.0000420808792114,0.0,0.0,0.0,-8.915288925170898,1.1623371839523315,5.563732147216797,1613.6849365234375,0
1010.9310000000005,0.01607733964920044,-0.005211544223129749,0.0004508570418693125,0.0,0.0,0.0,0.0,-0.001469107111915946,-0.0026477964129298925,0.0013538721250370145,1.0005489587783813,0.0,0.0,0.0,-8.907315254211426,1.15501070022583,5.548960208892822,1612.24169921875,0
1020.835000000001,0.0160467941313982,-0.005218274891376495,0.0004547830321826041,0.0,0.0,0.0,0.0,-0.0009819063125178218,-0.0003512593393679708,0.0005064696888439357,0.998957097530365,0.0,0.0,0.0,-8.898011207580566,1.153124451637268,5.545200824737549,1610.5577392578125,0
1030.7579999999998,0.016089310869574547,-0.005239658523350954,0.00047105818521231413,0.0,0.0,0.0,0.0,0.00043393351370468736,0.0020488863810896873,-0.0022709998302161694,0.9986397624015808,0.0,0.0,0.0,-8.887558937072754,1.154362678527832,5.539804458618164,1608.6658935546875,0
1040.6599999999999,0.016057532280683517,-0.0052508944645524025,0.0004749804502353072,0.0,0.0,0.0,0.0,0.0006783843855373561,-0.00024539994774386287,0.0030469694174826145,0.9995670914649963,0.0,0.0,0.0,-8.878997802734375,1.1491329669952393,5.53331995010376,1607.1160888671875,0
1050.5740000000005,0.01602463237941265,-0.005262372549623251,0.0004780922899954021,0.0,0.0,0.0,0.0,-0.0006566416122950613,0.0005067363381385803,0.0013670790940523148,1.0000613927841187,0.0,0.0,0.0,-8.869508743286133,1.1510345935821533,5.5270915031433105,1605.3988037109375,0
1060.4789999999994,0.015990111976861954,-0.0052734967321157455,0.0004811190301552415,0.0,0.0,0.0,0.0,0.002976115792989731,0.0022414284758269787,-0.0035402432549744844,1.0013012886047363,0.0,0.0,0.0,-8.85988712310791,1.1487306356430054,5.514439105987549,1603.6571044921875,0
1070.3989999999994,0.0160647165030241,-0.005310792941600084,0.0005214953562244773,0.0,0.0,0.0,0.0,-0.003465687157586217,0.0004053305892739445,-0.004116987343877554,0.999866783618927,0.0,0.0,0.0,-8.85802936553955,1.1404385566711426,5.555617332458496,1603.321044921875,0
1080.300000000001,0.016049504280090332,-0.005250731948763132,0.0003656440821941942,0.0,0.0,0.0,0.0,-0.000919277488719672,0.000732860469724983,-0.0012916239211335778,1.0016698837280273,0.0,0.0,0.0,-8.874755859375,1.1578799486160278,5.5548224449157715,1606.3485107421875,0
1090.2219999999998,0.016161253675818443,-0.0053407540544867516,0.0003939213929697871,0.0,0.0,0.0,0.0,0.005056844092905521,-0.0015116205904632807,-0.0012910900404676795,1.0015517473220825,0.0,0.0,0.0,-8.866545677185059,1.1523234844207764,5.542311191558838,1604.8623046875,0
1100.1219999999994,0.01618408039212227,-0.0052624717354774475,0.00031585231772623956,0.0,0.0,0.0,0.0,-0.0008283362840302289,-0.004104561172425747,-0.001778886653482914,0.9998092651367188,0.0,0.0,0.0,-8.876051902770996,1.159129023551941,5.5388922691345215,1606.5831298828125,0
1110.0419999999995,0.016172515228390694,-0.005267512518912554,0.00033422064734622836,0.0,0.0,0.0,0.0,-0.0005475549260154366,0.0006572274141944945,0.0019862933550029993,0.9985933303833008,0.0,0.0,0.0,-8.873669624328613,1.1619528532028198,5.5409016609191895,1606.15185546875,0
1119.9539999999997,0.016126250848174095,-0.00529655534774065,0.00035878567723557353,0.0,0.0,0.0,0.0,-0.001376837375573814,0.0005172748933546245,-0.0007504132227040827,1.0000661611557007,0.0,0.0,0.0,-8.886902809143066,1.1673448085784912,5.5306830406188965,1608.547119140625,0
1129.8649999999998,0.016130000352859497,-0.005293130408972502,0.00038901157677173615,0.0,0.0,0.0,0.0,0.0016826484352350235,0.007183806039392948,-0.004022479522973299,0.9997581839561462,0.0,0.0,0.0,-8.878990173339844,1.1659319400787354,5.525240421295166,1607.1148681640625,0
1139.7659999999996,0.016115956008434296,-0.00525003531947732,0.00039051499334163964,0.0,0.0,0.0,0.0,-0.0010833676205947995,-0.001929297111928463,-0.0007738946005702019,1.0001624822616577,0.0,0.0,0.0,-8.892219543457031,1.166043758392334,5.503377914428711,1609.5093994140625,0
1149.688,0.01612955890595913,-0.005261789541691542,0.0004165919090155512,0.0,0.0,0.0,0.0,0.001730774762108922,0.0027587581425905228,-0.002362343017011881,0.9981442093849182,0.0,0.0,0.0,-8.883209228515625,1.1647007465362549,5.503314018249512,1607.878662109375,0
1159.5910000000003,0.016101578250527382,-0.0052735041826963425,0.0004102957609575242,0.0,0.0,0.0,0.0,-0.0003454511461313814,-0.00019674339273478836,0.000998804927803576,0.9985255002975464,0.0,0.0,0.0,-8.895899772644043,1.162677526473999,5.492618560791016,1610.175537109375,0
1169.514000000001,0.016116488724946976,-0.005288919433951378,0.00043162034125998616,0.0,0.0,0.0,0.0,-0.0008811227744445205,-0.0004361589963082224,0.0013858717866241932,1.0005611181259155,0.0,0.0,0.0,-8.886571884155273,1.1645108461380005,5.489222526550293,1608.4871826171875,0
1179.4130000000005,0.016073953360319138,-0.005298426374793053,0.00044432084541767836,0.0,0.0,0.0,0.0,0.0007525320397689939,0.0005537135875783861,-0.0011546873720362782,1.0000616312026978,0.0,0.0,0.0,-8.891812324523926,1.170197606086731,5.480597019195557,1609.4356689453125,0
1189.3369999999995,0.01605949178338051,-0.005357347894459963,0.00043743819696828723,0.0,0.0,0.0,0.0,0.0017827021656557918,-0.0006848300690762699,0.002352498471736908,1.0000663995742798,0.0,0.0,0.0,-8.90437126159668,1.1681348085403442,5.477361679077148,1611.708984375,0
1199.2340000000004,0.016111521050333977,-0.005290289409458637,0.00036909838672727346,0.0,0.0,0.0,0.0,-0.0022304437588900328,0.00019125829567201436,-0.00123164604883641,0.999960720539093,0.0,0.0,0.0,-8.933001518249512,1.1785134077072144,5.4762139320373535,1616.8909912109375,0
1209.1589999999997,0.016076967120170593,-0.005297093652188778,0.00036838522646576166,0.0,0.0,0.0,0.0,-0.0017278216546401381,-9.087138460017741e-05,0.007412768434733152,1.0011712312698364,0.0,0.0,0.0,-8.925447463989258,1.1798425912857056,5.4680585861206055,1615.5238037109375,0
1219.0560000000005,0.016091130673885345,-0.005281949881464243,0.00036965226172469556,0.0,0.0,0.0,0.0,-7.079564511514036e-06,0.0043824296444654465,0.00033526821061968803,0.9992242455482483,0.0,0.0,0.0,-8.932832717895508,1.1860586404800415,5.4595627784729,1616.8604736328125,0
1228.9760000000006,0.016054751351475716,-0.005287636537104845,0.00037005924968980253,0.0,0.0,0.0,0.0,0.001105570700019598,0.0006944173364900053,0.002000213135033846,0.9996825456619263,0.0,0.0,0.0,-8.924281120300293,1.1845744848251343,5.443437576293945,1615.3125,0
1238.8790000000008,0.01601456291973591,-0.0053019351325929165,0.0003754516947083175,0.0,0.0,0.0,0.0,-0.0017656771233305335,0.0009078990551643074,0.0027996450662612915,0.9993181228637695,0.0,0.0,0.0,-8.947699546813965,1.184462070465088,5.4345855712890625,1619.5513916015625,0
1248.8009999999995,0.015973515808582306,-0.005308037158101797,0.0003758445964194834,0.0,0.0,0.0,0.0,-0.00180794985499233,-0.0015677111223340034,-0.0012849270133301616,0.9991623163223267,0.0,0.0,0.0,-8.938812255859375,1.183096170425415,5.4295220375061035,1617.942626953125,0
1258.710000000001,0.015989504754543304,-0.0052683670073747635,0.00042239134199917316,0.0,0.0,0.0,0.0,0.0018814541399478912,0.005888038780540228,0.0003733038902282715,1.0003936290740967,0.0,0.0,0.0,-8.955191612243652,1.1996620893478394,5.4386515617370605,1620.9075927734375,0
1268.6229999999996,0.015946466475725174,-0.005273409653455019,0.0004265242605470121,0.0,0.0,0.0,0.0,0.0014464721316471696,-0.003842379432171583,0.00248104240745306,0.999460756778717,0.0,0.0,0.0,-8.945904731750488,1.1980233192443848,5.424168586730957,1619.2265625,0
1278.5249999999996,0.015973631292581558,-0.005248695611953735,0.00040510680992156267,0.0,0.0,0.0,0.0,0.0013411924010142684,-0.00325171765871346,-0.0023152518551796675,0.9995357990264893,0.0,0.0,0.0,-8.968636512756348,1.204551100730896,5.431297779083252,1623.3409423828125,0
1288.4410000000007,0.01592862792313099,-0.005248792935162783,0.00040753011126071215,0.0,0.0,0.0,0.0,-0.000367093802196905,-0.0008289867546409369,-0.0010822571348398924,0.9995606541633606,0.0,0.0,0.0,-8.960234642028809,1.1946601867675781,5.428170204162598,1621.8203125,0
1298.344000000001,0.01602553389966488,-0.005135129205882549,0.00030865290318615735,0.0,0.0,0.0,0.0,0.0026098107919096947,-0.0026446757838129997,0.002302911365404725,0.998652458190918,0.0,0.0,0.0,-8.984512329101562,1.2199199199676514,5.4437031745910645,1626.214599609375,0
1308.2610000000004,0.015979809686541557,-0.005130454432219267,0.00030254971352405846,0.0,0.0,0.0,0.0,-0.0005121623398736119,0.00230844016186893,-0.0013924215454608202,0.9990084767341614,0.0,0.0,0.0,-8.974677085876465,1.212006688117981,5.4439496994018555,1624.434326171875,0
1318.1669999999995,0.015994517132639885,-0.005143816117197275,0.0002822929818648845,0.0,0.0,0.0,0.0,0.002339037135243416,0.004521025810390711,-0.006196393631398678,1.0012860298156738,0.0,0.0,0.0,-8.989784240722656,1.2165518999099731,5.439162254333496,1627.1688232421875,0
1328.085000000001,0.0159472469240427,-0.005140242166817188,0.00027406137087382376,0.0,0.0,0.0,0.0,0.0020830254070460796,-0.0016260705888271332,0.003248482709750533,1.0008207559585571,0.0,0.0,0.0,-8.981432914733887,1.2171680927276611,5.430130481719971,1625.6572265625,0
1337.991,0.01596648059785366,-0.005206128116697073,0.00033008199534378946,0.0,0.0,0.0,0.0,0.0019166464917361736,-0.001884222379885614,-0.001922201132401824,1.0006972551345825,0.0,0.0,0.0,-8.999634742736816,1.2101225852966309,5.432632923126221,1628.9517822265625,0
1347.9120000000003,0.015918534249067307,-0.005206231493502855,0.0003290180175099522,0.0,0.0,0.0,0.0,-0.000721649790648371,0.001964186318218708,-0.0007945352117531002,1.0008151531219482,0.0,0.0,0.0,-8.990466117858887,1.2053978443145752,5.425878047943115,1627.292236328125,0
1357.8099999999995,0.015969734638929367,-0.005224321037530899,0.0003457679704297334,0.0,0.0,0.0,0.0,-0.00649261474609375,-0.002033752156421542,0.0004597028309945017,1.0008318424224854,0.0,0.0,0.0,-9.005562782287598,1.2068878412246704,5.43058443069458,1630.0247802734375,0
1367.7260000000006,0.01592257246375084,-0.005224736873060465,0.00034801088622771204,0.0,0.0,0.0,0.0,-0.001292392029426992,-0.001461615669541061,-0.0014280054019764066,0.9988383650779724,0.0,0.0,0.0,-8.996415138244629,1.2134690284729004,5.431933403015137,1628.3690185546875,0
1377.6319999999996,0.015989704057574272,-0.005210979841649532,0.0003476935962680727,0.0,0.0,0.0,0.0,0.0012784224236384034,0.0019406467908993363,-0.0018723668763414025,1.00041663646698,0.0,0.0,0.0,-8.997245788574219,1.2183727025985718,5.441286563873291,1628.519287109375,0
1387.5550000000003,0.015943748876452446,-0.005209932569414377,0.00034991095890291035,0.0,0.0,0.0,0.0,0.0003592348948586732,-0.0009725524578243494,0.00036523648304864764,1.0013519525527954,0.0,0.0,0.0,-8.98808479309082,1.2149254083633423,5.4406843185424805,1626.861083984375,0
1397.4539999999997,0.016039596870541573,-0.005189816001802683,0.0003712096659000963,0.0,0.0,0.0,0.0,-0.0007542766979895532,0.0015073027461767197,-0.0008723461651243269,1.0011138916015625,0.0,0.0,0.0,-8.990334510803223,1.2191262245178223,5.438190937042236,1627.2684326171875,0
1407.3719999999994,0.015994945541024208,-0.005186258349567652,0.0003772731579374522,0.0,0.0,0.0,0.0,0.0022471961565315723,0.0009734166669659317,-0.0034572137519717216,0.9990537762641907,0.0,0.0,0.0,-8.980985641479492,1.2186583280563354,5.430487155914307,1625.576171875,0
1417.2759999999998,0.016144927591085434,-0.0051956018432974815,0.00037742959102615714,0.0,0.0,0.0,0.0,-0.0034721861593425274,-0.002417805138975382,-0.0018952228128910065,1.0000650882720947,0.0,0.0,0.0,-8.982001304626465,1.2226228713989258,5.437407493591309,1625.760009765625,0
1427.2020000000011,0.016103867441415787,-0.005192973185330629,0.0003835379611700773,0.0,0.0,0.0,0.0,0.0020474076736718416,-0.0002809511497616768,0.00019103559316135943,1.0007364749908447,0.0,0.0,0.0,-8.973325729370117,1.2294420003890991,5.4353413581848145,1624.1898193359375,0
1437.098,0.016197366639971733,-0.005154889542609453,0.000338916783221066,0.0,0.0,0.0,0.0,0.00016970901924651116,0.0013794831465929747,-0.000671569025143981,0.9981489181518555,0.0,0.0,0.0,-8.97817611694336,1.2404485940933228,5.442408561706543,1625.0677490234375,0
1447.0149999999994,0.016160117462277412,-0.00515077356249094,0.00034154218155890703,0.0,0.0,0.0,0.0,0.0018318283837288618,0.0012793911155313253,-0.0005772692966274917,0.998979389667511,0.0,0.0,0.0,-8.968873023986816,1.2392412424087524,5.435223579406738,1623.3839111328125,0
1456.92,0.016190771013498306,-0.005171152763068676,0.000347262917784974,0.0,0.0,0.0,0.0,-0.0020341144409030676,0.004021449014544487,-0.0016615022905170918,0.997819185256958,0.0,0.0,0.0,-8.97463321685791,1.2418869733810425,5.4289069175720215,1624.4263916015625,0
1466.839,0.016152970492839813,-0.005169042851775885,0.00034761553979478776,0.0,0.0,0.0,0.0,0.0008487903978675604,-0.0033572467509657145,-0.001085598487406969,0.9996968507766724,0.0,0.0,0.0,-8.965776443481445,1.2400377988815308,5.422616004943848,1622.823486328125,0
1476.7430000000004,0.016192039474844933,-0.0053045921958982944,0.0003875584516208619,0.0,0.0,0.0,0.0,0.0013417446753010154,0.00041433953447267413,-0.0011644859332591295,1.0006933212280273,0.0,0.0,0.0,-8.968469619750977,1.2309049367904663,5.418125629425049,1623.310791015625,0
1486.6669999999995,0.016154328361153603,-0.005304727237671614,0.00038979071541689336,0.0,0.0,0.0,0.0,0.0005165631882846355,0.0009558947058394551,0.000750879233237356,1.0001622438430786,0.0,0.0,0.0,-8.959744453430176,1.2349331378936768,5.410068035125732,1621.7315673828125,0
1496.5720000000001,0.01617623120546341,-0.005361017305403948,0.0004441059136297554,0.0,0.0,0.0,0.0,-0.0003629332350101322,0.004277531057596207,0.002299149055033922,0.9994118213653564,0.0,0.0,0.0,-8.962362289428711,1.232698678970337,5.390347957611084,1622.2054443359375,0
1506.487000000001,0.016136828809976578,-0.005361624527722597,0.000451079715276137,0.0,0.0,0.0,0.0,0.0021140663884580135,0.0022031012922525406,-0.0008254537242464721,0.9982644319534302,0.0,0.0,0.0,-8.952653884887695,1.22868812084198,5.385043144226074,1620.4482421875,0
1516.3909999999996,0.016177048906683922,-0.0053847734816372395,0.00046861337614245713,0.0,0.0,0.0,0.0,-0.00034357543336227536,-0.00045240254257805645,0.0001770264352671802,1.0000144243240356,0.0,0.0,0.0,-8.954340934753418,1.2311514616012573,5.37432861328125,1620.753662109375,0
1526.3109999999997,0.016136817634105682,-0.005384999793022871,0.00047513682511635125,0.0,0.0,0.0,0.0,0.0012421157443895936,0.0036857016384601593,0.0017428725259378552,1.000449299812317,0.0,0.0,0.0,-8.945219993591309,1.221501111984253,5.369754791259766,1619.1026611328125,0
1536.2090000000007,0.01613229140639305,-0.005317058879882097,0.00039027578895911574,0.0,0.0,0.0,0.0,-0.002001195214688778,-0.003722249297425151,0.002374422736465931,0.9994891881942749,0.0,0.0,0.0,-8.964037895202637,1.2377269268035889,5.371453762054443,1622.508544921875,0
1546.1260000000002,0.016087401658296585,-0.005313459783792496,0.00039005751023069024,0.0,0.0,0.0,0.0,-0.0019034527940675616,-0.0010134257609024644,0.0035758703015744686,0.9999303221702576,0.0,0.0,0.0,-8.954737663269043,1.2370444536209106,5.377201080322266,1620.8253173828125,0
1556.032000000001,0.01613565906882286,-0.005242875777184963,0.0003554672875907272,0.0,0.0,0.0,0.0,-0.0025584653485566378,-0.005557024385780096,0.006272684782743454,1.0004795789718628,0.0,0.0,0.0,-8.957674026489258,1.2596625089645386,5.377215385437012,1621.35693359375,0
1565.9539999999997,0.01609022729098797,-0.005235529504716396,0.0003530422109179199,0.0,0.0,0.0,0.0,-0.002634294331073761,0.001970603596419096,0.0014166736509650946,1.0012377500534058,0.0,0.0,0.0,-8.94824504852295,1.2575403451919556,5.38058614730835,1619.650146484375,0
1575.853000000001,0.01614272966980934,-0.00523851253092289,0.0002964528393931687,0.0,0.0,0.0,0.0,0.0030674333684146404,0.0029143409337848425,-0.0002145825419574976,1.0026657581329346,0.0,0.0,0.0,-8.969568252563477,1.2660359144210815,5.387997627258301,1623.5096435546875,0
1585.7749999999996,0.016097459942102432,-0.005232120398432016,0.0002923243446275592,0.0,0.0,0.0,0.0,-0.0012050115037709475,0.0031373240053653717,0.00039726615068502724,1.0005868673324585,0.0,0.0,0.0,-8.960725784301758,1.2643040418624878,5.37545919418335,1621.9093017578125,0
1595.675000000001,0.016057513654232025,-0.005232472904026508,0.00029253531829454005,0.0,0.0,0.0,0.0,-0.0022735416423529387,-0.003557464573532343,0.004022669512778521,0.9991258978843689,0.0,0.0,0.0,-8.981077194213867,1.2732322216033936,5.369125843048096,1625.5928955078125,0
1605.594000000001,0.016009937971830368,-0.005224583670496941,0.00029060858651064336,0.0,0.0,0.0,0.0,-0.003363976487889886,-0.00026521633844822645,0.0028742256108671427,0.9981626272201538,0.0,0.0,0.0,-8.971014976501465,1.2760270833969116,5.369354724884033,1623.771484375,0
1615.4969999999994,0.016027620062232018,-0.0052625080570578575,0.0003144323418382555,0.0,0.0,0.0,0.0,-0.000677735370118171,-0.006218831054866314,0.0022359266877174377,0.9984915852546692,0.0,0.0,0.0,-8.983171463012695,1.281550645828247,5.374443054199219,1625.971923828125,0
1625.4189999999999,0.015979427844285965,-0.005255166441202164,0.0003120331675745547,0.0,0.0,0.0,0.0,-0.00028175502666272223,0.00665120268240571,-0.001155295642092824,0.9990320205688477,0.0,0.0,0.0,-8.973766326904297,1.2764168977737427,5.3776679039001465,1624.26953125,0
1635.3270000000011,0.015966754406690598,-0.005231641232967377,0.0002961171558126807,0.0,0.0,0.0,0.0,0.0010821337345987558,-0.0016401075990870595,-0.003742062719538808,1.0013740062713623,0.0,0.0,0.0,-8.986434936523438,1.2818955183029175,5.36309814453125,1626.5625,0
1645.241,0.01591569371521473,-0.00522122485563159,0.0002898070961236954,0.0,0.0,0.0,0.0,0.0002991210494656116,0.0021091424860060215,-0.0009122777846641839,1.000461220741272,0.0,0.0,0.0,-8.987777709960938,1.2867082357406616,5.36643123626709,1626.8055419921875,0
1655.1450000000004,0.01594807207584381,-0.005227840039879084,0.0003142220957670361,0.0,0.0,0.0,0.0,-0.0032961121760308743,0.0008326221723109484,0.001008389750495553,0.9994803667068481,0.0,0.0,0.0,-8.987494468688965,1.2870714664459229,5.373502254486084,1626.7542724609375,0
1665.0869999999995,0.015919340774416924,-0.005205983761698008,0.0002847487630788237,0.0,0.0,0.0,0.0,0.0010432725539430976,0.0025088698603212833,3.997985913883895e-05,0.9994216561317444,0.0,0.0,0.0,-8.992764472961426,1.29996657371521,5.377021312713623,1627.7081298828125,0
1674.964,0.01596870645880699,-0.005221627186983824,0.0003079767047893256,0.0,0.0,0.0,0.0,-0.0003726090944837779,0.0006453884998336434,-0.00161949812900275,1.0008199214935303,0.0,0.0,0.0,-8.998335838317871,1.2984882593154907,5.391183376312256,1628.716552734375,0
1684.8970000000008,0.016010086983442307,-0.005089802201837301,0.000227815326070413,0.0,0.0,0.0,0.0,-0.00023008143762126565,0.0030247007962316275,0.0021657468751072884,0.9997400641441345,0.0,0.0,0.0,-9.00067138671875,1.3194797039031982,5.403388023376465,1629.139404296875,0
1694.786,0.016053516417741776,-0.005112831946462393,0.0002349511196371168,0.0,0.0,0.0,0.0,0.00026155970408581197,-0.0012828184990212321,-5.553069058805704e-05,1.0009279251098633,0.0,0.0,0.0,-8.991209030151367,1.3204277753829956,5.38939094543457,1627.4267578125,0
1704.7070000000003,0.016051920130848885,-0.005056674126535654,0.00018077729328069836,0.0,0.0,0.0,0.0,-0.0016694421647116542,0.003855988848954439,0.001819358323700726,1.0018985271453857,0.0,0.0,0.0,-8.991565704345703,1.3370665311813354,5.384288311004639,1627.4912109375,0
1714.6080000000002,0.016121340915560722,-0.0051108309999108315,0.00018283365352544934,0.0,0.0,0.0,0.0,-0.003637322224676609,-0.002965535270050168,-0.0006062761531211436,1.0000680685043335,0.0,0.0,0.0,-8.995377540588379,1.3362661600112915,5.385152816772461,1628.18115234375,0
1724.527,0.01605549268424511,-0.005097776651382446,0.0002001205284614116,0.0,0.0,0.0,0.0,-0.0009003590093925595,0.0001025701203616336,0.00016767607303336263,0.9981235861778259,0.0,0.0,0.0,-8.997076988220215,1.3344690799713135,5.380654335021973,1628.4886474609375,0
1734.4300000000003,0.01606825366616249,-0.00515649002045393,0.00018313904001843184,0.0,0.0,0.0,0.0,-0.0007043022778816521,0.0033842516131699085,0.0019662168342620134,0.9984390139579773,0.0,0.0,0.0,-9.001895904541016,1.3280913829803467,5.388579845428467,1629.3609619140625,0
1744.3520000000008,0.016035595908761024,-0.005114409606903791,0.0001656493841437623,0.0,0.0,0.0,0.0,0.001344128861092031,-0.0021235495805740356,0.0010613476624712348,0.997254490852356,0.0,0.0,0.0,-9.00268840789795,1.3389445543289185,5.382129669189453,1629.5045166015625,0
1754.2559999999994,0.016026608645915985,-0.005070449318736792,0.0001824980427045375,0.0,0.0,0.0,0.0,-0.0012570484541356564,-0.0012755057541653514,0.00035672352532856166,0.9983972311019897,0.0,0.0,0.0,-8.993228912353516,1.336081862449646,5.380421161651611,1627.792236328125,0
1764.17,0.01596861146390438,-0.005094486754387617,0.00017221567395608872,0.0,0.0,0.0,0.0,-0.00018686447583604604,0.00072646071203053,0.0014348301338031888,0.998480498790741,0.0,0.0,0.0,-8.992936134338379,1.3322025537490845,5.370528221130371,1627.7392578125,0
1774.076000000001,0.016071893274784088,-0.005097496323287487,0.00020244898041710258,0.0,0.0,0.0,0.0,0.0008726162486709654,0.005378901492804289,0.0009520892635919154,1.0002734661102295,0.0,0.0,0.0,-8.983019828796387,1.3345987796783447,5.353874683380127,1625.9444580078125,0
1783.9879999999994,0.016039127483963966,-0.0050811064429581165,0.00018183837528340518,0.0,0.0,0.0,0.0,-0.004229800309985876,0.003456782316789031,0.002557602012529969,1.000235915184021,0.0,0.0,0.0,-8.987319946289062,1.3389058113098145,5.343167304992676,1626.7227783203125,0
1793.8960000000006,0.0161159448325634,-0.0050651743076741695,0.00021460041170939803,0.0,0.0,0.0,0.0,0.0016467520035803318,-0.0009032661328092217,-0.0033865859732031822,0.999858558177948,0.0,0.0,0.0,-8.977784156799316,1.3379977941513062,5.328363418579102,1624.996826171875,0
1803.8140000000003,0.016045084223151207,-0.005119718611240387,0.00022197490034159273,0.0,0.0,0.0,0.0,0.00034593016607686877,0.0019557620398700237,0.0015194843290373683,0.999976634979248,0.0,0.0,0.0,-8.981179237365723,1.3230129480361938,5.318588733673096,1625.611328125,0
1813.7180000000008,0.016098808497190475,-0.005113547667860985,0.00024531944654881954,0.0,0.0,0.0,0.0,0.0010525125544518232,0.0033261324279010296,0.0019872200209647417,0.9992344975471497,0.0,0.0,0.0,-8.972334861755371,1.3224225044250488,5.29874849319458,1624.0103759765625,0
1823.630000000001,0.016022171825170517,-0.005162910092622042,0.0002623386972118169,0.0,0.0,0.0,0.0,-0.0015200362540781498,0.0002446684520691633,-0.0009667860576882958,0.9994382858276367,0.0,0.0,0.0,-8.97685432434082,1.3157105445861816,5.283838272094727,1624.828369140625,0
1833.5400000000009,0.016080480068922043,-0.005146379116922617,0.00029844461823813617,0.0,0.0,0.0,0.0,0.0001645658485358581,0.0033043427392840385,-0.00103694386780262,0.9990575909614563,0.0,0.0,0.0,-8.967968940734863,1.3143714666366577,5.283383846282959,1623.2203369140625,0
1843.4570000000003,0.016037695109844208,-0.005159481894224882,0.00028677278896793723,0.0,0.0,0.0,0.0,-0.0015927273780107498,0.0016771071823313832,-0.0012431490467861295,0.9993880987167358,0.0,0.0,0.0,-8.972809791564941,1.3178832530975342,5.27858829498291,1624.0965576171875,0
1853.366,0.016096020117402077,-0.005193002056330442,0.0002994451788254082,0.0,0.0,0.0,0.0,0.0019717260729521513,0.0011275802971795201,0.00017016107449308038,1.0005139112472534,0.0,0.0,0.0,-8.96339225769043,1.3223233222961426,5.272753715515137,1622.391845703125,0
1863.2810000000009,0.016071341931819916,-0.005132711958140135,0.0002873492776416242,0.0,0.0,0.0,0.0,0.000903404550626874,0.00124206836335361,0.0016174588818103075,1.0005171298980713,0.0,0.0,0.0,-8.969087600708008,1.3269264698028564,5.272416591644287,1623.4227294921875,0
1873.1849999999995,0.016117045655846596,-0.005175264086574316,0.00029075657948851585,0.0,0.0,0.0,0.0,-0.00027728828717954457,-0.0017208767822012305,0.003912820480763912,1.001535415649414,0.0,0.0,0.0,-8.9606351852417,1.316812515258789,5.265870094299316,1621.892822265625,0
1883.1010000000006,0.01608005352318287,-0.005121794994920492,0.0002889570314437151,0.0,0.0,0.0,0.0,-0.0002631097740959376,0.001239563338458538,0.001976972445845604,1.001396894454956,0.0,0.0,0.0,-8.964489936828613,1.3235050439834595,5.268273830413818,1622.590576171875,0
1893.0069999999996,0.016134126111865044,-0.005178102757781744,0.0002921575796790421,0.0,0.0,0.0,0.0,0.0006372236530296504,0.005975550971925259,-0.0020868657156825066,1.00065016746521,0.0,0.0,0.0,-8.955286026000977,1.327547550201416,5.258536338806152,1620.924560546875,0
1902.9179999999997,0.0160569716244936,-0.005206787493079901,0.00031121462234295905,0.0,0.0,0.0,0.0,0.0030563888140022755,-0.0015784712741151452,0.00032031326554715633,1.0034583806991577,0.0,0.0,0.0,-8.961579322814941,1.3158825635910034,5.230776786804199,1622.0638427734375,0
1912.8289999999997,0.016100334003567696,-0.005271228961646557,0.00031680651591159403,0.0,0.0,0.0,0.0,-0.0032810100819915533,-0.003761118510738015,0.00801571924239397,1.0003910064697266,0.0,0.0,0.0,-8.96733570098877,1.3031028509140015,5.242505073547363,1623.1055908203125,0
1922.741,0.01603751629590988,-0.0052614943124353886,0.0003342728887218982,0.0,0.0,0.0,0.0,0.0019638941157609224,0.0022727276664227247,-0.0014261821052059531,0.9991452097892761,0.0,0.0,0.0,-8.971763610839844,1.309794306755066,5.234273433685303,1623.9071044921875,0
1932.6509999999998,0.016089728102087975,-0.005306873470544815,0.00035740892053581774,0.0,0.0,0.0,0.0,0.0023715209681540728,-9.353714267490432e-05,0.0006070112576708198,0.9999046325683594,0.0,0.0,0.0,-8.978940963745117,1.3060524463653564,5.244058609008789,1625.2061767578125,0
1942.5650000000005,0.0160581786185503,-0.005262394435703754,0.000348077854141593,0.0,0.0,0.0,0.0,-0.003174652112647891,-0.004157401621341705,0.0031433759722858667,0.9998185038566589,0.0,0.0,0.0,-8.980974197387695,1.310526728630066,5.233636856079102,1625.57421875,0
1952.4740000000002,0.016094477847218513,-0.0053063053637743,0.00036562400055117905,0.0,0.0,0.0,0.0,0.001831306959502399,-0.0005656671128235757,-0.004340899642556906,1.0014896392822266,0.0,0.0,0.0,-8.98728084564209,1.3075429201126099,5.249186038970947,1626.7156982421875,0
1962.3919999999998,0.01603671722114086,-0.0052747721783816814,0.0003865651960950345,0.0,0.0,0.0,0.0,-0.0011076133232563734,0.0014590580249205232,-0.001016712747514248,0.9997749328613281,0.0,0.0,0.0,-8.98893928527832,1.3076417446136475,5.250543594360352,1627.0157470703125,0
1972.304,0.016072966158390045,-0.005296272225677967,0.00041174309444613755,0.0,0.0,0.0,0.0,-0.00010154561459785327,-0.0007653207867406309,0.0021248257253319025,0.9990703463554382,0.0,0.0,0.0,-8.980400085449219,1.3069071769714355,5.243154525756836,1625.47021484375,0
1982.210000000001,0.016044404357671738,-0.005253504030406475,0.00039900370757095516,0.0,0.0,0.0,0.0,-0.0009428574703633785,-0.0001864864898379892,-0.001054628985002637,0.9996984601020813,0.0,0.0,0.0,-8.983319282531738,1.3128381967544556,5.242862224578857,1625.9986572265625,0
1992.1170000000002,0.01609131507575512,-0.005284455139189959,0.0004219980037305504,0.0,0.0,0.0,0.0,-0.001436142367310822,-0.0049095917493104935,0.0021316814236342907,1.0007392168045044,0.0,0.0,0.0,-8.973594665527344,1.313446283340454,5.232669353485107,1624.238525390625,0
2002.0329999999994,0.016058923676609993,-0.00524194585159421,0.0004116330819670111,0.0,0.0,0.0,0.0,0.0006216880865395069,0.004172296728938818,-0.0012774155475199223,1.0008682012557983,0.0,0.0,0.0,-8.977751731872559,1.3280078172683716,5.241035461425781,1624.9908447265625,0
2011.9449999999997,0.01610160805284977,-0.0052787307649850845,0.0004306213231757283,0.0,0.0,0.0,0.0,-0.0044776080176234245,0.0025376512203365564,0.0017731431871652603,0.9991732835769653,0.0,0.0,0.0,-8.968611717224121,1.3191617727279663,5.230557918548584,1623.3365478515625,0
2021.8610000000008,0.016114845871925354,-0.005174924619495869,0.00038390347617678344,0.0,0.0,0.0,0.0,0.00038864478119648993,-0.004753564018756151,-0.0010735123651102185,0.9999157786369324,0.0,0.0,0.0,-8.972834587097168,1.345309853553772,5.217963218688965,1624.1009521484375,0
2031.7620000000006,0.016126904636621475,-0.005247355438768864,0.00037161115324124694,0.0,0.0,0.0,0.0,-0.00021536411077249795,-0.004011872690171003,-0.002740447875112295,1.000883936882019,0.0,0.0,0.0,-8.978411674499512,1.334367036819458,5.224964141845703,1625.1103515625,0
2041.6820000000007,0.016118420287966728,-0.005168377887457609,0.0003405723546165973,0.0,0.0,0.0,0.0,0.0019250127952545881,-0.0002636974095366895,0.0014652234967797995,1.0002820491790771,0.0,0.0,0.0,-8.980036735534668,1.3525550365447998,5.233920574188232,1625.404541015625,0
2051.5869999999995,0.01611395552754402,-0.005199013277888298,0.0003393713559489697,0.0,0.0,0.0,0.0,-0.0008096406818367541,-0.002157177310436964,-0.002681707963347435,1.000052809715271,0.0,0.0,0.0,-8.987534523010254,1.3447619676589966,5.247513771057129,1626.7615966796875,0
2061.5069999999996,0.016088712960481644,-0.005128118209540844,0.00032456612098030746,0.0,0.0,0.0,0.0,-0.001276599825359881,0.0007237368845380843,0.005195399280637503,0.9996598958969116,0.0,0.0,0.0,-8.991721153259277,1.3635854721069336,5.252236366271973,1627.5194091796875,0
2071.406000000001,0.016070639714598656,-0.005136668216437101,0.0003235441690776497,0.0,0.0,0.0,0.0,-0.0015918194549158216,0.00045881379628553987,0.0003108695091214031,0.9990882873535156,0.0,0.0,0.0,-8.989167213439941,1.353004813194275,5.2502007484436035,1627.0572509765625,0
2081.335000000001,0.016000250354409218,-0.005160095635801554,0.0003285457787569612,0.0,0.0,0.0,0.0,-0.000491088256239891,0.00044964527478441596,0.004244890995323658,0.9998784065246582,0.0,0.0,0.0,-8.993471145629883,1.3459867238998413,5.243876934051514,1627.8360595703125,0
2091.2299999999996,0.015995213761925697,-0.005166639108210802,0.0003345967852510512,0.0,0.0,0.0,0.0,0.0009139453759416938,0.006207597907632589,-0.001040176604874432,0.999431848526001,0.0,0.0,0.0,-9.002345085144043,1.3444433212280273,5.239511489868164,1629.4422607421875,0
2101.1489999999994,0.015928352251648903,-0.00516396202147007,0.0003420795837882906,0.0,0.0,0.0,0.0,-0.0006409617490135133,0.0023460276424884796,-0.0004899417399428785,0.9984913468360901,0.0,0.0,0.0,-9.003072738647461,1.3361632823944092,5.228628158569336,1629.5740966796875,0
2111.050000000001,0.015996288508176804,-0.005179680418223143,0.00036922431900165975,0.0,0.0,0.0,0.0,-0.0001697041589068249,-0.0003903435717802495,0.0010059188352897763,1.000883936882019,0.0,0.0,0.0,-9.00128173828125,1.3292840719223022,5.243271350860596,1629.2498779296875,0
2120.973,0.01594735123217106,-0.005171939264982939,0.000355633586877957,0.0,0.0,0.0,0.0,-0.0007580845849588513,-0.0005238643498159945,-0.0005494703073054552,1.0014657974243164,0.0,0.0,0.0,-9.000988960266113,1.3265267610549927,5.240976333618164,1629.1968994140625,0
2130.8719999999994,0.015999769791960716,-0.005184503737837076,0.00038055350887589157,0.0,0.0,0.0,0.0,0.0008996159303933382,-0.0015721985837444663,0.004164078272879124,0.9999160766601562,0.0,0.0,0.0,-8.998407363891602,1.3243075609207153,5.255290985107422,1628.7296142578125,0
2140.7929999999997,0.015947168692946434,-0.0051740240305662155,0.0003723591798916459,0.0,0.0,0.0,0.0,-0.0013676112284883857,0.007332906126976013,-0.0008641078602522612,0.9997560381889343,0.0,0.0,0.0,-8.999044418334961,1.3253583908081055,5.256260871887207,1628.8448486328125,0
2150.6939999999995,0.015968160703778267,-0.005179100204259157,0.0003944657219108194,0.0,0.0,0.0,0.0,0.0005827689310535789,-0.00031567944097332656,0.0026781451888382435,1.0001732110977173,0.0,0.0,0.0,-9.007190704345703,1.3197717666625977,5.250997066497803,1630.3194580078125,0
2160.6129999999994,0.01590927690267563,-0.005168359726667404,0.0003916879650205374,0.0,0.0,0.0,0.0,3.9334485336439684e-05,0.0025526918470859528,-0.0005907798768021166,1.000623345375061,0.0,0.0,0.0,-9.007080078125,1.3136928081512451,5.249938488006592,1630.299560546875,0
