timestamp,stateEstimate.x,stateEstimate.y,stateEstimate.z,controller.cmd_thrust,controller.cmd_roll,controller.cmd_pitch,controller.cmd_yaw,controller.r_roll,controller.r_pitch,controller.r_yaw,controller.accelz,controller.actuatorThrust,controller.roll,controller.pitch,controller.yaw,controller.rollRate,controller.pitchRate,controller.yawRate,controller.ctr_yaw
0.0,0.06746268272399902,-0.014096598140895367,0.0017734032589942217,0.0,0.0,0.0,0.0,0.0008436038624495268,0.005483709275722504,-0.0027632610872387886,0.9999775290489197,0.0,0.0,0.0,51.672691345214844,6.112240314483643,5.122080326080322,-9352.859375,0
9.877000000000407,0.06736944615840912,-0.014156890101730824,0.0017313637072220445,0.0,0.0,0.0,0.0,0.0007567204302176833,-0.0034511673729866743,0.002571952762082219,0.9991399645805359,0.0,0.0,0.0,51.68495559692383,6.106906890869141,5.0954766273498535,-9355.0791015625,0
19.764000000001033,0.06745700538158417,-0.0140963364392519,0.0017591124633327127,0.0,0.0,0.0,0.0,0.0007605074788443744,0.0006001206929795444,0.0002960731217171997,0.9999556541442871,0.0,0.0,0.0,51.671966552734375,6.111194133758545,5.101598739624023,-9352.7294921875,0
29.647000000000844,0.0673496350646019,-0.014136501587927341,0.001721730688586831,0.0,0.0,0.0,0.0,-0.0010687255999073386,-0.0024078097194433212,-0.0011342671932652593,0.9998363852500916,0.0,0.0,0.0,51.67988967895508,6.1067399978637695,5.100273132324219,-9354.1630859375,0
39.53700000000026,0.06744334101676941,-0.014037865214049816,0.001751107512973249,0.0,0.0,0.0,0.0,-0.00027414708165451884,-0.0044019767083227634,0.0004473035514820367,0.9991345405578613,0.0,0.0,0.0,51.681976318359375,6.114313125610352,5.117751121520996,-9354.5400390625,0
49.423000000000684,0.06735329329967499,-0.014078844338655472,0.0017160228453576565,0.0,0.0,0.0,0.0,-0.0021444123703986406,-0.0022239862009882927,-0.0010394047712907195,0.9991067051887512,0.0,0.0,0.0,51.693260192871094,6.1062774658203125,5.1087260246276855,-9356.5830078125,0
59.301000000001295,0.06739108264446259,-0.014070210978388786,0.0017862526001408696,0.0,0.0,0.0,0.0,0.003082076320424676,0.0008415641495957971,0.0005637399153783917,0.9989426732063293,0.0,0.0,0.0,51.67767333984375,6.1125030517578125,5.125633239746094,-9353.7626953125,0
69.1880000000001,0.06735605001449585,-0.014151491224765778,0.0017556751845404506,0.0,0.0,0.0,0.0,-0.0010910793207585812,-0.0020311898551881313,-0.00021692940208595246,1.0012446641921997,0.0,0.0,0.0,51.687652587890625,6.101142883300781,5.119095325469971,-9355.5673828125,0
79.06999999999971,0.06737326830625534,-0.014171497896313667,0.0018465743632987142,0.0,0.0,0.0,0.0,-0.0010814520064741373,0.004589146468788385,0.0005669226520694792,0.999226450920105,0.0,0.0,0.0,51.6724967956543,6.1018266677856445,5.111367702484131,-9352.8251953125,0
88.95300000000134,0.06737058609724045,-0.014298470690846443,0.0018086131894961,0.0,0.0,0.0,0.0,0.0011049724416807294,0.0020204740576446056,0.0014100760454311967,0.9999131560325623,0.0,0.0,0.0,51.67980194091797,6.081745624542236,5.1057562828063965,-9354.1474609375,0
98.83899999999994,0.06741651892662048,-0.014266706071794033,0.0018825174774974585,0.0,0.0,0.0,0.0,0.001977240201085806,0.008689786307513714,0.0007179450476542115,0.9995310306549072,0.0,0.0,0.0,51.6661491394043,6.091400146484375,5.1025776863098145,-9351.6767578125,0
108.72199999999975,0.06740503758192062,-0.014319171197712421,0.001885323435999453,0.0,0.0,0.0,0.0,0.0005911421030759811,-0.004728188272565603,0.0002788531419355422,0.9995142221450806,0.0,0.0,0.0,51.677459716796875,6.073988437652588,5.089134693145752,-9353.72265625,0
118.60800000000017,0.06746227294206619,-0.014274988323450089,0.0019533541053533554,0.0,0.0,0.0,0.0,0.0014223919715732336,-0.0033225822262465954,0.0006017956766299903,1.0005016326904297,0.0,0.0,0.0,51.66029739379883,6.0803680419921875,5.091453552246094,-9350.6171875,0
128.4989999999998,0.06732727587223053,-0.01431545801460743,0.0019266365561634302,0.0,0.0,0.0,0.0,-0.000981645891442895,-0.0004178698582109064,0.001280748751014471,1.0001435279846191,0.0,0.0,0.0,51.66412353515625,6.081766128540039,5.100571155548096,-9351.30859375,0
138.3780000000006,0.06743684411048889,-0.014192584902048111,0.0019511994905769825,0.0,0.0,0.0,0.0,0.0019976755138486624,-0.00018989102682098746,-0.00020792950817849487,1.001773476600647,0.0,0.0,0.0,51.65657424926758,6.081238746643066,5.1255340576171875,-9349.9423828125,0
148.26200000000063,0.06731907278299332,-0.014256004244089127,0.0019192596664652228,0.0,0.0,0.0,0.0,-0.000550944940187037,0.0006574304425157607,-4.859827095060609e-05,1.0010863542556763,0.0,0.0,0.0,51.66621017456055,6.079731464385986,5.12001371383667,-9351.6865234375,0
158.14600000000064,0.06741586327552795,-0.01419216487556696,0.001938909525051713,0.0,0.0,0.0,0.0,0.0019676145166158676,0.001470309915021062,0.0007244244334287941,1.0000388622283936,0.0,0.0,0.0,51.64817428588867,6.087710380554199,5.127871513366699,-9348.421875,0
168.03000000000065,0.06727663427591324,-0.014212677255272865,0.0019186785211786628,0.0,0.0,0.0,0.0,0.0012603984214365482,0.00023635780962649733,0.002141845179721713,0.9989099502563477,0.0,0.0,0.0,51.658199310302734,6.090513229370117,5.110382556915283,-9350.236328125,0
177.91899999999987,0.06741220504045486,-0.014094090089201927,0.0019027219386771321,0.0,0.0,0.0,0.0,-0.0016612278996035457,-0.0005941442213952541,-0.003059535985812545,1.0012353658676147,0.0,0.0,0.0,51.6390495300293,6.095464706420898,5.134522438049316,-9346.7705078125,0
187.8140000000003,0.06747738271951675,-0.01411964651197195,0.0018660121131688356,0.0,0.0,0.0,0.0,0.0005595850525423884,-0.008010962046682835,0.001402372377924621,1.0021944046020508,0.0,0.0,0.0,51.622169494628906,6.078269004821777,5.132072925567627,-9343.7158203125,0
197.6840000000011,0.06747738271951675,-0.01411964651197195,0.0018660121131688356,0.0,0.0,0.0,0.0,-0.003834384959191084,-0.0019605718553066254,0.0008323899237439036,1.0003039836883545,0.0,0.0,0.0,51.622169494628906,6.078269004821777,5.132072925567627,-9343.7158203125,0
207.57600000000093,0.06746701151132584,-0.01411412563174963,0.0018368930323049426,0.0,0.0,0.0,0.0,-0.001784547814168036,-0.000924634572584182,0.003069185884669423,0.9999648332595825,0.0,0.0,0.0,51.66107177734375,6.07814884185791,5.1509599685668945,-9350.7578125,0
217.45300000000134,0.06754288077354431,-0.014166798442602158,0.0018432720098644495,0.0,0.0,0.0,0.0,-0.0005497289239428937,-0.0018815029179677367,-0.00023059756495058537,1.0006920099258423,0.0,0.0,0.0,51.610591888427734,6.080337047576904,5.145793437957764,-9341.6201171875,0
227.35200000000077,0.06745276600122452,-0.01409341860562563,0.0018076717387884855,0.0,0.0,0.0,0.0,-0.0008374743047170341,-0.004500668030232191,0.0025946979876607656,0.9999440908432007,0.0,0.0,0.0,51.652122497558594,6.080758094787598,5.153170585632324,-9349.1376953125,0
355.84200000000055,0.06754015386104584,-0.014190701767802238,0.0018586921505630016,0.0,0.0,0.0,0.0,-0.0014355452731251717,8.12173675512895e-06,0.002297982107847929,0.9997959136962891,0.0,0.0,0.0,51.56687927246094,6.0631818771362305,5.174930572509766,-9333.7080078125,0
365.72400000000016,0.06744538247585297,-0.014147964306175709,0.0018403636058792472,0.0,0.0,0.0,0.0,-0.001333466381765902,-0.0021998491138219833,-0.0014182331506162882,0.9988541603088379,0.0,0.0,0.0,51.615875244140625,6.070826053619385,5.173435211181641,-9342.576171875,0
375.6180000000004,0.06752435863018036,-0.01420255284756422,0.0018416165839880705,0.0,0.0,0.0,0.0,0.003289312357082963,0.002265840768814087,0.0020865246187895536,0.9979320168495178,0.0,0.0,0.0,51.56511306762695,6.0651164054870605,5.165658473968506,-9333.3876953125,0
385.4930000000004,0.0674670934677124,-0.01412421464920044,0.0018128732917830348,0.0,0.0,0.0,0.0,4.8406065616291016e-05,-0.004142330028116703,0.00023850781144574285,0.9989683032035828,0.0,0.0,0.0,51.60051345825195,6.069525241851807,5.173969745635986,-9339.796875,0
395.3829999999998,0.06754855066537857,-0.014176837168633938,0.0018098232103511691,0.0,0.0,0.0,0.0,0.00026358486502431333,-0.0010691520292311907,0.002362895058467984,0.9992786645889282,0.0,0.0,0.0,51.54953384399414,6.064464092254639,5.172603130340576,-9330.568359375,0
405.2620000000006,0.06750886142253876,-0.014056052081286907,0.001812951173633337,0.0,0.0,0.0,0.0,0.0005064848810434341,0.0011274466523900628,0.00282328762114048,0.9988927245140076,0.0,0.0,0.0,51.61083221435547,6.066102981567383,5.186672210693359,-9341.6630859375,0
415.14600000000064,0.06759364902973175,-0.014106298796832561,0.001809284440241754,0.0,0.0,0.0,0.0,-0.0033850246109068394,-0.0020185939501971006,0.003296771552413702,1.0000300407409668,0.0,0.0,0.0,51.56103515625,6.063399791717529,5.182532787322998,-9332.650390625,0
425.03100000000086,0.06748940795660019,-0.014046376571059227,0.001771521638147533,0.0,0.0,0.0,0.0,6.96438000886701e-05,-0.007243316620588303,-0.00170795526355505,0.9997091293334961,0.0,0.0,0.0,51.62086868286133,6.072750091552734,5.181893348693848,-9343.48046875,0
434.91300000000047,0.06757484376430511,-0.01409571897238493,0.0017652653623372316,0.0,0.0,0.0,0.0,0.00360671104863286,-0.0035125943832099438,0.002302328124642372,0.9978622198104858,0.0,0.0,0.0,51.57145690917969,6.076618671417236,5.189428329467773,-9334.5361328125,0
444.8060000000005,0.06748003512620926,-0.014082673005759716,0.0017424855614081025,0.0,0.0,0.0,0.0,-0.00017048284644261003,-0.0003046822967007756,-0.0007169031305238605,1.000245213508606,0.0,0.0,0.0,51.60847473144531,6.0789875984191895,5.192290306091309,-9341.236328125,0
454.6920000000009,0.06756424158811569,-0.01413356326520443,0.0017345452215522528,0.0,0.0,0.0,0.0,0.00038011837750673294,0.0041049388237297535,-0.0013013184070587158,1.0002963542938232,0.0,0.0,0.0,51.559024810791016,6.071875095367432,5.186020851135254,-9332.287109375,0
464.58100000000013,0.06744077056646347,-0.014068656601011753,0.001724804169498384,0.0,0.0,0.0,0.0,-0.0014216959243640304,-0.0008122928556986153,-0.00118674011901021,0.9997204542160034,0.0,0.0,0.0,51.598575592041016,6.081418991088867,5.186853885650635,-9339.4453125,0
474.45700000000033,0.06752201914787292,-0.014122912660241127,0.0017175960820168257,0.0,0.0,0.0,0.0,-0.00045972844236530364,0.004374675918370485,-0.0004577279614750296,0.9990924000740051,0.0,0.0,0.0,51.54943084716797,6.079580307006836,5.172335624694824,-9330.55078125,0
484.34500000000116,0.06744159758090973,-0.01408117264509201,0.0017201085574924946,0.0,0.0,0.0,0.0,0.0011654319241642952,-0.003514255862683058,0.0027482095174491405,0.997969925403595,0.0,0.0,0.0,51.589759826660156,6.078528881072998,5.170897960662842,-9337.849609375,0
494.22100000000137,0.0675220862030983,-0.014137402176856995,0.0017133081564679742,0.0,0.0,0.0,0.0,-0.0023447100538760424,-0.0015346271684393287,0.002879413077607751,1.0000640153884888,0.0,0.0,0.0,51.53938293457031,6.063054084777832,5.147355556488037,-9328.7314453125,0
504.10599999999977,0.06745516508817673,-0.014105936512351036,0.001709151896648109,0.0,0.0,0.0,0.0,0.0019444014178588986,0.0037652929313480854,-0.0003584619262255728,0.9999751448631287,0.0,0.0,0.0,51.58064651489258,6.0633625984191895,5.1586127281188965,-9336.19921875,0
513.9899999999998,0.06753642857074738,-0.01416567899286747,0.001702205277979374,0.0,0.0,0.0,0.0,0.0015118077863007784,0.0006516287685371935,0.0023355865851044655,1.000298023223877,0.0,0.0,0.0,51.5306282043457,6.056840419769287,5.147248268127441,-9327.146484375,0
523.884,0.06747177243232727,-0.014115848578512669,0.001697503263130784,0.0,0.0,0.0,0.0,0.0015657065669074655,-0.0020445245318114758,0.0037246716674417257,0.9977409243583679,0.0,0.0,0.0,51.57107162475586,6.059289932250977,5.15355110168457,-9334.4677734375,0
533.7600000000002,0.06738785654306412,-0.014178890734910965,0.0016551722073927522,0.0,0.0,0.0,0.0,-0.0010262983851134777,0.00017368001863360405,-0.0008838470675982535,0.9991670250892639,0.0,0.0,0.0,51.58037567138672,6.056397438049316,5.147101879119873,-9336.1513671875,0
543.6419999999998,0.06743019819259644,-0.014143447391688824,0.0017332652350887656,0.0,0.0,0.0,0.0,-0.00027745889383368194,-0.00032015444594435394,-0.0007345210178755224,0.9992426633834839,0.0,0.0,0.0,51.565425872802734,6.064645767211914,5.1500563621521,-9333.4443359375,0
553.5330000000013,0.06735921651124954,-0.014207793399691582,0.001696224557235837,0.0,0.0,0.0,0.0,-0.00022958491172175854,-0.005546683445572853,-0.0004877472238149494,0.997691810131073,0.0,0.0,0.0,51.572364807128906,6.0538482666015625,5.1329779624938965,-9334.701171875,0
563.4130000000005,0.06742414832115173,-0.014163999818265438,0.0017500021494925022,0.0,0.0,0.0,0.0,0.0025901205372065306,-0.0059520467184484005,-0.002302123699337244,0.9985774755477905,0.0,0.0,0.0,51.56839370727539,6.059215545654297,5.150338649749756,-9333.9814453125,0
573.3029999999999,0.06735695898532867,-0.014226029627025127,0.0017153591616079211,0.0,0.0,0.0,0.0,-0.0008088449249044061,0.0006249378784559667,0.0005095426458865404,0.9988419413566589,0.0,0.0,0.0,51.57524490356445,6.0511908531188965,5.151279449462891,-9335.2216796875,0
583.1820000000007,0.0673895925283432,-0.014219589531421661,0.00180092453956604,0.0,0.0,0.0,0.0,0.0009576987940818071,1.7180693248519674e-05,-1.5882520528975874e-05,0.9983723163604736,0.0,0.0,0.0,51.56103515625,6.059911251068115,5.158655166625977,-9332.650390625,0
593.0670000000009,0.06736239045858383,-0.014237438328564167,0.0018094179686158895,0.0,0.0,0.0,0.0,0.0012485801707953215,0.0003205600951332599,-0.0012365947477519512,0.9991548657417297,0.0,0.0,0.0,51.57377624511719,6.051817417144775,5.15997838973999,-9334.9560546875,0
602.9539999999997,0.0674101784825325,-0.014203349128365517,0.0018892883090302348,0.0,0.0,0.0,0.0,-0.002911489689722657,-0.006589819677174091,0.0005828410503454506,0.999011218547821,0.0,0.0,0.0,51.567657470703125,6.061764717102051,5.161205291748047,-9333.849609375,0
612.8360000000011,0.0673627108335495,-0.014232232235372066,0.0018910615472123027,0.0,0.0,0.0,0.0,0.0007200001855380833,0.0022864178754389286,0.0016314105596393347,0.9985514283180237,0.0,0.0,0.0,51.57862854003906,6.045741081237793,5.167451858520508,-9335.833984375,0
622.7260000000006,0.06742405146360397,-0.014213593676686287,0.001951515325345099,0.0,0.0,0.0,0.0,0.004030008800327778,0.0015011747600510716,-0.0008251462131738663,0.9992964863777161,0.0,0.0,0.0,51.567176818847656,6.049747943878174,5.170169830322266,-9333.7626953125,0
632.6050000000014,0.06736287474632263,-0.014250203035771847,0.0019462603377178311,0.0,0.0,0.0,0.0,-9.308942389907315e-05,0.004019483458250761,0.0014507495798170567,0.9984076023101807,0.0,0.0,0.0,51.58017349243164,6.0365214347839355,5.161395072937012,-9336.115234375,0
642.4890000000014,0.06746608018875122,-0.014173107221722603,0.0019737037364393473,0.0,0.0,0.0,0.0,-0.001923919189721346,-0.005375581793487072,0.0003527366789057851,1.0006365776062012,0.0,0.0,0.0,51.5753173828125,6.0419745445251465,5.170808792114258,-9335.236328125,0
652.3739999999998,0.06730228662490845,-0.014213118702173233,0.0019298631232231855,0.0,0.0,0.0,0.0,-1.9606923160608858e-05,0.0012479760916903615,0.002000893699005246,1.0002188682556152,0.0,0.0,0.0,51.581817626953125,6.042507648468018,5.148464679718018,-9336.412109375,0
662.2579999999998,0.06740787625312805,-0.01412626076489687,0.0019548905547708273,0.0,0.0,0.0,0.0,-0.00032172378269024193,-0.004454802721738815,0.0016297788824886084,0.999187707901001,0.0,0.0,0.0,51.56968688964844,6.049590110778809,5.17031192779541,-9334.2158203125,0
672.1440000000002,0.06730185449123383,-0.014165750704705715,0.0019273660145699978,0.0,0.0,0.0,0.0,2.586979462648742e-05,0.001533687929622829,0.0006932630203664303,1.0008267164230347,0.0,0.0,0.0,51.58332824707031,6.045645713806152,5.158697128295898,-9336.685546875,0
682.0300000000007,0.06739147752523422,-0.014107667841017246,0.0019633902702480555,0.0,0.0,0.0,0.0,-0.0025924223009496927,-0.004754587542265654,5.638533184537664e-05,1.0001426935195923,0.0,0.0,0.0,51.57091522216797,6.049865245819092,5.166210174560547,-9334.439453125,0
691.9189999999999,0.06726834177970886,-0.014200815930962563,0.0019031348638236523,0.0,0.0,0.0,0.0,-0.0017265441128984094,-0.0008755006710998714,-0.0012584913056343794,1.0010405778884888,0.0,0.0,0.0,51.58195114135742,6.045388221740723,5.150840759277344,-9336.435546875,0
701.8029999999999,0.0673714205622673,-0.014129715971648693,0.0019201774848625064,0.0,0.0,0.0,0.0,0.0004814060521312058,0.004016454331576824,-0.0029700302984565496,1.0016193389892578,0.0,0.0,0.0,51.58036422729492,6.056125164031982,5.173254489898682,-9336.1494140625,0
711.6810000000005,0.06728647649288177,-0.014167417772114277,0.0018985890783369541,0.0,0.0,0.0,0.0,-0.0013195358915254474,-0.000751594256144017,0.0003746698785107583,1.0019769668579102,0.0,0.0,0.0,51.5919303894043,6.049220085144043,5.160279273986816,-9338.2431640625,0
721.5650000000005,0.06741252541542053,-0.014070484787225723,0.001899711904115975,0.0,0.0,0.0,0.0,-0.0004731825029011816,0.0025671878829598427,-0.0010101894149556756,0.9987876415252686,0.0,0.0,0.0,51.57378387451172,6.055568218231201,5.177846908569336,-9334.95703125,0
731.4590000000007,0.06734605133533478,-0.014171715825796127,0.0018514073453843594,0.0,0.0,0.0,0.0,-0.0006446460029110312,0.0017180666327476501,0.002635955112054944,0.998317539691925,0.0,0.0,0.0,51.58693313598633,6.044939994812012,5.1561150550842285,-9337.337890625,0
741.3379999999997,0.06743338704109192,-0.014228401705622673,0.0018524490296840668,0.0,0.0,0.0,0.0,0.0027087030466645956,-0.00023384348605759442,0.0009118900634348392,0.999650239944458,0.0,0.0,0.0,51.53775405883789,6.045526504516602,5.137664794921875,-9328.4365234375,0
751.2200000000012,0.06735429912805557,-0.014324420131742954,0.001821383717469871,0.0,0.0,0.0,0.0,0.000824762333650142,-0.004209321457892656,-0.0011316905729472637,1.0020309686660767,0.0,0.0,0.0,51.550907135009766,6.034485340118408,5.114659309387207,-9330.8173828125,0
761.1040000000012,0.06746705621480942,-0.014222384430468082,0.0018508844077587128,0.0,0.0,0.0,0.0,0.002528000855818391,-0.0009157173917628825,-0.0016228327294811606,0.9989980459213257,0.0,0.0,0.0,51.54869079589844,6.050288200378418,5.144781589508057,-9330.416015625,0
770.991,0.06737307459115982,-0.014304740354418755,0.0017982589779421687,0.0,0.0,0.0,0.0,-0.0017239571316167712,0.0017726884689182043,0.000715005153324455,1.0008797645568848,0.0,0.0,0.0,51.55665588378906,6.040786266326904,5.132594585418701,-9331.857421875,0
780.8820000000014,0.06747814267873764,-0.01420410443097353,0.0018404806032776833,0.0,0.0,0.0,0.0,-0.0008592193480581045,0.0035414898302406073,-0.004838764667510986,1.0013684034347534,0.0,0.0,0.0,51.542327880859375,6.054287910461426,5.154750347137451,-9329.263671875,0
790.7720000000008,0.06738650053739548,-0.014290661551058292,0.0017838828498497605,0.0,0.0,0.0,0.0,-0.001081715221516788,0.00027052121004089713,0.0009695964399725199,1.0004079341888428,0.0,0.0,0.0,51.55101013183594,6.050270080566406,5.135125160217285,-9330.8349609375,0
800.6440000000002,0.06748580187559128,-0.014199070632457733,0.0018334448104724288,0.0,0.0,0.0,0.0,0.0014910422032698989,-0.004845465999096632,-0.003872428322210908,1.0007425546646118,0.0,0.0,0.0,51.54587173461914,6.058187007904053,5.155185222625732,-9329.90625,0
810.5280000000002,0.06736725568771362,-0.014247304759919643,0.0017890791641548276,0.0,0.0,0.0,0.0,-0.0007819911115802824,-0.0015556818107143044,0.0019969132263213396,0.9990643262863159,0.0,0.0,0.0,51.55488586425781,6.0555739402771,5.13530969619751,-9331.537109375,0
820.4099999999999,0.06745841354131699,-0.014171350747346878,0.0018450660863891244,0.0,0.0,0.0,0.0,0.0008804372628219426,0.0005508986068889499,-0.0005685383803211153,0.9995119571685791,0.0,0.0,0.0,51.55046463012695,6.066215991973877,5.154480934143066,-9330.736328125,0
830.2980000000007,0.06735152751207352,-0.01423686370253563,0.0017984142759814858,0.0,0.0,0.0,0.0,4.29211650043726e-05,-0.0035108348820358515,0.0017790078418329358,1.0007294416427612,0.0,0.0,0.0,51.55868911743164,6.0709757804870605,5.147724628448486,-9332.2265625,0
840.1910000000007,0.06743896007537842,-0.014198770746588707,0.0018404104048386216,0.0,0.0,0.0,0.0,-0.0008986684842966497,-0.0006330181495286524,-0.00024735680199228227,1.000010371208191,0.0,0.0,0.0,51.543819427490234,6.078489780426025,5.155571460723877,-9329.5341796875,0
850.0660000000007,0.06735016405582428,-0.014259213581681252,0.0018054289976134896,0.0,0.0,0.0,0.0,0.0021722307428717613,0.0023342915810644627,-0.0018650158308446407,0.999090850353241,0.0,0.0,0.0,51.55292892456055,6.077396392822266,5.153724193572998,-9331.1826171875,0
859.9539999999997,0.06748230010271072,-0.014147093519568443,0.0018156650476157665,0.0,0.0,0.0,0.0,-0.004218155983835459,0.0010802943725138903,0.0024320953525602818,1.0014399290084839,0.0,0.0,0.0,51.53851318359375,6.085445880889893,5.170718669891357,-9328.57421875,0
869.8360000000011,0.06735275685787201,-0.014206316322088242,0.0017675850540399551,0.0,0.0,0.0,0.0,0.0011053521884605289,-0.003372881095856428,0.0003038804861716926,0.9998249411582947,0.0,0.0,0.0,51.54692077636719,6.083567142486572,5.158237934112549,-9330.095703125,0
879.7250000000004,0.06748443096876144,-0.014072236604988575,0.0017842805245891213,0.0,0.0,0.0,0.0,-0.0011212362442165613,-0.005723744165152311,0.0021281831432133913,0.9990958571434021,0.0,0.0,0.0,51.55186080932617,6.088809967041016,5.180105686187744,-9330.990234375,0
889.6110000000008,0.06735887378454208,-0.014125755056738853,0.0017396556213498116,0.0,0.0,0.0,0.0,0.0001513917959528044,-0.005201860796660185,0.0002241799666080624,1.0004812479019165,0.0,0.0,0.0,51.56120681762695,6.090743541717529,5.180815696716309,-9332.6806640625,0
899.4899999999998,0.06744743883609772,-0.014188621193170547,0.0017377259209752083,0.0,0.0,0.0,0.0,0.0012786005390807986,-0.0012306664139032364,-0.0007586556603200734,0.9993196129798889,0.0,0.0,0.0,51.51151657104492,6.088864803314209,5.1885905265808105,-9323.6865234375,0
909.3780000000006,0.06734360754489899,-0.014223847538232803,0.0017289287643507123,0.0,0.0,0.0,0.0,-0.001241370802745223,0.0023288908414542675,0.0004507284320425242,1.000878095626831,0.0,0.0,0.0,51.52549743652344,6.095937252044678,5.196982383728027,-9326.21875,0
919.2570000000014,0.06747834384441376,-0.014093891717493534,0.0017296066507697105,0.0,0.0,0.0,0.0,0.0010583896655589342,-0.0034345074091106653,-0.0019599555525928736,0.9999538064002991,0.0,0.0,0.0,51.53255844116211,6.105043411254883,5.2282280921936035,-9327.49609375,0
929.1419999999998,0.06736623495817184,-0.014155121520161629,0.001680651563219726,0.0,0.0,0.0,0.0,-0.0027040790300816298,0.00034660915844142437,0.004972658585757017,0.9989685416221619,0.0,0.0,0.0,51.546852111816406,6.10552978515625,5.2105488777160645,-9330.083984375,0
939.0280000000002,0.06746574491262436,-0.014088272117078304,0.00171135482378304,0.0,0.0,0.0,0.0,-0.0014474764466285706,0.00022914960572961718,-0.0011721968185156584,1.0012617111206055,0.0,0.0,0.0,51.53211975097656,6.1140828132629395,5.230459213256836,-9327.416015625,0
948.9170000000013,0.06736747920513153,-0.014149235561490059,0.0016617991495877504,0.0,0.0,0.0,0.0,-0.0014025202253833413,-0.004951661452651024,0.001667618053033948,1.001670479774475,0.0,0.0,0.0,51.54155731201172,6.111316680908203,5.217066764831543,-9329.1240234375,0
958.7990000000009,0.06742752343416214,-0.014079620130360126,0.0017479963134974241,0.0,0.0,0.0,0.0,0.003259228775277734,-0.0005987645708955824,-0.00038403281359933317,0.998374879360199,0.0,0.0,0.0,51.5464973449707,6.121246814727783,5.226293087005615,-9330.01953125,0
968.6810000000005,0.06735541671514511,-0.014148346148431301,0.0017117002280429006,0.0,0.0,0.0,0.0,-0.0008796449983492494,-0.0015178038738667965,0.0008360131760127842,1.00067937374115,0.0,0.0,0.0,51.56051254272461,6.108307361602783,5.223783493041992,-9332.556640625,0
978.5730000000003,0.06741968542337418,-0.014109857380390167,0.0017832036828622222,0.0,0.0,0.0,0.0,0.0008113602525554597,0.005097053945064545,0.0016084581147879362,1.0009138584136963,0.0,0.0,0.0,51.55286407470703,6.110659122467041,5.2280192375183105,-9331.171875,0
988.4590000000007,0.06736776232719421,-0.014196951873600483,0.0017449123552069068,0.0,0.0,0.0,0.0,0.0038257900159806013,0.006495736073702574,0.0013182875700294971,1.0004324913024902,0.0,0.0,0.0,51.56138229370117,6.099655628204346,5.2087883949279785,-9332.712890625,0
998.3410000000003,0.0674034133553505,-0.014231905341148376,0.0018291982123628259,0.0,0.0,0.0,0.0,9.617176692700014e-05,0.0028299668338149786,0.0021639091428369284,0.9983717203140259,0.0,0.0,0.0,51.56172180175781,6.098659992218018,5.193394660949707,-9332.7744140625,0
1008.2219999999998,0.06739697605371475,-0.014285624958574772,0.0018318567890673876,0.0,0.0,0.0,0.0,0.001480467151850462,-0.0027367493603378534,0.0038908664137125015,0.9979870319366455,0.0,0.0,0.0,51.574440002441406,6.07182502746582,5.186539649963379,-9335.076171875,0
1018.1040000000012,0.0674622654914856,-0.014252299442887306,0.0019152838503941894,0.0,0.0,0.0,0.0,-0.001383750350214541,-0.0013409359380602837,-0.0017701262841001153,0.9993847608566284,0.0,0.0,0.0,51.55996322631836,6.076176643371582,5.189572334289551,-9332.4560546875,0
1027.9920000000002,0.06735427677631378,-0.01432903204113245,0.0018768595764413476,0.0,0.0,0.0,0.0,0.0027148204389959574,0.00180250802077353,-0.0038063921965658665,1.0006215572357178,0.0,0.0,0.0,51.56632995605469,6.068986892700195,5.172821044921875,-9333.609375,0
1037.8739999999998,0.06747201830148697,-0.014231063425540924,0.001910664257593453,0.0,0.0,0.0,0.0,0.00014973805809859186,4.262149377609603e-05,0.005718057043850422,1.0007394552230835,0.0,0.0,0.0,51.561790466308594,6.077112197875977,5.189131259918213,-9332.787109375,0
1047.7700000000004,0.06733205169439316,-0.014260850846767426,0.0018851790810003877,0.0,0.0,0.0,0.0,0.001414691680110991,0.0007444630027748644,-3.44621148542501e-05,0.9991350173950195,0.0,0.0,0.0,51.57474899291992,6.077345848083496,5.173600196838379,-9335.1318359375,0
1057.648000000001,0.0674448236823082,-0.014165221713483334,0.001921508926898241,0.0,0.0,0.0,0.0,0.003341890638694167,0.0017253713449463248,0.002700378652662039,0.9985026717185974,0.0,0.0,0.0,51.559505462646484,6.082221508026123,5.1903910636901855,-9332.3740234375,0
1067.5290000000005,0.06734658032655716,-0.014247504062950611,0.0018811837071552873,0.0,0.0,0.0,0.0,-0.002674245275557041,-0.004023680929094553,-0.00021379899408202618,0.9997856020927429,0.0,0.0,0.0,51.56729507446289,6.083252429962158,5.171220302581787,-9333.783203125,0
1077.4170000000013,0.06748370081186295,-0.014144300483167171,0.0018821050180122256,0.0,0.0,0.0,0.0,-0.0006724317790940404,0.0014550156192854047,-0.0022412389516830444,1.0017781257629395,0.0,0.0,0.0,51.55771255493164,6.083125114440918,5.1942973136901855,-9332.0498046875,0
1087.299000000001,0.06740330159664154,-0.01418421883136034,0.0018666054820641875,0.0,0.0,0.0,0.0,0.0021286809351295233,0.0036760494112968445,0.003850802779197693,1.0032672882080078,0.0,0.0,0.0,51.57008361816406,6.079070091247559,5.191582679748535,-9334.2890625,0
1097.1820000000007,0.06752599775791168,-0.014112262055277824,0.0018793625058606267,0.0,0.0,0.0,0.0,-0.002915725577622652,0.005374332424253225,-0.002252795035019517,1.0013900995254517,0.0,0.0,0.0,51.55934524536133,6.081971168518066,5.200655460357666,-9332.3447265625,0
1107.0720000000001,0.06733667850494385,-0.014135926030576229,0.0018379170214757323,0.0,0.0,0.0,0.0,-0.0005625570192933083,-0.002759406575933099,0.0015421529533341527,0.9990462064743042,0.0,0.0,0.0,51.57194137573242,6.085202217102051,5.17820930480957,-9334.6240234375,0
1116.9530000000013,0.06741835922002792,-0.014103831723332405,0.0018883512821048498,0.0,0.0,0.0,0.0,0.002524818992242217,0.003660438349470496,0.0009537053992971778,0.9972044229507446,0.0,0.0,0.0,51.561004638671875,6.091357231140137,5.177241802215576,-9332.6455078125,0
1126.8450000000012,0.067303366959095,-0.014154565520584583,0.0018583718920126557,0.0,0.0,0.0,0.0,-0.0013892999850213528,0.0041054366156458855,-0.0008016544743441045,0.9997390508651733,0.0,0.0,0.0,51.575016021728516,6.088684558868408,5.155717849731445,-9335.1806640625,0
1136.7240000000002,0.06742505729198456,-0.01408431213349104,0.001865526894107461,0.0,0.0,0.0,0.0,-0.0009491876699030399,2.8533289878396317e-05,-0.0030097845010459423,0.9983233213424683,0.0,0.0,0.0,51.55924987792969,6.082613468170166,5.161620140075684,-9332.3271484375,0
1146.6050000000014,0.06732532382011414,-0.01414820458739996,0.0018276084447279572,0.0,0.0,0.0,0.0,-0.0002812871243804693,0.004619016777724028,-0.0018876629183068871,0.9981869459152222,0.0,0.0,0.0,51.56800842285156,6.085103511810303,5.147735595703125,-9333.9130859375,0
1156.496000000001,0.06744678318500519,-0.014072486199438572,0.0018368540331721306,0.0,0.0,0.0,0.0,0.0009966881480067968,-0.0007742447778582573,-0.00250247772783041,0.9993176460266113,0.0,0.0,0.0,51.55648422241211,6.089907646179199,5.152951240539551,-9331.826171875,0
1166.375,0.06735853850841522,-0.014151182025671005,0.001791257644072175,0.0,0.0,0.0,0.0,-0.0015689266147091985,0.0031484425999224186,0.0029841787181794643,0.999893844127655,0.0,0.0,0.0,51.569122314453125,6.085124492645264,5.126315116882324,-9334.1142578125,0
1176.2720000000008,0.06746882200241089,-0.01409042626619339,0.001808342058211565,0.0,0.0,0.0,0.0,0.0003782029671128839,0.0005258227465674281,-0.004538891837000847,0.9986941814422607,0.0,0.0,0.0,51.555423736572266,6.090700149536133,5.139123916625977,-9331.634765625,0
1186.1450000000004,0.06737998127937317,-0.014175411313772202,0.001753214979544282,0.0,0.0,0.0,0.0,0.002425351645797491,0.0010988021967932582,-0.0012229650747030973,0.9996756911277771,0.0,0.0,0.0,51.563720703125,6.0826826095581055,5.113081932067871,-9333.13671875,0
1196.032000000001,0.06748762726783752,-0.014112417586147785,0.0017747563542798162,0.0,0.0,0.0,0.0,-0.0010317874839529395,-0.0005201650201343,-6.873758684378117e-05,1.0006283521652222,0.0,0.0,0.0,51.549442291259766,6.088235378265381,5.114144325256348,-9330.552734375,0
1205.9179999999997,0.06738150119781494,-0.014176751486957073,0.0017250229138880968,0.0,0.0,0.0,0.0,0.0012718382058665156,-0.0030392007902264595,-0.0015471982769668102,0.9993953108787537,0.0,0.0,0.0,51.5587272644043,6.079987525939941,5.096297264099121,-9332.2333984375,0
1215.8100000000013,0.06748545169830322,-0.014111598953604698,0.0017509644385427237,0.0,0.0,0.0,0.0,0.0017363494262099266,0.0026568963658064604,-0.0008104766602627933,1.000352382659912,0.0,0.0,0.0,51.54254150390625,6.08976411819458,5.107817649841309,-9329.302734375,0
1225.6850000000013,0.06736396253108978,-0.014158460311591625,0.001704774214886129,0.0,0.0,0.0,0.0,-0.00012706380221061409,0.004672353155910969,-0.0005069389007985592,0.9986546039581299,0.0,0.0,0.0,51.5560188293457,6.088003158569336,5.103087902069092,-9331.7421875,0
1235.5730000000003,0.06742884963750839,-0.014123854227364063,0.0017697953153401613,0.0,0.0,0.0,0.0,0.0012816792586818337,-0.003976637497544289,0.0019986440893262625,0.9972242712974548,0.0,0.0,0.0,51.53934097290039,6.094581127166748,5.094850540161133,-9328.724609375,0
1245.455,0.06736299395561218,-0.0142092639580369,0.0017234028782695532,0.0,0.0,0.0,0.0,0.0005685505457222462,-0.0014944556169211864,0.0004201791889499873,0.9979223012924194,0.0,0.0,0.0,51.54711151123047,6.089813709259033,5.075101852416992,-9330.1298828125,0
1255.3559999999998,0.06743559241294861,-0.014150204136967659,0.0017805187962949276,0.0,0.0,0.0,0.0,-0.0006608921103179455,0.0014796480536460876,-0.00140991504304111,1.000140905380249,0.0,0.0,0.0,51.535728454589844,6.09868860244751,5.094517230987549,-9328.0703125,0
1265.219000000001,0.06737164407968521,-0.014247700572013855,0.0017354742158204317,0.0,0.0,0.0,0.0,0.0025178987998515368,0.0009140691836364567,0.0013786031631752849,0.9978280663490295,0.0,0.0,0.0,51.54719543457031,6.078867435455322,5.076711654663086,-9330.1455078125,0
1275.112000000001,0.06744851171970367,-0.014177367091178894,0.0017879015067592263,0.0,0.0,0.0,0.0,0.0020862482488155365,-0.003929794300347567,0.0004954884643666446,0.9993429780006409,0.0,0.0,0.0,51.53746032714844,6.0849785804748535,5.081661701202393,-9328.3828125,0
1284.9899999999998,0.06742561608552933,-0.014239147305488586,0.0017736359732225537,0.0,0.0,0.0,0.0,-0.001967150717973709,0.0031726984307169914,0.0031614454928785563,1.0014840364456177,0.0,0.0,0.0,51.5496826171875,6.063338756561279,5.0733723640441895,-9330.5947265625,0
1294.8880000000008,0.0675264522433281,-0.014158908277750015,0.0018020670395344496,0.0,0.0,0.0,0.0,0.0015493769897148013,0.0003275304043199867,0.0008322828216478229,0.998657763004303,0.0,0.0,0.0,51.5333137512207,6.070243835449219,5.093413352966309,-9327.6328125,0
1304.7570000000014,0.06740918755531311,-0.014247938990592957,0.0017459207447245717,0.0,0.0,0.0,0.0,-0.0006630874704569578,0.008773651905357838,0.003989990334957838,0.999089777469635,0.0,0.0,0.0,51.54297637939453,6.066417694091797,5.073674201965332,-9329.3818359375,0
1314.6490000000013,0.0674516037106514,-0.014212162233889103,0.0018348951125517488,0.0,0.0,0.0,0.0,-0.0017193469684571028,-0.003877068869769573,-0.00011855873162858188,0.9992680549621582,0.0,0.0,0.0,51.5350341796875,6.081096649169922,5.065016746520996,-9327.943359375,0
1324.5249999999996,0.06734921038150787,-0.014270505867898464,0.0018029935890808702,0.0,0.0,0.0,0.0,0.001351296086795628,0.0016389080556109548,0.0047929175198078156,0.9983744621276855,0.0,0.0,0.0,51.544193267822266,6.072572231292725,5.046411991119385,-9329.6025390625,0
1334.42,0.06740318983793259,-0.014257472939789295,0.0018654265441000462,0.0,0.0,0.0,0.0,-0.0039580632001161575,0.0033516758121550083,-0.00033542508026584983,1.00021493434906,0.0,0.0,0.0,51.53569030761719,6.081352710723877,5.058415412902832,-9328.0625,0
1344.3060000000005,0.06729865074157715,-0.014289278537034988,0.0018541804747655988,0.0,0.0,0.0,0.0,0.0024112891405820847,-0.0006308962474577129,0.0021143571939319372,0.9986260533332825,0.0,0.0,0.0,51.54876708984375,6.081709861755371,5.042102336883545,-9330.4306640625,0
1354.183000000001,0.06737023591995239,-0.014255085028707981,0.0019026424270123243,0.0,0.0,0.0,0.0,0.00084604078438133,0.005020466633141041,0.001176432124339044,0.9967659711837769,0.0,0.0,0.0,51.53875732421875,6.088653087615967,5.052800178527832,-9328.6181640625,0
1364.0699999999997,0.06728486716747284,-0.014303192496299744,0.001890912069939077,0.0,0.0,0.0,0.0,0.0026022244710475206,0.000129033942357637,0.00017520089750178158,0.9996315240859985,0.0,0.0,0.0,51.55091857910156,6.079230785369873,5.038235187530518,-9330.8193359375,0
1373.9560000000001,0.0674036517739296,-0.014197254553437233,0.0019062800565734506,0.0,0.0,0.0,0.0,-0.0017897262005135417,-0.0011516836239024997,-0.0012707891874015331,0.9998823404312134,0.0,0.0,0.0,51.5463752746582,6.083995819091797,5.059788227081299,-9329.9970703125,0
1383.8370000000014,0.06732816249132156,-0.01427572313696146,0.0018748772563412786,0.0,0.0,0.0,0.0,-0.0020464365370571613,0.0009435195242986083,0.0033953054808080196,1.0002154111862183,0.0,0.0,0.0,51.556182861328125,6.079049110412598,5.040079593658447,-9331.771484375,0
1393.7210000000014,0.06744098663330078,-0.014187833294272423,0.0018922426970675588,0.0,0.0,0.0,0.0,0.001379919471219182,-0.0006014546379446983,-0.0013779390137642622,1.0007349252700806,0.0,0.0,0.0,51.552433013916016,6.089761734008789,5.070516586303711,-9331.0927734375,0
1403.6080000000002,0.06740615516901016,-0.014264225959777832,0.001875267829746008,0.0,0.0,0.0,0.0,-0.002900677500292659,-0.0017160564893856645,-0.0006831014179624617,0.9990469813346863,0.0,0.0,0.0,51.56348419189453,6.077602863311768,5.059898376464844,-9333.09375,0
1413.5079999999998,0.06753373891115189,-0.01416438166052103,0.0018821642734110355,0.0,0.0,0.0,0.0,0.0008781509241089225,-0.002296678489074111,0.0016503093065693974,0.9988009333610535,0.0,0.0,0.0,51.548255920410156,6.080929756164551,5.081204414367676,-9330.337890625,0
1423.3760000000002,0.06735076755285263,-0.014215768314898014,0.0018301144009456038,0.0,0.0,0.0,0.0,0.001702648471109569,-0.0039926511235535145,-0.0010317418491467834,1.0008443593978882,0.0,0.0,0.0,51.55939483642578,6.09051513671875,5.065948963165283,-9332.353515625,0
1433.2720000000008,0.06743656098842621,-0.01416792068630457,0.0018635704182088375,0.0,0.0,0.0,0.0,-0.00141713407356292,0.003158204024657607,0.0003021247684955597,0.9985734224319458,0.0,0.0,0.0,51.55669021606445,6.09375524520874,5.083034992218018,-9331.86328125,0
1443.148000000001,0.06732474267482758,-0.01422349363565445,0.0018307227874174714,0.0,0.0,0.0,0.0,-0.0033709127455949783,-0.0047053005546331406,-0.0011245058849453926,0.9994306564331055,0.0,0.0,0.0,51.569583892822266,6.090404510498047,5.064627170562744,-9334.1982421875,0
1453.0339999999997,0.06740183383226395,-0.014299498870968819,0.0018277233466506004,0.0,0.0,0.0,0.0,-0.002398408716544509,-0.004234578926116228,0.0020127848256379366,0.999894380569458,0.0,0.0,0.0,51.51854705810547,6.088322162628174,5.057266712188721,-9324.9599609375,0
1462.916000000001,0.06752204149961472,-0.014186757616698742,0.001843636273406446,0.0,0.0,0.0,0.0,-0.002235025865957141,-0.004360055550932884,-0.0005583008169196546,0.9996575117111206,0.0,0.0,0.0,51.50157165527344,6.114903926849365,5.100041389465332,-9321.88671875,0
1472.8029999999999,0.06760197132825851,-0.014258104376494884,0.0018422889988869429,0.0,0.0,0.0,0.0,0.0012306198477745056,-0.00017986063903663307,0.0035998790990561247,0.9999921917915344,0.0,0.0,0.0,51.45250701904297,6.12113094329834,5.113160133361816,-9313.005859375,0
1482.6900000000005,0.06767414510250092,-0.014180829748511314,0.0019019098253920674,0.0,0.0,0.0,0.0,-0.0007411180413328111,-0.005278476979583502,0.0017461912939324975,0.9998832941055298,0.0,0.0,0.0,51.44352722167969,6.139264106750488,5.130345344543457,-9311.3798828125,0
1492.585000000001,0.06775470077991486,-0.014246399514377117,0.001906077261082828,0.0,0.0,0.0,0.0,-0.0006373609066940844,0.0076294466853141785,0.0022239068057388067,0.999099612236023,0.0,0.0,0.0,51.393524169921875,6.1326680183410645,5.1287102699279785,-9302.330078125,0
1502.4520000000011,0.06777360290288925,-0.014210527762770653,0.0020294045098125935,0.0,0.0,0.0,0.0,-0.0012025657342746854,0.0021062579471617937,0.001220608246512711,1.0020025968551636,0.0,0.0,0.0,51.387428283691406,6.166042327880859,5.1375041007995605,-9301.2265625,0
1512.3460000000014,0.06785240024328232,-0.014271720312535763,0.0020432372111827135,0.0,0.0,0.0,0.0,0.0005891084438189864,-0.005089900456368923,0.0030268661212176085,1.0001872777938843,0.0,0.0,0.0,51.33815002441406,6.158822536468506,5.1235785484313965,-9292.3076171875,0
1522.2180000000008,0.06787310540676117,-0.014239635318517685,0.0021609868854284286,0.0,0.0,0.0,0.0,0.0010452924761921167,0.000996303977444768,-0.0014584369491785765,1.0007232427597046,0.0,0.0,0.0,51.345428466796875,6.182797908782959,5.119978427886963,-9293.6240234375,0
1532.1100000000006,0.06794863939285278,-0.014296624809503555,0.002185224089771509,0.0,0.0,0.0,0.0,-0.002230118028819561,-0.002127880696207285,0.005623129196465015,1.000166654586792,0.0,0.0,0.0,51.29551696777344,6.179501056671143,5.126774311065674,-9284.5908203125,0
1541.9899999999998,0.06797096878290176,-0.014260871335864067,0.002302454086020589,0.0,0.0,0.0,0.0,-0.00016426485672127455,-0.001256478950381279,0.00055120320757851,1.0000998973846436,0.0,0.0,0.0,51.29766845703125,6.205171585083008,5.137451648712158,-9284.98046875,0
1551.880000000001,0.06804581731557846,-0.014314081519842148,0.0023349786642938852,0.0,0.0,0.0,0.0,-0.0006734615308232605,0.0037013005930930376,0.0013641564873978496,0.9996343851089478,0.0,0.0,0.0,51.2489128112793,6.1972174644470215,5.126563549041748,-9276.1552734375,0
1561.7600000000002,0.06808111071586609,-0.014294094406068325,0.0024341223761439323,0.0,0.0,0.0,0.0,0.0005021042306907475,-0.00020331978157628328,-0.0027008219622075558,1.0000662803649902,0.0,0.0,0.0,51.265350341796875,6.2186079025268555,5.130148887634277,-9279.1298828125,0
1571.648000000001,0.06815274059772491,-0.014343804679811,0.002472194842994213,0.0,0.0,0.0,0.0,0.0008392119198106229,-0.0008033161284402013,0.0010340792359784245,0.9977135062217712,0.0,0.0,0.0,51.21559143066406,6.217324256896973,5.114807605743408,-9270.125,0
1581.527,0.06817379593849182,-0.014318387024104595,0.002583857858553529,0.0,0.0,0.0,0.0,0.00028108738479204476,0.0033852756023406982,0.0017883043037727475,0.9988110661506653,0.0,0.0,0.0,51.2208366394043,6.23984956741333,5.1270012855529785,-9271.07421875,0
1591.424000000001,0.06824105978012085,-0.014364704489707947,0.002626165049150586,0.0,0.0,0.0,0.0,0.0012198005570098758,-0.0016230555484071374,-0.0012356860097497702,0.9987947940826416,0.0,0.0,0.0,51.171146392822266,6.235879421234131,5.108453273773193,-9262.080078125,0
1601.295,0.06830677390098572,-0.014325057156383991,0.00270099937915802,0.0,0.0,0.0,0.0,-0.0018348856829106808,2.5434408598812297e-05,0.00026362432981841266,0.9979342222213745,0.0,0.0,0.0,51.17835235595703,6.248513698577881,5.128852844238281,-9263.3837890625,0
1611.196,0.06837410479784012,-0.014365172013640404,0.0027427843306213617,0.0,0.0,0.0,0.0,-0.00010833174019353464,0.0024773231707513332,-0.0023287718649953604,0.9989612698554993,0.0,0.0,0.0,51.128849029541016,6.239523887634277,5.127750873565674,-9254.423828125,0
1621.063,0.06841327995061874,-0.014346038922667503,0.002831884426996112,0.0,0.0,0.0,0.0,0.001500063925050199,0.0025278395041823387,0.00010990696318913251,0.9997188448905945,0.0,0.0,0.0,51.15129470825195,6.249865531921387,5.143941402435303,-9258.4873046875,0
1630.9570000000003,0.06847772747278214,-0.014383945614099503,0.0028752190992236137,0.0,0.0,0.0,0.0,0.0022910628467798233,0.002736698603257537,0.0005690611433237791,1.000706434249878,0.0,0.0,0.0,51.10096740722656,6.242144584655762,5.121870994567871,-9249.376953125,0
1640.8370000000014,0.06855545192956924,-0.01433849148452282,0.002947542117908597,0.0,0.0,0.0,0.0,-0.0006842917646281421,0.0014929614262655377,0.0006668479181826115,0.9995905160903931,0.0,0.0,0.0,51.13118362426758,6.2481369972229,5.141000270843506,-9254.845703125,0
1650.7330000000002,0.06862098723649979,-0.014371095225214958,0.0029932449106127024,0.0,0.0,0.0,0.0,0.0017463589319959283,0.006697693839669228,-0.0011692949337884784,0.9985479116439819,0.0,0.0,0.0,51.08294677734375,6.2350335121154785,5.130743026733398,-9246.1162109375,0
1660.6080000000002,0.06868746876716614,-0.014404406771063805,0.0030389553867280483,0.0,0.0,0.0,0.0,-0.002456184709444642,-0.0028838261496275663,-0.00038902449887245893,1.0003867149353027,0.0,0.0,0.0,51.03426742553711,6.2380757331848145,5.127018928527832,-9237.3046875,0
1670.5100000000002,0.06875529140233994,-0.014438456855714321,0.0030842686537653208,0.0,0.0,0.0,0.0,0.002894133795052767,0.00038503448013216257,-0.00249014631845057,1.001723289489746,0.0,0.0,0.0,50.98494338989258,6.237277030944824,5.114437580108643,-9228.375,0
1680.375,0.06882410496473312,-0.014474247582256794,0.0031302589923143387,0.0,0.0,0.0,0.0,-0.0012594179715961218,0.0013191939797252417,0.001956392079591751,0.998577356338501,0.0,0.0,0.0,50.93462371826172,6.229504108428955,5.108622074127197,-9219.267578125,0
1690.2650000000012,0.06889358907938004,-0.014512076042592525,0.003177008591592312,0.0,0.0,0.0,0.0,-0.001459684455767274,6.671265145996585e-05,0.0027831976767629385,0.9985687732696533,0.0,0.0,0.0,50.885520935058594,6.223547458648682,5.097265243530273,-9210.380859375,0
1700.1419999999998,0.0673576146364212,-0.014239810407161713,0.001972218044102192,0.0,0.0,0.0,0.0,0.001655479078181088,0.0036423637066036463,0.0037681215908378363,0.9988584518432617,0.0,0.0,0.0,50.942134857177734,6.409193992614746,4.964005947113037,-9220.626953125,0
1710.036,0.06736426055431366,-0.014272712171077728,0.001966962357982993,0.0,0.0,0.0,0.0,-0.0017277981387451291,0.0024188451934605837,0.002238160464912653,1.0009421110153198,0.0,0.0,0.0,50.893577575683594,6.4009552001953125,4.951630592346191,-9211.837890625,0
1719.9140000000007,0.06728751212358475,-0.014393112622201443,0.0018959842855110765,0.0,0.0,0.0,0.0,-0.0012506500352174044,0.0025185984559357166,0.0008637061109766364,0.9993205666542053,0.0,0.0,0.0,50.9533805847168,6.373678684234619,4.944447040557861,-9222.6630859375,0
1729.8010000000013,0.0672980546951294,-0.014434339478611946,0.0018864015582948923,0.0,0.0,0.0,0.0,0.001979816472157836,-0.001573321525938809,0.0018005722668021917,1.0004972219467163,0.0,0.0,0.0,50.90439987182617,6.370603084564209,4.930609703063965,-9213.7978515625,0
1739.6779999999999,0.06725496798753738,-0.01449964102357626,0.0018613201100379229,0.0,0.0,0.0,0.0,0.0008537250687368214,-0.002739484189078212,0.002669326728209853,0.9988613724708557,0.0,0.0,0.0,50.961708068847656,6.3488688468933105,4.917064666748047,-9224.1708984375,0
1749.5840000000007,0.06726790964603424,-0.014546124264597893,0.0018512890674173832,0.0,0.0,0.0,0.0,-0.0016286215977743268,0.005639732349663973,-0.0014611430233344436,0.9993039965629578,0.0,0.0,0.0,50.912437438964844,6.344771862030029,4.9105658531188965,-9215.251953125,0
1759.451000000001,0.06721818447113037,-0.014557307586073875,0.0018685061950236559,0.0,0.0,0.0,0.0,0.0015183762880042195,0.001023178338073194,-0.0032881980296224356,1.001780390739441,0.0,0.0,0.0,50.96913146972656,6.329952716827393,4.915067195892334,-9225.513671875,0
1769.3410000000003,0.067235566675663,-0.014605876058340073,0.0018601708579808474,0.0,0.0,0.0,0.0,-0.0037439106963574886,0.0025373457465320826,-0.0003247835556976497,1.0010907649993896,0.0,0.0,0.0,50.91987609863281,6.3241448402404785,4.907668113708496,-9216.5986328125,0
1779.2200000000012,0.06723726540803909,-0.014627932570874691,0.0018724194960668683,0.0,0.0,0.0,0.0,0.0020496156066656113,0.00244509638287127,0.0033863657154142857,1.0018571615219116,0.0,0.0,0.0,50.97571563720703,6.316263198852539,4.91996955871582,-9226.7060546875,0
1789.1080000000002,0.06725893914699554,-0.014681030996143818,0.001869111554697156,0.0,0.0,0.0,0.0,0.0003234788600821048,0.0037342305295169353,0.0018340228125452995,1.0004454851150513,0.0,0.0,0.0,50.92657470703125,6.309741497039795,4.90466833114624,-9217.8115234375,0
1798.9860000000008,0.06723006069660187,-0.014665400609374046,0.001909922226332128,0.0,0.0,0.0,0.0,-0.0018708815332502127,0.00014569082122761756,0.0025812045205384493,0.9999486207962036,0.0,0.0,0.0,50.98246383666992,6.319983005523682,4.915720462799072,-9227.9267578125,0
1808.8880000000008,0.06725319474935532,-0.014717460609972477,0.0019138208590447903,0.0,0.0,0.0,0.0,0.0019078482873737812,0.0018844257574528456,0.0010106575209647417,0.9999706149101257,0.0,0.0,0.0,50.933624267578125,6.318406581878662,4.910869121551514,-9219.0869140625,0
1818.755000000001,0.06724849343299866,-0.01469554752111435,0.0019537517800927162,0.0,0.0,0.0,0.0,0.0017723907949402928,0.0006138831959106028,0.004534355830401182,1.0020140409469604,0.0,0.0,0.0,50.99126052856445,6.328282356262207,4.9237847328186035,-9229.5185546875,0
1828.6509999999998,0.0672723799943924,-0.01474528107792139,0.001962146256119013,0.0,0.0,0.0,0.0,0.001906045712530613,0.002931303111836314,0.003144849557429552,0.9998300075531006,0.0,0.0,0.0,50.94116973876953,6.319629669189453,4.9078779220581055,-9220.453125,0
1838.5310000000009,0.06728018820285797,-0.014720603823661804,0.0019987754058092833,0.0,0.0,0.0,0.0,0.00013475502782966942,-0.005712421145290136,-0.0009806962916627526,0.9988535642623901,0.0,0.0,0.0,50.99894714355469,6.341557502746582,4.929181098937988,-9230.9111328125,0
1848.4170000000013,0.06730152666568756,-0.014770998619496822,0.0020126625895500183,0.0,0.0,0.0,0.0,0.0005609328509308398,-0.0016093211015686393,0.0016807763604447246,0.999306321144104,0.0,0.0,0.0,50.95012283325195,6.34056282043457,4.921167373657227,-9222.07421875,0
1858.300000000001,0.06729680299758911,-0.014732986688613892,0.0020448879804462194,0.0,0.0,0.0,0.0,0.0021509293001145124,-0.0010745261097326875,-0.0018441667780280113,0.9997468590736389,0.0,0.0,0.0,51.00408172607422,6.370980262756348,4.954755783081055,-9231.83984375,0
1868.1930000000011,0.06731487065553665,-0.014780540950596333,0.002060959581285715,0.0,0.0,0.0,0.0,0.0013008860405534506,-0.0004629584727808833,0.00048558504204265773,0.9989351630210876,0.0,0.0,0.0,50.95467758178711,6.369102478027344,4.95262336730957,-9222.8984375,0
1878.0690000000013,0.06730042397975922,-0.014743140898644924,0.002076047472655773,0.0,0.0,0.0,0.0,-0.0034173130989074707,-0.0025401341263204813,-0.0010336083360016346,1.0008741617202759,0.0,0.0,0.0,51.00814437866211,6.40733528137207,4.963748931884766,-9232.5751953125,0
1887.955,0.06731398403644562,-0.014789436012506485,0.0020931751932948828,0.0,0.0,0.0,0.0,0.0004502235387917608,0.0022914635483175516,-0.0018154639983549714,1.0002646446228027,0.0,0.0,0.0,50.95874786376953,6.406554222106934,4.954010486602783,-9223.634765625,0
1897.8320000000003,0.06731746345758438,-0.014351150020956993,0.0016612750478088856,0.0,0.0,0.0,0.0,-0.001885957201011479,-0.004329299088567495,-0.0028420560993254185,0.999627947807312,0.0,0.0,0.0,51.091880798339844,6.4436540603637695,5.057831764221191,-9247.7333984375,0
1907.728000000001,0.06733803451061249,-0.014382212422788143,0.001667437725700438,0.0,0.0,0.0,0.0,0.0002319686464034021,0.004753971938043833,-0.0017974270740523934,1.0000616312026978,0.0,0.0,0.0,51.0415153503418,6.441958427429199,5.059078693389893,-9238.6162109375,0
1917.612000000001,0.06728091090917587,-0.014185277745127678,0.001667257398366928,0.0,0.0,0.0,0.0,0.0032604350708425045,-0.0025943280197679996,0.0020441971719264984,0.9978618025779724,0.0,0.0,0.0,51.14501953125,6.435530185699463,5.0831193923950195,-9257.3505859375,0
1927.4940000000006,0.06730318814516068,-0.014216332696378231,0.0016746381297707558,0.0,0.0,0.0,0.0,-0.00011354395974194631,0.0017816734034568071,0.0022292237263172865,0.9995149374008179,0.0,0.0,0.0,51.09617614746094,6.430549144744873,5.087247371673584,-9248.509765625,0
1937.3720000000012,0.0672605112195015,-0.014150189235806465,0.0017261083703488111,0.0,0.0,0.0,0.0,0.0021446705795824528,0.0009672866435721517,-0.0012564543867483735,0.9997996687889099,0.0,0.0,0.0,51.20778274536133,6.408961772918701,5.086383819580078,-9268.7109375,0
1947.2630000000008,0.06728504598140717,-0.014181080274283886,0.0017343920189887285,0.0,0.0,0.0,0.0,-0.0028398314025253057,-0.0029602914582937956,-0.0004903547815047204,0.9996196031570435,0.0,0.0,0.0,51.15801239013672,6.399440288543701,5.0832438468933105,-9259.703125,0
1957.1440000000002,0.06730123609304428,-0.014132319949567318,0.0017319543985649943,0.0,0.0,0.0,0.0,0.0015081982128322124,0.004389388952404261,-0.0004670520720537752,0.9999091625213623,0.0,0.0,0.0,51.251895904541016,6.375329494476318,5.0858378410339355,-9276.6953125,0
1967.0310000000009,0.06733007729053497,-0.014165127649903297,0.0017397444462403655,0.0,0.0,0.0,0.0,-0.0007864928338676691,0.0027643386274576187,0.0027301404625177383,0.9991506934165955,0.0,0.0,0.0,51.203125,6.371076583862305,5.0780534744262695,-9267.8671875,0
1976.92,0.06730908900499344,-0.014085731469094753,0.001739130588248372,0.0,0.0,0.0,0.0,0.0003919142473023385,-0.0004186040023341775,0.0006852773949503899,0.9997357130050659,0.0,0.0,0.0,51.30257034301758,6.34775972366333,5.082748889923096,-9285.8671875,0
1986.8029999999999,0.06734185665845871,-0.014119639061391354,0.0017458900110796094,0.0,0.0,0.0,0.0,2.4935283363447525e-05,0.0004440912452992052,-0.0012288889847695827,0.9980776906013489,0.0,0.0,0.0,51.251747131347656,6.351258277893066,5.0753703117370605,-9276.6689453125,0
1996.679,0.0673251748085022,-0.01412621047347784,0.0017456661444157362,0.0,0.0,0.0,0.0,-0.003039387986063957,-0.0017107059247791767,0.0012104137567803264,0.9974913597106934,0.0,0.0,0.0,51.32051467895508,6.329937934875488,5.081859588623047,-9289.115234375,0
2006.563,0.0673626959323883,-0.01416295301169157,0.001749542192555964,0.0,0.0,0.0,0.0,-0.0008063854766078293,0.005367843899875879,-0.005642123054713011,0.998906135559082,0.0,0.0,0.0,51.27116775512695,6.328297138214111,5.076367378234863,-9280.1826171875,0
2016.4480000000003,0.06733384728431702,-0.014096904546022415,0.0017390402499586344,0.0,0.0,0.0,0.0,0.0004788152873516083,-0.003857457311823964,0.0011893726186826825,0.9979991316795349,0.0,0.0,0.0,51.367095947265625,6.313482284545898,5.08322811126709,-9297.5458984375,0
2026.3340000000007,0.06737490743398666,-0.014135641977190971,0.0017390773864462972,0.0,0.0,0.0,0.0,0.0006812021019868553,0.005791572853922844,-0.00014903514238540083,0.9996510744094849,0.0,0.0,0.0,51.317405700683594,6.3108134269714355,5.08355188369751,-9288.5517578125,0
2036.2170000000006,0.06738538295030594,-0.01417905930429697,0.0017166492762044072,0.0,0.0,0.0,0.0,0.0022768154740333557,0.003157345112413168,0.0009109641541726887,0.9983981251716614,0.0,0.0,0.0,51.385040283203125,6.281668663024902,5.077361583709717,-9300.794921875,0
2046.1010000000006,0.0674305111169815,-0.01422126591205597,0.0017131812637671828,0.0,0.0,0.0,0.0,-0.0006037982529960573,-0.0006616772152483463,0.0029024688992649317,0.9968001842498779,0.0,0.0,0.0,51.334720611572266,6.271514415740967,5.059773921966553,-9291.6865234375,0
2055.9850000000006,0.06736715137958527,-0.014214190654456615,0.0017427577404305339,0.0,0.0,0.0,0.0,-0.0009715913911350071,0.002215880900621414,0.0009487296338193119,1.0016223192214966,0.0,0.0,0.0,51.41971969604492,6.256886959075928,5.060375213623047,-9307.0712890625,0
2065.876,0.06741555035114288,-0.014257071539759636,0.0017389047425240278,0.0,0.0,0.0,0.0,0.0035508722066879272,0.006139770615845919,0.0013961892109364271,0.9990869164466858,0.0,0.0,0.0,51.37078094482422,6.2555084228515625,5.054381370544434,-9298.212890625,0
2075.7610000000004,0.06734375655651093,-0.014207818545401096,0.001767394132912159,0.0,0.0,0.0,0.0,-0.0022217691875994205,-0.0019231728510931134,0.0003202705120202154,0.9985222220420837,0.0,0.0,0.0,51.44742202758789,6.249337196350098,5.050820350646973,-9312.0849609375,0
2085.6400000000012,0.06739289313554764,-0.01425271574407816,0.0017659782897680998,0.0,0.0,0.0,0.0,-0.0001913347077788785,0.002061889274045825,0.0014781588688492775,0.9998452663421631,0.0,0.0,0.0,51.39698791503906,6.247058868408203,5.04803466796875,-9302.9560546875,0
2095.535,0.06727692484855652,-0.014262325130403042,0.0018461548024788499,0.0,0.0,0.0,0.0,0.001616309629753232,-0.007493637967854738,0.003156476654112339,0.9992932081222534,0.0,0.0,0.0,51.466712951660156,6.2417826652526855,5.046400547027588,-9315.5771484375,0
2105.4080000000013,0.06732512265443802,-0.014310882426798344,0.0018500348087400198,0.0,0.0,0.0,0.0,-0.0013626324944198132,0.0024555681739002466,-0.0015635222662240267,0.9973739385604858,0.0,0.0,0.0,51.41823959350586,6.240367889404297,5.044859409332275,-9306.8037109375,0
2115.299000000001,0.06726491451263428,-0.014271973632276058,0.0018977966392412782,0.0,0.0,0.0,0.0,-0.0006884822505526245,0.0009935736889019608,-0.002124418504536152,1.0000243186950684,0.0,0.0,0.0,51.484230041503906,6.228894233703613,5.060280799865723,-9318.7470703125,0
2125.178,0.06731489300727844,-0.01432108972221613,0.0019033820135518909,0.0,0.0,0.0,0.0,-0.0003340474213473499,0.0004064496897626668,0.0007156777428463101,0.9991481304168701,0.0,0.0,0.0,51.435489654541016,6.230964660644531,5.050055503845215,-9309.92578125,0
2135.0660000000007,0.06731187552213669,-0.014245301485061646,0.0018809055909514427,0.0,0.0,0.0,0.0,-0.0003602491633500904,0.002629634691402316,-0.0017337427707388997,0.9981425404548645,0.0,0.0,0.0,51.50832748413086,6.215273857116699,5.063676834106445,-9323.109375,0
2144.9500000000007,0.06736405193805695,-0.014293592423200607,0.0018829071195796132,0.0,0.0,0.0,0.0,-0.0014885636046528816,-0.005276370793581009,0.003393143182620406,0.9999411106109619,0.0,0.0,0.0,51.45838928222656,6.211183071136475,5.0487589836120605,-9314.0703125,0
2154.8330000000005,0.06734911352396011,-0.014208551496267319,0.0018248738488182425,0.0,0.0,0.0,0.0,0.001460437080822885,-0.000952170928940177,-0.004687523003667593,0.9994980096817017,0.0,0.0,0.0,51.511959075927734,6.203372001647949,5.070317268371582,-9323.7666015625,0
2164.7180000000008,0.06740448623895645,-0.014256628230214119,0.0018207704415544868,0.0,0.0,0.0,0.0,-0.00026094852364622056,-0.0034630890004336834,0.0026077169459313154,1.0003355741500854,0.0,0.0,0.0,51.463050842285156,6.200595378875732,5.077494144439697,-9314.9140625,0
2174.6010000000006,0.06729557365179062,-0.014147714711725712,0.0017592599615454674,0.0,0.0,0.0,0.0,0.00486793601885438,0.0070894756354391575,0.0034700066316872835,0.9978883862495422,0.0,0.0,0.0,51.536033630371094,6.200170516967773,5.092383861541748,-9328.125,0
2184.486000000001,0.06735162436962128,-0.014198394492268562,0.0017503735143691301,0.0,0.0,0.0,0.0,-0.0023555774241685867,-0.0023976119700819254,-0.0008082527783699334,0.9980234503746033,0.0,0.0,0.0,51.48639678955078,6.193826198577881,5.084645748138428,-9319.1396484375,0
2194.371000000001,0.06731723248958588,-0.014125606045126915,0.0017347894608974457,0.0,0.0,0.0,0.0,-0.0009557576850056648,-0.0017620885046198964,-0.0007778105209581554,0.9983617663383484,0.0,0.0,0.0,51.5377082824707,6.18733549118042,5.101247787475586,-9328.4287109375,0
2204.255000000001,0.06737382709980011,-0.014177676290273666,0.0017224857583642006,0.0,0.0,0.0,0.0,1.6893747670110315e-05,-0.002433290472254157,0.007272946648299694,1.0005393028259277,0.0,0.0,0.0,51.48777770996094,6.187110900878906,5.098047256469727,-9319.3896484375,0
2214.139000000001,0.06735998392105103,-0.014161298982799053,0.0017095496878027916,0.0,0.0,0.0,0.0,0.0011374889872968197,-0.0014361189678311348,-0.0016871016705408692,1.0002610683441162,0.0,0.0,0.0,51.53804397583008,6.174406051635742,5.1087517738342285,-9328.4892578125,0
2224.023000000001,0.06741799414157867,-0.014215517789125443,0.0016961392248049378,0.0,0.0,0.0,0.0,0.0006819468108005822,0.005273513961583376,-0.0012680854415521026,0.9993133544921875,0.0,0.0,0.0,51.48832321166992,6.1715569496154785,5.105260848999023,-9319.48828125,0
2233.9080000000013,0.06735357642173767,-0.014172196388244629,0.001682722708210349,0.0,0.0,0.0,0.0,0.0018815621733665466,0.005814048927277327,0.0022727346513420343,0.9997825026512146,0.0,0.0,0.0,51.53958511352539,6.165138244628906,5.085278034210205,-9328.767578125,0
2243.7920000000013,0.0674108937382698,-0.014226535335183144,0.001669763820245862,0.0,0.0,0.0,0.0,-0.003142836270853877,-0.002035731915384531,0.00042178333387710154,0.9986535310745239,0.0,0.0,0.0,51.49006652832031,6.155911445617676,5.073549747467041,-9319.8037109375,0
2253.688,0.06737343966960907,-0.014230542816221714,0.0017061398830264807,0.0,0.0,0.0,0.0,0.002599627012386918,0.0028200268279761076,-9.72077323240228e-05,0.998924195766449,0.0,0.0,0.0,51.54033660888672,6.148296356201172,5.07505464553833,-9328.904296875,0
2263.5699999999997,0.06743078678846359,-0.014288716949522495,0.0016953510930761695,0.0,0.0,0.0,0.0,-0.0010083254892379045,0.0049208072014153,-0.0007038679323159158,0.9985657930374146,0.0,0.0,0.0,51.49127197265625,6.146702766418457,5.075321674346924,-9320.021484375,0
2273.446,0.06738252937793732,-0.014264430850744247,0.001711292308755219,0.0,0.0,0.0,0.0,0.004872599150985479,0.0010531466687098145,-0.0008417753269895911,0.9998978972434998,0.0,0.0,0.0,51.55390167236328,6.134740352630615,5.072028636932373,-9331.3583984375,0
2283.331,0.06744297593832016,-0.014326399192214012,0.0017015310004353523,0.0,0.0,0.0,0.0,-0.00469640176743269,-0.0031850249506533146,-0.00041716094710864127,0.9977803230285645,0.0,0.0,0.0,51.50508117675781,6.123523712158203,5.057101726531982,-9322.521484375,0
2293.2250000000004,0.06745167821645737,-0.014288881793618202,0.0017407815903425217,0.0,0.0,0.0,0.0,-0.001294196816161275,-0.00048341997899115086,0.00020687417418230325,1.0004448890686035,0.0,0.0,0.0,51.564544677734375,6.114730358123779,5.080648422241211,-9333.2861328125,0
2303.1010000000006,0.06751647591590881,-0.014353744685649872,0.0017339045880362391,0.0,0.0,0.0,0.0,0.0034256393555551767,0.003330958541482687,0.0006501342286355793,1.0013442039489746,0.0,0.0,0.0,51.51475143432617,6.10972261428833,5.074302673339844,-9324.2734375,0
2312.9890000000014,0.06733822822570801,-0.01422768086194992,0.0017701289616525173,0.0,0.0,0.0,0.0,-0.0027269390411674976,0.0029436603654175997,0.003295516362413764,0.9983905553817749,0.0,0.0,0.0,51.575050354003906,6.130868434906006,5.088603973388672,-9335.1865234375,0
