timestamp,stateEstimate.x,stateEstimate.y,stateEstimate.z,controller.cmd_thrust,controller.cmd_roll,controller.cmd_pitch,controller.cmd_yaw,controller.r_roll,controller.r_pitch,controller.r_yaw,controller.accelz,controller.actuatorThrust,controller.roll,controller.pitch,controller.yaw,controller.rollRate,controller.pitchRate,controller.yawRate,controller.ctr_yaw
0.0,-4.151836401433684e-05,-0.0001100708032026887,-8.727782551432028e-05,0.0,0.0,0.0,0.0,-0.0009258500067517161,0.00023656764824409038,-0.001533187460154295,0.9992729425430298,0.0,0.0,0.0,0.3777409493923187,9.749960899353027,3.554020643234253,-68.37186431884766,0
9.886999999998807,-1.2139273167122155e-05,-6.106175715103745e-05,-0.00011018664372386411,0.0,0.0,0.0,0.0,-0.00024138292064890265,-0.002475857036188245,0.0015073969261720777,0.9985633492469788,0.0,0.0,0.0,0.3899252712726593,9.761810302734375,3.5676939487457275,-70.57725524902344,0
19.76800000000003,-6.116193253546953e-05,-6.583172216778621e-05,-7.62264899094589e-05,0.0,0.0,0.0,0.0,-0.0004185728612355888,0.0011467748554423451,0.0014926402363926172,1.0011053085327148,0.0,0.0,0.0,0.38926440477371216,9.750255584716797,3.5663037300109863,-70.45762634277344,0
29.645000000000437,-3.0973998946137726e-05,-4.360199091024697e-05,-0.00011186870688106865,0.0,0.0,0.0,0.0,-0.0011164946481585503,-0.0035565446596592665,-0.0003205042448826134,1.00029718875885,0.0,0.0,0.0,0.38962775468826294,9.74241828918457,3.5646347999572754,-70.52339935302734,0
39.539999999999054,-7.239807746373117e-05,-3.373698200448416e-05,-6.689721340080723e-05,0.0,0.0,0.0,0.0,-0.002641916973516345,-0.0026026705745607615,0.0014476618962362409,1.0016028881072998,0.0,0.0,0.0,0.3805088698863983,9.742990493774414,3.5585362911224365,-68.87286376953125,0
49.41399999999885,-4.99008092447184e-05,-2.1679054043488577e-05,-0.00010009094694396481,0.0,0.0,0.0,0.0,-0.0008656946010887623,0.0031536545138806105,0.0007640678086318076,1.000880241394043,0.0,0.0,0.0,0.3896338939666748,9.746758460998535,3.574009895324707,-70.5245132446289,0
59.306000000000495,-4.333785909693688e-05,-5.52743804291822e-05,-5.860289456904866e-05,0.0,0.0,0.0,0.0,0.0037539321929216385,-0.0006872662925161421,-0.0015042789746075869,0.9994658827781677,0.0,0.0,0.0,0.3802858293056488,9.749385833740234,3.5865628719329834,-68.83248901367188,0
69.1869999999999,-2.2014759451849386e-05,-4.381909820949659e-05,-9.016489639179781e-05,0.0,0.0,0.0,0.0,-0.00248700100928545,-0.001992756500840187,6.26602050033398e-05,0.9982141256332397,0.0,0.0,0.0,0.3797026574611664,9.738590240478516,3.5647757053375244,-68.72693634033203,0
79.07699999999932,-2.6484856789465994e-05,-0.0001182672058348544,-7.269264460774139e-05,0.0,0.0,0.0,0.0,0.0017380951903760433,0.0059525188989937305,0.0018018600530922413,0.9995233416557312,0.0,0.0,0.0,0.3790873885154724,9.722747802734375,3.5630812644958496,-68.61556243896484,0
88.94999999999891,-2.6714430987340165e-06,-9.876830881694332e-05,-0.00010849520185729489,0.0,0.0,0.0,0.0,-0.00034131252323277295,0.000486774806631729,0.0003542461490724236,1.0008535385131836,0.0,0.0,0.0,0.38491323590278625,9.722955703735352,3.5573627948760986,-69.67005920410156,0
98.84699999999975,1.031965348374797e-05,-0.00014225915947463363,-6.920183659531176e-05,0.0,0.0,0.0,0.0,0.0011971135390922427,-0.0012212118599563837,9.322860569227487e-05,1.0005085468292236,0.0,0.0,0.0,0.37366947531700134,9.722899436950684,3.560661792755127,-67.63492584228516,0
108.72500000000036,-7.98489145381609e-06,-0.0001866512029664591,-7.049435225781053e-05,0.0,0.0,0.0,0.0,0.0006217419868335128,-0.0007755171973258257,0.0023725919891148806,0.9998210668563843,0.0,0.0,0.0,0.374211847782135,9.714777946472168,3.5582103729248047,-67.73308563232422,0
118.61499999999978,-6.067523281672038e-05,-0.00020123085414525121,-2.9733120754826814e-05,0.0,0.0,0.0,0.0,0.0020307658705860376,-0.004394188057631254,0.0025062747299671173,1.0001485347747803,0.0,0.0,0.0,0.37301963567733765,9.705233573913574,3.566258668899536,-67.51730346679688,0
128.48899999999958,-4.6238466893555596e-05,-0.0002005781134357676,-5.749291449319571e-05,0.0,0.0,0.0,0.0,0.0003473612596280873,-0.004102165345102549,-0.0003942056791856885,0.9995256662368774,0.0,0.0,0.0,0.3726631700992584,9.694174766540527,3.5734846591949463,-67.45277404785156,0
138.3799999999992,-8.298573084175587e-05,-0.0002745002566371113,-4.4182161218486726e-05,0.0,0.0,0.0,0.0,0.0010393053526058793,0.003993169404566288,-0.0007740592700429261,0.9991222023963928,0.0,0.0,0.0,0.373561829328537,9.689602851867676,3.578498363494873,-67.61543273925781,0
148.2619999999988,-6.941327592357993e-05,-0.0002467097365297377,-7.20720854587853e-05,0.0,0.0,0.0,0.0,-0.002676168689504266,-0.00010585689597064629,0.003072872757911682,0.9988242387771606,0.0,0.0,0.0,0.37249502539634705,9.67711353302002,3.5710184574127197,-67.4223403930664,0
158.14999999999964,-9.400070121046156e-05,-0.0002631360257510096,-2.3200802388601005e-05,0.0,0.0,0.0,0.0,0.0019703838042914867,-0.0020629889331758022,-0.003443092340603471,1.0004308223724365,0.0,0.0,0.0,0.37191468477249146,9.666263580322266,3.5506598949432373,-67.31729888916016,0
168.02399999999943,-6.911838863743469e-05,-0.00022755925601813942,-5.6320666772080585e-05,0.0,0.0,0.0,0.0,-0.0006995737785473466,0.004613962024450302,-0.004236957989633083,1.000428318977356,0.0,0.0,0.0,0.3714922368526459,9.658803939819336,3.5633299350738525,-67.24082946777344,0
177.92000000000007,-9.6446558018215e-05,-0.00023607249022461474,-1.418762440152932e-05,0.0,0.0,0.0,0.0,0.00019804787007160485,-0.0022817158605903387,0.0006819725967943668,1.00081467628479,0.0,0.0,0.0,0.3700810670852661,9.649996757507324,3.551035165786743,-66.98541259765625,0
187.79500000000007,-3.284854028606787e-05,-0.00015022877778392285,-8.23709269752726e-05,0.0,0.0,0.0,0.0,-0.003109689336270094,0.0007786157657392323,0.0022869326639920473,0.9995697140693665,0.0,0.0,0.0,0.3698729872703552,9.638651847839355,3.545393943786621,-66.94774627685547,0
197.6929999999993,-5.495391087606549e-05,-0.00018014457600656897,-5.3409734391607344e-05,0.0,0.0,0.0,0.0,-0.003762149251997471,0.0006282990798354149,-0.004024413414299488,1.0007798671722412,0.0,0.0,0.0,0.369406133890152,9.635854721069336,3.55680251121521,-66.86325073242188,0
207.5630000000001,-7.984596777532715e-06,-0.00011557233665371314,-0.00010787929932121187,0.0,0.0,0.0,0.0,0.001961080590263009,0.00044996620272286236,-8.893402991816401e-05,1.0018997192382812,0.0,0.0,0.0,0.36854127049446106,9.633340835571289,3.556034564971924,-66.70671081542969,0
217.45399999999972,-5.142956433701329e-05,-0.00012000399874523282,-7.31187392375432e-05,0.0,0.0,0.0,0.0,-0.0016994618345052004,-0.004048472736030817,-0.0004528100835159421,1.000187635421753,0.0,0.0,0.0,0.36043983697891235,9.64046573638916,3.543128490447998,-65.24032592773438,0
227.34000000000015,7.86854070611298e-06,-5.40812143299263e-05,-0.00014424511755350977,0.0,0.0,0.0,0.0,-0.0024513567332178354,-0.006564586888998747,0.0018541624303907156,0.9995480179786682,0.0,0.0,0.0,0.367708683013916,9.651556015014648,3.56333327293396,-66.55599975585938,0
385.47999999999956,-1.3523467714549042e-05,-0.00013574193872045726,-3.141160777886398e-05,0.0,0.0,0.0,0.0,0.0006166974199004471,0.0009333977941423655,-0.00017851560551207513,1.0009167194366455,0.0,0.0,0.0,0.35609450936317444,9.580339431762695,3.539363384246826,-64.45381164550781,0
395.3739999999998,-4.101057129446417e-05,-0.00018912939412984997,-3.799455271291663e-06,0.0,0.0,0.0,0.0,0.0010056250030174851,0.00010065366222988814,0.0028420877642929554,1.000397801399231,0.0,0.0,0.0,0.3446469306945801,9.574820518493652,3.5386099815368652,-62.38178253173828,0
405.2520000000004,2.829090362865827e-06,-0.0001279096322832629,-4.63766155007761e-05,0.0,0.0,0.0,0.0,0.0006592150311917067,-0.0013571757590398192,0.00225092563778162,1.0000873804092407,0.0,0.0,0.0,0.3555656969547272,9.583813667297363,3.552541732788086,-64.35809326171875,0
415.15200000000004,-5.1691844419110566e-05,-0.00018710503354668617,-3.311438922537491e-05,0.0,0.0,0.0,0.0,0.0005030889296904206,0.004826744552701712,-0.0017786010866984725,0.9993111491203308,0.0,0.0,0.0,0.35672521591186523,9.570270538330078,3.546306610107422,-64.56797790527344,0
425.021999999999,-1.0974632459692657e-05,-0.00016593048349022865,-9.404610318597406e-05,0.0,0.0,0.0,0.0,0.0010847202502191067,-0.0030410487670451403,-0.0016690815100446343,0.9986305236816406,0.0,0.0,0.0,0.35611623525619507,9.561968803405762,3.5457561016082764,-64.4577407836914,0
434.91100000000006,-8.056972728809342e-05,-0.00020619493443518877,-7.448605174431577e-05,0.0,0.0,0.0,0.0,-0.0001164518398582004,0.0037978203035891056,0.0012112444965168834,0.9991793632507324,0.0,0.0,0.0,0.35522547364234924,9.555610656738281,3.527114152908325,-64.29651641845703,0
444.7970000000005,-4.145533239352517e-05,-0.00019180243543814868,-0.00014013928011991084,0.0,0.0,0.0,0.0,0.0004420647455845028,-0.0004471890861168504,0.0028621512465178967,0.9998630881309509,0.0,0.0,0.0,0.3612421751022339,9.556805610656738,3.534259557723999,-65.38555145263672,0
454.6869999999999,-6.880667933728546e-05,-0.0001871198182925582,-8.947325113695115e-05,0.0,0.0,0.0,0.0,0.0026609699707478285,0.0050899856723845005,-0.002548468066379428,1.0013753175735474,0.0,0.0,0.0,0.35541051626205444,9.558676719665527,3.519644260406494,-64.33000946044922,0
464.5619999999999,-3.1333707738667727e-05,-0.00017156239482574165,-0.0001510901201982051,0.0,0.0,0.0,0.0,-0.0006406598258763552,-0.00043242331594228745,0.0017054711934179068,1.0014649629592896,0.0,0.0,0.0,0.36345207691192627,9.564424514770508,3.525144338607788,-65.7855453491211,0
474.4539999999997,-4.185156285529956e-05,-0.000145310812513344,-8.550205529900268e-05,0.0,0.0,0.0,0.0,0.0002657385775819421,-0.001251978799700737,0.002051214687526226,0.9996981620788574,0.0,0.0,0.0,0.35635045170783997,9.57337760925293,3.526049852371216,-64.50013732910156,0
484.3259999999991,-7.549076599389082e-06,-0.00011758361506508663,-0.00013018959725741297,0.0,0.0,0.0,0.0,0.0008691241382621229,0.0013242019340395927,0.0014332024147734046,0.9996713995933533,0.0,0.0,0.0,0.35658106207847595,9.55591106414795,3.516875743865967,-64.54187774658203,0
494.21899999999914,-6.504327757284045e-05,-0.00016058175242505968,-0.00011008354340447113,0.0,0.0,0.0,0.0,-0.002150747226551175,-0.0009823024738579988,0.001748521695844829,1.0005249977111816,0.0,0.0,0.0,0.34954649209976196,9.55894947052002,3.5168259143829346,-63.26860809326172,0
504.09299999999894,-3.340891998959705e-05,-0.00010960518557112664,-0.0001439747284166515,0.0,0.0,0.0,0.0,-0.0009480397566221654,-0.0006228873389773071,0.002494010841473937,1.000286340713501,0.0,0.0,0.0,0.359110951423645,9.570426940917969,3.5077133178710938,-64.99979400634766,0
513.9899999999998,-4.9581700295675546e-05,-0.0001272430963581428,-0.00010094436584040523,0.0,0.0,0.0,0.0,0.00030729296850040555,-0.0014546700986102223,-0.002138922456651926,1.0005048513412476,0.0,0.0,0.0,0.3521735668182373,9.572457313537598,3.5044968128204346,-63.744117736816406,0
523.8639999999996,-1.891890133265406e-05,-9.724228584673256e-05,-0.00013847669470123947,0.0,0.0,0.0,0.0,-0.0012851275969296694,0.0035758542362600565,-0.003222894622012973,0.999621570110321,0.0,0.0,0.0,0.35203826427459717,9.56710433959961,3.498368501663208,-63.71962356567383,0
533.7619999999988,-4.009963959106244e-05,-0.00014779585762880743,-0.00011139048729091883,0.0,0.0,0.0,0.0,0.0015830590855330229,0.00018572846602182835,-0.0022507947869598866,0.9974356889724731,0.0,0.0,0.0,0.35207074880599976,9.56405258178711,3.4979987144470215,-63.72550582885742,0
543.6329999999998,-1.0767084859253373e-05,-0.0001624696160433814,-0.00016726493777241558,0.0,0.0,0.0,0.0,0.0013219803804531693,0.0028461285401135683,-0.0016004923963919282,1.001179814338684,0.0,0.0,0.0,0.3608826994895935,9.561683654785156,3.500908136367798,-65.32048797607422,0
553.5290000000005,-4.443148282007314e-05,-0.00018541794270277023,-0.00013203195703681558,0.0,0.0,0.0,0.0,0.0004070697177667171,0.0015286478446796536,0.0012817016104236245,1.0029562711715698,0.0,0.0,0.0,0.3609057366847992,9.557585716247559,3.494511604309082,-65.32466125488281,0
563.3989999999994,-5.1932820497313514e-05,-0.00021804879361297935,-0.0001457834296161309,0.0,0.0,0.0,0.0,-0.0009996031876653433,0.0006602745852433145,-0.0006646023830398917,1.0020421743392944,0.0,0.0,0.0,0.3710024654865265,9.554945945739746,3.4863810539245605,-67.15217590332031,0
573.2979999999989,-6.249585567275062e-05,-0.00024088393547572196,-9.584439249010757e-05,0.0,0.0,0.0,0.0,-0.0008223102195188403,0.002661472884938121,0.0015650488203391433,1.0015952587127686,0.0,0.0,0.0,0.3702871799468994,9.54602336883545,3.4730727672576904,-67.02272033691406,0
583.1669999999995,-4.840673864237033e-05,-0.00023441891244146973,-0.0001169303577626124,0.0,0.0,0.0,0.0,-0.0038689759094268084,0.0038771715480834246,0.001918141613714397,0.9999021291732788,0.0,0.0,0.0,0.3708001673221588,9.541708946228027,3.4570024013519287,-67.11556243896484,0
593.0599999999995,-8.445503044640645e-05,-0.00031550732092000544,-0.00010346843919251114,0.0,0.0,0.0,0.0,-0.0019144286634400487,0.0008806711994111538,0.0017358314944431186,0.9993340969085693,0.0,0.0,0.0,0.3704955279827118,9.53237247467041,3.4419479370117188,-67.06043243408203,0
602.9409999999989,-7.741677109152079e-05,-0.0002919731487054378,-0.00011979955161223188,0.0,0.0,0.0,0.0,-0.002192825311794877,0.00035909938742406666,-0.0019050128757953644,1.0000171661376953,0.0,0.0,0.0,0.3698142170906067,9.5244722366333,3.428061008453369,-66.9371109008789,0
612.8289999999997,-0.0001004683508654125,-0.00027432304341346025,-3.8644222513539717e-05,0.0,0.0,0.0,0.0,-0.00026136476662941277,-0.0010764659382402897,-3.1374878744827583e-05,1.0000388622283936,0.0,0.0,0.0,0.3701196610927582,9.521415710449219,3.433966636657715,-66.99239349365234,0
622.7129999999997,-3.882453529513441e-05,-0.00021871236094739288,-0.00010975888289976865,0.0,0.0,0.0,0.0,-0.001175589277409017,-0.0007012201240286231,-0.0008471151231788099,1.0014491081237793,0.0,0.0,0.0,0.36976301670074463,9.51378059387207,3.418433666229248,-66.92784118652344,0
632.6039999999994,-5.99515660724137e-05,-0.00022872102272231132,-5.5535889259772375e-05,0.0,0.0,0.0,0.0,0.0017488317098468542,0.002199492184445262,0.005713900551199913,0.9997621774673462,0.0,0.0,0.0,0.3577614426612854,9.512423515319824,3.417965888977051,-64.75553131103516,0
642.4740000000002,-1.0625493814586662e-05,-0.00019763944146689028,-0.0001180973558803089,0.0,0.0,0.0,0.0,-0.001217705081216991,-0.0031120474450290203,-0.0008129344787448645,0.9998385310173035,0.0,0.0,0.0,0.35845956206321716,9.501225471496582,3.4125897884368896,-64.88189697265625,0
652.3689999999988,-8.342960063600913e-05,-0.00021647801622748375,-8.758416515775025e-05,0.0,0.0,0.0,0.0,-0.0018378132954239845,0.0006513932021334767,0.0033763127867132425,1.0004618167877197,0.0,0.0,0.0,0.3528602123260498,9.5092134475708,3.4052395820617676,-63.86840057373047,0
662.2420000000002,-3.64057304977905e-05,-0.00015243298548739403,-0.0001376852742396295,0.0,0.0,0.0,0.0,0.00012942872126586735,-0.00022165151312947273,-0.0017442863900214434,1.001863956451416,0.0,0.0,0.0,0.35868024826049805,9.528890609741211,3.4149997234344482,-64.92183685302734,0
672.1360000000004,-5.6175576901296154e-05,-0.00017538134125061333,-9.475483238929883e-05,0.0,0.0,0.0,0.0,-0.0018468196503818035,-0.004023208748549223,-0.0010679548140615225,1.0004260540008545,0.0,0.0,0.0,0.35155439376831055,9.52542495727539,3.4161925315856934,-63.632041931152344,0
682.0100000000002,1.880389027064666e-05,-9.460278670303524e-05,-0.00017855851911008358,0.0,0.0,0.0,0.0,-5.620675074169412e-05,-0.0036156298592686653,0.0026188369374722242,1.0018483400344849,0.0,0.0,0.0,0.3521815538406372,9.52351188659668,3.4214887619018555,-63.745567321777344,0
691.9130000000005,-4.0785052988212556e-05,-9.711074380902573e-05,-0.00013720744755119085,0.0,0.0,0.0,0.0,-0.0015431306092068553,0.00590736698359251,-0.0034410797525197268,1.0007896423339844,0.0,0.0,0.0,0.3435567021369934,9.530567169189453,3.4285225868225098,-62.184444427490234,0
701.7880000000005,1.8486028920960962e-06,-6.969161768211052e-05,-0.00019856631115544587,0.0,0.0,0.0,0.0,-7.960777111293282e-06,0.0002893122145906091,0.001582488534040749,1.002622127532959,0.0,0.0,0.0,0.343792587518692,9.518488883972168,3.4262032508850098,-62.227142333984375,0
711.6749999999993,-3.237100099795498e-05,-8.65376932779327e-05,-0.00015689866268076003,0.0,0.0,0.0,0.0,0.0015448466874659061,0.006980577949434519,-0.0023100292310118675,1.0003681182861328,0.0,0.0,0.0,0.33562949299812317,9.521535873413086,3.416578531265259,-60.749610900878906,0
721.5489999999991,-1.4502003978122957e-05,-6.776231748517603e-05,-0.00018070869555231184,0.0,0.0,0.0,0.0,-0.0019767177291214466,-0.0012365637812763453,9.6530893642921e-05,1.0009349584579468,0.0,0.0,0.0,0.3420144021511078,9.524566650390625,3.4099035263061523,-61.9052848815918,0
731.4439999999995,-3.6575085687218234e-05,-8.158942364389077e-05,-0.0001313905231654644,0.0,0.0,0.0,0.0,-0.001492152689024806,0.0020975167863070965,0.0014957394450902939,1.0020846128463745,0.0,0.0,0.0,0.33441823720932007,9.523423194885254,3.4074854850769043,-60.53036117553711,0
741.3169999999991,-2.7389514798414893e-05,-0.00011864976113429293,-0.00016499617777299136,0.0,0.0,0.0,0.0,0.0003340711700730026,-0.0005896136281080544,-0.0010765347396954894,1.0004022121429443,0.0,0.0,0.0,0.3423154354095459,9.520211219787598,3.398632764816284,-61.95977783203125,0
751.2179999999989,-5.0338810979155824e-05,-0.0001308749197050929,-0.00011120006820419803,0.0,0.0,0.0,0.0,0.0015491796657443047,0.0013309336500242352,-0.0018968997756019235,0.9982541799545288,0.0,0.0,0.0,0.33500951528549194,9.522967338562012,3.392857074737549,-60.637386322021484,0
761.0869999999995,-5.779016646556556e-05,-0.00013435455912258476,-0.0001053648884408176,0.0,0.0,0.0,0.0,0.0023444662801921368,0.0007986063719727099,0.0009032731759361923,0.9979596138000488,0.0,0.0,0.0,0.3345707654953003,9.509346008300781,3.3881924152374268,-60.55796813964844,0
770.982,-7.53969798097387e-05,-0.000182977833901532,-6.488658982561901e-05,0.0,0.0,0.0,0.0,-0.0013418839080259204,-0.0006492061074823141,0.00034369336208328605,1.000477910041809,0.0,0.0,0.0,0.3354623019695282,9.499316215515137,3.3876330852508545,-60.71934509277344,0
780.8580000000002,-6.832944200141355e-05,-0.0002094847004627809,-9.021667938213795e-05,0.0,0.0,0.0,0.0,-0.002755039371550083,0.0028886916115880013,-0.001599079929292202,0.9990306496620178,0.0,0.0,0.0,0.33702585101127625,9.489377975463867,3.3848323822021484,-61.00235366821289,0
790.7479999999996,-5.8601133787306026e-05,-0.00023327453527599573,-2.7706575565389358e-05,0.0,0.0,0.0,0.0,-0.0030234353616833687,0.004071942996233702,0.00010911758727161214,0.9990160465240479,0.0,0.0,0.0,0.3242263197898865,9.499045372009277,3.3770689964294434,-58.685611724853516,0
800.6299999999992,-2.7462765501695685e-05,-0.00018625747179612517,-5.177792991162278e-05,0.0,0.0,0.0,0.0,0.0003888912033289671,0.0019358237041160464,-0.0023673265241086483,0.9993631839752197,0.0,0.0,0.0,0.3236736059188843,9.492332458496094,3.3659286499023438,-58.585567474365234,0
810.5149999999994,-4.651083509088494e-05,-0.0001817725133150816,1.401766621711431e-05,0.0,0.0,0.0,0.0,-0.0028593505267053843,0.0036089045461267233,0.0011539871338754892,0.9988346695899963,0.0,0.0,0.0,0.3151981234550476,9.50110912322998,3.3482418060302734,-57.051490783691406,0
820.393,-3.512579496600665e-05,-0.00017077705706469715,4.1619964576966595e-06,0.0,0.0,0.0,0.0,0.0009863278828561306,-0.0023425621911883354,-0.0012001530267298222,1.0014532804489136,0.0,0.0,0.0,0.31527313590049744,9.491393089294434,3.332085609436035,-57.065067291259766,0
830.289999999999,-2.912515446951147e-05,-0.00020531345217023045,6.060338637325913e-05,0.0,0.0,0.0,0.0,-0.003513891017064452,-0.001456839730963111,0.0014230579836294055,0.9992244243621826,0.0,0.0,0.0,0.3151213526725769,9.489246368408203,3.32800030708313,-57.03759002685547,0
840.1669999999995,1.625321601750329e-05,-0.00019132642773911357,2.31906415137928e-06,0.0,0.0,0.0,0.0,-0.003108162200078368,0.004426958505064249,0.0017017442733049393,0.9987401962280273,0.0,0.0,0.0,0.32858213782310486,9.497685432434082,3.3399202823638916,-59.47401809692383,0
850.0669999999991,-4.794192864210345e-05,-0.00018652233120519668,5.861427780473605e-05,0.0,0.0,0.0,0.0,-0.001393006299622357,-0.003938153386116028,0.0026143700815737247,1.0003955364227295,0.0,0.0,0.0,0.3190670311450958,9.508249282836914,3.3360793590545654,-57.751766204833984,0
859.9369999999999,3.495080818538554e-06,-0.00013684363511856645,-1.3296303222887218e-06,0.0,0.0,0.0,0.0,-0.0013230687472969294,9.48018569033593e-05,-0.0022461162880063057,1.001173496246338,0.0,0.0,0.0,0.3258572816848755,9.53014850616455,3.345557689666748,-58.98081588745117,0
869.8220000000001,-3.489296796033159e-05,-0.0001964574767043814,2.936308919743169e-05,0.0,0.0,0.0,0.0,0.002960684010758996,-0.0010344256879761815,6.136614683782682e-05,1.0011309385299683,0.0,0.0,0.0,0.317279189825058,9.527756690979004,3.343959093093872,-57.42816162109375,0
879.7009999999991,2.142233461199794e-05,-0.00013776450941804796,-3.6165187339065596e-05,0.0,0.0,0.0,0.0,-0.0007643686840310693,0.003095489228144288,0.00207658507861197,1.00026535987854,0.0,0.0,0.0,0.3234100043773651,9.540953636169434,3.35235333442688,-58.53785705566406,0
889.5900000000001,-4.7249061026377603e-05,-0.0001778734294930473,-6.322379249468213e-06,0.0,0.0,0.0,0.0,-0.0006972169503569603,0.002694753697142005,-0.00032471114536747336,1.0009087324142456,0.0,0.0,0.0,0.3223150074481964,9.527700424194336,3.3501060009002686,-58.33966064453125,0
899.4699999999993,-1.8154150893678889e-06,-0.00012998173770029098,-6.379657133948058e-05,0.0,0.0,0.0,0.0,-0.002049029804766178,-0.0029920281376689672,0.00363306887447834,0.9979192018508911,0.0,0.0,0.0,0.32843518257141113,9.545854568481445,3.3625903129577637,-59.44742202758789,0
909.3670000000002,-6.126665539341047e-05,-0.00014516986266244203,-2.065074113488663e-05,0.0,0.0,0.0,0.0,-0.00012213575246278197,0.005433291662484407,0.0009694024338386953,0.9989539384841919,0.0,0.0,0.0,0.32015523314476013,9.549938201904297,3.3678946495056152,-57.948734283447266,0
919.2369999999992,-6.791292253183201e-05,-0.0001919935893965885,-4.6151992137311026e-05,0.0,0.0,0.0,0.0,0.0011468937154859304,0.00042743165977299213,-0.0028331384528428316,1.0020380020141602,0.0,0.0,0.0,0.3262171745300293,9.552639961242676,3.361438035964966,-59.045955657958984,0
929.1270000000004,-0.00011186482151970267,-0.0001943876122822985,1.032186446536798e-05,0.0,0.0,0.0,0.0,-0.0015209922567009926,0.0010213619098067284,-0.0013241054257377982,1.000124216079712,0.0,0.0,0.0,0.32634246349334717,9.541792869567871,3.36144757270813,-59.06863021850586,0
939.0079999999998,-9.286344720749184e-05,-0.00020410101569723338,-3.663854658952914e-05,0.0,0.0,0.0,0.0,0.0015277259517461061,0.0004292475641705096,0.0031666820868849754,1.0027053356170654,0.0,0.0,0.0,0.3266274929046631,9.533486366271973,3.3530778884887695,-59.12022399902344,0
948.9009999999998,-0.00013845499779563397,-0.00022947422985453159,1.326064648310421e-05,0.0,0.0,0.0,0.0,-0.002369918627664447,-0.001752148033119738,0.0004213518986944109,1.0029102563858032,0.0,0.0,0.0,0.31615856289863586,9.534005165100098,3.342932939529419,-57.22532653808594,0
958.7819999999992,-0.00011069358151871711,-0.0002274957369081676,-3.396349347895011e-05,0.0,0.0,0.0,0.0,-0.00030497394618578255,-0.0016682975692674518,-0.0017786497483029962,1.0021029710769653,0.0,0.0,0.0,0.3165699243545532,9.529071807861328,3.339756965637207,-57.29978561401367,0
968.664999999999,-0.00011551972420420498,-0.0002342794177820906,3.948796074837446e-05,0.0,0.0,0.0,0.0,-0.0008313790312968194,-0.0018257575575262308,0.0015827834140509367,0.998410701751709,0.0,0.0,0.0,0.30857160687446594,9.538690567016602,3.3532378673553467,-55.852073669433594,0
978.5529999999999,-4.5107517507858574e-05,-0.00015189245459623635,-2.8232234399183653e-05,0.0,0.0,0.0,0.0,0.002633726457133889,-0.0011259395396336913,-4.881124186795205e-05,0.9985191822052002,0.0,0.0,0.0,0.30861008167266846,9.531625747680664,3.347548246383667,-55.85904312133789,0
988.4390000000003,-6.779303657822311e-05,-0.0002100093406625092,1.1903832273674197e-05,0.0,0.0,0.0,0.0,-0.0045735761523246765,-0.0006840706919319928,-0.003352097235620022,1.0022526979446411,0.0,0.0,0.0,0.3083987832069397,9.528281211853027,3.3482115268707275,-55.82079315185547,0
998.3109999999997,-2.2331405489239842e-05,-0.00019559974316507578,-5.0776787247741595e-05,0.0,0.0,0.0,0.0,-0.0013787808129563928,-0.0021785255521535873,0.001034798682667315,1.0012110471725464,0.0,0.0,0.0,0.3200329542160034,9.540361404418945,3.3622355461120605,-57.926597595214844,0
1008.2089999999989,-5.922749187448062e-05,-0.00023900583619251847,-7.852669114072341e-06,0.0,0.0,0.0,0.0,-0.004482225980609655,-0.0014519138494506478,0.0036927051842212677,1.0002387762069702,0.0,0.0,0.0,0.3188290297985077,9.534178733825684,3.362894296646118,-57.70868682861328,0
1018.0810000000001,-4.4127494902568287e-07,-0.000210206228075549,-8.110229100566357e-05,0.0,0.0,0.0,0.0,0.0017499056411907077,-0.0009883440798148513,0.0015298723010346293,1.0004469156265259,0.0,0.0,0.0,0.3185025751590729,9.531329154968262,3.3738064765930176,-57.649600982666016,0
1027.9709999999995,-5.352141670300625e-05,-0.00019690349290613085,-1.8134938727598637e-05,0.0,0.0,0.0,0.0,-0.004059470258653164,0.001001720898784697,0.0032480179797858,1.0001709461212158,0.0,0.0,0.0,0.31098634004592896,9.545357704162598,3.3757808208465576,-56.289146423339844,0
1037.8469999999998,-1.0662414752005134e-05,-0.00014287594240158796,-6.452342495322227e-05,0.0,0.0,0.0,0.0,0.0022592260502278805,-0.00043627218110486865,0.004917715210467577,0.9999545812606812,0.0,0.0,0.0,0.32575392723083496,9.560813903808594,3.3861188888549805,-58.96210861206055,0
1047.7479999999996,-5.416665953816846e-05,-0.000188113481272012,-2.4783355911495164e-05,0.0,0.0,0.0,0.0,0.000745429890230298,-0.001349257887341082,-4.5986074837855995e-05,0.9990168213844299,0.0,0.0,0.0,0.32617467641830444,9.553884506225586,3.3739936351776123,-59.03826141357422,0
1057.616,-6.7195005613029934e-06,-0.00013680820120498538,-8.161072037182748e-05,0.0,0.0,0.0,0.0,0.0010354084661230445,-0.0004992304602637887,0.0014871268067508936,0.9990406036376953,0.0,0.0,0.0,0.32556387782096863,9.539908409118652,3.366950273513794,-58.92771530151367,0
1067.5110000000004,-3.772624404518865e-05,-0.00014506487059406936,-2.280362787132617e-05,0.0,0.0,0.0,0.0,0.0017552180215716362,0.005904825404286385,3.734539131983183e-05,1.0000112056732178,0.0,0.0,0.0,0.3177143335342407,9.547367095947266,3.375218152999878,-57.506927490234375,0
1077.387999999999,-1.3066701285424642e-05,-0.00015787566371727735,-7.896839815657586e-05,0.0,0.0,0.0,0.0,0.0007447065436281264,0.0021219714544713497,0.002661303384229541,1.0031440258026123,0.0,0.0,0.0,0.3263663351535797,9.546689987182617,3.3663527965545654,-59.072959899902344,0
1087.286,-5.637852518702857e-05,-0.00021256472973618656,-4.6323119022417814e-05,0.0,0.0,0.0,0.0,5.548477201955393e-05,-0.007895072922110558,0.0008486413862556219,1.0014309883117676,0.0,0.0,0.0,0.3262234628200531,9.534685134887695,3.35966420173645,-59.047096252441406,0
1097.1549999999988,-1.082591279555345e-05,-0.00015533750411123037,-0.00010800862219184637,0.0,0.0,0.0,0.0,-0.004348646383732557,0.0010292826918885112,-0.002581203356385231,0.999602198600769,0.0,0.0,0.0,0.3262627422809601,9.524151802062988,3.3702282905578613,-59.05420684814453,0
1107.045,-5.879847958567552e-05,-0.0002481761039234698,-9.875016985461116e-05,0.0,0.0,0.0,0.0,0.0030169920064508915,0.0022597271017730236,0.003226988483220339,1.0006747245788574,0.0,0.0,0.0,0.32613423466682434,9.522159576416016,3.360081195831299,-59.03094482421875,0
1116.9220000000005,-6.827244214946404e-05,-0.00023641671577934176,-0.00011040339450119063,0.0,0.0,0.0,0.0,-0.0015404903097078204,0.001975512830540538,0.0018578579183667898,0.9990546703338623,0.0,0.0,0.0,0.33796849846839905,9.543395042419434,3.375727891921997,-61.172969818115234,0
1126.821,-6.842593575129285e-05,-0.0002613619726616889,-3.2354433642467484e-05,0.0,0.0,0.0,0.0,-0.0005654965643770993,0.0003486714558675885,0.0012507258215919137,0.9990717172622681,0.0,0.0,0.0,0.32555004954338074,9.548784255981445,3.3795406818389893,-58.925209045410156,0
1136.691999999999,-5.143365342519246e-05,-0.00025127382832579315,-6.656091863987967e-05,0.0,0.0,0.0,0.0,-0.0001904352830024436,0.0058346102014184,0.004233788698911667,0.9990143179893494,0.0,0.0,0.0,0.3375627398490906,9.556716918945312,3.371649980545044,-61.099525451660156,0
1146.5849999999991,-7.992619794094935e-05,-0.00022780578001402318,1.6104218957480043e-05,0.0,0.0,0.0,0.0,-0.001104310853406787,-0.0024285786785185337,-0.002070304471999407,1.0000547170639038,0.0,0.0,0.0,0.32963845133781433,9.57207202911377,3.3652307987213135,-59.66521453857422,0
1156.458999999999,-5.882190089323558e-05,-0.0002242080809082836,-2.5791479856707156e-05,0.0,0.0,0.0,0.0,-0.00036902553983964026,0.0028784952592104673,-0.00279181357473135,0.9997044205665588,0.0,0.0,0.0,0.3305721879005432,9.561513900756836,3.351731538772583,-59.83422088623047,0
1166.351999999999,-8.610354416305199e-05,-0.0002588587231002748,2.363057865295559e-05,0.0,0.0,0.0,0.0,-0.0020852903835475445,0.005841915030032396,0.0004745482583530247,0.9989687204360962,0.0,0.0,0.0,0.3230402171611786,9.565439224243164,3.3412957191467285,-58.470916748046875,0
1176.2349999999988,-2.0640263755922206e-05,-0.00016800130833871663,-4.940763392369263e-05,0.0,0.0,0.0,0.0,-0.003959440626204014,0.003080840455368161,-0.001953130355104804,1.0001510381698608,0.0,0.0,0.0,0.3308875560760498,9.58742618560791,3.345121383666992,-59.89130401611328,0
1186.1219999999994,-6.479084549937397e-05,-0.00020913072512485087,-1.4790954082855023e-05,0.0,0.0,0.0,0.0,0.0012019026326015592,0.0032179781701415777,-0.0002119294658768922,1.0004202127456665,0.0,0.0,0.0,0.32382744550704956,9.587042808532715,3.334078550338745,-58.6134147644043,0
1195.9979999999996,-1.0629818461893592e-05,-0.000137624578201212,-8.126758621074259e-05,0.0,0.0,0.0,0.0,-0.000670715409796685,-0.0005866932915523648,-0.002387257991358638,0.999922513961792,0.0,0.0,0.0,0.32947877049446106,9.603395462036133,3.335632085800171,-59.636314392089844,0
1205.8940000000002,-6.843713345006108e-05,-0.00015151588013395667,-4.190962863503955e-05,0.0,0.0,0.0,0.0,-0.0005568845081143081,-0.0007780910818837583,-0.0004482754447963089,0.9997597932815552,0.0,0.0,0.0,0.33028408885002136,9.59408187866211,3.320225238800049,-59.78207778930664,0
1215.7649999999994,-3.436565020820126e-05,-0.00010543911048443988,-9.285370470024645e-05,0.0,0.0,0.0,0.0,0.0002165403711842373,0.005395105108618736,-0.0039165751077234745,1.00086510181427,0.0,0.0,0.0,0.33407533168792725,9.610535621643066,3.3270490169525146,-60.468299865722656,0
1225.6579999999994,-8.054243517108262e-05,-0.00018967855430673808,-8.725214865989983e-05,0.0,0.0,0.0,0.0,0.0006094522541388869,0.002462618052959442,-0.001262038596905768,1.001981496810913,0.0,0.0,0.0,0.33314424753189087,9.60494327545166,3.3152663707733154,-60.299774169921875,0
1235.5339999999997,-6.596576713491231e-05,-0.0001857970783021301,-0.00014349789125844836,0.0,0.0,0.0,0.0,0.001727950177155435,-0.006518207490444183,0.0009643805678933859,1.0011961460113525,0.0,0.0,0.0,0.3387002646923065,9.614566802978516,3.3207015991210938,-61.305423736572266,0
1245.4279999999999,-0.00010713424126151949,-0.00017017117352224886,-7.264737359946594e-05,0.0,0.0,0.0,0.0,0.002779671922326088,0.005122055299580097,-0.00022207140864338726,1.000219702720642,0.0,0.0,0.0,0.3381865620613098,9.601630210876465,3.3218820095062256,-61.21244430541992,0
1255.312,-7.992990867933258e-05,-0.0001626078155823052,-0.00013429364480543882,0.0,0.0,0.0,0.0,0.001936635235324502,-0.00480077276006341,-0.0021381741389632225,1.0015534162521362,0.0,0.0,0.0,0.33877572417259216,9.589409828186035,3.32473087310791,-61.3190803527832,0
1265.200999999999,-7.404006464639679e-05,-0.0001982006651815027,-8.115846139844507e-05,0.0,0.0,0.0,0.0,0.0005775351892225444,-0.0036690065171569586,0.0015906048938632011,0.9996596574783325,0.0,0.0,0.0,0.3320065438747406,9.586464881896973,3.3272862434387207,-60.09384536743164,0
1275.071,-3.7341385905165225e-05,-0.00017506556469015777,-0.00014658618601970375,0.0,0.0,0.0,0.0,-0.0016676653176546097,-0.0002991538494825363,-0.0015522800385951996,0.9997085332870483,0.0,0.0,0.0,0.3433109223842621,9.596956253051758,3.3492684364318848,-62.13996124267578,0
1284.9669999999987,-7.243098662002012e-05,-0.00016238824173342437,-8.614706166554242e-05,0.0,0.0,0.0,0.0,-0.0003670473233796656,-0.006166031584143639,0.002784011187031865,1.0006380081176758,0.0,0.0,0.0,0.33598804473876953,9.599416732788086,3.3422303199768066,-60.81450653076172,0
1294.8400000000001,-3.154973001073813e-06,-8.75288897077553e-05,-0.0001804181665647775,0.0,0.0,0.0,0.0,0.0003775453951675445,0.0008218485745601356,-0.002738727256655693,0.9991883635520935,0.0,0.0,0.0,0.3346688449382782,9.591730117797852,3.34730863571167,-60.57572555541992,0
1304.7330000000002,-3.510825627017766e-05,-0.00013006405788473785,-0.0001552863250253722,0.0,0.0,0.0,0.0,-0.0023739950265735388,-0.00012096016871510074,0.000939723220653832,1.0013498067855835,0.0,0.0,0.0,0.33539867401123047,9.581379890441895,3.3559622764587402,-60.70782470703125,0
1314.6090000000004,-2.6558840545476414e-05,-0.00010153686889680102,-0.00018530841043684632,0.0,0.0,0.0,0.0,0.00040815380634739995,-0.0033469879999756813,0.002533290069550276,0.9998739361763,0.0,0.0,0.0,0.3482498824596405,9.59147834777832,3.3565399646759033,-63.03392791748047,0
1324.5059999999994,-3.654382089735009e-05,-0.000139806026709266,-0.00014667351206298918,0.0,0.0,0.0,0.0,0.0008780267089605331,-0.009233449585735798,0.001351517392322421,0.9997230768203735,0.0,0.0,0.0,0.3484361469745636,9.583073616027832,3.3605663776397705,-63.0676383972168,0
1334.378999999999,-5.809027061332017e-05,-0.0001816710428101942,-0.0001574302586959675,0.0,0.0,0.0,0.0,0.0005906676524318755,-0.0022672584746032953,-0.002583340974524617,1.0019230842590332,0.0,0.0,0.0,0.3475148677825928,9.57461929321289,3.3638200759887695,-62.90088653564453,0
1344.2739999999994,-0.00010631891927914694,-0.00026704464107751846,-0.00014987810573074967,0.0,0.0,0.0,0.0,-0.0018563437042757869,0.006243789102882147,-0.0033389299642294645,1.002220630645752,0.0,0.0,0.0,0.34532326459884644,9.56395435333252,3.372485876083374,-62.50419998168945,0
1354.146999999999,-0.00011717754387063906,-0.0002474187349434942,-0.00016441362095065415,0.0,0.0,0.0,0.0,-0.0013918696204200387,-0.005385306663811207,-0.0002918096724897623,1.000499963760376,0.0,0.0,0.0,0.35539430379867554,9.580647468566895,3.378110647201538,-64.32707214355469,0
1364.0460000000003,-0.00011664457997540012,-0.0002649078378453851,-8.238315786002204e-05,0.0,0.0,0.0,0.0,0.0007926183170638978,0.011023592203855515,0.0022109670098870993,0.9998599886894226,0.0,0.0,0.0,0.3550640344619751,9.570425033569336,3.36626935005188,-64.26729583740234,0
1373.92,-0.00010085973917739466,-0.00023848041018936783,-0.0001155157879111357,0.0,0.0,0.0,0.0,0.0018152972916141152,0.00303087942302227,-0.0005929580074734986,0.9987856149673462,0.0,0.0,0.0,0.3550657629966736,9.5588960647583,3.3588366508483887,-64.26760864257812,0
1383.807999999999,-9.2375572421588e-05,-0.0002535909879952669,-4.00816134060733e-05,0.0,0.0,0.0,0.0,0.0019048539688810706,0.0024918222334235907,-0.0012612445279955864,0.9988385438919067,0.0,0.0,0.0,0.34870636463165283,9.559301376342773,3.3507206439971924,-63.11655044555664,0
1393.6839999999993,-7.470809941878542e-05,-0.0002262836933368817,-7.657015521544963e-05,0.0,0.0,0.0,0.0,0.003141534049063921,0.0037737246602773666,0.0005746037932112813,0.9991389513015747,0.0,0.0,0.0,0.3558535575866699,9.562296867370605,3.351656436920166,-64.41020202636719,0
1403.5810000000001,-8.94408076419495e-05,-0.00021954286785330623,5.667092750627489e-07,0.0,0.0,0.0,0.0,0.003465197281911969,-0.0003235674521420151,0.0017068618908524513,1.0008656978607178,0.0,0.0,0.0,0.3435351848602295,9.560904502868652,3.340210199356079,-62.18054962158203,0
1413.4529999999995,-4.630991315934807e-05,-0.0001843264326453209,-7.252131763380021e-05,0.0,0.0,0.0,0.0,-0.003256279043853283,-0.001430947333574295,-0.0030345688574016094,1.0000228881835938,0.0,0.0,0.0,0.35532346367836,9.564640998840332,3.3387610912323,-64.31425476074219,0
1423.3459999999995,-8.504850848112255e-05,-0.00019543469534255564,-1.6804600818431936e-05,0.0,0.0,0.0,0.0,0.0007986038108356297,0.002480196999385953,0.003505036933347583,0.9996400475502014,0.0,0.0,0.0,0.34631094336509705,9.570927619934082,3.3397045135498047,-62.68296813964844,0
1433.2250000000004,-4.1966079152189195e-05,-0.000132727887830697,-7.733383972663432e-05,0.0,0.0,0.0,0.0,0.0011069228639826179,-0.00036425483995117247,0.001980694243684411,0.9994125962257385,0.0,0.0,0.0,0.34530335664749146,9.563992500305176,3.3351938724517822,-62.50059509277344,0
1443.1139999999996,-8.262594201369211e-05,-0.00015978259034454823,-3.226451008231379e-05,0.0,0.0,0.0,0.0,0.00447324151173234,0.007878883741796017,0.00045545207103714347,0.998683750629425,0.0,0.0,0.0,0.3380416929721832,9.565118789672852,3.321514844894409,-61.186222076416016,0
1452.9899999999998,-5.990770296193659e-05,-0.00015775377687532455,-9.370571933686733e-05,0.0,0.0,0.0,0.0,-0.0002857235085684806,-0.0014548993203788996,0.0032535723876208067,0.9988729357719421,0.0,0.0,0.0,0.3500572741031647,9.56351089477539,3.3214399814605713,-63.361061096191406,0
1462.893,-6.838334229541942e-05,-0.00020356682944111526,-4.9147813115268946e-05,0.0,0.0,0.0,0.0,-0.002456841990351677,-0.0028182987589389086,0.0010457237949594855,0.998959481716156,0.0,0.0,0.0,0.34053027629852295,9.56110668182373,3.311462640762329,-61.636661529541016,0
1472.762999999999,-6.973221752559766e-05,-0.00021534410188905895,-8.7354528659489e-05,0.0,0.0,0.0,0.0,0.0003401970025151968,0.003311163978651166,-0.00037143233930692077,1.0001777410507202,0.0,0.0,0.0,0.35081642866134644,9.565681457519531,3.331474542617798,-63.49847412109375,0
1482.6630000000005,-7.797483704052866e-05,-0.00020806440443266183,-1.5592737327096984e-05,0.0,0.0,0.0,0.0,-0.0024981016758829355,-0.0019555860199034214,9.392443462274969e-05,0.9993820786476135,0.0,0.0,0.0,0.34389811754226685,9.568243980407715,3.336062431335449,-62.24624252319336,0
1492.5280000000002,-6.97324430802837e-05,-0.0002036561636487022,-6.0115813539596274e-05,0.0,0.0,0.0,0.0,0.0024396975059062243,-0.0006640576757490635,0.0019213207997381687,0.9998253583908081,0.0,0.0,0.0,0.3491417169570923,9.580862045288086,3.3481223583221436,-63.195343017578125,0
1502.4319999999989,-0.00011440071102697402,-0.00019755992980208248,3.6712458495458122e-06,0.0,0.0,0.0,0.0,-0.00098529236856848,-0.0035618182737380266,0.0019666440784931183,0.999428391456604,0.0,0.0,0.0,0.3427479565143585,9.585997581481934,3.343635320663452,-62.03806686401367,0
1512.2970000000005,-0.00010869572724914178,-0.00020511283946689218,-3.915719935321249e-05,0.0,0.0,0.0,0.0,-0.0033778443466871977,-0.0019926822278648615,0.001714456477202475,1.0005393028259277,0.0,0.0,0.0,0.3541721701622009,9.592107772827148,3.353886604309082,-64.10586547851562,0
1522.191999999999,-8.917067316360772e-05,-0.0002168858190998435,3.676479173009284e-05,0.0,0.0,0.0,0.0,-0.0022336840629577637,-0.004486970137804747,0.0006368255708366632,1.0026683807373047,0.0,0.0,0.0,0.34777772426605225,9.598523139953613,3.3564915657043457,-62.94845962524414,0
1532.0650000000005,-3.555451985448599e-05,-0.000178642658283934,-5.0626316806301475e-05,0.0,0.0,0.0,0.0,-3.1288214813685045e-05,0.0014623614260926843,-0.0013466370292007923,1.0011730194091797,0.0,0.0,0.0,0.3592904210090637,9.61465072631836,3.3780407905578613,-65.03227996826172,0
1541.964,-8.188546780729666e-05,-0.00019647447334136814,2.0738182229251834e-06,0.0,0.0,0.0,0.0,0.0005448650335893035,0.0007365202764049172,0.0004989634617231786,0.9994815587997437,0.0,0.0,0.0,0.34961041808128357,9.623001098632812,3.3723456859588623,-63.280181884765625,0
1551.8419999999987,-0.00013241016131360084,-0.00029098906088620424,1.7699665477266535e-05,0.0,0.0,0.0,0.0,0.0015622598584741354,-0.004318736027926207,0.00010942009248537943,0.9990442991256714,0.0,0.0,0.0,0.3500974774360657,9.613713264465332,3.3677046298980713,-63.368343353271484,0
1561.7289999999994,-5.508616959559731e-05,-0.00018047650519292802,-8.088180038612336e-05,0.0,0.0,0.0,0.0,0.0011272577103227377,0.001097475178539753,0.0017466917634010315,1.001260757446289,0.0,0.0,0.0,0.3550732135772705,9.643177032470703,3.390232801437378,-64.26895904541016,0
1571.607,-0.00010382452455814928,-0.0002723161596804857,-7.395351713057607e-05,0.0,0.0,0.0,0.0,-0.0010230973130092025,-0.0009543923661112785,-0.0028740339912474155,1.000486135482788,0.0,0.0,0.0,0.3546777367591858,9.631205558776855,3.3941164016723633,-64.19738006591797,0
1581.503999999999,-7.911973079899326e-05,-0.00018807097512762994,-0.00012212712317705154,0.0,0.0,0.0,0.0,0.001626930432394147,-0.005556581541895866,0.006138180382549763,1.0009543895721436,0.0,0.0,0.0,0.3610929548740387,9.670680046081543,3.4207942485809326,-65.3585433959961,0
1591.3719999999994,-0.0001241263817064464,-0.00027714940370060503,-0.00011704774806275964,0.0,0.0,0.0,0.0,-0.001360790804028511,-0.0031364380847662687,-0.0008951916242949665,1.0013903379440308,0.0,0.0,0.0,0.3610852062702179,9.65803337097168,3.419293165206909,-65.35713958740234,0
1601.2639999999992,-0.0001294520916417241,-0.00026227295165881515,-0.00014198692224454135,0.0,0.0,0.0,0.0,0.0023344068322330713,0.00812896341085434,0.0012880240101367235,0.9995060563087463,0.0,0.0,0.0,0.37026840448379517,9.67699909210205,3.4398396015167236,-67.01931762695312,0
1611.1399999999994,-0.0001732610398903489,-0.0003516480210237205,-0.00013671039778273553,0.0,0.0,0.0,0.0,-0.0007090889848768711,0.0009038770804181695,-0.0008478054660372436,1.0012588500976562,0.0,0.0,0.0,0.368775337934494,9.670148849487305,3.4314799308776855,-66.74907684326172,0
1621.0370000000003,-0.00016897144087124616,-0.0002986417675856501,-0.00015727450954727829,0.0,0.0,0.0,0.0,-0.0026892584282904863,-0.005316093564033508,0.003470265306532383,1.0005699396133423,0.0,0.0,0.0,0.3825643062591553,9.702107429504395,3.433598279953003,-69.24490356445312,0
1630.9099999999999,-0.00020873821631539613,-0.0003839119744952768,-0.00015231428551487625,0.0,0.0,0.0,0.0,-0.0011342668440192938,-0.004149755463004112,-0.0011125048622488976,0.9989862442016602,0.0,0.0,0.0,0.38276785612106323,9.690463066101074,3.425631523132324,-69.28174591064453,0
1640.7999999999993,-0.00016807790962047875,-0.0003084302879869938,-0.00020000450604129583,0.0,0.0,0.0,0.0,0.0008556342218071222,0.0006489677471108735,-0.0015267134876921773,0.9990976452827454,0.0,0.0,0.0,0.39145517349243164,9.737850189208984,3.472226619720459,-70.85417175292969,0
1650.679,-0.00020031697931699455,-0.0003875849361065775,-0.00019897719903383404,0.0,0.0,0.0,0.0,-0.0004262734728399664,-0.0016384429764002562,0.0011955777881667018,0.9986926913261414,0.0,0.0,0.0,0.3907192051410675,9.730742454528809,3.472707986831665,-70.720947265625,0
1660.571,-0.0001870669366326183,-0.0003328062884975225,-0.00020673245307989419,0.0,0.0,0.0,0.0,0.0020830959547311068,0.010328806936740875,-0.001229960354976356,0.999180018901825,0.0,0.0,0.0,0.3937799334526062,9.772029876708984,3.498176336288452,-71.27494812011719,0
1670.449999999999,-0.00021599182218778878,-0.0004074088064953685,-0.0002082599967252463,0.0,0.0,0.0,0.0,0.0012555604334920645,0.0017375326715409756,-0.0018553715199232101,0.998610258102417,0.0,0.0,0.0,0.3931506276130676,9.75243091583252,3.484403133392334,-71.16104125976562,0
1680.3449999999993,-0.00019089783017989248,-0.0003449321666266769,-0.00021472798835020512,0.0,0.0,0.0,0.0,-0.0018802147824317217,-0.0006776834488846362,-0.0015807104064151645,0.9978506565093994,0.0,0.0,0.0,0.4040970504283905,9.796438217163086,3.487450361251831,-73.14237213134766,0
1690.217999999999,-0.00021537335123866796,-0.00041204463923349977,-0.0002187003701692447,0.0,0.0,0.0,0.0,-0.0023233818355947733,-0.005276451352983713,0.0005977537366561592,0.9986529350280762,0.0,0.0,0.0,0.4036553204059601,9.790264129638672,3.472792863845825,-73.06241607666016,0
1700.110999999999,-0.0001850560074672103,-0.0003487213107291609,-0.00022398633882403374,0.0,0.0,0.0,0.0,-0.0017619678983464837,0.0055626314133405685,-0.0025268581230193377,1.0026577711105347,0.0,0.0,0.0,0.4128618538379669,9.834500312805176,3.504081964492798,-74.72882080078125,0
1709.9920000000002,-0.00020792508439626545,-0.00040821469156071544,-0.0002302552165929228,0.0,0.0,0.0,0.0,0.00424816831946373,0.0033653657883405685,-0.0008460839744657278,1.0021663904190063,0.0,0.0,0.0,0.4125920832157135,9.825839042663574,3.502946376800537,-74.67999267578125,0
1719.8809999999994,-0.00014587261830456555,-0.0003376604290679097,-0.0002539240522310138,0.0,0.0,0.0,0.0,-0.0012982788030058146,-0.0008996256510727108,0.0007536610355600715,1.001021146774292,0.0,0.0,0.0,0.4198381304740906,9.870769500732422,3.519808769226074,-75.99153137207031,0
1729.7529999999988,-0.00016203026461880654,-0.0003883862227667123,-0.0002581873850431293,0.0,0.0,0.0,0.0,0.0027816221117973328,-0.000393958471249789,-0.002200942486524582,0.9985106587409973,0.0,0.0,0.0,0.41879940032958984,9.861528396606445,3.5159878730773926,-75.80352020263672,0
1739.6599999999999,-0.00011019339581253007,-0.0002935686206910759,-0.00025610162992961705,0.0,0.0,0.0,0.0,-0.003917704802006483,-0.0037365308962762356,0.00010687177564250305,1.001387596130371,0.0,0.0,0.0,0.4232742190361023,9.919203758239746,3.547980546951294,-76.61347198486328,0
1749.521999999999,-0.00012285511184018105,-0.0003328345774207264,-0.0002603613247629255,0.0,0.0,0.0,0.0,0.0015662112273275852,0.0037771612405776978,-0.0041746096685528755,1.0031495094299316,0.0,0.0,0.0,0.4231843650341034,9.90886116027832,3.5437748432159424,-76.59721374511719,0
1759.4189999999999,-0.00013753607345279306,-0.00037456973223015666,-0.00026273904950357974,0.0,0.0,0.0,0.0,0.0017211432568728924,0.0009464676841162145,-0.0027279462665319443,1.001677393913269,0.0,0.0,0.0,0.4210778474807739,9.898587226867676,3.5387916564941406,-76.2159194946289,0
1769.2919999999995,-0.0001549658627482131,-0.0004202600393909961,-0.00026212105876766145,0.0,0.0,0.0,0.0,5.1607097702799365e-05,0.0006885149050503969,0.0007890987326391041,0.9996489882469177,0.0,0.0,0.0,0.42093950510025024,9.887617111206055,3.5271098613739014,-76.19087982177734,0
1779.1980000000003,-0.00017533353820908815,-0.00046924251364544034,-0.00025957488105632365,0.0,0.0,0.0,0.0,0.0015678612980991602,0.0023625262547284365,-0.00023274580598808825,0.9995940327644348,0.0,0.0,0.0,0.42085811495780945,9.872787475585938,3.5362908840179443,-76.1761474609375,0
1789.0589999999993,-0.0001976923376787454,-0.0005203643231652677,-0.0002564619935583323,0.0,0.0,0.0,0.0,-0.0003958831657655537,0.0009523850749246776,-0.00047330139204859734,1.0005781650543213,0.0,0.0,0.0,0.41988635063171387,9.857583045959473,3.521311044692993,-76.00025939941406,0
1798.9570000000003,-0.00012054639955749735,-0.0004143013502471149,4.750844163936563e-05,0.0,0.0,0.0,0.0,0.0006161929341033101,0.0038691102527081966,0.0002424990088911727,0.9994755387306213,0.0,0.0,0.0,0.4101039171218872,9.907731056213379,3.5321874618530273,-74.22962951660156,0
1808.83,-0.00014043650298845023,-0.0004556024505291134,6.807663885410875e-05,0.0,0.0,0.0,0.0,-0.0005866715800948441,0.0027605360373854637,-0.001382419723086059,1.000685691833496,0.0,0.0,0.0,0.4107164740562439,9.898345947265625,3.517573595046997,-74.34050750732422,0
1818.723,-0.0001636725792195648,-0.0003770746407099068,0.00021740725787822157,0.0,0.0,0.0,0.0,-0.0003802823193836957,0.001853297813795507,0.0009087871294468641,1.0016870498657227,0.0,0.0,0.0,0.39173728227615356,9.922185897827148,3.502398729324341,-70.90523529052734,0
1828.5959999999995,-0.00018604860815685242,-0.0004148386069573462,0.0002475888468325138,0.0,0.0,0.0,0.0,0.001813603681512177,0.004550576210021973,-0.002898063510656357,1.0009068250656128,0.0,0.0,0.0,0.39160606265068054,9.910074234008789,3.4957995414733887,-70.88148498535156,0
1838.4989999999998,-0.00018223731603939086,-0.00041371097904630005,0.0003262391546741128,0.0,0.0,0.0,0.0,-6.309781747404486e-05,-0.0014594480162486434,-0.0032521989196538925,1.0016498565673828,0.0,0.0,0.0,0.39024171233177185,9.89077377319336,3.481684446334839,-70.63452911376953,0
1848.3649999999998,-0.0002066957240458578,-0.00045301506179384887,0.0003627665573731065,0.0,0.0,0.0,0.0,0.001489247428253293,0.00173170305788517,0.0025898616295307875,0.9995064735412598,0.0,0.0,0.0,0.3890687823295593,9.883460998535156,3.4789395332336426,-70.4222183227539,0
1858.2639999999992,-0.00021130933600943536,-0.0004453227447811514,0.0004499480710364878,0.0,0.0,0.0,0.0,0.004617488943040371,-0.0025128668639808893,0.0031023931223899126,0.9985947012901306,0.0,0.0,0.0,0.3756205439567566,9.896733283996582,3.472440242767334,-67.9880599975586,0
1868.1419999999998,-0.0002368365239817649,-0.0004858668544329703,0.0004913468146696687,0.0,0.0,0.0,0.0,0.003054866101592779,-0.00030847909511066973,-0.0024894005618989468,1.0002548694610596,0.0,0.0,0.0,0.375801682472229,9.885770797729492,3.4730472564697266,-68.0208511352539,0
1878.0280000000002,-0.00026264527696184814,-0.0005299990298226476,0.0005323896766640246,0.0,0.0,0.0,0.0,-0.0010244327131658792,0.0029713173862546682,0.0006880208966322243,1.0005940198898315,0.0,0.0,0.0,0.374309778213501,9.87269401550293,3.4640004634857178,-67.75080871582031,0
1887.902,-0.00028782919980585575,-0.0005785530665889382,0.0005739995394833386,0.0,0.0,0.0,0.0,0.0008875661296769977,0.0008656078134663403,-0.0001564325939398259,1.0030876398086548,0.0,0.0,0.0,0.37354981899261475,9.864622116088867,3.4567060470581055,-67.61326599121094,0
1897.7960000000003,-0.00031322153517976403,-0.0006317502702586353,0.0006175539456307888,0.0,0.0,0.0,0.0,0.002456506947055459,0.00024389594909735024,0.0001567087892908603,1.0018116235733032,0.0,0.0,0.0,0.3732124865055084,9.851852416992188,3.4437856674194336,-67.55220031738281,0
1907.6769999999997,-0.0003405609168112278,-0.0006883391761220992,0.0006638343911617994,0.0,0.0,0.0,0.0,-0.001474126591347158,-0.00175778369884938,-0.0011146346805617213,0.9997930526733398,0.0,0.0,0.0,0.3726744055747986,9.839293479919434,3.441709041595459,-67.4548110961914,0
1917.5640000000003,-0.0003697355277836323,-0.0007478533661924303,0.0007121641538105905,0.0,0.0,0.0,0.0,-0.00174753088504076,-0.0016039746114984155,-0.0005288048996590078,1.0030502080917358,0.0,0.0,0.0,0.37233206629753113,9.831425666809082,3.4434590339660645,-67.39285278320312,0
1927.4449999999997,-0.00039934940286912024,-0.0008100431878119707,0.0007616695365868509,0.0,0.0,0.0,0.0,-0.0005234841955825686,0.0025297338142991066,0.000698128598742187,1.0001710653305054,0.0,0.0,0.0,0.3710589110851288,9.826050758361816,3.4443764686584473,-67.16239929199219,0
1937.342999999999,-0.00042916563688777387,-0.0008747568936087191,0.0008131124195642769,0.0,0.0,0.0,0.0,-0.0007811523391865194,-0.0016332849627360702,-0.0018748739967122674,0.9996945261955261,0.0,0.0,0.0,0.3716273307800293,9.814940452575684,3.4370741844177246,-67.26528930664062,0
1947.208999999999,-0.00046039122389629483,-0.0009431460639461875,0.000865528651047498,0.0,0.0,0.0,0.0,-0.00043785973684862256,0.004997102078050375,0.0016907305689528584,1.0002655982971191,0.0,0.0,0.0,0.3709736168384552,9.806572914123535,3.428661346435547,-67.14696502685547,0
1957.1039999999994,-0.0004942729719914496,-0.00101589341647923,0.0009183948277495801,0.0,0.0,0.0,0.0,-0.0018150163814425468,0.003816592739894986,-0.0018871005158871412,0.9991112351417542,0.0,0.0,0.0,0.37099531292915344,9.795063018798828,3.4259674549102783,-67.15089416503906,0
1966.982,-0.0005305589875206351,-0.0010930465068668127,0.0009720948291942477,0.0,0.0,0.0,0.0,-0.0013593243202194571,-0.008816494606435299,0.0004398328601382673,1.001030683517456,0.0,0.0,0.0,0.3709123432636261,9.784915924072266,3.4218966960906982,-67.1358642578125,0
1976.8760000000002,-0.0005687557277269661,-0.0011732842540368438,0.0010261390125378966,0.0,0.0,0.0,0.0,-0.00010740171273937449,-0.00024138462322298437,0.002731101121753454,1.0002869367599487,0.0,0.0,0.0,0.3705520033836365,9.767955780029297,3.419462203979492,-67.07064819335938,0
1986.7549999999992,-0.0006095267599448562,-0.001255171955563128,0.0010811772663146257,0.0,0.0,0.0,0.0,0.0018409700132906437,-0.0014123768778517842,0.0010523053351789713,0.9995869398117065,0.0,0.0,0.0,0.3701263964176178,9.763107299804688,3.4232113361358643,-66.99361419677734,0
1996.6389999999992,-8.022828114917502e-05,-0.00019985467952210456,-0.00017952318012248725,0.0,0.0,0.0,0.0,-0.003052079351618886,0.00192242581397295,0.000587048998568207,1.0001239776611328,0.0,0.0,0.0,0.37549060583114624,9.990275382995605,3.531179904937744,-67.96454620361328,0
2006.5229999999992,-0.00010266569734085351,-0.0002352282463107258,-0.00016621900431346148,0.0,0.0,0.0,0.0,0.0011595574906095862,-0.0013129868311807513,0.001230423105880618,1.0000271797180176,0.0,0.0,0.0,0.37554481625556946,9.979119300842285,3.5345072746276855,-67.97434997558594,0
2016.4130000000005,-0.0001044172458932735,-0.00019740546122193336,-0.00017285959620494395,0.0,0.0,0.0,0.0,-0.001965094357728958,0.003889293409883976,-0.0011545018060132861,0.9985713958740234,0.0,0.0,0.0,0.3888702690601349,9.986285209655762,3.5295279026031494,-70.38629150390625,0
2026.2919999999995,-0.0001291846128879115,-0.00023420952493324876,-0.00015900372818578035,0.0,0.0,0.0,0.0,0.0005802896921522915,-0.0012798694660887122,-0.0005915160290896893,1.0020747184753418,0.0,0.0,0.0,0.38844695687294006,9.97216796875,3.5177695751190186,-70.3096694946289,0
2036.1890000000003,-0.00013242033310234547,-0.00021413076319731772,-0.0001692448859103024,0.0,0.0,0.0,0.0,-0.000885605753865093,0.0039151571691036224,-0.001229392015375197,1.0000816583633423,0.0,0.0,0.0,0.39614152908325195,9.979869842529297,3.5180065631866455,-71.70240020751953,0
2046.0519999999997,-0.00015869710478000343,-0.00025335271493531764,-0.0001547191059216857,0.0,0.0,0.0,0.0,0.0028552848380059004,0.005716147366911173,0.0007519661448895931,0.9993762969970703,0.0,0.0,0.0,0.3957975208759308,9.965267181396484,3.510237693786621,-71.64014434814453,0
2055.946,-0.00018543047190178186,-0.0002949928166344762,-0.0001394568826071918,0.0,0.0,0.0,0.0,0.00035231324727647007,-0.001069099409505725,-0.0009097419097088277,1.0020661354064941,0.0,0.0,0.0,0.39607226848602295,9.954360961914062,3.483534574508667,-71.68986511230469,0
2065.821,-0.00021181299234740436,-0.0003387445758562535,-0.0001238458207808435,0.0,0.0,0.0,0.0,-0.0015034187817946076,0.0020376977045089006,-0.004680848680436611,1.0010613203048706,0.0,0.0,0.0,0.39534449577331543,9.945149421691895,3.4916019439697266,-71.55814361572266,0
2075.714,-0.0002375070471316576,-0.00038423831574618816,-0.00010640616528689861,0.0,0.0,0.0,0.0,-0.001096675987355411,-0.003195500001311302,-0.0007647091406397521,1.0009145736694336,0.0,0.0,0.0,0.39416128396987915,9.936370849609375,3.4842159748077393,-71.3439712524414,0
2085.5910000000003,-0.0002621110179461539,-0.0004321271844673902,-8.720229379832745e-05,0.0,0.0,0.0,0.0,-0.00030336371855810285,0.0021912907250225544,-0.0030439882539212704,0.9984908103942871,0.0,0.0,0.0,0.39278849959373474,9.927108764648438,3.4887471199035645,-71.09549713134766,0
2095.486999999999,-0.000286547263385728,-0.00048313685692846775,-6.739894161000848e-05,0.0,0.0,0.0,0.0,0.0016338133718818426,0.0008507174788974226,0.00280060525983572,0.9994626641273499,0.0,0.0,0.0,0.3925097584724426,9.919366836547852,3.4887242317199707,-71.0450439453125,0
2105.3590000000004,-0.00018474506214261055,-0.0004398605669848621,0.00023170486383605748,0.0,0.0,0.0,0.0,0.0029825952369719744,0.0018052892992272973,0.00044571247417479753,0.9995829463005066,0.0,0.0,0.0,0.3864886164665222,9.943170547485352,3.5177266597747803,-69.9552001953125,0
2115.253999999999,-0.00020488054724410176,-0.0004902996588498354,0.00026470294687896967,0.0,0.0,0.0,0.0,0.0007828628295101225,0.0009212746517732739,0.0002421622339170426,1.000436782836914,0.0,0.0,0.0,0.3861841559410095,9.924918174743652,3.506282329559326,-69.90010070800781,0
2125.1319999999996,-0.0002161533775506541,-0.00048586272168904543,0.00037934776628389955,0.0,0.0,0.0,0.0,0.0037748466711491346,-0.0002891813637688756,0.0007627281593158841,0.9995130896568298,0.0,0.0,0.0,0.3713313341140747,9.928816795349121,3.4948201179504395,-67.21170806884766,0
2135.0200000000004,-0.00023975555086508393,-0.0005375201581045985,0.00041823380161076784,0.0,0.0,0.0,0.0,0.0014261867618188262,-0.004608959425240755,0.0012649782001972198,1.000710368156433,0.0,0.0,0.0,0.37148600816726685,9.912799835205078,3.496103048324585,-67.23970794677734,0
2144.895999999999,-0.00025874379207380116,-0.000527143944054842,0.0005442343535833061,0.0,0.0,0.0,0.0,-0.0012866947799921036,0.010064325295388699,0.0007235239609144628,0.9997669458389282,0.0,0.0,0.0,0.35587450861930847,9.921384811401367,3.482980489730835,-64.41399383544922,0
2154.788999999999,-0.00028943290817551315,-0.0005807994166389108,0.0005898465751670301,0.0,0.0,0.0,0.0,-0.0008554672822356224,0.0006137453019618988,0.0025942130014300346,1.0006256103515625,0.0,0.0,0.0,0.3569251596927643,9.913819313049316,3.480863332748413,-64.60416412353516,0
2164.664999999999,-0.0003295489586889744,-0.0005945904413238168,0.000690581975504756,0.0,0.0,0.0,0.0,0.003060129238292575,-0.000990165863186121,-0.0006218370399437845,1.0002657175064087,0.0,0.0,0.0,0.340121865272522,9.917815208435059,3.4716403484344482,-61.5627326965332,0
2174.563,-0.00036556244594976306,-0.0006495072739198804,0.0007418419700115919,0.0,0.0,0.0,0.0,0.00010956906044157222,-0.0004936438635922968,-0.0005305022932589054,1.0006884336471558,0.0,0.0,0.0,0.3404032588005066,9.902539253234863,3.4693799018859863,-61.61366271972656,0
2184.437,-0.00034451409010216594,-0.000680205412209034,0.0008309672703035176,0.0,0.0,0.0,0.0,0.0005787098780274391,0.0031538077164441347,-0.0008135037496685982,0.9987872242927551,0.0,0.0,0.0,0.33256372809410095,9.895551681518555,3.468858003616333,-60.19469451904297,0
2194.3289999999997,-0.00037857421557419,-0.0007388376980088651,0.0008867045980878174,0.0,0.0,0.0,0.0,0.0015057333512231708,0.0036499081179499626,0.00039433565689250827,0.9989537596702576,0.0,0.0,0.0,0.33290016651153564,9.886331558227539,3.4694149494171143,-60.25559616088867,0
2204.214,-0.0004328253271523863,-0.0007377060828730464,0.0010135823395103216,0.0,0.0,0.0,0.0,-0.0008006388670764863,0.0013758939458057284,-0.00011435632040956989,0.9996787905693054,0.0,0.0,0.0,0.3163495659828186,9.901320457458496,3.445218086242676,-57.25990295410156,0
2214.0959999999995,-0.0004711961664725095,-0.0007978325011208653,0.0010746479965746403,0.0,0.0,0.0,0.0,0.0028291393537074327,0.0024818535894155502,0.0005712253041565418,1.0010817050933838,0.0,0.0,0.0,0.3155454695224762,9.88399887084961,3.431912422180176,-57.11435317993164,0
2223.9719999999998,-0.0004464434168767184,-0.000819954089820385,0.0011899967212229967,0.0,0.0,0.0,0.0,0.0028069978579878807,-0.0008956790552474558,0.0005143826128914952,1.0016862154006958,0.0,0.0,0.0,0.30451610684394836,9.890891075134277,3.4400224685668945,-55.118019104003906,0
2233.865,-0.00048670024261809886,-0.0008842748939059675,0.0012584207579493523,0.0,0.0,0.0,0.0,0.0007661602576263249,0.0025867309886962175,0.0002678890305105597,0.9984937310218811,0.0,0.0,0.0,0.30478695034980774,9.880403518676758,3.4379141330718994,-55.16704177856445,0
2243.74,-0.0004875900922343135,-0.0009062347235158086,0.0013823374174535275,0.0,0.0,0.0,0.0,-4.077831545146182e-05,0.002033135388046503,0.0006509415688924491,0.9974393248558044,0.0,0.0,0.0,0.2956233024597168,9.885892868041992,3.4518444538116455,-53.50840377807617,0
2253.636999999999,-0.0005266504595056176,-0.0009735080529935658,0.001457073725759983,0.0,0.0,0.0,0.0,0.0018020907882601023,0.0007724033785052598,-0.0012484845938161016,0.9993430376052856,0.0,0.0,0.0,0.2951107621192932,9.874927520751953,3.434631586074829,-53.41563415527344,0
2263.511999999999,-0.0005381262162700295,-0.001001544063910842,0.0015790228499099612,0.0,0.0,0.0,0.0,-0.00044639341649599373,-0.001295447931624949,0.003044951008632779,1.0025607347488403,0.0,0.0,0.0,0.28137847781181335,9.879753112792969,3.4378888607025146,-50.93006896972656,0
