timestamp,stateEstimate.x,stateEstimate.y,stateEstimate.z,controller.cmd_thrust,controller.cmd_roll,controller.cmd_pitch,controller.cmd_yaw,controller.r_roll,controller.r_pitch,controller.r_yaw,controller.accelz,controller.actuatorThrust,controller.roll,controller.pitch,controller.yaw,controller.rollRate,controller.pitchRate,controller.yawRate,controller.ctr_yaw
0.0,-0.004685334395617247,0.012557301670312881,-0.0005300641641952097,0.0,0.0,0.0,0.0,-0.001382133224979043,0.00453138304874301,-0.0030863641295582056,1.0011560916900635,0.0,0.0,0.0,25.359416961669922,8.524815559387207,2.6431710720062256,-4590.10546875,0
9.889999999999418,-0.004662583116441965,0.012402408756315708,-0.0005204793415032327,0.0,0.0,0.0,0.0,0.0014311461709439754,-0.0031185101252049208,0.0008737557218410075,1.0001087188720703,0.0,0.0,0.0,25.35856056213379,8.499924659729004,2.61971116065979,-4589.94970703125,0
19.778000000000247,-0.004719906952232122,0.01244625635445118,-0.000474944623420015,0.0,0.0,0.0,0.0,-0.0015154584543779492,-0.0032293673139065504,-0.00010007022501667961,0.9991887807846069,0.0,0.0,0.0,25.364179611206055,8.507360458374023,2.624328136444092,-4590.966796875,0
29.655000000000655,-0.004656493663787842,0.012393615208566189,-0.0004941262886859477,0.0,0.0,0.0,0.0,-0.00034198162029497325,-0.0034382950980216265,0.003251162124797702,0.9997918009757996,0.0,0.0,0.0,25.359661102294922,8.500446319580078,2.6258983612060547,-4590.1494140625,0
39.538000000000466,-0.004707286134362221,0.012422178871929646,-0.00045764129026792943,0.0,0.0,0.0,0.0,-0.0009069213992916048,0.0026433852035552263,0.0011381967924535275,0.9996052384376526,0.0,0.0,0.0,25.35804557800293,8.510478973388672,2.6218972206115723,-4589.85693359375,0
49.431000000000495,-0.004584665410220623,0.012491882778704166,-0.000539054162800312,0.0,0.0,0.0,0.0,-0.00021742099488619715,0.002787092700600624,-8.144022285705432e-05,0.9981117248535156,0.0,0.0,0.0,25.36562728881836,8.517951011657715,2.637690544128418,-4591.2294921875,0
59.310999999999694,-0.004675977397710085,0.012573462910950184,-0.0004946698900312185,0.0,0.0,0.0,0.0,0.0011552537325769663,-0.002419988624751568,-0.001498376834206283,1.000327467918396,0.0,0.0,0.0,25.365816116333008,8.53610610961914,2.6326138973236084,-4591.26318359375,0
69.20600000000013,-0.00461624376475811,0.012513558380305767,-0.0005246117943897843,0.0,0.0,0.0,0.0,-0.0014135953970253468,0.0061678350903093815,0.0011891640024259686,1.001297950744629,0.0,0.0,0.0,25.365440368652344,8.516374588012695,2.6307995319366455,-4591.1953125,0
79.07899999999972,-0.004645741079002619,0.012540682218968868,-0.00049190828576684,0.0,0.0,0.0,0.0,0.00047315380652435124,0.0015467918710783124,-0.0012989648384973407,1.002631664276123,0.0,0.0,0.0,25.36627197265625,8.523170471191406,2.617938280105591,-4591.34619140625,0
88.96500000000015,-0.004578760359436274,0.01247404795140028,-0.000523161783348769,0.0,0.0,0.0,0.0,-0.0010352646932005882,0.00113327254075557,0.000831299286801368,1.0014152526855469,0.0,0.0,0.0,25.37076187133789,8.510743141174316,2.616421937942505,-4592.158203125,0
98.85499999999956,-0.004720540717244148,0.012571307830512524,-0.000507169053889811,0.0,0.0,0.0,0.0,-0.00015462325245607644,0.0011315527372062206,-0.0016348223434761167,0.9995737075805664,0.0,0.0,0.0,25.400646209716797,8.532285690307617,2.6109471321105957,-4597.5673828125,0
108.73899999999958,-0.00461930874735117,0.012422162108123302,-0.0005369508871808648,0.0,0.0,0.0,0.0,0.0009393628570251167,-0.004516386892646551,0.002189338905736804,0.9981110095977783,0.0,0.0,0.0,25.372905731201172,8.504575729370117,2.5972015857696533,-4592.54638671875,0
118.62099999999919,-0.004765316843986511,0.012555909343063831,-0.0005042908596806228,0.0,0.0,0.0,0.0,-0.001312372274696827,-0.005348827224224806,0.0037645951379090548,0.9996659159660339,0.0,0.0,0.0,25.397680282592773,8.53422737121582,2.591334581375122,-4597.03076171875,0
128.5139999999992,-0.004652687348425388,0.0124714570119977,-0.0005509178736247122,0.0,0.0,0.0,0.0,-0.0004544579132925719,-0.0010259546106681228,0.0013211487093940377,1.0002015829086304,0.0,0.0,0.0,25.371599197387695,8.517522811889648,2.611752986907959,-4592.3095703125,0
138.3889999999992,-0.004759229253977537,0.01259547658264637,-0.0005105771124362946,0.0,0.0,0.0,0.0,-0.0004294818209018558,0.008750908076763153,-0.002270711353048682,1.000084400177002,0.0,0.0,0.0,25.397462844848633,8.540985107421875,2.6126461029052734,-4596.9912109375,0
148.27299999999923,-0.004659765399992466,0.012497339397668839,-0.0005403957329690456,0.0,0.0,0.0,0.0,-0.0018982317997142673,-0.0056240675039589405,-0.0011085406877100468,1.0029816627502441,0.0,0.0,0.0,25.368818283081055,8.524258613586426,2.5941457748413086,-4591.806640625,0
158.16500000000087,-0.0048288325779139996,0.012593064457178116,-0.0005350024439394474,0.0,0.0,0.0,0.0,0.0002702614583540708,0.0005008337320759892,0.003310565138235688,1.0020370483398438,0.0,0.0,0.0,25.397031784057617,8.547425270080566,2.583698272705078,-4596.91357421875,0
168.0550000000003,-0.00468820333480835,0.012542392127215862,-0.0006157648167572916,0.0,0.0,0.0,0.0,0.002487989142537117,-0.0001884550874819979,0.0005302968784235418,1.0013362169265747,0.0,0.0,0.0,25.37144660949707,8.529433250427246,2.5940277576446533,-4592.2822265625,0
177.93299999999908,-0.004826629534363747,0.012624351307749748,-0.0006087728543207049,0.0,0.0,0.0,0.0,0.0002961962600238621,0.0004231582279317081,0.003817837918177247,1.001609206199646,0.0,0.0,0.0,25.397504806518555,8.548245429992676,2.586778402328491,-4596.9990234375,0
187.82200000000012,-0.004727866034954786,0.012523551471531391,-0.0006354463403113186,0.0,0.0,0.0,0.0,0.00020738253078889102,0.006156445946544409,0.000196083914488554,1.0001908540725708,0.0,0.0,0.0,25.375709533691406,8.525504112243652,2.5700221061706543,-4593.05419921875,0
197.70000000000073,-0.0047459956258535385,0.012603746727108955,-0.0005942557472735643,0.0,0.0,0.0,0.0,0.0006804810836911201,0.003256386611610651,0.0011222310131415725,0.9997511506080627,0.0,0.0,0.0,25.405073165893555,8.534814834594727,2.581176519393921,-4598.369140625,0
207.58599999999933,-0.004614123143255711,0.01252328883856535,-0.0006471691303886473,0.0,0.0,0.0,0.0,0.0006735319038853049,0.0018968571675941348,-0.0005686369840987027,1.0029504299163818,0.0,0.0,0.0,25.377304077148438,8.512795448303223,2.571730136871338,-4593.34228515625,0
217.47099999999955,-0.004722528159618378,0.012622934766113758,-0.0006209740531630814,0.0,0.0,0.0,0.0,0.0007107832934707403,-0.0008569986675865948,-0.0010485561797395349,0.998886227607727,0.0,0.0,0.0,25.405147552490234,8.53196907043457,2.571080207824707,-4598.3818359375,0
227.3680000000004,-0.004628355614840984,0.012496194802224636,-0.0006322856643237174,0.0,0.0,0.0,0.0,-0.0011128343176096678,-0.0021512359380722046,-0.0026278768200427294,0.9975753426551819,0.0,0.0,0.0,25.37821388244629,8.515050888061523,2.562847852706909,-4593.5068359375,0
237.24599999999919,-0.004714230075478554,0.012585547752678394,-0.0006059721927158535,0.0,0.0,0.0,0.0,0.0003597913892008364,0.00018953131802845746,-0.0012082703178748488,1.0017653703689575,0.0,0.0,0.0,25.40687370300293,8.53094482421875,2.5645835399627686,-4598.69482421875,0
247.1299999999992,-0.004658569116145372,0.012401437386870384,-0.0005852995091117918,0.0,0.0,0.0,0.0,-0.0018626608652994037,0.00021729401487391442,0.00038626440800726414,1.0018219947814941,0.0,0.0,0.0,25.37774658203125,8.49398136138916,2.5514819622039795,-4593.4228515625,0
257.0059999999994,-0.004723699763417244,0.01247229054570198,-0.0005626091733574867,0.0,0.0,0.0,0.0,0.0019141974626109004,-0.0016344338655471802,-0.00013307952031027526,1.001086711883545,0.0,0.0,0.0,25.410808563232422,8.50430679321289,2.5562245845794678,-4599.40673828125,0
266.89600000000064,-0.004604123532772064,0.012412572279572487,-0.0005852179019711912,0.0,0.0,0.0,0.0,-0.002247915370389819,-0.003578625852242112,0.001560389413498342,0.9995254278182983,0.0,0.0,0.0,25.385868072509766,8.49277114868164,2.5673460960388184,-4594.89306640625,0
276.77800000000025,-0.004681357182562351,0.01251352671533823,-0.0005523318541236222,0.0,0.0,0.0,0.0,-0.00020756435696966946,0.007127903867512941,0.0006880983128212392,1.0018972158432007,0.0,0.0,0.0,25.4089298248291,8.5109281539917,2.5693562030792236,-4599.06689453125,0
286.6720000000005,-0.004569783806800842,0.012426473200321198,-0.0005633187247440219,0.0,0.0,0.0,0.0,0.0026426399126648903,0.0025875172577798367,0.0022520311176776886,1.0035719871520996,0.0,0.0,0.0,25.383291244506836,8.499031066894531,2.553969144821167,-4594.42626953125,0
296.5529999999999,-0.004664712585508823,0.012531731277704239,-0.0005316933384165168,0.0,0.0,0.0,0.0,0.0009598671458661556,0.00040656852070242167,0.0013931040884926915,1.0001839399337769,0.0,0.0,0.0,25.403404235839844,8.519201278686523,2.554107189178467,-4598.06640625,0
306.4459999999999,-0.004549372475594282,0.012455741874873638,-0.0005348045378923416,0.0,0.0,0.0,0.0,0.0005377748166210949,-0.0021531523671001196,0.001826453022658825,1.000867486000061,0.0,0.0,0.0,25.379730224609375,8.505779266357422,2.550757884979248,-4593.78173828125,0
316.3179999999993,-0.0046775685623288155,0.012502217665314674,-0.0005427025025710464,0.0,0.0,0.0,0.0,-0.0026212623342871666,0.007471238728612661,-2.6771731427288614e-05,1.0013675689697266,0.0,0.0,0.0,25.410140991210938,8.516782760620117,2.543989896774292,-4599.2861328125,0
326.20800000000054,-0.004565403331071138,0.012422814965248108,-0.0005479970132000744,0.0,0.0,0.0,0.0,-0.0028186128474771976,-0.0007654168293811381,-0.0003934730775654316,1.0021578073501587,0.0,0.0,0.0,25.382816314697266,8.507344245910645,2.53804087638855,-4594.34033203125,0
336.0849999999991,-0.0046900296583771706,0.012485240586102009,-0.0005460365791805089,0.0,0.0,0.0,0.0,0.0006973521085456014,0.0003707197611220181,-0.00019035604782402515,1.0019395351409912,0.0,0.0,0.0,25.411664962768555,8.520853042602539,2.533036231994629,-4599.56201171875,0
345.97600000000057,-0.004576360806822777,0.012415027245879173,-0.0005474353092722595,0.0,0.0,0.0,0.0,0.0021388744935393333,0.0022726738825440407,-0.0017005520639941096,1.00252103805542,0.0,0.0,0.0,25.380552291870117,8.50900936126709,2.5411791801452637,-4593.93017578125,0
355.85699999999997,-0.004576360806822777,0.012415027245879173,-0.0005474353092722595,0.0,0.0,0.0,0.0,0.0005399010260589421,0.001090492121875286,-0.0023674394469708204,1.00187349319458,0.0,0.0,0.0,25.380552291870117,8.50900936126709,2.5411791801452637,-4593.93017578125,0
365.7520000000004,-0.004484798293560743,0.012461970560252666,-0.000570472446270287,0.0,0.0,0.0,0.0,0.0009670406579971313,-0.00640187319368124,-0.0018596367444843054,1.0002621412277222,0.0,0.0,0.0,25.379413604736328,8.504983901977539,2.5587730407714844,-4593.72412109375,0
375.6219999999994,-0.0047027962282299995,0.012560279108583927,-0.000556190381757915,0.0,0.0,0.0,0.0,0.000297736085485667,-0.001535167102701962,0.0010565357515588403,1.0004106760025024,0.0,0.0,0.0,25.380752563476562,8.552558898925781,2.5117642879486084,-4593.966796875,0
385.51800000000003,-0.004609229974448681,0.012570882216095924,-0.000606846995651722,0.0,0.0,0.0,0.0,-0.002665657550096512,-0.003553223330527544,0.00021556673164013773,0.9988250136375427,0.0,0.0,0.0,25.37346076965332,8.546188354492188,2.530095100402832,-4592.64697265625,0
395.39500000000044,-0.0047735972329974174,0.01258833147585392,-0.0006060443120077252,0.0,0.0,0.0,0.0,0.0028653366025537252,0.002712621819227934,-0.0011294819414615631,0.9997946619987488,0.0,0.0,0.0,25.37187957763672,8.569995880126953,2.5062472820281982,-4592.36083984375,0
405.28600000000006,-0.004699598532170057,0.012544002383947372,-0.000657064258120954,0.0,0.0,0.0,0.0,-0.001244430197402835,-0.0053291223011910915,-0.0009427854674868286,1.000012755393982,0.0,0.0,0.0,25.369722366333008,8.560072898864746,2.5054404735565186,-4591.97021484375,0
415.16100000000006,-0.0048261345364153385,0.01259699184447527,-0.0006248991703614593,0.0,0.0,0.0,0.0,-0.0009222379885613918,0.0034857834689319134,-0.0019501184578984976,0.9991944432258606,0.0,0.0,0.0,25.368993759155273,8.579244613647461,2.4996700286865234,-4591.83837890625,0
425.0540000000001,-0.0047424971126019955,0.01261530164629221,-0.0006811664206907153,0.0,0.0,0.0,0.0,-0.001555604743771255,-0.001359842368401587,0.0020518447272479534,0.9994169473648071,0.0,0.0,0.0,25.3685359954834,8.575512886047363,2.492701768875122,-4591.755859375,0
434.9310000000005,-0.004813423380255699,0.012674905359745026,-0.0006345441797748208,0.0,0.0,0.0,0.0,-0.0006146723753772676,-0.0007202490232884884,0.0019437397131696343,1.0013313293457031,0.0,0.0,0.0,25.368505477905273,8.588445663452148,2.4866604804992676,-4591.75,0
444.8289999999997,-0.004781514871865511,0.012592689134180546,-0.0006463269237428904,0.0,0.0,0.0,0.0,-0.0019638543017208576,-0.003171963384374976,-9.982167830457911e-05,0.9987596869468689,0.0,0.0,0.0,25.364452362060547,8.582050323486328,2.4909627437591553,-4591.01611328125,0
454.7009999999991,-0.004809318110346794,0.012587170116603374,-0.0006189639098010957,0.0,0.0,0.0,0.0,0.0002719330077525228,-0.004098753444850445,-0.0011833178577944636,0.9993419647216797,0.0,0.0,0.0,25.36574935913086,8.582259178161621,2.478041648864746,-4591.2509765625,0
464.59499999999935,-0.004736355505883694,0.012547578662633896,-0.0006808158941566944,0.0,0.0,0.0,0.0,-0.0028862368781119585,-0.0013974435860291123,0.0007746291230432689,1.0012445449829102,0.0,0.0,0.0,25.365962982177734,8.571677207946777,2.508977174758911,-4591.28955078125,0
474.47600000000057,-0.004746152088046074,0.012576604261994362,-0.000631369068287313,0.0,0.0,0.0,0.0,0.0010165197309106588,0.002060722792521119,0.0007518425700254738,0.9998307824134827,0.0,0.0,0.0,25.37031364440918,8.576966285705566,2.51198673248291,-4592.0771484375,0
484.3700000000008,-0.004710993729531765,0.012504231184720993,-0.0006437833653762937,0.0,0.0,0.0,0.0,0.0032390833366662264,-0.004421146586537361,-0.00286304228939116,1.0000139474868774,0.0,0.0,0.0,25.36158561706543,8.566773414611816,2.5181777477264404,-4590.49755859375,0
494.2420000000002,-0.004690608475357294,0.012441102415323257,-0.0006342246779240668,0.0,0.0,0.0,0.0,0.000685239618178457,0.0028574890457093716,0.0031857534777373075,0.998100221157074,0.0,0.0,0.0,25.337158203125,8.556082725524902,2.529841423034668,-4586.076171875,0
504.1360000000004,-0.004646745510399342,0.012395589612424374,-0.0006574256112799048,0.0,0.0,0.0,0.0,-0.00029766198713332415,0.008394790813326836,-0.0004618173115886748,1.0006606578826904,0.0,0.0,0.0,25.33810043334961,8.545525550842285,2.544079065322876,-4586.2470703125,0
514.0110000000004,-0.004623232875019312,0.012326511554419994,-0.0006505565834231675,0.0,0.0,0.0,0.0,-0.0013396870344877243,-0.0011568446643650532,0.0005992447840981185,1.0016682147979736,0.0,0.0,0.0,25.313329696655273,8.540817260742188,2.521728754043579,-4581.76318359375,0
523.8989999999994,-0.0045962100848555565,0.01228930801153183,-0.0006420605350285769,0.0,0.0,0.0,0.0,0.0005506495945155621,-0.00024687216500751674,-0.00145418057218194,0.9999509453773499,0.0,0.0,0.0,25.30693244934082,8.539170265197754,2.5188026428222656,-4580.60546875,0
533.7819999999992,-0.004570899065583944,0.012216592207551003,-0.0006331151816993952,0.0,0.0,0.0,0.0,-0.0022870036773383617,0.0014943389687687159,0.002700207056477666,0.9976601004600525,0.0,0.0,0.0,25.282711029052734,8.526735305786133,2.5205090045928955,-4576.22119140625,0
543.6829999999991,-0.004573939833790064,0.012182501144707203,-0.0005737993051297963,0.0,0.0,0.0,0.0,-7.588772859890014e-05,-0.006543145049363375,0.0008734549046494067,0.999982476234436,0.0,0.0,0.0,25.27420425415039,8.531416893005371,2.515611171722412,-4574.68115234375,0
553.5579999999991,-0.004549662582576275,0.012105599977076054,-0.0005619793082587421,0.0,0.0,0.0,0.0,-0.0006471817614510655,-0.006563900969922543,-0.002003273693844676,1.0008957386016846,0.0,0.0,0.0,25.2491397857666,8.521828651428223,2.5039162635803223,-4570.14404296875,0
563.4449999999997,-0.004510727245360613,0.012104716151952744,-0.0005568694323301315,0.0,0.0,0.0,0.0,-0.0019475253066048026,-0.0016671939520165324,0.0016774276737123728,1.0022087097167969,0.0,0.0,0.0,25.250110626220703,8.526527404785156,2.5482447147369385,-4570.31982421875,0
573.3240000000005,-0.004485469311475754,0.012029414065182209,-0.0005441955290734768,0.0,0.0,0.0,0.0,0.004323821980506182,-0.007464949041604996,0.002586134010925889,1.0000330209732056,0.0,0.0,0.0,25.224445343017578,8.524852752685547,2.555621862411499,-4565.67431640625,0
583.2099999999991,-0.004422686528414488,0.012142118997871876,-0.0005412427126429975,0.0,0.0,0.0,0.0,-0.0017574705416336656,0.0007797596044838428,-0.002950715832412243,0.9971566796302795,0.0,0.0,0.0,25.231664657592773,8.5559720993042,2.604092836380005,-4566.9814453125,0
593.0949999999993,-0.0043932185508310795,0.012076745741069317,-0.0005275275325402617,0.0,0.0,0.0,0.0,0.002110788831487298,-0.0002848908770829439,-0.0006196258473210037,1.0004781484603882,0.0,0.0,0.0,25.206619262695312,8.543164253234863,2.595942735671997,-4562.44775390625,0
602.9850000000006,-0.004331149160861969,0.012159472331404686,-0.000520530273206532,0.0,0.0,0.0,0.0,-0.0014581851428374648,-0.0030141344759613276,-0.00245761894620955,1.002346158027649,0.0,0.0,0.0,25.214149475097656,8.568593978881836,2.6341347694396973,-4563.81103515625,0
612.8700000000008,-0.004298417828977108,0.012099983170628548,-0.0005081396084278822,0.0,0.0,0.0,0.0,-0.003701550653204322,-0.007083824370056391,3.6979450669605285e-05,1.0029304027557373,0.0,0.0,0.0,25.188827514648438,8.563033103942871,2.6306283473968506,-4559.2275390625,0
622.7610000000004,-0.0042463187128305435,0.012157092802226543,-0.00048588099889457226,0.0,0.0,0.0,0.0,0.0006518294103443623,0.0012816223315894604,0.0007561062811873853,0.9993621706962585,0.0,0.0,0.0,25.20061683654785,8.584884643554688,2.658313512802124,-4561.361328125,0
632.6329999999998,-0.004212093539535999,0.012102579697966576,-0.000469042977783829,0.0,0.0,0.0,0.0,-6.917059363331646e-05,0.0003379358968231827,-0.0011236784048378468,1.0004992485046387,0.0,0.0,0.0,25.174884796142578,8.579024314880371,2.662313222885132,-4556.7041015625,0
642.5300000000007,-0.004160083830356598,0.012159875594079494,-0.00043948442908003926,0.0,0.0,0.0,0.0,0.0005550096393562853,0.001574692432768643,-0.001880953786894679,1.001044750213623,0.0,0.0,0.0,25.18486785888672,8.598794937133789,2.690246105194092,-4558.51123046875,0
652.4069999999992,-0.00412327004596591,0.012111998163163662,-0.00042077264515683055,0.0,0.0,0.0,0.0,0.0036333859898149967,0.005396311171352863,-0.00118355848826468,1.0000115633010864,0.0,0.0,0.0,25.160419464111328,8.591699600219727,2.684826374053955,-4554.0859375,0
662.2890000000007,-0.0040811398066580296,0.01216824259608984,-0.00037582707591354847,0.0,0.0,0.0,0.0,0.0007277370896190405,-0.0016155336052179337,0.0004994755145162344,1.0007449388504028,0.0,0.0,0.0,25.169103622436523,8.602370262145996,2.7002055644989014,-4555.65771484375,0
672.1720000000005,-0.004042352549731731,0.012125425040721893,-0.0003539987374097109,0.0,0.0,0.0,0.0,0.0014159220736473799,-0.0024506966583430767,-0.002239829394966364,1.0020906925201416,0.0,0.0,0.0,25.143898010253906,8.594542503356934,2.692211151123047,-4551.09521484375,0
682.0589999999993,-0.003951253369450569,0.012159374542534351,-0.00034535868326202035,0.0,0.0,0.0,0.0,-0.0014517272356897593,-0.005071965511888266,-0.001902953372336924,1.0002264976501465,0.0,0.0,0.0,25.16020965576172,8.607808113098145,2.7295219898223877,-4554.04833984375,0
691.9500000000007,-0.0039043889846652746,0.01211869902908802,-0.0003220670041628182,0.0,0.0,0.0,0.0,-0.00019714469090104103,-0.0018307679565623403,0.0008420301601290703,0.9991899728775024,0.0,0.0,0.0,25.133987426757812,8.606439590454102,2.727518081665039,-4549.3017578125,0
701.8469999999998,-0.003856121562421322,0.012077516876161098,-0.00029798090690746903,0.0,0.0,0.0,0.0,0.0009138751775026321,0.0029891347512602806,-0.0006888971547596157,0.9995660185813904,0.0,0.0,0.0,25.10822296142578,8.595877647399902,2.7209794521331787,-4544.638671875,0
711.7119999999995,-0.003806701162829995,0.012036057189106941,-0.00027421402046456933,0.0,0.0,0.0,0.0,0.0002528084150981158,0.0012581468326970935,0.004702107049524784,0.9982861280441284,0.0,0.0,0.0,25.083568572998047,8.588033676147461,2.714362859725952,-4540.17578125,0
721.6010000000006,-0.003756273537874222,0.01199440285563469,-0.000250907673034817,0.0,0.0,0.0,0.0,0.0036073464434593916,-0.005614019930362701,0.003153122728690505,0.9990056753158569,0.0,0.0,0.0,25.058040618896484,8.57560920715332,2.695019483566284,-4535.55517578125,0
731.4860000000008,-0.004730451386421919,0.012409166432917118,-0.0006263498798944056,0.0,0.0,0.0,0.0,0.0018812629859894514,0.00337618263438344,-0.004817388951778412,0.9995014071464539,0.0,0.0,0.0,25.083423614501953,8.752121925354004,2.59525728225708,-4540.1494140625,0
741.3809999999994,-0.004722602665424347,0.012393413111567497,-0.0006130161345936358,0.0,0.0,0.0,0.0,0.0002696635201573372,-0.002579388441517949,0.0029189088381826878,0.9981493949890137,0.0,0.0,0.0,25.05904769897461,8.73390007019043,2.5932390689849854,-4535.73779296875,0
751.2520000000004,-0.004715381655842066,0.012376246973872185,-0.0005999507266096771,0.0,0.0,0.0,0.0,-0.003399607725441456,-0.007802942302078009,0.0031682306434959173,0.9989922642707825,0.0,0.0,0.0,25.03420066833496,8.728788375854492,2.581597089767456,-4531.240234375,0
761.1479999999992,-0.004710114095360041,0.012357234954833984,-0.0005878105876035988,0.0,0.0,0.0,0.0,0.0008266604854725301,0.0027348629664629698,0.0005270327092148364,0.9999357461929321,0.0,0.0,0.0,25.0106258392334,8.723712921142578,2.595945119857788,-4526.97314453125,0
771.0220000000008,-0.004776535555720329,0.01246897503733635,-0.00046852935338392854,0.0,0.0,0.0,0.0,-0.0006463640020228922,0.0015794145874679089,0.0004375441058073193,0.9998219013214111,0.0,0.0,0.0,25.037992477416992,8.762341499328613,2.624191999435425,-4531.9267578125,0
780.9159999999993,-0.004774240776896477,0.012454877607524395,-0.00045060511911287904,0.0,0.0,0.0,0.0,0.00029384432127699256,-0.0029663853347301483,0.002547405892983079,0.9983317255973816,0.0,0.0,0.0,25.012571334838867,8.754648208618164,2.616999387741089,-4527.32470703125,0
790.7939999999999,-0.004791404586285353,0.012532912194728851,-0.00035789908724837005,0.0,0.0,0.0,0.0,-0.0004443079815246165,-0.005647388752549887,-0.0020464982371777296,0.9990924000740051,0.0,0.0,0.0,25.03352928161621,8.769108772277832,2.6236746311187744,-4531.11865234375,0
800.6839999999993,-0.004787186160683632,0.012524873949587345,-0.0003355711523909122,0.0,0.0,0.0,0.0,0.0012961660977452993,0.0007792657124809921,0.0019961518701165915,1.000406265258789,0.0,0.0,0.0,25.009117126464844,8.762855529785156,2.6277098655700684,-4526.69970703125,0
810.5619999999999,-0.00475071556866169,0.012536908499896526,-0.000299384439131245,0.0,0.0,0.0,0.0,-0.00018094539700541645,-7.94941297499463e-05,0.00020689208758994937,1.002109408378601,0.0,0.0,0.0,25.028451919555664,8.756672859191895,2.6371960639953613,-4530.2001953125,0
820.4680000000008,-0.004745539743453264,0.012529467232525349,-0.0002753343724180013,0.0,0.0,0.0,0.0,-0.0005435987841337919,-0.0012904142495244741,-0.0031400960870087147,1.0003970861434937,0.0,0.0,0.0,25.004392623901367,8.742668151855469,2.624399423599243,-4525.84423828125,0
830.3330000000005,-0.004740746226161718,0.012520421296358109,-0.00024946246412582695,0.0,0.0,0.0,0.0,0.003233665134757757,8.067076851148158e-05,0.001784673659130931,0.9987724423408508,0.0,0.0,0.0,24.97934341430664,8.730231285095215,2.6162052154541016,-4521.310546875,0
840.2330000000002,-0.004735626745969057,0.01250950712710619,-0.00022253193310461938,0.0,0.0,0.0,0.0,-0.0004607359878718853,-0.0035399594344198704,0.0025921440683305264,0.9985097050666809,0.0,0.0,0.0,24.954296112060547,8.720516204833984,2.6161551475524902,-4516.77685546875,0
850.1039999999994,-0.004817183595150709,0.012489845044910908,-0.00021854125952813774,0.0,0.0,0.0,0.0,0.001608335878700018,0.004033663775771856,0.0011666646460071206,0.9992332458496094,0.0,0.0,0.0,24.98541831970215,8.717889785766602,2.6078858375549316,-4522.41064453125,0
859.9959999999992,-0.004811468534171581,0.012477541342377663,-0.00019515569147188216,0.0,0.0,0.0,0.0,0.002039750572293997,-0.0009474953985773027,-0.0006128145614638925,0.9998466372489929,0.0,0.0,0.0,24.961023330688477,8.70665168762207,2.6102638244628906,-4517.99462890625,0
869.8729999999996,-0.004861186724156141,0.012456179596483707,-0.00019339668506290764,0.0,0.0,0.0,0.0,0.000147529601235874,-0.0017860315274447203,0.0022284279111772776,0.999052107334137,0.0,0.0,0.0,24.988521575927734,8.702960014343262,2.6047353744506836,-4522.9716796875,0
879.7720000000008,-0.00485681276768446,0.012443839572370052,-0.00017257493163924664,0.0,0.0,0.0,0.0,0.001331342849880457,-0.0012024957686662674,0.00010570169979473576,1.000752329826355,0.0,0.0,0.0,24.963459014892578,8.693387985229492,2.602048873901367,-4518.435546875,0
889.643,-0.004848554264754057,0.012467488646507263,-0.00013992542517371476,0.0,0.0,0.0,0.0,0.0004295383987482637,-0.004183875396847725,-0.0001528450520709157,0.9981737732887268,0.0,0.0,0.0,24.987186431884766,8.690293312072754,2.6122090816497803,-4522.73046875,0
899.5429999999997,-0.004834760446101427,0.01247449591755867,-0.00011727124365279451,0.0,0.0,0.0,0.0,0.00035286459024064243,0.0005221149185672402,-1.5031705515866634e-05,0.9991158843040466,0.0,0.0,0.0,25.01148223876953,8.683821678161621,2.624257802963257,-4527.12744140625,0
909.4179999999997,-0.004702736157923937,0.01264001615345478,-0.00048023872659541667,0.0,0.0,0.0,0.0,-0.002707247156649828,-0.003187953494489193,0.005650091450661421,0.9996127486228943,0.0,0.0,0.0,25.038667678833008,8.694092750549316,2.656438112258911,-4532.048828125,0
919.3079999999991,-0.00476118316873908,0.012671075761318207,-0.0004668407200369984,0.0,0.0,0.0,0.0,9.822069114306942e-05,0.005410405341535807,-0.00019638553203549236,1.000901460647583,0.0,0.0,0.0,25.061649322509766,8.693516731262207,2.661999225616455,-4536.208984375,0
929.1829999999991,-0.004692234098911285,0.012722115032374859,-0.0005746235838159919,0.0,0.0,0.0,0.0,0.0012286568526178598,-0.0010373216355219483,0.00010422024206491187,1.0009247064590454,0.0,0.0,0.0,25.08006477355957,8.68492603302002,2.662933349609375,-4539.5419921875,0
939.0859999999993,-0.004727334715425968,0.012731698341667652,-0.0005720723420381546,0.0,0.0,0.0,0.0,0.002542275469750166,-0.0015789988683536649,5.826900451211259e-05,1.000391960144043,0.0,0.0,0.0,25.100570678710938,8.670327186584473,2.6524157524108887,-4543.25341796875,0
948.9539999999997,-0.004680919460952282,0.012729267589747906,-0.0006204735836945474,0.0,0.0,0.0,0.0,-0.0017783206421881914,0.0018959929002448916,0.0028943021316081285,1.0005275011062622,0.0,0.0,0.0,25.122802734375,8.653550148010254,2.6596689224243164,-4547.27734375,0
958.8500000000004,-0.004730838816612959,0.012767067179083824,-0.0006106141954660416,0.0,0.0,0.0,0.0,0.001084685092791915,-0.0009592685382813215,0.0003678227658383548,1.0014184713363647,0.0,0.0,0.0,25.136234283447266,8.643640518188477,2.659146785736084,-4549.70849609375,0
968.723,-0.004685505758970976,0.012715226970613003,-0.0006632358417846262,0.0,0.0,0.0,0.0,5.6554461480118334e-05,-0.0005516465753316879,0.0012580930488184094,1.0002763271331787,0.0,0.0,0.0,25.147974014282227,8.630831718444824,2.6573212146759033,-4551.8330078125,0
978.6180000000004,-0.004665984306484461,0.012697804719209671,-0.0006628980627283454,0.0,0.0,0.0,0.0,0.0015329202869907022,-0.0036046276800334454,-0.00307459756731987,0.9993630647659302,0.0,0.0,0.0,25.122446060180664,8.629676818847656,2.667126178741455,-4547.212890625,0
988.5049999999992,-0.004632632713764906,0.012675916776061058,-0.0006851066718809307,0.0,0.0,0.0,0.0,-0.0019710890483111143,-0.004771072883158922,0.004184899386018515,1.000345230102539,0.0,0.0,0.0,25.142122268676758,8.615713119506836,2.6731655597686768,-4550.77392578125,0
998.3889999999992,-0.004689179360866547,0.01270864624530077,-0.0006765291909687221,0.0,0.0,0.0,0.0,-0.0009457986452616751,0.0016211577458307147,0.0029069646261632442,1.0029213428497314,0.0,0.0,0.0,25.159589767456055,8.610236167907715,2.6820969581604004,-4553.935546875,0
1008.2630000000008,-0.004680743906646967,0.012632093392312527,-0.0006703839171677828,0.0,0.0,0.0,0.0,-0.0008569015772081912,-0.002477258676663041,-0.0009031141526065767,1.0033198595046997,0.0,0.0,0.0,25.164953231811523,8.599313735961914,2.676171064376831,-4554.90625,0
1018.1610000000001,-0.004738490562886,0.012691697105765343,-0.0006429650820791721,0.0,0.0,0.0,0.0,-0.0024982988834381104,0.002213874598965049,-2.5321705834358e-05,1.001177430152893,0.0,0.0,0.0,25.1754207611084,8.595050811767578,2.6756088733673096,-4556.80126953125,0
1028.0329999999994,-0.0047187767922878265,0.012613724917173386,-0.0006436852854676545,0.0,0.0,0.0,0.0,-0.0004311884695198387,-0.00045207171933725476,0.001281409990042448,1.0014429092407227,0.0,0.0,0.0,25.189861297607422,8.581067085266113,2.6690499782562256,-4559.41455078125,0
1037.937,-0.0047435821034014225,0.01267349161207676,-0.0005992726073600352,0.0,0.0,0.0,0.0,-0.0023315942380577326,-0.007492600940167904,0.00014452236064244062,1.0002760887145996,0.0,0.0,0.0,25.197032928466797,8.584236145019531,2.6697211265563965,-4560.712890625,0
1047.8029999999999,-0.004706442356109619,0.01263363379985094,-0.0006030921940691769,0.0,0.0,0.0,0.0,0.0017818023916333914,-6.696402124362066e-05,-0.0007881864439696074,0.9997813701629639,0.0,0.0,0.0,25.199247360229492,8.569302558898926,2.6804287433624268,-4561.11376953125,0
1057.7000000000007,-0.0047195060178637505,0.01265800092369318,-0.000568584946449846,0.0,0.0,0.0,0.0,-0.001883875927887857,-0.0007215686491690576,0.001733723096549511,0.9981178045272827,0.0,0.0,0.0,25.211868286132812,8.565824508666992,2.6995675563812256,-4563.39794921875,0
1067.5750000000007,-0.00465609272941947,0.012615423649549484,-0.0006079900776967406,0.0,0.0,0.0,0.0,-0.0006169116823002696,0.004430869594216347,-0.0013293144293129444,1.0008312463760376,0.0,0.0,0.0,25.22336196899414,8.549702644348145,2.7029740810394287,-4565.47900390625,0
1077.4689999999991,-0.004669381771236658,0.012646001763641834,-0.0005760784260928631,0.0,0.0,0.0,0.0,0.0035054548643529415,0.004003832582384348,0.0017689935630187392,0.9997282028198242,0.0,0.0,0.0,25.227657318115234,8.546791076660156,2.6964781284332275,-4566.255859375,0
1087.3449999999993,-0.004629562143236399,0.012607204727828503,-0.0005759355844929814,0.0,0.0,0.0,0.0,0.00022878484742250293,0.004505619872361422,0.0004450635169632733,0.9996771812438965,0.0,0.0,0.0,25.22502326965332,8.534499168395996,2.6774086952209473,-4565.779296875,0
1097.2379999999994,-0.004710317123681307,0.012641804292798042,-0.0005574709502980113,0.0,0.0,0.0,0.0,-0.0016883237985894084,0.0009161564521491528,-0.00015191981219686568,0.9996677041053772,0.0,0.0,0.0,25.236736297607422,8.537800788879395,2.6709892749786377,-4567.89892578125,0
1107.1229999999996,-0.004660977981984615,0.012600540183484554,-0.0005689232493750751,0.0,0.0,0.0,0.0,-0.00118571100756526,-0.001481644925661385,0.0024761224631220102,0.9989129304885864,0.0,0.0,0.0,25.242565155029297,8.53089714050293,2.675751209259033,-4568.95458984375,0
1117.0159999999996,-0.004697437398135662,0.012632930651307106,-0.000541047949809581,0.0,0.0,0.0,0.0,-0.00015518415602855384,-0.005016757175326347,0.0019185175187885761,1.000462532043457,0.0,0.0,0.0,25.250404357910156,8.530062675476074,2.678800582885742,-4570.373046875,0
1126.884,-0.004645214416086674,0.012563040480017662,-0.0005610004882328212,0.0,0.0,0.0,0.0,0.0007971885497681797,-0.0023945949506014585,0.0027148891240358353,1.0000016689300537,0.0,0.0,0.0,25.255807876586914,8.512779235839844,2.6785686016082764,-4571.35107421875,0
1136.7780000000002,-0.00460744509473443,0.012522834353148937,-0.0005520431441254914,0.0,0.0,0.0,0.0,0.00309242052026093,0.0017176481196656823,-0.0009499855223111808,0.9999367594718933,0.0,0.0,0.0,25.23101806640625,8.509987831115723,2.685007095336914,-4566.86474609375,0
1146.6540000000005,-0.004558697808533907,0.012491010129451752,-0.0005604022298939526,0.0,0.0,0.0,0.0,-0.0007119109504856169,-0.003618940245360136,0.001789219444617629,0.9992806315422058,0.0,0.0,0.0,25.234750747680664,8.492055892944336,2.6876158714294434,-4567.5400390625,0
1156.554,-0.004717509262263775,0.01257502380758524,-0.0005482612759806216,0.0,0.0,0.0,0.0,0.0008882152615115047,0.000188814228749834,0.0014314153231680393,1.000091791152954,0.0,0.0,0.0,25.246578216552734,8.51268482208252,2.6648638248443604,-4569.6806640625,0
1166.4269999999997,-0.004693621303886175,0.012459858320653439,-0.0005513134528882802,0.0,0.0,0.0,0.0,0.002233159029856324,0.0027042143046855927,-0.0008872917969711125,1.0000793933868408,0.0,0.0,0.0,25.24871826171875,8.495598793029785,2.6621334552764893,-4570.06787109375,0
1176.3199999999997,-0.004759518895298243,0.012522750534117222,-0.0005070241750217974,0.0,0.0,0.0,0.0,-0.0006338297389447689,0.0035066362470388412,-0.0006745771388523281,0.9998277425765991,0.0,0.0,0.0,25.259607315063477,8.502153396606445,2.653517007827759,-4572.03857421875,0
1186.1949999999997,-0.0046835909597575665,0.012517515569925308,-0.0005491393385455012,0.0,0.0,0.0,0.0,-0.0002437904622638598,-0.00433646235615015,-0.0006132887210696936,1.0011955499649048,0.0,0.0,0.0,25.264846801757812,8.497966766357422,2.6495048999786377,-4572.9873046875,0
1196.1000000000004,-0.004756619688123465,0.01257761474698782,-0.0005103345029056072,0.0,0.0,0.0,0.0,-0.00019746020552702248,0.001534466166049242,0.0010525531833991408,0.9982026219367981,0.0,0.0,0.0,25.26682472229004,8.51076889038086,2.6410818099975586,-4573.345703125,0
1205.9670000000006,-0.004659820348024368,0.012569580227136612,-0.0005853604525327682,0.0,0.0,0.0,0.0,0.0020364008378237486,-0.0035025342367589474,-0.0023387845139950514,0.9989874958992004,0.0,0.0,0.0,25.276927947998047,8.500204086303711,2.670008659362793,-4575.17431640625,0
1215.8700000000008,-0.0048147146590054035,0.012607681564986706,-0.000581597734708339,0.0,0.0,0.0,0.0,0.0013659243704751134,-0.0011248717783018947,-0.0032721515744924545,1.0017554759979248,0.0,0.0,0.0,25.28084373474121,8.509486198425293,2.6517629623413086,-4575.88330078125,0
1225.7340000000004,-0.004752790555357933,0.012562060728669167,-0.0006217534537427127,0.0,0.0,0.0,0.0,-0.003668268444016576,-0.0031364629976451397,0.0014716265723109245,0.9991697072982788,0.0,0.0,0.0,25.282466888427734,8.497183799743652,2.6600024700164795,-4576.1767578125,0
1235.6290000000008,-0.004741355311125517,0.01259500253945589,-0.0005764281959272921,0.0,0.0,0.0,0.0,0.0003713794576469809,0.00284489244222641,0.0014892690815031528,0.9983771443367004,0.0,0.0,0.0,25.28960609436035,8.496888160705566,2.661903142929077,-4577.46923828125,0
1245.5040000000008,-0.0046836454421281815,0.01256579253822565,-0.0005953366635367274,0.0,0.0,0.0,0.0,0.0007649384206160903,0.0001484761160099879,0.0022909538820385933,1.0007621049880981,0.0,0.0,0.0,25.285825729370117,8.492955207824707,2.666452646255493,-4576.78466796875,0
1255.3979999999992,-0.004755700938403606,0.012611296959221363,-0.0005695613799616694,0.0,0.0,0.0,0.0,-0.001762804458849132,-0.010209476575255394,-0.0010030160192400217,1.0004544258117676,0.0,0.0,0.0,25.28978157043457,8.501689910888672,2.663172721862793,-4577.5009765625,0
1265.2759999999998,-0.0046925293281674385,0.012553734704852104,-0.0006042490713298321,0.0,0.0,0.0,0.0,2.8360589567455463e-05,-0.0030187813099473715,-0.002316121943295002,1.0015568733215332,0.0,0.0,0.0,25.294315338134766,8.49344539642334,2.6711301803588867,-4578.32177734375,0
1275.1730000000007,-0.004741800017654896,0.012602661736309528,-0.0005697589949704707,0.0,0.0,0.0,0.0,-0.0012865919852629304,-0.006774133071303368,0.0032008173875510693,1.000856637954712,0.0,0.0,0.0,25.29505157470703,8.50537109375,2.684807300567627,-4578.455078125,0
1285.0599999999995,-0.00470850570127368,0.012494523078203201,-0.0005715227453038096,0.0,0.0,0.0,0.0,-0.0023253988474607468,0.0018373677739873528,0.0031001283787190914,1.0024007558822632,0.0,0.0,0.0,25.291217803955078,8.492471694946289,2.679943561553955,-4577.7607421875,0
1294.9480000000003,-0.004773897118866444,0.012557501904666424,-0.0005256764125078917,0.0,0.0,0.0,0.0,-0.0006851554499007761,0.0011396451154723763,-7.160224777180701e-05,1.0008965730667114,0.0,0.0,0.0,25.293575286865234,8.509000778198242,2.6868953704833984,-4578.1875,0
1304.8140000000003,-0.004700583405792713,0.012524420395493507,-0.0005561308935284615,0.0,0.0,0.0,0.0,-0.002842426998540759,-0.002157543320208788,-0.0006894590915180743,1.0006355047225952,0.0,0.0,0.0,25.294557571411133,8.499643325805664,2.685495615005493,-4578.36572265625,0
1314.7160000000003,-0.004709288012236357,0.012552767060697079,-0.0005083672003820539,0.0,0.0,0.0,0.0,-0.0006620730855502188,-0.0014695703284814954,-0.0030654752627015114,0.9993855953216553,0.0,0.0,0.0,25.296436309814453,8.508574485778809,2.6857378482818604,-4578.70556640625,0
1324.5849999999991,-0.0046351030468940735,0.012532886117696762,-0.0005322621436789632,0.0,0.0,0.0,0.0,-0.002558796899393201,-0.0016685364535078406,0.002201271476224065,0.9991238713264465,0.0,0.0,0.0,25.295551300048828,8.501876831054688,2.6989567279815674,-4578.54541015625,0
1334.482,-0.004723327700048685,0.012561468407511711,-0.0005026943981647491,0.0,0.0,0.0,0.0,-0.0018194271251559258,-0.0025752068031579256,0.00274356990121305,1.000546932220459,0.0,0.0,0.0,25.300567626953125,8.51539421081543,2.7012970447540283,-4579.453125,0
1344.3549999999996,-0.004649835173040628,0.012525695376098156,-0.0005335832829587162,0.0,0.0,0.0,0.0,0.002192953135818243,0.005307391751557589,-0.003001672448590398,1.0020619630813599,0.0,0.0,0.0,25.30271339416504,8.507807731628418,2.705981969833374,-4579.841796875,0
1354.2469999999994,-0.004711034707725048,0.012539041228592396,-0.0005087906029075384,0.0,0.0,0.0,0.0,0.002251893049106002,0.005615691188722849,-0.003199564525857568,1.0017844438552856,0.0,0.0,0.0,25.30279541015625,8.511979103088379,2.6932425498962402,-4579.85693359375,0
1364.1309999999994,-0.004643832799047232,0.01250381302088499,-0.0005285944207571447,0.0,0.0,0.0,0.0,-0.001128102419897914,-0.005143965594470501,0.000542374444194138,0.9994043707847595,0.0,0.0,0.0,25.304065704345703,8.506062507629395,2.684422492980957,-4580.08642578125,0
1374.018,-0.0046780784614384174,0.012530951760709286,-0.0004873297002632171,0.0,0.0,0.0,0.0,0.0008381676161661744,-0.00527661107480526,-0.0012249827850610018,0.9993323683738708,0.0,0.0,0.0,25.303695678710938,8.507959365844727,2.6926679611206055,-4580.01953125,0
1383.8979999999992,-0.004596134647727013,0.012531043030321598,-0.0005144852329976857,0.0,0.0,0.0,0.0,0.0016001465264707804,-0.0003078072622884065,0.0015717549249529839,1.000753402709961,0.0,0.0,0.0,25.295578002929688,8.516180992126465,2.710172176361084,-4578.5498046875,0
1393.795,-0.004724463447928429,0.012553873471915722,-0.0004997184732928872,0.0,0.0,0.0,0.0,-0.0009895531693473458,0.00523934792727232,0.0008833611500449479,1.002131462097168,0.0,0.0,0.0,25.301753997802734,8.524174690246582,2.710012197494507,-4579.66796875,0
1403.6689999999999,-0.0046200817450881,0.01259535364806652,-0.0005513226496987045,0.0,0.0,0.0,0.0,0.0015101218596100807,-0.0061690788716077805,-0.002686387160792947,0.9995433688163757,0.0,0.0,0.0,25.30360221862793,8.524313926696777,2.7205283641815186,-4580.0029296875,0
1413.5720000000001,-0.004728248342871666,0.01263678353279829,-0.0005277947057038546,0.0,0.0,0.0,0.0,0.0021183479111641645,-0.003374033607542515,0.0004883271758444607,0.9994616508483887,0.0,0.0,0.0,25.3048095703125,8.533957481384277,2.7122671604156494,-4580.220703125,0
1423.4390000000003,-0.004666860681027174,0.012589842081069946,-0.0005451868637464941,0.0,0.0,0.0,0.0,-0.00101380399428308,0.0032810447737574577,0.0026294279377907515,1.0023752450942993,0.0,0.0,0.0,25.30117416381836,8.521698951721191,2.716539144515991,-4579.5634765625,0
1433.3269999999993,-0.004755970556288958,0.012630871497094631,-0.000517575244884938,0.0,0.0,0.0,0.0,0.0014691372634842992,-0.0006968760280869901,-0.002038785256445408,1.0020315647125244,0.0,0.0,0.0,25.30166244506836,8.530242919921875,2.708033323287964,-4579.65185546875,0
1443.2070000000003,-0.004684325307607651,0.01259795855730772,-0.000544337322935462,0.0,0.0,0.0,0.0,0.0012805582955479622,-0.003252984955906868,-0.001313254819251597,1.0004817247390747,0.0,0.0,0.0,25.299720764160156,8.52280330657959,2.7066781520843506,-4579.2998046875,0
1453.1100000000006,-0.004802722483873367,0.012586008757352829,-0.0005480998079292476,0.0,0.0,0.0,0.0,0.004673721268773079,0.00029413995798677206,0.002156782429665327,1.0006500482559204,0.0,0.0,0.0,25.304460525512695,8.522517204284668,2.686868906021118,-4580.15771484375,0
1462.9760000000006,-0.004727490711957216,0.012547989375889301,-0.00058612140128389,0.0,0.0,0.0,0.0,-0.0021156256552785635,-0.0022284758742898703,0.0050019435584545135,0.9998487830162048,0.0,0.0,0.0,25.301570892333984,8.51231861114502,2.697903871536255,-4579.63525390625,0
1472.875,-0.004763915669173002,0.012593102641403675,-0.0005408031865954399,0.0,0.0,0.0,0.0,-0.002871484262868762,-0.0015253411838784814,-0.00036135182017460465,0.9975910186767578,0.0,0.0,0.0,25.30069923400879,8.519549369812012,2.7033092975616455,-4579.47705078125,0
1482.7450000000008,-0.004694333299994469,0.012562409043312073,-0.0005675028078258038,0.0,0.0,0.0,0.0,0.0005265256040729582,-0.0003671013982966542,0.0009429457713849843,1.0003838539123535,0.0,0.0,0.0,25.2998104095459,8.511247634887695,2.6999027729034424,-4579.31591796875,0
1492.6399999999994,-0.004784088581800461,0.01257545966655016,-0.0005538762779906392,0.0,0.0,0.0,0.0,-0.002738476498052478,-0.0031068373937159777,8.636925485916436e-05,1.0013614892959595,0.0,0.0,0.0,25.306365966796875,8.5206880569458,2.692936420440674,-4580.5029296875,0
1502.5149999999994,-0.004745924845337868,0.01247552689164877,-0.0005595235852524638,0.0,0.0,0.0,0.0,-0.000387598411180079,-0.0017265399219468236,0.00469664391130209,0.9985315799713135,0.0,0.0,0.0,25.302534103393555,8.509695053100586,2.679683208465576,-4579.8095703125,0
1512.4120000000003,-0.00478079728782177,0.012529966421425343,-0.0005068721948191524,0.0,0.0,0.0,0.0,-0.002833376405760646,-0.008770467713475227,0.0004577030485961586,1.0004878044128418,0.0,0.0,0.0,25.30219268798828,8.520652770996094,2.681183099746704,-4579.7470703125,0
1522.2849999999999,-0.004705470521003008,0.012461448088288307,-0.0005532282521016896,0.0,0.0,0.0,0.0,-0.0018136193975806236,-0.0036210271064192057,-0.001841326360590756,1.0014251470565796,0.0,0.0,0.0,25.304182052612305,8.511432647705078,2.694814920425415,-4580.10791015625,0
1532.1849999999995,-0.004701930098235607,0.01250157319009304,-0.0004990169545635581,0.0,0.0,0.0,0.0,0.0017936434596776962,-0.0006478708819486201,0.003389049554243684,1.0009701251983643,0.0,0.0,0.0,25.304027557373047,8.516777038574219,2.715989589691162,-4580.07958984375,0
1542.062,-0.0046594818122684956,0.012398604303598404,-0.0005033353227190673,0.0,0.0,0.0,0.0,-0.0005002178368158638,-0.0003505529020912945,0.0005209390656091273,1.000484824180603,0.0,0.0,0.0,25.304534912109375,8.498555183410645,2.7155392169952393,-4580.17138671875,0
1551.9560000000001,-0.004751249682158232,0.012455472722649574,-0.0004592621116898954,0.0,0.0,0.0,0.0,0.0009099887683987617,0.0013429048703983426,-0.0004337449208833277,0.9999071359634399,0.0,0.0,0.0,25.3080997467041,8.515176773071289,2.7026476860046387,-4580.81640625,0
1561.8279999999995,-0.0046465531922876835,0.012496384792029858,-0.0005088878679089248,0.0,0.0,0.0,0.0,0.0002064007567241788,0.0015315641649067402,-0.00418831966817379,0.998532235622406,0.0,0.0,0.0,25.302181243896484,8.515653610229492,2.70489501953125,-4579.7451171875,0
1571.7240000000002,-0.004742197692394257,0.012533089146018028,-0.00048114408855326474,0.0,0.0,0.0,0.0,-0.0021144691854715347,0.00023046367277856916,-0.0016411340329796076,1.0015475749969482,0.0,0.0,0.0,25.307485580444336,8.52102279663086,2.6894071102142334,-4580.705078125,0
1581.5959999999995,-0.00465937377884984,0.012537053786218166,-0.0005134357488714159,0.0,0.0,0.0,0.0,-0.0007952438318170607,0.0010490382555872202,0.0007054858142510056,1.0019638538360596,0.0,0.0,0.0,25.300479888916016,8.519247055053711,2.6842997074127197,-4579.43701171875,0
1591.4950000000008,-0.004761853255331516,0.01258796639740467,-0.00048262786003760993,0.0,0.0,0.0,0.0,0.0021973014809191227,0.0018380736000835896,-0.003267592051997781,1.0005922317504883,0.0,0.0,0.0,25.301382064819336,8.527594566345215,2.6693458557128906,-4579.6005859375,0
1601.3709999999992,-0.004688401706516743,0.012569925747811794,-0.0005120311980135739,0.0,0.0,0.0,0.0,-0.0005083049181848764,-0.0031232729088515043,0.002980924444273114,1.0004358291625977,0.0,0.0,0.0,25.295658111572266,8.518418312072754,2.667448043823242,-4578.564453125,0
1611.259,-0.004742841701954603,0.01258373074233532,-0.0004821621987503022,0.0,0.0,0.0,0.0,-0.0004992504836991429,0.0042768437415361404,0.0009330057655461133,0.9988162517547607,0.0,0.0,0.0,25.301769256591797,8.521895408630371,2.6808927059173584,-4579.67041015625,0
1621.1350000000002,-0.004674465861171484,0.012533063068985939,-0.0005165166803635657,0.0,0.0,0.0,0.0,0.0018448525806888938,0.0003577617753762752,0.0029867971315979958,0.9983348250389099,0.0,0.0,0.0,25.301843643188477,8.503471374511719,2.674973964691162,-4579.68408203125,0
1631.0300000000007,-0.004728278145194054,0.012543502263724804,-0.0004893734003417194,0.0,0.0,0.0,0.0,-0.0030624866485595703,0.0024420402478426695,-0.00045007592416368425,1.0004940032958984,0.0,0.0,0.0,25.301525115966797,8.511354446411133,2.6636765003204346,-4579.62646484375,0
1640.9120000000003,-0.00461951456964016,0.012575349770486355,-0.0005590313230641186,0.0,0.0,0.0,0.0,0.0018055674154311419,0.0024533739779144526,-0.003669052617624402,1.0021724700927734,0.0,0.0,0.0,25.29454231262207,8.512890815734863,2.6820812225341797,-4578.3623046875,0
1650.8060000000005,-0.004719404969364405,0.012591133825480938,-0.00054776860633865,0.0,0.0,0.0,0.0,-0.0001362196635454893,0.0036789444275200367,-0.0014730116818100214,0.9993388652801514,0.0,0.0,0.0,25.29619598388672,8.517056465148926,2.6704518795013428,-4578.662109375,0
1660.696,-0.004656129516661167,0.012561054900288582,-0.0005727086681872606,0.0,0.0,0.0,0.0,-0.0008527800673618913,-0.001723955268971622,-0.0010968719143420458,0.9991291165351868,0.0,0.0,0.0,25.293888092041016,8.508231163024902,2.661935329437256,-4578.244140625,0
1670.5730000000003,-0.004730200860649347,0.012597588822245598,-0.000542236608453095,0.0,0.0,0.0,0.0,-0.0016164964763447642,-0.00554099353030324,-0.0018031764775514603,0.9997777342796326,0.0,0.0,0.0,25.296297073364258,8.516093254089355,2.6520578861236572,-4578.68017578125,0
1680.4529999999995,-0.0046324399299919605,0.012591700069606304,-0.0006102058105170727,0.0,0.0,0.0,0.0,0.00035574252251535654,-0.002482471987605095,0.0009919875301420689,0.9996757507324219,0.0,0.0,0.0,25.29083251953125,8.513391494750977,2.6766247749328613,-4577.69140625,0
1690.339,-0.0047280010767281055,0.012645942158997059,-0.000582260312512517,0.0,0.0,0.0,0.0,0.0017509621102362871,0.0031497112940996885,-0.0039060325361788273,1.0015037059783936,0.0,0.0,0.0,25.292171478271484,8.531418800354004,2.6880123615264893,-4577.93359375,0
1700.2270000000008,-0.004644578322768211,0.012641090899705887,-0.0006310150492936373,0.0,0.0,0.0,0.0,0.0007778365397825837,-0.0010734009556472301,9.155416773865e-05,1.0007935762405396,0.0,0.0,0.0,25.297809600830078,8.519451141357422,2.699971914291382,-4578.9541015625,0
1710.1100000000006,-0.0047204201109707355,0.012684245593845844,-0.0006053021061234176,0.0,0.0,0.0,0.0,0.002706663217395544,0.0064682005904614925,0.0005985879106447101,1.0006227493286133,0.0,0.0,0.0,25.29806900024414,8.528382301330566,2.68693470954895,-4579.00146484375,0
1719.9979999999996,-0.004678184166550636,0.012616789899766445,-0.0006137159070931375,0.0,0.0,0.0,0.0,0.00023800108465366066,-0.0006327735027298331,0.0011926781153306365,0.9990600943565369,0.0,0.0,0.0,25.289623260498047,8.511306762695312,2.6767780780792236,-4577.47216796875,0
1729.8889999999992,-0.004728954751044512,0.012623362243175507,-0.000590581214055419,0.0,0.0,0.0,0.0,-0.0012668934650719166,-7.182833360275254e-05,-0.00043117438326589763,1.0003741979599,0.0,0.0,0.0,25.290267944335938,8.51291275024414,2.671396017074585,-4577.58935546875,0
1739.7639999999992,-0.004682454746216536,0.012542045675218105,-0.0006111716502346098,0.0,0.0,0.0,0.0,-0.0010623830603435636,-0.0010961454827338457,-0.0019021519692614675,1.0011060237884521,0.0,0.0,0.0,25.297800064086914,8.49598503112793,2.6484768390655518,-4578.9521484375,0
1749.6560000000009,-0.004649540409445763,0.012471525929868221,-0.0006072238902561367,0.0,0.0,0.0,0.0,-0.0007095140172168612,-0.0009797138627618551,-0.003634408814832568,0.9996291995048523,0.0,0.0,0.0,25.272869110107422,8.491767883300781,2.643739700317383,-4574.439453125,0
1759.5329999999994,-0.004625230561941862,0.012416939251124859,-0.0005868826992809772,0.0,0.0,0.0,0.0,0.001080014044418931,-0.0005301784840412438,0.0009644759120419621,1.0001282691955566,0.0,0.0,0.0,25.27379608154297,8.479899406433105,2.631038188934326,-4574.607421875,0
1769.4210000000003,-0.0047337356954813,0.012473667040467262,-0.0005532485665753484,0.0,0.0,0.0,0.0,0.0017940213438123465,0.0005866452702321112,0.0005773510201834142,1.0019612312316895,0.0,0.0,0.0,25.274702072143555,8.502947807312012,2.6148040294647217,-4574.77197265625,0
1779.3160000000007,-0.004696627613157034,0.012435497716069221,-0.0005500133265741169,0.0,0.0,0.0,0.0,0.0002919204125646502,-0.0037224283441901207,-0.002877057297155261,0.9992108345031738,0.0,0.0,0.0,25.27715492248535,8.498085975646973,2.624532461166382,-4575.2158203125,0
1789.1939999999995,-0.0047695632092654705,0.012472942471504211,-0.0005027535953558981,0.0,0.0,0.0,0.0,0.0008911304757930338,-0.002635827288031578,0.0006335328216664493,1.0008504390716553,0.0,0.0,0.0,25.28461456298828,8.508442878723145,2.6256039142608643,-4576.5654296875,0
1799.0740000000005,-0.004719577729701996,0.012399558909237385,-0.0005220809835009277,0.0,0.0,0.0,0.0,0.0014041457325220108,-0.004668193869292736,-0.001077802269719541,1.0002179145812988,0.0,0.0,0.0,25.28453254699707,8.496169090270996,2.63038969039917,-4576.55078125,0
1808.9619999999995,-0.004772488493472338,0.012446528300642967,-0.0004663150175474584,0.0,0.0,0.0,0.0,-0.001697280677035451,-0.0017738508759066463,-0.0011742346687242389,1.0007367134094238,0.0,0.0,0.0,25.28997230529785,8.500170707702637,2.6195287704467773,-4577.53515625,0
1818.8430000000008,-0.004710803274065256,0.012388063594698906,-0.0004908480914309621,0.0,0.0,0.0,0.0,-0.0006228431011550128,-0.004335189238190651,-0.0013778741704300046,1.0046805143356323,0.0,0.0,0.0,25.289344787597656,8.482151985168457,2.61255145072937,-4577.421875,0
1828.732,-0.004677443765103817,0.012313073500990868,-0.0004762670723721385,0.0,0.0,0.0,0.0,-0.0017573971999809146,-0.004204686265438795,-0.00027330865850672126,1.0039713382720947,0.0,0.0,0.0,25.26392936706543,8.482442855834961,2.6113762855529785,-4572.8212890625,0
1838.6090000000004,-0.004613129422068596,0.01227554026991129,-0.0004972071619704366,0.0,0.0,0.0,0.0,0.0019740492571145296,-0.002695827279239893,5.629154202324571e-06,1.001449704170227,0.0,0.0,0.0,25.262554168701172,8.480792045593262,2.626384973526001,-4572.572265625,0
1848.5100000000002,-0.004715304356068373,0.012387657538056374,-0.00041541000246070325,0.0,0.0,0.0,0.0,-8.927830640459433e-05,-0.002713304478675127,-0.0005298598553054035,1.000470519065857,0.0,0.0,0.0,25.26622200012207,8.513195991516113,2.6313371658325195,-4573.23583984375,0
1858.3850000000002,-0.004617785569280386,0.012425333261489868,-0.00046106570516712964,0.0,0.0,0.0,0.0,-0.0009617513860575855,-0.001870385487563908,-0.002283753827214241,1.0006639957427979,0.0,0.0,0.0,25.26592445373535,8.515939712524414,2.64871883392334,-4573.1826171875,0
1868.2720000000008,-0.004763382952660322,0.012484122067689896,-0.00041893598972819746,0.0,0.0,0.0,0.0,0.0031435666605830193,0.0009821512503549457,0.0005892309709452093,1.0001766681671143,0.0,0.0,0.0,25.27603530883789,8.533742904663086,2.6494457721710205,-4575.0126953125,0
1878.1470000000008,-0.0046411678194999695,0.012570791877806187,-0.0004948794958181679,0.0,0.0,0.0,0.0,0.000264314585365355,-0.003013378009200096,0.0008230588282458484,0.9997220039367676,0.0,0.0,0.0,25.278566360473633,8.536038398742676,2.680014133453369,-4575.470703125,0
1888.0400000000009,-0.004747800529003143,0.012593677267432213,-0.0004668146139010787,0.0,0.0,0.0,0.0,-0.0014181314036250114,0.002043556421995163,1.2368009265628643e-05,1.0001758337020874,0.0,0.0,0.0,25.284528732299805,8.537904739379883,2.6799168586730957,-4576.5498046875,0
1897.92,-0.004619530402123928,0.012655277736485004,-0.0005619732546620071,0.0,0.0,0.0,0.0,0.0019172867760062218,-0.0025238364469259977,-0.0007493926677852869,0.9995066523551941,0.0,0.0,0.0,25.289281845092773,8.54189395904541,2.7014291286468506,-4577.41064453125,0
1907.8189999999995,-0.004815883468836546,0.012682915665209293,-0.0005648538353852928,0.0,0.0,0.0,0.0,-0.00115475885104388,0.0011482385452836752,-0.002142213983461261,0.9991871118545532,0.0,0.0,0.0,25.29109001159668,8.554591178894043,2.6960196495056152,-4577.73779296875,0
1917.6910000000007,-0.004740719683468342,0.012678811326622963,-0.0006133312126621604,0.0,0.0,0.0,0.0,-0.002383611397817731,7.622985140187666e-05,8.243620686698705e-05,1.000396966934204,0.0,0.0,0.0,25.29587173461914,8.543943405151367,2.703883409500122,-4578.603515625,0
1927.5930000000008,-0.004756199195981026,0.012673954479396343,-0.0005881400429643691,0.0,0.0,0.0,0.0,0.0008943330030888319,0.0004130293964408338,-0.0009281159145757556,1.0007890462875366,0.0,0.0,0.0,25.298851013183594,8.545845031738281,2.699477195739746,-4579.142578125,0
1937.4650000000001,-0.004647442139685154,0.012698237784206867,-0.0006746146245859563,0.0,0.0,0.0,0.0,0.0002087258326355368,-0.0022827917709946632,0.0026323727797716856,0.9993577003479004,0.0,0.0,0.0,25.303773880004883,8.54655647277832,2.7105636596679688,-4580.03369140625,0
1947.3520000000008,-0.004701725672930479,0.012698952108621597,-0.0006632328149862587,0.0,0.0,0.0,0.0,-0.0003787944442592561,-0.0013325079344213009,0.002668163273483515,0.9996516108512878,0.0,0.0,0.0,25.30782699584961,8.542078971862793,2.7061800956726074,-4580.767578125,0
1957.2350000000006,-0.004609094932675362,0.012705829925835133,-0.0007341848686337471,0.0,0.0,0.0,0.0,0.001622494077309966,-0.0023449063301086426,-0.003475693752989173,1.0009270906448364,0.0,0.0,0.0,25.309967041015625,8.53670883178711,2.7163853645324707,-4581.15478515625,0
1967.1260000000002,-0.004694598261266947,0.012735482305288315,-0.0007226477027870715,0.0,0.0,0.0,0.0,0.000858741463162005,0.0019222843693569303,-0.0005201487219892442,1.0013326406478882,0.0,0.0,0.0,25.310705184936523,8.546520233154297,2.7180612087249756,-4581.2880859375,0
1977.018,-0.004647932946681976,0.012681791558861732,-0.0007443882059305906,0.0,0.0,0.0,0.0,0.0002532868820708245,-0.000719954667147249,0.0029302549082785845,0.9991670846939087,0.0,0.0,0.0,25.31572151184082,8.534887313842773,2.7065749168395996,-4582.1962890625,0
1986.8970000000008,-0.004693982191383839,0.012746869586408138,-0.0007020558696240187,0.0,0.0,0.0,0.0,-0.0012055515544489026,0.006684643216431141,0.00094808847643435,0.9996792078018188,0.0,0.0,0.0,25.317153930664062,8.545787811279297,2.711629629135132,-4582.455078125,0
1996.7810000000009,-0.0046887993812561035,0.012608830817043781,-0.0006847522454336286,0.0,0.0,0.0,0.0,0.0018198622856289148,-0.003557115327566862,0.0008563207229599357,0.9995807409286499,0.0,0.0,0.0,25.31745719909668,8.528037071228027,2.6978225708007812,-4582.51025390625,0
2006.6620000000003,-0.004738807212561369,0.012651787139475346,-0.0006468305946327746,0.0,0.0,0.0,0.0,-0.004484546836465597,-0.00016114627942442894,0.0024928543716669083,1.0007234811782837,0.0,0.0,0.0,25.317157745361328,8.532917022705078,2.6981003284454346,-4582.4560546875,0
2016.549000000001,-0.004737089853733778,0.012489182874560356,-0.0006282163085415959,0.0,0.0,0.0,0.0,0.0025384766049683094,0.0019511531572788954,-0.000708623556420207,1.0014601945877075,0.0,0.0,0.0,25.317081451416016,8.508007049560547,2.693749189376831,-4582.44189453125,0
2026.437,-0.004746485501527786,0.01252660807222128,-0.0005736082093790174,0.0,0.0,0.0,0.0,-0.0019722632132470608,-0.0017074403585866094,0.0008241488831117749,1.0026257038116455,0.0,0.0,0.0,25.320556640625,8.514398574829102,2.6961469650268555,-4583.0712890625,0
2036.325999999999,-0.004715153481811285,0.012406551279127598,-0.000576467253267765,0.0,0.0,0.0,0.0,-0.0005353613523766398,0.003128406358882785,-0.0015744970878586173,1.0006436109542847,0.0,0.0,0.0,25.31806755065918,8.492170333862305,2.681556224822998,-4582.62060546875,0
2046.2099999999991,-0.004787124693393707,0.012492620386183262,-0.0005093709332868457,0.0,0.0,0.0,0.0,0.0005175504484213889,-0.0002586160262580961,0.0028972970321774483,0.9991415143013,0.0,0.0,0.0,25.31862449645996,8.506969451904297,2.6804704666137695,-4582.72119140625,0
2056.0959999999995,-0.004730908665806055,0.012432198040187359,-0.0005237177247181535,0.0,0.0,0.0,0.0,-0.0012433669762685895,0.0037749288603663445,0.001332607353106141,0.9995313882827759,0.0,0.0,0.0,25.312780380249023,8.49323558807373,2.6804182529449463,-4581.66357421875,0
2065.9760000000006,-0.0047782910987734795,0.012485572136938572,-0.0004616463265847415,0.0,0.0,0.0,0.0,0.000405810889787972,0.0026326063089072704,-0.00245544221252203,1.0013493299484253,0.0,0.0,0.0,25.31956672668457,8.497783660888672,2.686246871948242,-4582.89208984375,0
2075.857,-0.0047111487947404385,0.01244718860834837,-0.00048686444642953575,0.0,0.0,0.0,0.0,-0.0022862812038511038,0.003095779335126281,0.003668665885925293,0.9997243881225586,0.0,0.0,0.0,25.31097984313965,8.4896821975708,2.679640769958496,-4581.337890625,0
2085.7479999999996,-0.0047602360136806965,0.012476439587771893,-0.0004377650038804859,0.0,0.0,0.0,0.0,-0.0005711788544431329,-0.008421665988862514,-0.0010824251221492887,0.9990307092666626,0.0,0.0,0.0,25.311429977416992,8.493127822875977,2.66899037361145,-4581.41943359375,0
2095.6309999999994,-0.004666630178689957,0.012479444965720177,-0.00048534758388996124,0.0,0.0,0.0,0.0,-0.003212698269635439,-0.0003309945168439299,8.705648360773921e-05,0.9992449283599854,0.0,0.0,0.0,25.313907623291016,8.493427276611328,2.6881110668182373,-4581.86767578125,0
2105.5190000000002,-0.004737386014312506,0.01255802158266306,-0.0004223805735819042,0.0,0.0,0.0,0.0,0.0004951521405018866,-0.0016748784109950066,0.000498489651363343,0.9992808103561401,0.0,0.0,0.0,25.314016342163086,8.511409759521484,2.6834285259246826,-4581.8876953125,0
2115.3989999999994,-0.004655677825212479,0.012554546818137169,-0.00045611336827278137,0.0,0.0,0.0,0.0,0.0007401915499940515,-0.00316782109439373,0.0032060269732028246,0.9991088509559631,0.0,0.0,0.0,25.30662727355957,8.510130882263184,2.7090601921081543,-4580.55029296875,0
2125.2880000000005,-0.004788224119693041,0.012592491693794727,-0.0004333197430241853,0.0,0.0,0.0,0.0,0.0016775568947196007,0.0037328768521547318,0.0009178906911984086,0.9988992214202881,0.0,0.0,0.0,25.30681037902832,8.526159286499023,2.697014331817627,-4580.5830078125,0
2135.1839999999993,-0.004677357152104378,0.01263648271560669,-0.0005086165620014071,0.0,0.0,0.0,0.0,-0.0027851315680891275,0.0071905311197042465,-0.0009177441825158894,1.000465750694275,0.0,0.0,0.0,25.31128692626953,8.519861221313477,2.712139844894409,-4581.39306640625,0
2145.0499999999993,-0.0047844769433140755,0.012615138664841652,-0.000515857245773077,0.0,0.0,0.0,0.0,-0.0007865960942581296,-0.005040074232965708,0.00022272157366387546,1.001334309577942,0.0,0.0,0.0,25.315540313720703,8.524160385131836,2.684187173843384,-4582.1630859375,0
2154.9410000000007,-0.004690513014793396,0.012632091529667377,-0.000581851345486939,0.0,0.0,0.0,0.0,-0.0003617689071688801,-0.0002383998071309179,0.002243944676592946,0.9995083212852478,0.0,0.0,0.0,25.318532943725586,8.522172927856445,2.702265977859497,-4582.70458984375,0
2164.821,-0.00472676707431674,0.012641878798604012,-0.0005589339416474104,0.0,0.0,0.0,0.0,0.00370045006275177,0.008458408527076244,-0.0011187661439180374,0.9976378083229065,0.0,0.0,0.0,25.32524299621582,8.523242950439453,2.70341420173645,-4583.919921875,0
