timestamp,stateEstimate.x,stateEstimate.y,stateEstimate.z,controller.cmd_thrust,controller.cmd_roll,controller.cmd_pitch,controller.cmd_yaw,controller.r_roll,controller.r_pitch,controller.r_yaw,controller.accelz,controller.actuatorThrust,controller.roll,controller.pitch,controller.yaw,controller.rollRate,controller.pitchRate,controller.yawRate,controller.ctr_yaw
0.0,-0.0002808740537147969,7.998002547537908e-05,-0.0005644953926093876,0.0,0.0,0.0,0.0,-0.001764815766364336,-0.004355686251074076,0.0003887660859618336,0.9985000491142273,0.0,0.0,0.0,0.2755567729473114,0.5153099298477173,4.9765191078186035,-49.876319885253906,0
9.902000000000044,-0.0003183916851412505,6.516820576507598e-05,-0.000595071935094893,0.0,0.0,0.0,0.0,0.00021847391326446086,-0.0013151356251910329,0.003128961892798543,0.9996113181114197,0.0,0.0,0.0,0.2757391035556793,0.520535409450531,4.976719856262207,-49.90932846069336,0
19.83300000000054,-0.0003634229360613972,5.1937546231783926e-05,-0.0006186258397065103,0.0,0.0,0.0,0.0,-0.0004063803644385189,0.0020966441370546818,0.00293526379391551,0.9996680021286011,0.0,0.0,0.0,0.27624866366386414,0.5198783874511719,4.985567092895508,-50.00156021118164,0
29.725000000000364,-0.0004067792324349284,3.398070111870766e-05,-0.0006493728142231703,0.0,0.0,0.0,0.0,-0.001768554444424808,-0.0005369700957089663,0.0007578149670735002,1.0012072324752808,0.0,0.0,0.0,0.27665621042251587,0.5172109007835388,4.97914981842041,-50.07532501220703,0
39.64600000000064,-0.0004638175305444747,3.965194628108293e-05,-0.0006521111936308444,0.0,0.0,0.0,0.0,0.0013927131658419967,0.00027277806657366455,0.0022240669932216406,1.0004452466964722,0.0,0.0,0.0,0.2770046591758728,0.5200945138931274,4.977820873260498,-50.13839340209961,0
49.55199999999968,-0.0005124285817146301,2.108636726916302e-05,-0.0006796754314564168,0.0,0.0,0.0,0.0,-0.0036737986374646425,0.0024648569524288177,0.005220931023359299,0.9991999864578247,0.0,0.0,0.0,0.277765154838562,0.5159526467323303,4.9798359870910645,-50.27604675292969,0
59.475000000000364,-0.0005674800486303866,3.568835018086247e-05,-0.0006854786770418286,0.0,0.0,0.0,0.0,-0.0018454642267897725,-0.0030912035144865513,0.00015258908388204873,0.9983888268470764,0.0,0.0,0.0,0.2780257761478424,0.5173478126525879,4.973916053771973,-50.323219299316406,0
69.375,-0.0006191363791003823,1.6627480363240466e-05,-0.0007118468638509512,0.0,0.0,0.0,0.0,8.376685582334176e-05,-0.0019568337593227625,-0.0018543334444984794,1.0001475811004639,0.0,0.0,0.0,0.27899014949798584,0.5196036100387573,4.967933177947998,-50.497772216796875,0
79.29800000000068,-0.0006749490275979042,3.537324664648622e-05,-0.0007219858816824853,0.0,0.0,0.0,0.0,0.0012160161277279258,0.0013888857793062925,0.0004895490710623562,0.9999330639839172,0.0,0.0,0.0,0.2774374485015869,0.5208210945129395,4.9665656089782715,-50.21672821044922,0
89.20600000000013,-0.000729913532268256,1.6193711417145096e-05,-0.0007480282802134752,0.0,0.0,0.0,0.0,0.0029904870316386223,0.0007211394258774817,0.0004467810213100165,0.998574435710907,0.0,0.0,0.0,0.27731990814208984,0.5181630253791809,4.959229469299316,-50.19545364379883,0
99.1260000000002,-0.0007980401860550046,1.1689430721162353e-05,-0.000755102897528559,0.0,0.0,0.0,0.0,0.0009464858449064195,-0.0026774571742862463,0.0005212360993027687,0.9975550770759583,0.0,0.0,0.0,0.27833279967308044,0.5153160691261292,4.9552412033081055,-50.37879180908203,0
109.01800000000003,-0.0008548623882234097,-7.591793291794602e-06,-0.0007809208473190665,0.0,0.0,0.0,0.0,0.001962042413651943,-0.0011126083554700017,0.000583605607971549,0.9981894493103027,0.0,0.0,0.0,0.27779436111450195,0.522807776927948,4.950607776641846,-50.281333923339844,0
118.94800000000032,-0.000882055377587676,4.2257739551132545e-05,-0.0008198089781217277,0.0,0.0,0.0,0.0,-0.001606950187124312,-8.595304097980261e-05,0.001828318228945136,0.9967237710952759,0.0,0.0,0.0,0.27761217951774597,0.5211228132247925,4.949924468994141,-50.248355865478516,0
128.85200000000077,-0.0009414650266990066,2.6988302124664187e-05,-0.0008511763880960643,0.0,0.0,0.0,0.0,3.318911331007257e-05,0.003002839395776391,-0.0024495823308825493,0.9999024868011475,0.0,0.0,0.0,0.278756320476532,0.5287925601005554,4.951930522918701,-50.45545196533203,0
138.76599999999962,-0.0009739042143337429,7.320020813494921e-05,-0.0008926777518354356,0.0,0.0,0.0,0.0,0.0014317001914605498,-0.002078603720292449,-0.0010042599169537425,0.9996544718742371,0.0,0.0,0.0,0.2787896990776062,0.527772843837738,4.939293384552002,-50.46148681640625,0
148.66400000000067,-0.0010331937810406089,6.050620140740648e-05,-0.0009276336058974266,0.0,0.0,0.0,0.0,-0.0005328785628080368,-0.0003434690006542951,-0.003975033760070801,0.9977378249168396,0.0,0.0,0.0,0.27845221757888794,0.5242889523506165,4.933997631072998,-50.40040588378906,0
158.59499999999935,-0.0010862525086849928,0.00010715668031480163,-0.0009486066410318017,0.0,0.0,0.0,0.0,0.00128015351947397,-0.0029664922039955854,-0.0011359486961737275,0.9995158910751343,0.0,0.0,0.0,0.27870774269104004,0.5202939510345459,4.923223972320557,-50.4466552734375,0
168.48799999999937,-0.0011482227127999067,9.75012662820518e-05,-0.0009848634945228696,0.0,0.0,0.0,0.0,0.00267400243319571,0.005752678494900465,-0.0012417827965691686,0.9993526339530945,0.0,0.0,0.0,0.277971088886261,0.5224722623825073,4.922621250152588,-50.31332015991211,0
178.40899999999965,-0.0011771811405196786,0.0001466157555114478,-0.001040781382471323,0.0,0.0,0.0,0.0,0.0027273513842374086,0.0030200527980923653,-0.001083305454812944,0.9968526363372803,0.0,0.0,0.0,0.27720382809638977,0.5120869278907776,4.9148383140563965,-50.17444610595703,0
188.3130000000001,-0.0012399108381941915,0.00014059054956305772,-0.0010810958920046687,0.0,0.0,0.0,0.0,0.0008041750988923013,-0.0011489053722470999,0.0002971818612422794,1.0002096891403198,0.0,0.0,0.0,0.27688971161842346,0.5056354403495789,4.904033660888672,-50.117591857910156,0
198.23099999999977,-0.0012690225848928094,0.00019007168884854764,-0.0011370560387149453,0.0,0.0,0.0,0.0,0.0005200494779273868,0.0035436460748314857,-0.0005421896348707378,1.000435471534729,0.0,0.0,0.0,0.2716173529624939,0.5292250514030457,4.913437843322754,-49.16328048706055,0
208.13500000000022,-0.0013294569216668606,0.0001877135509857908,-0.0011809575371444225,0.0,0.0,0.0,0.0,-0.0005210252711549401,-0.005276441108435392,0.0011170419165864587,0.9991615414619446,0.0,0.0,0.0,0.27119502425193787,0.5366559028625488,4.914462566375732,-49.08683776855469,0
218.0599999999995,-0.0013573213946074247,0.00022917293244972825,-0.0012433313531801105,0.0,0.0,0.0,0.0,0.0016185380518436432,0.0031625451520085335,-0.002443597186356783,0.9984791874885559,0.0,0.0,0.0,0.2711825668811798,0.5379095077514648,4.9177985191345215,-49.0845832824707,0
227.96299999999974,-9.071399108506739e-05,-0.00018398785323370248,-8.775103196967393e-05,0.0,0.0,0.0,0.0,-0.0005340665229596198,0.001957989763468504,0.00018543264013715088,0.9999934434890747,0.0,0.0,0.0,0.27117422223091125,0.47956469655036926,5.08182954788208,-49.08306884765625,0
237.87900000000081,-8.040165266720578e-05,-0.00012898155546281487,-0.00010928123811027035,0.0,0.0,0.0,0.0,3.113710044999607e-05,0.0016788335051387548,-0.0009524125489406288,1.0003639459609985,0.0,0.0,0.0,0.27169662714004517,0.4808412194252014,5.074313163757324,-49.17763137817383,0
247.78100000000086,-9.835745004238561e-05,-0.00014099058171268553,-0.00012002092989860103,0.0,0.0,0.0,0.0,0.002218288602307439,-0.0035594122018665075,0.0003806991153396666,0.9994964003562927,0.0,0.0,0.0,0.27156636118888855,0.4789845943450928,5.067721843719482,-49.154048919677734,0
257.7049999999999,-0.00013291375944390893,-0.0001764501357683912,-9.964963828679174e-05,0.0,0.0,0.0,0.0,-0.0013827212387695909,-0.00026211602380499244,-8.279506437247619e-05,1.0007455348968506,0.0,0.0,0.0,0.2721380889415741,0.4705115258693695,5.062925815582275,-49.25753402709961,0
267.60299999999916,-0.00015474471729248762,-0.0001940100482897833,-0.0001075541804311797,0.0,0.0,0.0,0.0,0.0018199845217168331,0.0013173469342291355,-0.0002800716320052743,1.0002776384353638,0.0,0.0,0.0,0.27168184518814087,0.4706713855266571,5.066802978515625,-49.17495346069336,0
277.52399999999943,-0.00016282590513583273,-0.00014702376211062074,-0.00013318323181010783,0.0,0.0,0.0,0.0,-0.00037383363815024495,-0.004097114782780409,0.0041264439933001995,0.9996543526649475,0.0,0.0,0.0,0.26606911420822144,0.47951197624206543,5.0608696937561035,-48.15903854370117,0
287.4279999999999,-0.00011974692461080849,-0.00014214083785191178,-7.052269211271778e-05,0.0,0.0,0.0,0.0,-0.0008821190567687154,-0.0010159655939787626,-0.001305956277064979,0.9983695149421692,0.0,0.0,0.0,0.26576918363571167,0.47885751724243164,5.056210994720459,-48.1047477722168,0
297.34900000000016,-0.00015200284542515874,-0.00018310507584828883,-7.999123045010492e-05,0.0,0.0,0.0,0.0,0.001135507132858038,-0.0005475588259287179,0.001097892178222537,0.998594343662262,0.0,0.0,0.0,0.2653858959674835,0.48093321919441223,5.046717643737793,-48.035377502441406,0
307.25,-0.00018211350834462792,-0.00020534791110549122,-8.664229972055182e-05,0.0,0.0,0.0,0.0,-0.00015206258103717119,0.002976540010422468,-0.0008807540289126337,0.9997656941413879,0.0,0.0,0.0,0.2656290531158447,0.4738991856575012,5.041567802429199,-48.079383850097656,0
317.16699999999946,-0.0001761567546054721,-0.00013792824756819755,-0.00012751905887853354,0.0,0.0,0.0,0.0,-0.00038352730916813016,0.0006252419552765787,0.0020630022045224905,0.9992707371711731,0.0,0.0,0.0,0.26502278447151184,0.4746861457824707,5.038525581359863,-47.96965026855469,0
327.0730000000003,-0.0002086934691760689,-0.000160247043822892,-0.0001382749032927677,0.0,0.0,0.0,0.0,0.0014050703030079603,8.046023867791519e-05,0.0017888961592689157,0.9988070726394653,0.0,0.0,0.0,0.2644864618778229,0.47567081451416016,5.029669284820557,-47.87257766723633,0
336.9959999999992,-0.0002177151181967929,-0.0001116430212277919,-0.0001845156803028658,0.0,0.0,0.0,0.0,-0.0022729095071554184,0.0030299739446491003,0.0015709649305790663,0.9986714720726013,0.0,0.0,0.0,0.264288991689682,0.4799318313598633,5.0168681144714355,-47.83683395385742,0
346.89600000000064,-0.0002522784052416682,-0.00013518554624170065,-0.0001998498773900792,0.0,0.0,0.0,0.0,0.0012144241482019424,-0.00019294281082693487,0.003980398178100586,1.0000934600830078,0.0,0.0,0.0,0.26537978649139404,0.47676247358322144,5.00531005859375,-48.034263610839844,0
356.8140000000003,-0.0002648333029355854,-0.00011746019299607724,-0.00028795472462661564,0.0,0.0,0.0,0.0,-0.0007146337884478271,-0.0021943890023976564,0.00046812862274236977,0.9986087083816528,0.0,0.0,0.0,0.26627466082572937,0.47471240162849426,5.00351095199585,-48.19624710083008,0
366.72099999999955,-0.00013165106065571308,-0.00012997582962270826,-0.00014654888946097344,0.0,0.0,0.0,0.0,-0.00020543835125863552,-0.002320519182831049,0.0017972184577956796,1.0004208087921143,0.0,0.0,0.0,0.2652248740196228,0.4773428738117218,5.037478923797607,-48.006229400634766,0
376.64400000000023,-6.932666292414069e-05,-3.0458442779490724e-05,-0.00025472836568951607,0.0,0.0,0.0,0.0,-0.0009917450370267034,-0.005316414404660463,0.0059310272336006165,1.0023479461669922,0.0,0.0,0.0,0.26540902256965637,0.47964122891426086,5.034567832946777,-48.03955841064453,0
386.54399999999987,-2.478211172274314e-05,-8.530455670552328e-05,-0.0002538737317081541,0.0,0.0,0.0,0.0,0.00202669994905591,0.0002556561667006463,0.0006841606227681041,1.0004684925079346,0.0,0.0,0.0,0.2669318914413452,0.48188862204551697,5.036093711853027,-48.31520462036133,0
396.46099999999933,-3.388706318219192e-05,-6.0569938796106726e-05,-0.0002774086024146527,0.0,0.0,0.0,0.0,-0.00020373630104586482,0.0002299966727150604,0.0008921529515646398,0.9978190660476685,0.0,0.0,0.0,0.2667936384677887,0.4788385331630707,5.036465644836426,-48.29018020629883,0
406.375,-6.579826003871858e-05,-9.078536822926253e-05,-0.0002930150949396193,0.0,0.0,0.0,0.0,-0.0013229328906163573,0.0009204713860526681,0.0006752355257049203,0.9985637068748474,0.0,0.0,0.0,0.2668812870979309,0.48453524708747864,5.03149938583374,-48.30604553222656,0
416.28999999999905,-7.886368985055014e-05,-4.7283283493015915e-05,-0.0003172344295307994,0.0,0.0,0.0,0.0,-0.0005438958178274333,0.00020109268371015787,0.0017414945177733898,0.999622106552124,0.0,0.0,0.0,0.2669745981693268,0.4859497845172882,5.027080535888672,-48.322933197021484,0
426.1949999999997,-0.0001141906323027797,-7.632761844433844e-05,-0.00033580069430172443,0.0,0.0,0.0,0.0,0.002512563718482852,-0.0007583198603242636,0.0005855593481101096,1.0001126527786255,0.0,0.0,0.0,0.2671767473220825,0.49205994606018066,5.022820949554443,-48.35952377319336,0
436.10599999999977,-0.0001601135008968413,-0.00010156293137697503,-0.00033436756348237395,0.0,0.0,0.0,0.0,-0.0024634278379380703,0.0004280419379938394,-0.0008228664519265294,0.9994714856147766,0.0,0.0,0.0,0.2668765187263489,0.4887687563896179,5.021082878112793,-48.30517578125,0
446.02299999999923,-0.0002005478017963469,-0.00013159774243831635,-0.0003515930147841573,0.0,0.0,0.0,0.0,-0.0016032991698011756,7.155069033615291e-05,-0.0006717215874232352,1.0011709928512573,0.0,0.0,0.0,0.26711416244506836,0.4888068735599518,5.014432907104492,-48.34819030761719,0
455.9349999999995,-0.00024055884568952024,-0.00011128492042189464,-0.0003570947446860373,0.0,0.0,0.0,0.0,0.002416833769530058,-0.002075544558465481,-0.0012821246637031436,1.000250220298767,0.0,0.0,0.0,0.2668818235397339,0.4926616847515106,5.014343738555908,-48.3061408996582,0
465.84200000000055,-0.0002838743675965816,-0.00014044380804989487,-0.0003723621484823525,0.0,0.0,0.0,0.0,0.0014428056310862303,0.0013820987660437822,-0.00294805271551013,0.999031126499176,0.0,0.0,0.0,0.26571139693260193,0.48529624938964844,5.011542320251465,-48.09429168701172,0
475.7540000000008,-0.00032286648638546467,-0.00010575300257187337,-0.00038097065407782793,0.0,0.0,0.0,0.0,0.0016675215447321534,0.0007774317637085915,0.005699952132999897,0.9993609189987183,0.0,0.0,0.0,0.2650608420372009,0.4795752167701721,5.008811950683594,-47.976539611816406,0
485.6720000000005,-0.0003685250412672758,-0.00013306908658705652,-0.00039626279613003135,0.0,0.0,0.0,0.0,0.000472269399324432,-0.0008596101542934775,0.0033161018509417772,0.9988385438919067,0.0,0.0,0.0,0.2660152018070221,0.475130170583725,4.991832256317139,-48.1492805480957,0
495.58400000000074,-0.0004027628747280687,-9.569524991093203e-05,-0.0004191149491816759,0.0,0.0,0.0,0.0,0.0012392164207994938,-0.0013805724447593093,-0.0027092788368463516,0.9983949661254883,0.0,0.0,0.0,0.2665765583515167,0.474029004573822,4.988604545593262,-48.25088882446289,0
505.5010000000002,-0.00045083416625857353,-0.00012250285362824798,-0.00043703115079551935,0.0,0.0,0.0,0.0,0.001191907562315464,-0.00200447766110301,0.0007163765840232372,0.9984777569770813,0.0,0.0,0.0,0.26571279764175415,0.4722549021244049,4.987009525299072,-48.094547271728516,0
515.3970000000008,-0.0004889779957011342,-8.568045450374484e-05,-0.0004619687679223716,0.0,0.0,0.0,0.0,0.003214867552742362,0.001380552421323955,-0.003215333679690957,0.9987895488739014,0.0,0.0,0.0,0.26606056094169617,0.4674054980278015,4.980400085449219,-48.15748977661133,0
525.3130000000001,-0.0005420278757810593,-0.00011210135562578216,-0.0004833025159314275,0.0,0.0,0.0,0.0,0.003912491723895073,0.0013224813155829906,0.00037400852306745946,0.9986469149589539,0.0,0.0,0.0,0.2649269700050354,0.4606672525405884,4.980181694030762,-47.95231246948242,0
535.2199999999993,-0.0005744869122281671,-6.469125219155103e-05,-0.0005219919257797301,0.0,0.0,0.0,0.0,0.002617829479277134,0.002033836208283901,-0.00016115469043143094,0.9976277351379395,0.0,0.0,0.0,0.2655068039894104,0.45859941840171814,4.977619647979736,-48.0572624206543,0
545.1389999999992,-0.0006307809962891042,-8.913820784073323e-05,-0.0005472496850416064,0.0,0.0,0.0,0.0,0.001229775371029973,-0.003240057732909918,-0.0002681580954231322,0.9982460141181946,0.0,0.0,0.0,0.26566025614738464,0.4538094997406006,4.971459865570068,-48.08503341674805,0
555.0409999999993,-0.000656480377074331,-4.0145241655409336e-05,-0.0006010463694110513,0.0,0.0,0.0,0.0,-0.00460121501237154,-0.003501678816974163,0.0036841542460024357,1.000170350074768,0.0,0.0,0.0,0.2654257118701935,0.4520896077156067,4.969621181488037,-48.042579650878906,0
564.9670000000006,-0.0007139630615711212,-6.170396227389574e-05,-0.0006315286736935377,0.0,0.0,0.0,0.0,0.003494909731671214,0.0017676879651844501,-0.003975385334342718,1.0012824535369873,0.0,0.0,0.0,0.26653069257736206,0.4612848162651062,4.9614949226379395,-48.24258804321289,0
574.8760000000002,-0.0007490339921787381,-9.883364327833988e-06,-0.0006686607375741005,0.0,0.0,0.0,0.0,-0.00040538873872719705,-0.003572506597265601,-0.001670913421548903,0.9999679923057556,0.0,0.0,0.0,0.2658993899822235,0.45705172419548035,4.9556145668029785,-48.128318786621094,0
584.7849999999999,-0.0008090651244856417,-2.8388743885443546e-05,-0.0006982811028137803,0.0,0.0,0.0,0.0,0.001179079874418676,0.0009220416541211307,0.0011179260909557343,0.9984483122825623,0.0,0.0,0.0,0.2657870948314667,0.4517892599105835,4.949193477630615,-48.10799026489258,0
594.6859999999997,-0.0008459027740173042,3.0832085030851886e-05,-0.0007283233571797609,0.0,0.0,0.0,0.0,0.0024613761343061924,0.00023726318613626063,0.006065639201551676,0.9998752474784851,0.0,0.0,0.0,0.26585879921913147,0.4437533915042877,4.942523956298828,-48.1209716796875,0
604.6100000000006,-0.000908047310076654,1.5311290553654544e-05,-0.0007599683594889939,0.0,0.0,0.0,0.0,-0.0038327882066369057,-0.0023945309221744537,0.0005693784914910793,1.000696063041687,0.0,0.0,0.0,0.26765069365501404,0.4390311539173126,4.938892364501953,-48.445308685302734,0
614.5120000000006,-0.0009356936207041144,5.844421320944093e-05,-0.00081329804379493,0.0,0.0,0.0,0.0,0.003581342287361622,-0.0023627346381545067,0.0003203807573299855,1.0010656118392944,0.0,0.0,0.0,0.26833853125572205,0.44399768114089966,4.936575889587402,-48.5698127746582,0
624.4329999999991,-0.000998571515083313,4.492238804232329e-05,-0.0008464212878607213,0.0,0.0,0.0,0.0,-0.00034395523834973574,-0.001422167057171464,0.0029158545657992363,0.9982325434684753,0.0,0.0,0.0,0.2685818672180176,0.43692371249198914,4.938578128814697,-48.613853454589844,0
634.3340000000007,-0.0010292546357959509,9.42048427532427e-05,-0.0008951845811679959,0.0,0.0,0.0,0.0,0.0009149816469289362,4.396847725729458e-05,0.0005619299481622875,0.998973548412323,0.0,0.0,0.0,0.2695469856262207,0.44047847390174866,4.932523250579834,-48.78853988647461,0
644.2530000000006,-0.0010935845784842968,8.225475176004693e-05,-0.0009309084853157401,0.0,0.0,0.0,0.0,0.002889957744628191,-0.0012715916382148862,-0.00041353199048899114,1.0006537437438965,0.0,0.0,0.0,0.2691705822944641,0.44323450326919556,4.929653167724609,-48.72040939331055,0
654.1569999999992,-0.0011221047025173903,0.00012190345296403393,-0.0009869126370176673,0.0,0.0,0.0,0.0,0.002005530521273613,-0.003053409280255437,0.0009753453196026385,1.000758409500122,0.0,0.0,0.0,0.2696669101715088,0.4418126344680786,4.929168224334717,-48.810245513916016,0
664.0799999999999,-0.0011874628253281116,0.00010920611384790391,-0.0010243523865938187,0.0,0.0,0.0,0.0,0.004413168411701918,0.002421484561637044,0.0006445037433877587,1.0012153387069702,0.0,0.0,0.0,0.26902562379837036,0.44058147072792053,4.925975799560547,-48.69417190551758,0
673.9840000000004,-0.0011959257535636425,0.000200520662474446,-0.0010797949507832527,0.0,0.0,0.0,0.0,0.003365623066201806,-0.0018262936500832438,-0.00021920373546890914,1.000332236289978,0.0,0.0,0.0,0.27303510904312134,0.47623056173324585,4.938502788543701,-49.41989517211914,0
683.8960000000006,-0.0012618761975318193,0.00019534930470399559,-0.0011184100294485688,0.0,0.0,0.0,0.0,0.0006210890715010464,0.0012893516104668379,0.001811652211472392,0.9993404150009155,0.0,0.0,0.0,0.27276453375816345,0.47172027826309204,4.944870948791504,-49.37092208862305,0
693.8070000000007,-0.0012627433752641082,0.0002594100369606167,-0.0011956803500652313,0.0,0.0,0.0,0.0,0.003109632758423686,-0.00326399109326303,-8.08664844953455e-05,0.9982820153236389,0.0,0.0,0.0,0.2729872167110443,0.46804437041282654,4.938769817352295,-49.411231994628906,0
703.723,-0.0013271598145365715,0.00025776372058317065,-0.0012388179311528802,0.0,0.0,0.0,0.0,0.001622450421564281,-0.0019375394331291318,-0.0031488111708313227,0.9993230104446411,0.0,0.0,0.0,0.27364274859428406,0.4619409739971161,4.94119930267334,-49.52988052368164,0
713.625,-0.0013525804970413446,0.0002807476557791233,-0.0013191713951528072,0.0,0.0,0.0,0.0,0.0030478290282189846,-0.004638459533452988,0.002713324036449194,0.9981712102890015,0.0,0.0,0.0,0.2731828987598419,0.45734938979148865,4.935023784637451,-49.446651458740234,0
723.5450000000001,-0.0014200337463989854,0.0002779552014544606,-0.0013678530231118202,0.0,0.0,0.0,0.0,-0.004769271705299616,-0.00024082366144284606,0.0031425077468156815,0.9990829229354858,0.0,0.0,0.0,0.2733762264251709,0.4540320336818695,4.936275482177734,-49.48164367675781,0
733.4490000000005,-0.0014140207786113024,0.00030138829606585205,-0.0014803444501012564,0.0,0.0,0.0,0.0,-0.0007142221438698471,-0.003915027715265751,-0.0034811547957360744,0.999466598033905,0.0,0.0,0.0,0.27358853816986084,0.45795491337776184,4.937243938446045,-49.52006912231445,0
743.3690000000006,-0.0014840527437627316,0.00029755214927718043,-0.0015370557084679604,0.0,0.0,0.0,0.0,-0.0005006141145713627,-0.0013153941836208105,0.00019458604219835252,0.9987692832946777,0.0,0.0,0.0,0.27202850580215454,0.4594893753528595,4.941181182861328,-49.23770523071289,0
753.2729999999992,-0.0014563052682206035,0.00036171649117022753,-0.0016551553271710873,0.0,0.0,0.0,0.0,0.0008879957604222,0.001244970946572721,0.0035674157552421093,0.9985044598579407,0.0,0.0,0.0,0.2725253403186798,0.45937612652778625,4.934934616088867,-49.32762908935547,0
763.1939999999995,-0.0015264460816979408,0.0003614560409914702,-0.0017201289301738143,0.0,0.0,0.0,0.0,0.0002858410880435258,0.005227845627814531,0.001672308542765677,1.0010517835617065,0.0,0.0,0.0,0.2743774354457855,0.46158722043037415,4.939723014831543,-49.66285705566406,0
773.0959999999995,-0.001563041121698916,0.0004248538170941174,-0.0018008553888648748,0.0,0.0,0.0,0.0,-0.0012978147715330124,0.006537357810884714,0.002782037714496255,1.0008524656295776,0.0,0.0,0.0,0.2748914361000061,0.4611256420612335,4.914388179779053,-49.755897521972656,0
783.0110000000004,-0.0016361239831894636,0.000426900340244174,-0.0018679681234061718,0.0,0.0,0.0,0.0,-0.00034250327735207975,0.0024481802247464657,0.0016828038496896625,0.9984906911849976,0.0,0.0,0.0,0.274629145860672,0.4624495506286621,4.895810127258301,-49.70841979980469,0
792.9179999999997,-0.001731758238747716,0.00043943090713582933,-0.001934835221618414,0.0,0.0,0.0,0.0,0.0002576235856395215,-0.00016982662782538682,0.0013216097140684724,0.9959909319877625,0.0,0.0,0.0,0.2751467525959015,0.4662342369556427,4.88364315032959,-49.80210494995117,0
802.8359999999993,-0.0018103469628840685,0.0004390602698549628,-0.002002713270485401,0.0,0.0,0.0,0.0,0.0034419705625623465,0.006878252606838942,0.0014010658487677574,0.9992005228996277,0.0,0.0,0.0,0.2759721875190735,0.46599140763282776,4.882505416870117,-49.951515197753906,0
812.741,-0.001896651927381754,0.0005038591334596276,-0.002062814775854349,0.0,0.0,0.0,0.0,0.0020600121933966875,0.0005783451488241553,0.0016683406429365277,1.0008445978164673,0.0,0.0,0.0,0.2757829427719116,0.45586755871772766,4.8624958992004395,-49.91726303100586,0
822.6540000000005,-0.0019815952982753515,0.000506056472659111,-0.0021332385949790478,0.0,0.0,0.0,0.0,0.0014177485136315227,-0.007845495827496052,0.005293632857501507,1.0032706260681152,0.0,0.0,0.0,0.27606773376464844,0.45212626457214355,4.851319789886475,-49.96881103515625,0
832.5640000000003,-0.0020688886288553476,0.0005526388995349407,-0.00220276671461761,0.0,0.0,0.0,0.0,-0.0007769697112962604,0.0005259179160930216,-0.0016093383310362697,1.0011320114135742,0.0,0.0,0.0,0.27625101804733276,0.4527401328086853,4.849050045013428,-50.001983642578125,0
842.4779999999992,-0.002158703049644828,0.0005550385103560984,-0.0022692070342600346,0.0,0.0,0.0,0.0,-0.00018704238755162805,0.0008231505053117871,-0.0025073178112506866,0.9991257190704346,0.0,0.0,0.0,0.27604591846466064,0.45161953568458557,4.845303058624268,-49.96486282348633,0
852.3889999999992,-0.0022605042904615402,0.0005796625046059489,-0.002343665109947324,0.0,0.0,0.0,0.0,0.0015440585557371378,-0.0007838888559490442,0.0025945466477423906,0.9984048008918762,0.0,0.0,0.0,0.2756819725036621,0.4550584554672241,4.855452060699463,-49.898983001708984,0
862.2999999999993,-0.0023524784483015537,0.0005814312607981265,-0.0024100961163640022,0.0,0.0,0.0,0.0,0.004641737323254347,-0.0026882376987487078,-0.0015559858875349164,1.0004899501800537,0.0,0.0,0.0,0.275520384311676,0.4537559151649475,4.842772960662842,-49.8697395324707,0
872.2109999999993,-0.002465134719386697,0.0006130703841336071,-0.0024745657574385405,0.0,0.0,0.0,0.0,-2.4685035896254703e-05,0.003036094130948186,0.002281169407069683,0.998591423034668,0.0,0.0,0.0,0.27571994066238403,0.449372798204422,4.838110446929932,-49.905860900878906,0
882.1219999999994,-0.0025593894533813,0.00061180186457932,-0.00254116952419281,0.0,0.0,0.0,0.0,-0.0002545215538702905,0.0039798724465072155,0.0016235457733273506,0.9978517889976501,0.0,0.0,0.0,0.27716368436813354,0.44813454151153564,4.831753253936768,-50.16717529296875,0
892.0329999999994,-0.0026644922327250242,0.0006438695709221065,-0.0026104487478733063,0.0,0.0,0.0,0.0,0.0021953661926090717,-0.0012798509560525417,5.468280869536102e-05,1.0011119842529297,0.0,0.0,0.0,0.2770918905735016,0.44187647104263306,4.825457572937012,-50.1541862487793,0
901.9449999999997,-9.386878809891641e-05,-0.000178978662006557,-0.00021620048210024834,0.0,0.0,0.0,0.0,-0.0010837967274710536,0.0027250091079622507,-0.0009214106830768287,1.0001379251480103,0.0,0.0,0.0,0.2762562930583954,0.3722018301486969,5.056178569793701,-50.0029411315918,0
911.857,-0.00015303067630156875,-0.00022978706692811102,-0.0001762635074555874,0.0,0.0,0.0,0.0,0.000741483410820365,-0.004375476855784655,0.001252391841262579,0.9985787272453308,0.0,0.0,0.0,0.27679890394210815,0.3733471930027008,5.047396659851074,-50.10115051269531,0
921.768,-0.00018463906599208713,-0.0002523487783037126,-0.0001836182491388172,0.0,0.0,0.0,0.0,0.0023956724908202887,0.006222966127097607,-0.0017370750429108739,1.0012497901916504,0.0,0.0,0.0,0.27666333317756653,0.3682105243206024,5.041660785675049,-50.07661437988281,0
931.6810000000005,-6.816562381573021e-05,-0.00020147352188359946,-0.00013319452409632504,0.0,0.0,0.0,0.0,-0.003274885704740882,-0.005750622600317001,-0.0009276397759094834,1.0010744333267212,0.0,0.0,0.0,0.2693622410297394,0.37612417340278625,5.035068988800049,-48.755096435546875,0
941.5920000000006,-9.851023787632585e-05,-0.00022525661916006356,-0.00013695721281692386,0.0,0.0,0.0,0.0,4.2145671613980085e-05,0.00039018181269057095,0.00206714472733438,0.9994488954544067,0.0,0.0,0.0,0.2693847417831421,0.3771560788154602,5.02630615234375,-48.75917434692383,0
951.5079999999998,-0.00010166116408072412,-0.00019150921434629709,-0.0001600051618879661,0.0,0.0,0.0,0.0,-0.0009113068226724863,0.0022877126466482878,-0.002580048283562064,0.9976264238357544,0.0,0.0,0.0,0.2688155472278595,0.38120073080062866,5.0254902839660645,-48.65614700317383,0
961.4140000000007,-0.00013378068979363889,-0.00021461903816089034,-0.0001649581390665844,0.0,0.0,0.0,0.0,0.0016356915002688766,0.008137493394315243,-8.671712566865608e-05,1.0011682510375977,0.0,0.0,0.0,0.26874107122421265,0.3736642003059387,5.015675067901611,-48.642669677734375,0
971.3259999999991,-0.00014557476970367134,-0.00016397256695199758,-0.0001757095305947587,0.0,0.0,0.0,0.0,-0.002727481536567211,-0.0029369578696787357,-0.00036656775046139956,1.000496506690979,0.0,0.0,0.0,0.26804864406585693,0.37307435274124146,4.9995951652526855,-48.51734161376953,0
981.2399999999998,-0.0001769252703525126,-0.00018653407460078597,-0.00018133306002710015,0.0,0.0,0.0,0.0,0.0022979192435741425,-0.0005936921224929392,0.002428300678730011,0.9999135732650757,0.0,0.0,0.0,0.2676078677177429,0.37267082929611206,4.992276668548584,-48.43755340576172,0
991.1509999999998,-6.49479407002218e-05,-0.0001773789554135874,-0.00011341927165631205,0.0,0.0,0.0,0.0,-0.000919744314160198,0.001835750648751855,-0.0034035048447549343,0.9995996356010437,0.0,0.0,0.0,0.26837408542633057,0.36813753843307495,4.987385272979736,-48.57624816894531,0
1001.0609999999997,-9.375071385875344e-05,-0.00019986869301646948,-0.00011345652455929667,0.0,0.0,0.0,0.0,0.0023170344065874815,0.00389830837957561,-0.0023427726700901985,1.000313401222229,0.0,0.0,0.0,0.26717838644981384,0.3686448037624359,4.996455669403076,-48.35981750488281,0
1010.973,-0.00010186697181779891,-0.00016734414384700358,-0.00012350169708952308,0.0,0.0,0.0,0.0,-0.006015843711793423,-0.002183341421186924,-0.0028993403539061546,1.0026564598083496,0.0,0.0,0.0,0.2670201063156128,0.36621126532554626,4.984656810760498,-48.3311653137207,0
1020.884,-0.00013399054296314716,-0.00019439059542492032,-0.00012316310312598944,0.0,0.0,0.0,0.0,-0.0013870056718587875,-0.000583628483582288,0.002468022983521223,1.0002003908157349,0.0,0.0,0.0,0.26759207248687744,0.3718695044517517,4.975781440734863,-48.43470001220703,0
1030.7960000000003,-0.00016879758914001286,-0.00017493603809271008,-9.467497875448316e-05,0.0,0.0,0.0,0.0,-0.0038739771116524935,0.0001568036386743188,-0.0007626438746228814,1.0005266666412354,0.0,0.0,0.0,0.2669488191604614,0.37777724862098694,4.976379871368408,-48.31826400756836,0
1040.7099999999991,-0.00020334566943347454,-0.00014232539979275316,-6.91466557327658e-05,0.0,0.0,0.0,0.0,0.00046045309863984585,0.003473421558737755,0.004045134875923395,0.998451828956604,0.0,0.0,0.0,0.26659682393074036,0.38313138484954834,4.969814300537109,-48.254554748535156,0
1050.6190000000006,-0.000245456350967288,-0.00017163723532576114,-6.218804628588259e-05,0.0,0.0,0.0,0.0,-4.926132896798663e-05,0.0003126102383248508,0.0022390740923583508,0.9995028972625732,0.0,0.0,0.0,0.2669454514980316,0.3845779597759247,4.965071201324463,-48.317657470703125,0
1060.5370000000003,-0.00027750583831220865,-0.0001354682754026726,-5.767100810771808e-05,0.0,0.0,0.0,0.0,-0.0016217852244153619,-0.0038882028311491013,0.0017708088271319866,1.001094102859497,0.0,0.0,0.0,0.26761695742607117,0.3824671506881714,4.968407154083252,-48.43920135498047,0
1070.4449999999997,-0.00031878839945420623,-0.00016462696657981724,-5.2799958211835474e-05,0.0,0.0,0.0,0.0,0.0004023926449008286,-3.1920767469273414e-06,0.0005832331953570247,1.001663088798523,0.0,0.0,0.0,0.2668282389640808,0.3783741295337677,4.964263916015625,-48.296443939208984,0
1080.3580000000002,-0.0003441846929490566,-0.00012052058445988223,-6.387056782841682e-05,0.0,0.0,0.0,0.0,0.00011871568131027743,-0.00224510976113379,0.0012610743287950754,1.0013569593429565,0.0,0.0,0.0,0.2675221264362335,0.38286662101745605,4.963161468505859,-48.42203903198242,0
1090.2710000000006,-0.00010604885028442368,-0.00026166782481595874,0.00012124508066335693,0.0,0.0,0.0,0.0,-0.002164839766919613,-0.0024237160105258226,0.002941098529845476,1.0011529922485352,0.0,0.0,0.0,0.27494245767593384,0.3629663586616516,5.035961627960205,-49.76512908935547,0
1100.1779999999999,-2.1857598767383024e-05,-0.0001010849664453417,3.734554775292054e-05,0.0,0.0,0.0,0.0,0.0037436969578266144,-0.00102111732121557,0.008021450601518154,1.0011072158813477,0.0,0.0,0.0,0.27512916922569275,0.36611536145210266,5.034450054168701,-49.798927307128906,0
1110.089,-4.543608520179987e-05,-0.00013124897668603808,4.855547012994066e-05,0.0,0.0,0.0,0.0,-0.0026798227336257696,-5.5045060435077175e-05,0.0010406728833913803,0.9985821843147278,0.0,0.0,0.0,0.276335209608078,0.3613657057285309,5.023229122161865,-50.01722717285156,0
1120.0020000000004,-2.461396434227936e-05,-0.00010309126082574949,-9.920928278006613e-06,0.0,0.0,0.0,0.0,0.0010016885353252292,0.00020127107563894242,-5.434804916149005e-05,0.9990925192832947,0.0,0.0,0.0,0.275439977645874,0.3576894998550415,5.01654577255249,-49.855186462402344,0
1129.9120000000003,-5.039790994487703e-05,-0.00013454904546961188,-4.477406037040055e-06,0.0,0.0,0.0,0.0,0.002627817215397954,0.0029832778964191675,0.002873219782486558,0.9999470114707947,0.0,0.0,0.0,0.2743872404098511,0.3567747175693512,5.007516860961914,-49.66463851928711,0
1139.8320000000003,-4.218901085550897e-05,-6.951774412300438e-05,-5.391937156673521e-05,0.0,0.0,0.0,0.0,0.005107283592224121,0.00044633247307501733,0.0015345506835728884,1.0000768899917603,0.0,0.0,0.0,0.2746235728263855,0.3520495891571045,5.000237464904785,-49.70741653442383,0
1149.7350000000006,-7.24997153156437e-05,-0.00010200093674939126,-5.3603886044584215e-05,0.0,0.0,0.0,0.0,0.00020964615396223962,0.0025094482116401196,0.0022371006198227406,0.9992868304252625,0.0,0.0,0.0,0.2754765748977661,0.3472403287887573,4.991081714630127,-49.8618049621582,0
1159.652,-7.939134957268834e-05,-8.677635923959315e-05,-0.00010616557847242802,0.0,0.0,0.0,0.0,0.0020160702988505363,-0.0014311415143311024,0.0014173011295497417,0.999778687953949,0.0,0.0,0.0,0.2751976251602173,0.34466132521629333,4.984090805053711,-49.81131362915039,0
1169.557999999999,-0.00011132638610433787,-0.00011945768346777186,-0.00010975867917295545,0.0,0.0,0.0,0.0,-0.0013450838159769773,0.0009717221255414188,-8.962152060121298e-05,1.000533938407898,0.0,0.0,0.0,0.2745477557182312,0.3365095555782318,4.982562065124512,-49.693687438964844,0
1179.4709999999995,-0.00010226256563328207,-3.483447653707117e-05,-0.00018819155229721218,0.0,0.0,0.0,0.0,-0.0009646097314544022,0.0025294721126556396,0.0009085038909688592,0.9999183416366577,0.0,0.0,0.0,0.2747282385826111,0.37465700507164,5.002679347991943,-49.72635269165039,0
1189.3809999999994,-0.00013295267126522958,-6.38754281681031e-05,-0.0001971871970454231,0.0,0.0,0.0,0.0,-0.002302507869899273,-0.002510395832359791,6.996582669671625e-05,0.9998462796211243,0.0,0.0,0.0,0.27585065364837646,0.37488049268722534,4.997448444366455,-49.92951965332031,0
1199.2929999999997,-0.00014537808601744473,-6.37159901089035e-05,-0.0002463153505232185,0.0,0.0,0.0,0.0,0.0021860417909920216,0.0032281631138175726,0.001204555737785995,0.9997032880783081,0.0,0.0,0.0,0.2762831449508667,0.3704437017440796,5.002348899841309,-50.0078010559082,0
1209.205,-0.00017681712051853538,-9.191710705636069e-05,-0.000258916086750105,0.0,0.0,0.0,0.0,0.0007288142805919051,0.0017145875608548522,-0.00025575864128768444,1.0004054307937622,0.0,0.0,0.0,0.27561333775520325,0.36743947863578796,4.994588851928711,-49.88656234741211,0
1219.1209999999992,-0.00019327101472299546,-7.54912689444609e-05,-0.0002968431217595935,0.0,0.0,0.0,0.0,0.0016360667068511248,0.0007290199282579124,0.003198683261871338,0.9988274574279785,0.0,0.0,0.0,0.27417629957199097,0.365365207195282,4.983851909637451,-49.62645721435547,0
1229.027,-0.00022686345619149506,-0.00010236146044917405,-0.0003116797306574881,0.0,0.0,0.0,0.0,0.001346325152553618,-0.0034902181942015886,-0.004496971145272255,0.9975674748420715,0.0,0.0,0.0,0.2754640281200409,0.36240220069885254,4.98069429397583,-49.859535217285156,0
1238.9400000000005,-0.00025556216132827103,-8.209825318772346e-05,-0.0003255376941524446,0.0,0.0,0.0,0.0,0.00208155601285398,-0.0006033848039805889,-0.001686094794422388,0.998573362827301,0.0,0.0,0.0,0.2747028172016144,0.3578347861766815,4.982336521148682,-49.72175216674805,0
1248.8590000000004,-0.0002929682668764144,-0.0001105694827856496,-0.0003432128287386149,0.0,0.0,0.0,0.0,0.0005008425796404481,0.0014831855660304427,0.0011319277109578252,1.0016369819641113,0.0,0.0,0.0,0.2748951017856598,0.35766956210136414,4.986278057098389,-49.756561279296875,0
1258.7620000000006,-0.00034964692895300686,-9.161180059891194e-05,-0.00031202647369354963,0.0,0.0,0.0,0.0,0.0028865477070212364,-0.001481883809901774,-0.00037275906652212143,1.0005513429641724,0.0,0.0,0.0,0.2747568190097809,0.35427480936050415,4.984831809997559,-49.731529235839844,0
1268.6810000000005,-0.0003931389655917883,-0.00012111917021684349,-0.00032556752557866275,0.0,0.0,0.0,0.0,0.00045569177018478513,9.430402133148164e-05,0.0035906031262129545,1.0008583068847656,0.0,0.0,0.0,0.27597731351852417,0.3502151072025299,4.975529670715332,-49.95244216918945,0
1278.5849999999991,-0.000414306006859988,-9.177350148092955e-05,-0.000354172894731164,0.0,0.0,0.0,0.0,-0.0013972473097965121,0.0019852903205901384,-0.001800992526113987,1.0009453296661377,0.0,0.0,0.0,0.2770153284072876,0.3427281677722931,4.968381404876709,-50.140323638916016,0
1288.4969999999994,-0.0004610907635651529,-0.00011856062337756157,-0.00036772253224626184,0.0,0.0,0.0,0.0,-0.000998011790215969,0.0006828296463936567,0.000682682846672833,0.9989257454872131,0.0,0.0,0.0,0.27668213844299316,0.348275363445282,4.961546897888184,-50.08001708984375,0
1298.4079999999994,-0.0004780621384270489,-8.376369078177959e-05,-0.0004018613544758409,0.0,0.0,0.0,0.0,0.0018298006616532803,-0.0007921588257886469,0.001627912512049079,0.9993826150894165,0.0,0.0,0.0,0.2756158709526062,0.34580084681510925,4.958357810974121,-49.887020111083984,0
1308.3199999999997,-0.0005251691327430308,-0.00010912580910371616,-0.0004177890077698976,0.0,0.0,0.0,0.0,0.0028652495238929987,0.002039889572188258,0.003933322615921497,0.9997759461402893,0.0,0.0,0.0,0.2756952941417694,0.33660629391670227,4.959429740905762,-49.901397705078125,0
1318.2309999999998,-0.0005337867769412696,-6.874994869576767e-05,-0.0004596379876602441,0.0,0.0,0.0,0.0,0.00013271592615637928,-0.0018619885668158531,0.0008667245274409652,1.0011062622070312,0.0,0.0,0.0,0.2760950028896332,0.3385700285434723,4.951847553253174,-49.97374725341797,0
1328.1440000000002,-0.0005818469217047095,-9.143588249571621e-05,-0.00047853702562861145,0.0,0.0,0.0,0.0,-0.002216195221990347,0.004111726302653551,-0.0008042647386901081,1.0003231763839722,0.0,0.0,0.0,0.2759987413883209,0.33532220125198364,4.943542957305908,-49.95631790161133,0
1338.0640000000003,-0.0005922353593632579,-5.0161157560069114e-05,-0.0005197182763367891,0.0,0.0,0.0,0.0,-0.0005711455014534295,0.004346848931163549,0.0005320832133293152,1.0008957386016846,0.0,0.0,0.0,0.2694181501865387,0.367177277803421,4.956667423248291,-48.765220642089844,0
1347.9660000000003,-0.000641450984403491,-7.027264655334875e-05,-0.0005397688946686685,0.0,0.0,0.0,0.0,0.0017921196995303035,0.0036019596736878157,0.0010231875348836184,0.9984884262084961,0.0,0.0,0.0,0.2692473530769348,0.36697670817375183,4.941412448883057,-48.73430633544922,0
1357.8780000000006,-0.0006247591227293015,7.9709434430697e-06,-0.0005959980189800262,0.0,0.0,0.0,0.0,0.0005515145603567362,0.0015802890993654728,0.00033422085107304156,1.0022916793823242,0.0,0.0,0.0,0.2711077332496643,0.4046337902545929,4.957767009735107,-49.071041107177734,0
1367.789999999999,-0.0006709796143695712,-5.48005300515797e-06,-0.0006202652584761381,0.0,0.0,0.0,0.0,0.00032165073207579553,0.0020417345222085714,-0.002400415251031518,0.9989628791809082,0.0,0.0,0.0,0.2716149091720581,0.4087449908256531,4.954624176025391,-49.162837982177734,0
1377.7060000000001,-0.000678566109854728,8.15825624158606e-05,-0.0006547560915350914,0.0,0.0,0.0,0.0,0.0026895632036030293,-0.003198393154889345,0.002848417265340686,1.0002623796463013,0.0,0.0,0.0,0.27357959747314453,0.448981910943985,4.968477249145508,-49.51845169067383,0
1387.6129999999994,-0.0007213294738903642,7.574693154310808e-05,-0.0006803727010264993,0.0,0.0,0.0,0.0,-0.0011935243383049965,0.0033249263651669025,0.0008136874530464411,0.9998619556427002,0.0,0.0,0.0,0.2742604613304138,0.445499062538147,4.968444347381592,-49.641685485839844,0
1397.5280000000002,-0.0007289990317076445,0.0001432856370229274,-0.0007193884230218828,0.0,0.0,0.0,0.0,0.0010100762592628598,0.0020781217608600855,0.00232896045781672,1.0004416704177856,0.0,0.0,0.0,0.2747957110404968,0.44513192772865295,4.957860946655273,-49.73856735229492,0
1407.438,-0.000770539918448776,0.00013906799722462893,-0.0007473687874153256,0.0,0.0,0.0,0.0,-0.0027559148147702217,0.002293124794960022,-0.0040189363062381744,1.0012822151184082,0.0,0.0,0.0,0.27555570006370544,0.44242244958877563,4.943659782409668,-49.876129150390625,0
1417.357,-0.0007780633750371635,0.00017839056090451777,-0.0007993577164597809,0.0,0.0,0.0,0.0,-0.0007712939404882491,0.0010340107837691903,0.0026451030280441046,0.9996272921562195,0.0,0.0,0.0,0.2741522490978241,0.44491255283355713,4.930234432220459,-49.622100830078125,0
1427.2610000000004,-0.0008225385099649429,0.00017582775035407394,-0.0008293282007798553,0.0,0.0,0.0,0.0,0.0021365543361753225,-0.0009939937153831124,-0.0021603067871183157,0.9990506172180176,0.0,0.0,0.0,0.2738794684410095,0.4479587972164154,4.9217681884765625,-49.572731018066406,0
1437.1839999999993,-0.00083554582670331,0.00022136172628961504,-0.0008793111192062497,0.0,0.0,0.0,0.0,7.849185931263492e-05,-0.001447787624783814,0.00235378579236567,1.001088261604309,0.0,0.0,0.0,0.27453023195266724,0.443166583776474,4.93210506439209,-49.69051742553711,0
1447.0830000000005,-0.0008823886746540666,0.00021846542949788272,-0.0009121131733991206,0.0,0.0,0.0,0.0,0.0024878273252397776,0.001276011927984655,0.001106882351450622,1.000954031944275,0.0,0.0,0.0,0.2739705443382263,0.4439671039581299,4.921529293060303,-49.589210510253906,0
1457.0030000000006,-0.0009000867139548063,0.0002124626626027748,-0.0009836340323090553,0.0,0.0,0.0,0.0,0.0018809543689712882,-0.0007699155248701572,0.0020610145293176174,0.9986348748207092,0.0,0.0,0.0,0.27481356263160706,0.43837979435920715,4.91399621963501,-49.741798400878906,0
1466.9060000000009,-0.0009499812149442732,0.00020822374790441245,-0.0010193464113399386,0.0,0.0,0.0,0.0,0.00164554372895509,-0.0037395344115793705,0.0031011239625513554,1.0007823705673218,0.0,0.0,0.0,0.27573084831237793,0.4381107687950134,4.9161834716796875,-49.907833099365234,0
1476.825999999999,-0.000971851812209934,0.00021543414914049208,-0.0010864987270906568,0.0,0.0,0.0,0.0,-0.0034336429089307785,0.0004960267106071115,-0.0010709272464737296,0.9988604187965393,0.0,0.0,0.0,0.2762279212474823,0.4431349039077759,4.914271354675293,-49.997802734375,0
1486.7289999999994,-0.0010249048937112093,0.00021126434148754925,-0.0011252823751419783,0.0,0.0,0.0,0.0,0.0019122534431517124,0.0014543532161042094,-0.0009042866877280176,0.9983036518096924,0.0,0.0,0.0,0.27509936690330505,0.43908002972602844,4.908512115478516,-49.79353332519531,0
1496.6530000000002,-0.0011053805937990546,0.0002312681608600542,-0.0011576658580452204,0.0,0.0,0.0,0.0,0.0027212221175432205,-0.0031911549158394337,0.00042594617116265,0.9990749359130859,0.0,0.0,0.0,0.27455657720565796,0.4330175518989563,4.902682304382324,-49.695281982421875,0
1506.5550000000003,3.4812871945177903e-06,-8.21883586468175e-05,-8.039902604650706e-05,0.0,0.0,0.0,0.0,-0.00014011132589075714,0.0016610563034191728,-0.0008857740904204547,0.9996326565742493,0.0,0.0,0.0,0.2743314802646637,0.4025736153125763,5.039689540863037,-49.654544830322266,0
1516.4670000000006,-1.727344533719588e-05,-9.467631025472656e-05,-9.647671686252579e-05,0.0,0.0,0.0,0.0,1.1553818694665097e-05,0.0025137721095234156,0.0019926445093005896,0.9996097087860107,0.0,0.0,0.0,0.2745200991630554,0.40149226784706116,5.025722980499268,-49.688682556152344,0
1526.3780000000006,-4.396001168061048e-05,-0.00010845537326531485,-0.00010548999853199348,0.0,0.0,0.0,0.0,0.002393282251432538,-0.0013456054730340838,0.0005158272106200457,0.9990266561508179,0.0,0.0,0.0,0.27440786361694336,0.39467310905456543,5.01634407043457,-49.668365478515625,0
1536.3019999999997,-5.1116283430019394e-05,-9.700265218270943e-05,-0.00015195996093098074,0.0,0.0,0.0,0.0,-0.0028954565059393644,0.003123839385807514,0.0010408519301563501,1.0011069774627686,0.0,0.0,0.0,0.2742941379547119,0.3991619348526001,5.0174880027771,-49.64778518676758,0
1546.1990000000005,-7.945064135128632e-05,-0.00011395395267754793,-0.00016443974163848907,0.0,0.0,0.0,0.0,0.0025350404903292656,0.0033446860034018755,-0.0020671417005360126,0.9998981356620789,0.0,0.0,0.0,0.27499547600746155,0.4007904529571533,5.010228157043457,-49.77472686767578,0
1556.1229999999996,-7.195995567599311e-05,-3.334914435981773e-05,-0.00024573685368523,0.0,0.0,0.0,0.0,-7.779389125062153e-05,0.0026486413553357124,-0.0004375076969154179,0.9984339475631714,0.0,0.0,0.0,0.2752584218978882,0.4006825089454651,5.00874137878418,-49.822322845458984,0
1566.0220000000008,-4.849196193390526e-05,-3.387060860404745e-05,-0.00021288523566909134,0.0,0.0,0.0,0.0,-0.0035810982808470726,-0.002927276073023677,-0.003321934025734663,0.9990119338035583,0.0,0.0,0.0,0.27428197860717773,0.39958322048187256,4.989287853240967,-49.64558029174805,0
1575.946,-5.3542040404863656e-05,2.770145783870248e-07,-0.00024610309628769755,0.0,0.0,0.0,0.0,4.481785072130151e-05,-0.004724911879748106,0.0002298855979461223,0.9989433884620667,0.0,0.0,0.0,0.2742796242237091,0.40326857566833496,4.993417263031006,-49.64515686035156,0
1585.8439999999991,-8.641786553198472e-05,-2.050768307526596e-05,-0.0002637483412399888,0.0,0.0,0.0,0.0,0.0020927381701767445,0.0002980735735036433,0.0014101768610998988,1.0000386238098145,0.0,0.0,0.0,0.2738063931465149,0.4069909155368805,4.9909844398498535,-49.55950164794922,0
1595.7659999999996,-0.0001293237874051556,-4.8182169848587364e-05,-0.0002668341330718249,0.0,0.0,0.0,0.0,-0.0032651869114488363,-0.001543595688417554,-0.0031089403200894594,0.9986882209777832,0.0,0.0,0.0,0.26766297221183777,0.4057299494743347,4.987528324127197,-48.44752883911133,0
1605.6710000000003,-0.00016763791791163385,-7.365293276961893e-05,-0.0002843576075974852,0.0,0.0,0.0,0.0,0.00028330759960226715,0.0023074918426573277,0.00320686143822968,0.9977265000343323,0.0,0.0,0.0,0.26733264327049255,0.40726423263549805,4.977718353271484,-48.38774108886719,0
1615.5859999999993,-0.00020770465198438615,-7.600445678690448e-05,-0.0002955520467367023,0.0,0.0,0.0,0.0,-0.002309282310307026,-0.002101223450154066,0.0016767291817814112,0.9970423579216003,0.0,0.0,0.0,0.26702889800071716,0.40933939814567566,4.967598915100098,-48.332763671875,0
1625.4930000000004,-0.0002506291784811765,-0.00010524322715355083,-0.0003163053188472986,0.0,0.0,0.0,0.0,-7.523268141085282e-05,-0.0022442806512117386,-0.00042221613693982363,0.998305082321167,0.0,0.0,0.0,0.2682061493396759,0.4061211943626404,4.970989227294922,-48.54584884643555,0
1635.414999999999,-0.00028605051920749247,-8.512431668350473e-05,-0.0003478401922620833,0.0,0.0,0.0,0.0,0.001271666376851499,0.003992106299847364,0.0037815955001860857,1.0008944272994995,0.0,0.0,0.0,0.26867854595184326,0.40188920497894287,4.968762397766113,-48.631351470947266,0
1645.3150000000005,-0.00033133086981251836,-0.00011788593110395595,-0.0003727294970303774,0.0,0.0,0.0,0.0,0.0008044912246987224,-0.0018133145058527589,0.002137822099030018,1.000714898109436,0.0,0.0,0.0,0.2689424753189087,0.4029161334037781,4.962517738342285,-48.67912673950195,0
1655.2309999999998,-0.0003644167154561728,-9.472735109739006e-05,-0.0004192263586446643,0.0,0.0,0.0,0.0,-0.0008765440434217453,-0.002390695735812187,-0.0016890645492821932,1.0000536441802979,0.0,0.0,0.0,0.2621113657951355,0.4206627607345581,4.966306686401367,-47.44268035888672,0
1665.1370000000006,-0.0004117073258385062,-0.00012960935418959707,-0.0004450375563465059,0.0,0.0,0.0,0.0,0.00010507824481464922,-0.0020695962011814117,-0.0017493919003754854,0.9965178370475769,0.0,0.0,0.0,0.2617153823375702,0.4207105338573456,4.967996120452881,-47.371002197265625,0
1675.0570000000007,-0.0004365243366919458,-8.066034934017807e-05,-0.0005141174769960344,0.0,0.0,0.0,0.0,0.00331687368452549,0.0006525082280859351,0.0012190135894343257,0.9974780678749084,0.0,0.0,0.0,0.2614234983921051,0.4193136692047119,4.963574409484863,-47.31817626953125,0
1684.9609999999993,-0.00048573620733805,-0.0001136431674240157,-0.0005468213930726051,0.0,0.0,0.0,0.0,0.0008587946649640799,0.000998847302980721,0.0019378690049052238,0.999717652797699,0.0,0.0,0.0,0.2616105377674103,0.40884748101234436,4.9647932052612305,-47.352027893066406,0
1694.8809999999994,-0.0005069501348771155,-1.0477290743438061e-05,-0.0006075719720683992,0.0,0.0,0.0,0.0,0.00016645769937895238,-0.0075372373685240746,0.0033481966238468885,0.9991888403892517,0.0,0.0,0.0,0.2618158459663391,0.44526129961013794,4.975189685821533,-47.38918685913086,0
1704.7829999999994,-0.0005567152984440327,-3.955122156185098e-05,-0.0006450731307268143,0.0,0.0,0.0,0.0,0.00019983024685643613,0.0010017618769779801,0.0019420754397287965,0.999893844127655,0.0,0.0,0.0,0.26227283477783203,0.4429933726787567,4.984119892120361,-47.47190856933594,0
1714.7039999999997,-0.0005913362256251276,5.948999842075864e-06,-0.000707383151166141,0.0,0.0,0.0,0.0,-0.0028756228275597095,-2.7899501219508238e-05,-0.002219270681962371,0.9995056986808777,0.0,0.0,0.0,0.26155269145965576,0.4413919448852539,4.974194049835205,-47.341556549072266,0
1724.6100000000006,-0.0006443182355724275,-2.1123953047208488e-05,-0.0007474909070879221,0.0,0.0,0.0,0.0,0.00013882218627259135,0.0010636723600327969,0.0005616231355816126,0.9972513914108276,0.0,0.0,0.0,0.26104164123535156,0.44804421067237854,4.965950965881348,-47.24905776977539,0
1734.5300000000007,-0.0006976763834245503,2.4042761651799083e-05,-0.0007562683313153684,0.0,0.0,0.0,0.0,-0.0004159634991083294,-0.0008384954999201,-0.0011360928183421493,1.000537395477295,0.0,0.0,0.0,0.2618868052959442,0.44979938864707947,4.965234756469727,-47.40202713012695,0
1744.432999999999,-0.000754691893234849,-3.1186627893475816e-06,-0.0007966905832290649,0.0,0.0,0.0,0.0,0.0006173990550450981,-0.0023792178835719824,-0.004173710010945797,1.0010005235671997,0.0,0.0,0.0,0.26184117794036865,0.44740650057792664,4.95780086517334,-47.39377212524414,0
1754.357,-0.0008016368956305087,3.3682190405670553e-05,-0.0008226166246458888,0.0,0.0,0.0,0.0,0.0018483406165614724,0.0010324831819161773,0.0005403681425377727,1.0002570152282715,0.0,0.0,0.0,0.2611790895462036,0.4434643089771271,4.9580864906311035,-47.27393341064453,0
1764.2549999999992,-0.0008590058423578739,9.082687029149383e-06,-0.000861393753439188,0.0,0.0,0.0,0.0,-0.0025226890575140715,-0.0012430715141817927,0.00227637798525393,1.0004985332489014,0.0,0.0,0.0,0.26152390241622925,0.4399788975715637,4.949779987335205,-47.33634948730469,0
1774.1749999999993,-0.0008930735639296472,5.719322507502511e-05,-0.0008971744100563228,0.0,0.0,0.0,0.0,0.0017362923827022314,-0.0015271814772859216,-0.0008342335349880159,1.001910924911499,0.0,0.0,0.0,0.26178228855133057,0.4422863721847534,4.945146560668945,-47.38311767578125,0
1784.075999999999,-0.0009503855835646391,3.738922532647848e-05,-0.0009348852327093482,0.0,0.0,0.0,0.0,-0.0022158510982990265,-0.002268754178658128,0.00412124814465642,1.000680923461914,0.0,0.0,0.0,0.26163652539253235,0.43529507517814636,4.943365573883057,-47.35673141479492,0
1793.9959999999992,-0.0009828744223341346,8.436896314378828e-05,-0.0009714329498820007,0.0,0.0,0.0,0.0,0.0016486260574311018,-0.0008513771463185549,4.116448690183461e-05,0.9995958209037781,0.0,0.0,0.0,0.2622274160385132,0.4396853744983673,4.941409111022949,-47.46368408203125,0
1803.8999999999996,-0.0010418344754725695,6.693141767755151e-05,-0.0010080510983243585,0.0,0.0,0.0,0.0,-0.0004045633249916136,-0.0004648213798645884,0.0002670803223736584,0.9989306330680847,0.0,0.0,0.0,0.2610737085342407,0.4370880424976349,4.937677383422852,-47.254859924316406,0
1813.8179999999993,-0.0011030961759388447,0.00010882991045946255,-0.0010105647379532456,0.0,0.0,0.0,0.0,-2.437177681713365e-05,-0.0009679101640358567,-6.099949314375408e-05,1.001183271408081,0.0,0.0,0.0,0.26089948415756226,0.44374799728393555,4.936348915100098,-47.223323822021484,0
1823.723,-0.0011673533590510488,9.381319250678644e-05,-0.0010454008588567376,0.0,0.0,0.0,0.0,0.0018347861478105187,0.0017446995479986072,0.0002878711384255439,1.0002315044403076,0.0,0.0,0.0,0.2616468071937561,0.45142078399658203,4.938054084777832,-47.35859298706055,0
1833.6360000000004,-0.00120274699293077,0.0001435016602044925,-0.0010862534400075674,0.0,0.0,0.0,0.0,0.0026805135421454906,0.003929644823074341,-0.002219412475824356,0.9995124340057373,0.0,0.0,0.0,0.2609659433364868,0.4500003457069397,4.930323600769043,-47.23535919189453,0
1843.5519999999997,-0.0012707324931398034,0.0001322811294812709,-0.0011211385717615485,0.0,0.0,0.0,0.0,-0.002457810565829277,0.0029117404483258724,0.0008804399985820055,1.001522183418274,0.0,0.0,0.0,0.2589578330516815,0.44096335768699646,4.913120746612549,-46.871883392333984,0
1853.4619999999995,-0.0012850618222728372,0.0001825979707064107,-0.001191881950944662,0.0,0.0,0.0,0.0,0.001890922081656754,0.002010204829275608,-0.00011265946523053572,1.0009136199951172,0.0,0.0,0.0,0.25888705253601074,0.44507649540901184,4.908529281616211,-46.859073638916016,0
1863.3700000000008,-0.001353758038021624,0.0001769466616678983,-0.001228817505761981,0.0,0.0,0.0,0.0,-0.001994189340621233,-0.003716193838045001,0.0002574690442997962,0.9998530745506287,0.0,0.0,0.0,0.2591575086116791,0.4462297260761261,4.89698600769043,-46.90802764892578,0
1873.2839999999997,-0.0013639406533911824,0.00025696359807625413,-0.0012862858129665256,0.0,0.0,0.0,0.0,0.0013267623726278543,0.0008944427245296538,0.003047590609639883,0.9973775744438171,0.0,0.0,0.0,0.2591997981071472,0.48449113965034485,4.920290946960449,-46.915679931640625,0
1883.191999999999,-0.001432127901352942,0.0002555310493335128,-0.0013264697045087814,0.0,0.0,0.0,0.0,0.0005178024293854833,-0.00038241493166424334,0.0033424582798033953,0.9984843134880066,0.0,0.0,0.0,0.26003298163414,0.4792129099369049,4.918163776397705,-47.06648254394531,0
1893.1049999999996,-0.0014498175587505102,0.00033355996129103005,-0.0013845721259713173,0.0,0.0,0.0,0.0,0.001953946426510811,0.0029866944532841444,-0.000579615356400609,0.9973449110984802,0.0,0.0,0.0,0.262895405292511,0.5148627161979675,4.9281907081604,-47.584590911865234,0
1903.0220000000008,-0.0015191661659628153,0.0003359733382239938,-0.0014313014689832926,0.0,0.0,0.0,0.0,0.0007585701532661915,0.001033830107189715,-0.0009199504274874926,0.99812912940979,0.0,0.0,0.0,0.2625660002231598,0.5119150876998901,4.914857864379883,-47.52497100830078,0
1912.9279999999999,-0.0015497934073209763,0.00035875869798474014,-0.0015170485712587833,0.0,0.0,0.0,0.0,-4.8407066060462967e-05,-0.003280418459326029,-0.0038114082999527454,0.9993399977684021,0.0,0.0,0.0,0.2627468407154083,0.5059191584587097,4.90506649017334,-47.557701110839844,0
1922.8449999999993,-5.91916759731248e-05,-0.0001326485798927024,-0.00016583915567025542,0.0,0.0,0.0,0.0,0.0017203036695718765,-0.001058074296452105,-0.0010585198178887367,1.000091314315796,0.0,0.0,0.0,0.265305757522583,0.43565285205841064,5.1159443855285645,-48.020870208740234,0
1932.75,-4.978394281351939e-05,-0.00010247221507597715,-0.00020927887817379087,0.0,0.0,0.0,0.0,-0.0008691514958627522,-0.0005305742961354554,0.00011692252883221954,0.9996557235717773,0.0,0.0,0.0,0.26532411575317383,0.43290308117866516,5.106675624847412,-48.024192810058594,0
1942.6689999999999,-6.750663305865601e-05,-0.00011813516903202981,-0.00022314857051242143,0.0,0.0,0.0,0.0,-0.0013943754602223635,0.001967140706256032,-0.0028391166124492884,1.0010437965393066,0.0,0.0,0.0,0.26511192321777344,0.4403549134731293,5.100632667541504,-47.98578643798828,0
1952.5730000000003,-9.155557199846953e-05,-0.00010791954264277592,-0.00020662845054175705,0.0,0.0,0.0,0.0,0.003866456216201186,-0.004306485876441002,0.00045059056719765067,0.9976738691329956,0.0,0.0,0.0,0.26443061232566833,0.4386851489543915,5.085958957672119,-47.86246871948242,0
1962.4899999999998,-0.0001118067666538991,-0.00012610894918907434,-0.0002184457698604092,0.0,0.0,0.0,0.0,0.0026067555882036686,0.0060153258964419365,-0.0008209093357436359,0.999350368976593,0.0,0.0,0.0,0.2644079327583313,0.43681299686431885,5.0828471183776855,-47.85836410522461,0
1972.3979999999992,-0.00011618687130976468,-9.906700870487839e-05,-0.0002610724186524749,0.0,0.0,0.0,0.0,0.0005575889372266829,-0.0014462991384789348,0.0013351781526580453,1.000014305114746,0.0,0.0,0.0,0.26492589712142944,0.4310857057571411,5.074077606201172,-47.952110290527344,0
1982.316999999999,-0.00013724311429541558,-0.00011780190834542736,-0.00027692533330991864,0.0,0.0,0.0,0.0,-0.0011499864049255848,-0.0033417402300983667,0.0014110836200416088,0.9991887211799622,0.0,0.0,0.0,0.26529422402381897,0.4270855486392975,5.069345951080322,-48.01878356933594,0
1992.2189999999991,-0.00016012937703635544,-0.00010214992653345689,-0.00027603868511505425,0.0,0.0,0.0,0.0,-0.002043726621195674,-0.0015314668416976929,-0.0011946597369387746,0.9969955682754517,0.0,0.0,0.0,0.26529186964035034,0.42484351992607117,5.07163667678833,-48.01835632324219,0
2002.1380000000008,-4.903387161903083e-05,-0.00013210444012656808,-0.00018265956896357238,0.0,0.0,0.0,0.0,9.656090696807951e-05,-0.0008612166275270283,0.003653953317552805,0.9992727041244507,0.0,0.0,0.0,0.2649453282356262,0.422849178314209,5.071049213409424,-47.955631256103516,0
2012.0419999999995,-7.08081279299222e-05,-0.0001680896821198985,-0.00019822551985271275,0.0,0.0,0.0,0.0,-0.0007591761532239616,0.00012481474550440907,-0.00012493891699705273,1.0006256103515625,0.0,0.0,0.0,0.2659094035625458,0.4231981635093689,5.0608015060424805,-48.130126953125,0
2021.9650000000001,-7.396085857180879e-05,-0.00010535732872085646,-0.00015603864449076355,0.0,0.0,0.0,0.0,-5.8745488786371425e-05,0.00283478363417089,0.00019397148571442813,1.0008440017700195,0.0,0.0,0.0,0.26610422134399414,0.4194588363170624,5.057064533233643,-48.16539764404297,0
2031.866,-9.159129695035517e-05,-0.00010874881991185248,-0.0001619771937839687,0.0,0.0,0.0,0.0,0.0024134586565196514,0.0003037327842321247,-0.0007643525605089962,0.9993007183074951,0.0,0.0,0.0,0.26735445857048035,0.41622477769851685,5.048668384552002,-48.391685485839844,0
2041.7849999999999,-0.00011271944094914943,-0.0001310486695729196,-0.00016902151401154697,0.0,0.0,0.0,0.0,-0.0017613922245800495,0.002908907365053892,-0.0010551896411925554,0.9979166984558105,0.0,0.0,0.0,0.26546862721443176,0.4120987057685852,5.030823707580566,-48.050350189208984,0
2051.6939999999995,-7.087659469107166e-05,-2.053946263913531e-05,-0.00024115842825267464,0.0,0.0,0.0,0.0,0.0030850728508085012,-0.0007558083161711693,0.004136368166655302,1.0004891157150269,0.0,0.0,0.0,0.26514437794685364,0.4122410714626312,5.022017002105713,-47.991661071777344,0
2061.611999999999,-9.13470794330351e-05,-4.134717528359033e-05,-0.000255273946095258,0.0,0.0,0.0,0.0,6.672986637568101e-05,-0.0014324219664558768,-0.00563438143581152,0.9993674755096436,0.0,0.0,0.0,0.2652055025100708,0.40936750173568726,5.01292610168457,-48.00271987915039,0
2071.5210000000006,-0.00010776883573271334,-5.442477049655281e-05,-0.00027969598886556923,0.0,0.0,0.0,0.0,0.000472070649266243,-0.003167142625898123,0.004807507619261742,0.9981986880302429,0.0,0.0,0.0,0.26315125823020935,0.4041086435317993,5.008049488067627,-47.63090133666992,0
2081.429,-0.00013276413665153086,-7.864284270908684e-05,-0.0002952043723780662,0.0,0.0,0.0,0.0,0.0028195849154144526,-0.001982318237423897,0.0008677312289364636,0.9992817044258118,0.0,0.0,0.0,0.2640050947666168,0.40333688259124756,5.012823104858398,-47.78544616699219,0
2091.3420000000006,-0.00016932941798586398,-7.30716492398642e-05,-0.00027684879023581743,0.0,0.0,0.0,0.0,-0.000901472638361156,0.0024507101625204086,0.0030972545500844717,0.9988245368003845,0.0,0.0,0.0,0.26402485370635986,0.4061054289340973,5.021183013916016,-47.78902053833008,0
2101.2520000000004,-0.0001992646575672552,-9.769292955752462e-05,-0.00029173315851949155,0.0,0.0,0.0,0.0,-0.0001254024973604828,0.0032686847262084484,-0.002456476679071784,1.0006717443466187,0.0,0.0,0.0,0.2651733160018921,0.4077916741371155,5.012129783630371,-47.99689865112305,0
2111.1640000000007,-0.00023158402473200113,-7.707782060606405e-05,-0.00029177204123698175,0.0,0.0,0.0,0.0,0.0016891160048544407,0.00023245745978783816,0.002712267218157649,0.9987761974334717,0.0,0.0,0.0,0.26634517312049866,0.4079565107822418,4.995118141174316,-48.209007263183594,0
