timestamp,stateEstimate.x,stateEstimate.y,stateEstimate.z,controller.cmd_thrust,controller.cmd_roll,controller.cmd_pitch,controller.cmd_yaw,controller.r_roll,controller.r_pitch,controller.r_yaw,controller.accelz,controller.actuatorThrust,controller.roll,controller.pitch,controller.yaw,controller.rollRate,controller.pitchRate,controller.yawRate,controller.ctr_yaw
0.0,-0.034151341766119,0.0026393455918878317,-0.03280610963702202,0.0,0.0,0.0,0.0,0.0036843507550656796,0.0005498995305970311,0.002258913591504097,1.0003889799118042,0.0,0.0,0.0,3.0160787105560303,2.1542556285858154,4.53939151763916,-545.916259765625,0
9.90899999999965,-0.03439292311668396,0.002705899067223072,-0.03302319720387459,0.0,0.0,0.0,0.0,-0.0017048257868736982,0.00023232678358908743,-0.004412948619574308,1.0003582239151,0.0,0.0,0.0,3.013122320175171,2.1537766456604004,4.532148838043213,-545.381103515625,0
19.822000000000116,-0.034484442323446274,0.0027063386514782906,-0.03310646116733551,0.0,0.0,0.0,0.0,-0.0002686348161660135,0.0003072884865105152,-0.002136554103344679,0.9980831742286682,0.0,0.0,0.0,3.016378402709961,2.1463706493377686,4.528457164764404,-545.970458984375,0
29.735000000000582,-0.03472767397761345,0.0027719263453036547,-0.03332212194800377,0.0,0.0,0.0,0.0,-0.005108463112264872,0.0013171244645491242,-0.0016737721161916852,0.9988789558410645,0.0,0.0,0.0,3.0139882564544678,2.144230365753174,4.527223110198975,-545.537841796875,0
39.64300000000003,-0.03488350659608841,0.0027949539944529533,-0.03341114521026611,0.0,0.0,0.0,0.0,0.0002704814833123237,0.0037433840334415436,-0.0015976665308699012,0.999948263168335,0.0,0.0,0.0,3.010850667953491,2.1483898162841797,4.525140762329102,-544.9700317382812,0
49.552999999999884,-0.03513069078326225,0.0028587563429027796,-0.03362654894590378,0.0,0.0,0.0,0.0,-0.0008905395516194403,-0.0023098147939890623,0.001815255032852292,1.001307487487793,0.0,0.0,0.0,3.0076732635498047,2.148089647293091,4.521730899810791,-544.3948364257812,0
59.45900000000074,-0.03514017164707184,0.0028868725057691336,-0.03364900127053261,0.0,0.0,0.0,0.0,-0.0002950024791061878,0.002384309656918049,-0.0003337040252517909,0.9996231198310852,0.0,0.0,0.0,3.0131688117980957,2.158107042312622,4.526876449584961,-545.3895874023438,0
69.3739999999998,-0.035387519747018814,0.0029517654329538345,-0.03386274352669716,0.0,0.0,0.0,0.0,-0.000660507008433342,0.003944622818380594,-0.0017639754805713892,0.9982228875160217,0.0,0.0,0.0,3.0094218254089355,2.160066843032837,4.514441013336182,-544.7113647460938,0
79.28100000000086,-0.035025086253881454,0.0028739674016833305,-0.03357471153140068,0.0,0.0,0.0,0.0,-0.002031908370554447,-0.0017343515064567327,-0.00020885917183477432,0.9988777041435242,0.0,0.0,0.0,3.0140793323516846,2.1687421798706055,4.532606601715088,-545.5543212890625,0
89.19400000000132,-0.035268452018499374,0.00293842819519341,-0.033788762986660004,0.0,0.0,0.0,0.0,-9.850884816842154e-05,0.001811573631130159,-0.002529675606638193,0.9995009303092957,0.0,0.0,0.0,3.0103018283843994,2.169386386871338,4.528671741485596,-544.8706665039062,0
99.11100000000079,-0.03517899662256241,0.00292679900303483,-0.033752139657735825,0.0,0.0,0.0,0.0,0.0011044680140912533,0.0014522583223879337,0.00019936369790229946,0.9994087219238281,0.0,0.0,0.0,3.0073294639587402,2.166504144668579,4.522915363311768,-544.3327026367188,0
109.01500000000124,-0.03542241454124451,0.002991813700646162,-0.0339679978787899,0.0,0.0,0.0,0.0,-0.0001605659635970369,0.0019520167261362076,-0.001624158932827413,0.9998274445533752,0.0,0.0,0.0,3.0039639472961426,2.161964178085327,4.511847496032715,-543.7234497070312,0
118.9260000000013,-0.03542974218726158,0.002972810762003064,-0.03398905321955681,0.0,0.0,0.0,0.0,-0.0019082340877503157,0.003219472011551261,0.001978101674467325,0.9988852739334106,0.0,0.0,0.0,3.0009543895721436,2.1545934677124023,4.511954307556152,-543.1787109375,0
128.84200000000055,-0.03567320480942726,0.0030367341823875904,-0.034204915165901184,0.0,0.0,0.0,0.0,0.0005817310884594917,0.0016066542593762279,0.0031249888706952333,1.0000183582305908,0.0,0.0,0.0,2.9988062381744385,2.1516809463500977,4.492394924163818,-542.7899169921875,0
138.75,-0.0357864573597908,0.0030957176350057125,-0.03430823236703873,0.0,0.0,0.0,0.0,-0.0022302004508674145,-0.0018414378864690661,0.0018118106527253985,1.0025614500045776,0.0,0.0,0.0,3.0043301582336426,2.1603848934173584,4.501918315887451,-543.7897338867188,0
148.65999999999985,-0.0360313318669796,0.0031639679800719023,-0.03452344238758087,0.0,0.0,0.0,0.0,-0.0006501672905869782,0.00259839603677392,-0.0014504618011415005,1.0019214153289795,0.0,0.0,0.0,3.001481533050537,2.1643855571746826,4.506657600402832,-543.2741088867188,0
158.5709999999999,-0.03627858683466911,0.0032315209973603487,-0.03473648801445961,0.0,0.0,0.0,0.0,-0.000662972975987941,-0.004426819272339344,0.0021841535344719887,0.9997321963310242,0.0,0.0,0.0,2.9977378845214844,2.163191318511963,4.497276306152344,-542.5965576171875,0
168.48300000000017,-0.036061786115169525,0.0032020211219787598,-0.034599751234054565,0.0,0.0,0.0,0.0,0.0024930268991738558,0.0012885176111012697,-0.0019361678278073668,0.998762845993042,0.0,0.0,0.0,3.002615213394165,2.1742782592773438,4.526330947875977,-543.4793090820312,0
178.39700000000084,-0.0363069549202919,0.003272075206041336,-0.03481219336390495,0.0,0.0,0.0,0.0,0.0037962954957038164,0.0039999582804739475,0.0027596557047218084,0.9997909069061279,0.0,0.0,0.0,2.999508857727051,2.169703245162964,4.5188469886779785,-542.9170532226562,0
188.3040000000001,-0.0363309346139431,0.0032930090092122555,-0.034830790013074875,0.0,0.0,0.0,0.0,-0.0012569781392812729,0.0013794746482744813,0.0007617814699187875,0.9997426867485046,0.0,0.0,0.0,2.9963765144348145,2.1660265922546387,4.501801013946533,-542.35009765625,0
198.21600000000035,-0.036578062921762466,0.0033635557629168034,-0.03504330292344093,0.0,0.0,0.0,0.0,-0.0017793935257941484,-0.0013947277329862118,-0.0005215319688431919,1.0007739067077637,0.0,0.0,0.0,2.9926066398620605,2.163447380065918,4.492631912231445,-541.667724609375,0
208.1270000000004,-0.03665509819984436,0.003401206573471427,-0.035096555948257446,0.0,0.0,0.0,0.0,0.002755003049969673,0.0015046014450490475,-0.005130148492753506,1.0000814199447632,0.0,0.0,0.0,2.999620199203491,2.1707985401153564,4.489027500152588,-542.937255859375,0
218.03700000000026,-0.03690424561500549,0.003471208969131112,-0.03530693054199219,0.0,0.0,0.0,0.0,0.0008579211425967515,6.428998312912881e-05,0.00019310152856633067,0.9986018538475037,0.0,0.0,0.0,2.9960086345672607,2.161543846130371,4.492773532867432,-542.2835693359375,0
227.95399999999972,-0.03684844821691513,0.0034366315230727196,-0.03527705743908882,0.0,0.0,0.0,0.0,-0.0005475558573380113,0.0028142519295215607,-0.00245321961119771,0.9991788268089294,0.0,0.0,0.0,2.9915404319763184,2.155142068862915,4.482964515686035,-541.4747314453125,0
237.8640000000014,-0.03710099309682846,0.003504835767671466,-0.035488732159137726,0.0,0.0,0.0,0.0,-0.001628332189284265,-0.003708690870553255,-0.0016391095705330372,0.9997543096542358,0.0,0.0,0.0,2.987811326980591,2.154437303543091,4.46914005279541,-540.7998046875,0
247.77000000000044,-0.036894429475069046,0.003466404043138027,-0.03535556048154831,0.0,0.0,0.0,0.0,0.0031480537727475166,-0.00021405363804660738,0.0016323304735124111,0.9987584352493286,0.0,0.0,0.0,2.984842300415039,2.1541149616241455,4.473050594329834,-540.2623901367188,0
257.6810000000005,-0.03714867681264877,0.0035366283264011145,-0.03556853160262108,0.0,0.0,0.0,0.0,-0.0008401341619901359,0.0021113893017172813,-0.004324476234614849,0.9981254935264587,0.0,0.0,0.0,2.98140811920166,2.1526107788085938,4.470353126525879,-539.6408081054688,0
267.59799999999996,-0.036956753581762314,0.003499311162158847,-0.035439446568489075,0.0,0.0,0.0,0.0,0.0009129071258939803,0.0025161649100482464,0.002124509308487177,0.9993366599082947,0.0,0.0,0.0,2.982886791229248,2.15962290763855,4.480152130126953,-539.9085083007812,0
277.505000000001,-0.03721052408218384,0.003571821376681328,-0.03565482795238495,0.0,0.0,0.0,0.0,-0.002479071728885174,-0.0007216701633296907,0.0008066628943197429,1.0002714395523071,0.0,0.0,0.0,2.980239152908325,2.1522703170776367,4.47647762298584,-539.42919921875,0
287.4170000000013,-0.03702123463153839,0.0035410551354289055,-0.03551740199327469,0.0,0.0,0.0,0.0,-0.0006144366343505681,0.0008680357714183629,-0.004437992349267006,0.9998072385787964,0.0,0.0,0.0,2.9873733520507812,2.1580495834350586,4.502546310424805,-540.7205810546875,0
297.32600000000093,-0.03727393597364426,0.0036138570867478848,-0.03573274612426758,0.0,0.0,0.0,0.0,-0.0033671038690954447,0.002508318517357111,0.0006446289480663836,0.9999419450759888,0.0,0.0,0.0,2.9822700023651123,2.156841993331909,4.488272190093994,-539.7968139648438,0
307.2390000000014,-0.03725379705429077,0.0035825485829263926,-0.03571195900440216,0.0,0.0,0.0,0.0,-0.0003077250439673662,0.004763332195580006,-0.0003590407723095268,1.002974271774292,0.0,0.0,0.0,2.9890148639678955,2.150343418121338,4.48699951171875,-541.0176391601562,0
317.14800000000105,-0.03750883415341377,0.0036526070907711983,-0.03592556342482567,0.0,0.0,0.0,0.0,-0.0020866545382887125,0.000768408877775073,0.00024218583712354302,0.9995578527450562,0.0,0.0,0.0,2.9849581718444824,2.148286819458008,4.479373931884766,-540.2833251953125,0
327.0660000000007,-0.037242092192173004,0.003574042348191142,-0.035640474408864975,0.0,0.0,0.0,0.0,-7.036889292066917e-05,-0.0016080220229923725,-0.0002533232909627259,0.9986419081687927,0.0,0.0,0.0,2.9943089485168457,2.151249885559082,4.47170352935791,-541.9758911132812,0
336.97199999999975,-0.03749721869826317,0.003641479415819049,-0.03584900125861168,0.0,0.0,0.0,0.0,-0.0004179526004008949,0.0012623174116015434,-0.0012614624574780464,1.0012060403823853,0.0,0.0,0.0,2.991657018661499,2.150543451309204,4.472506523132324,-541.4959106445312,0
346.89000000000124,-0.037440188229084015,0.003632290754467249,-0.035791993141174316,0.0,0.0,0.0,0.0,0.001801034901291132,-0.0011794704478234053,0.0017955019138753414,1.0001654624938965,0.0,0.0,0.0,2.9887542724609375,2.1490042209625244,4.460008144378662,-540.970458984375,0
356.7960000000003,-0.03769528865814209,0.00369962933473289,-0.03599940985441208,0.0,0.0,0.0,0.0,0.00400680722668767,0.0016251280903816223,0.0013437005691230297,1.000160813331604,0.0,0.0,0.0,2.9868860244750977,2.143794298171997,4.463176250457764,-540.63232421875,0
366.7039999999997,-0.037353768944740295,0.003602842101827264,-0.035665273666381836,0.0,0.0,0.0,0.0,-0.001901929615996778,0.002354603260755539,0.003309304127469659,1.0015811920166016,0.0,0.0,0.0,2.9917643070220947,2.1444947719573975,4.464389801025391,-541.5152587890625,0
376.6149999999998,-0.037607718259096146,0.0036725332029163837,-0.03586882725358009,0.0,0.0,0.0,0.0,0.0025019317399710417,0.0015813445206731558,-0.0017345177475363016,1.0006132125854492,0.0,0.0,0.0,2.9901282787323,2.1467444896698,4.459075450897217,-541.2191772460938,0
386.52599999999984,-0.03786284103989601,0.0037423206958919764,-0.03607149422168732,0.0,0.0,0.0,0.0,0.00012099085142835975,0.001499694655649364,0.0033305143006145954,1.0022207498550415,0.0,0.0,0.0,2.9868786334991455,2.1385626792907715,4.451754093170166,-540.6309814453125,0
396.4369999999999,-0.038119517266750336,0.003811864648014307,-0.03627283126115799,0.0,0.0,0.0,0.0,0.0034481899347156286,-0.009752375073730946,0.001456563244573772,1.0027296543121338,0.0,0.0,0.0,2.983851432800293,2.134014129638672,4.443850517272949,-540.0830688476562,0
406.34900000000016,-0.03837886080145836,0.003881039097905159,-0.036471933126449585,0.0,0.0,0.0,0.0,0.0017672900576144457,-0.004018576815724373,0.0016940203495323658,1.0002703666687012,0.0,0.0,0.0,2.980294942855835,2.130202054977417,4.449956893920898,-539.4393310546875,0
416.2610000000004,-0.038640204817056656,0.003949313424527645,-0.03666909039020538,0.0,0.0,0.0,0.0,0.0011530074989423156,0.002556815277785063,-0.0013087524566799402,0.9994936585426331,0.0,0.0,0.0,2.9780795574188232,2.1236612796783447,4.459300994873047,-539.038330078125,0
426.1720000000005,-0.03890322148799896,0.004016632214188576,-0.03686594218015671,0.0,0.0,0.0,0.0,0.0025238050147891045,-0.0013724457239732146,-0.00035809047403745353,0.9993119239807129,0.0,0.0,0.0,2.975280284881592,2.1187405586242676,4.4512128829956055,-538.5316162109375,0
436.08300000000054,-0.03916811943054199,0.004083291161805391,-0.03706331178545952,0.0,0.0,0.0,0.0,-0.001747744157910347,0.001412628567777574,-0.0010836670408025384,1.0000274181365967,0.0,0.0,0.0,2.9717376232147217,2.1178009510040283,4.443685531616211,-537.8904418945312,0
445.9970000000012,-0.03943515196442604,0.004149208776652813,-0.037260670214891434,0.0,0.0,0.0,0.0,-0.0008197827846743166,-0.0015097068389877677,0.0022593499161303043,0.9991840720176697,0.0,0.0,0.0,2.9696733951568604,2.1159772872924805,4.4316792488098145,-537.5167846679688,0
455.90500000000065,-0.0397057831287384,0.004214351996779442,-0.037458278238773346,0.0,0.0,0.0,0.0,0.000952845613937825,0.0002816071209963411,-0.003763162065297365,1.0014352798461914,0.0,0.0,0.0,2.9670846462249756,2.114161729812622,4.430191993713379,-537.0481567382812,0
465.8160000000007,-0.039980847388505936,0.004279270768165588,-0.037655554711818695,0.0,0.0,0.0,0.0,0.0013396341819316149,0.005320065654814243,0.00047146694851107895,0.9996163249015808,0.0,0.0,0.0,2.9628374576568604,2.106076955795288,4.419365406036377,-536.2794799804688,0
475.728000000001,-0.04026002064347267,0.004343943204730749,-0.037851959466934204,0.0,0.0,0.0,0.0,-0.0015869662165641785,-0.003070266917347908,0.0035022327210754156,0.9989208579063416,0.0,0.0,0.0,2.960813283920288,2.0980403423309326,4.4086761474609375,-535.9131469726562,0
485.63900000000103,-0.04054274782538414,0.004407762549817562,-0.03804849088191986,0.0,0.0,0.0,0.0,0.00022468340466730297,0.002914085518568754,0.001991095021367073,1.0000782012939453,0.0,0.0,0.0,2.958270311355591,2.1009304523468018,4.413613319396973,-535.4528198242188,0
495.5490000000009,-0.040828198194503784,0.0044710831716656685,-0.038245394825935364,0.0,0.0,0.0,0.0,-0.0007302992162294686,0.0010401828913018107,-0.0017353936564177275,0.9999281167984009,0.0,0.0,0.0,2.955719232559204,2.098641872406006,4.405635356903076,-534.9910278320312,0
505.46000000000095,-0.04111652448773384,0.004534606821835041,-0.0384424552321434,0.0,0.0,0.0,0.0,0.0012510630767792463,0.0021110447123646736,-0.0008149095228873193,0.9996944069862366,0.0,0.0,0.0,2.9515528678894043,2.0986075401306152,4.3948774337768555,-534.2369384765625,0
515.3720000000012,-0.04140818491578102,0.004598492290824652,-0.038639310747385025,0.0,0.0,0.0,0.0,0.0029937331564724445,0.0009180932538583875,-0.00046072949771769345,1.0014777183532715,0.0,0.0,0.0,2.9476656913757324,2.100766658782959,4.395798683166504,-533.5333251953125,0
525.2820000000011,-0.04170340299606323,0.004662382882088423,-0.03883562237024307,0.0,0.0,0.0,0.0,0.0004949633148498833,0.0009075837442651391,-0.0015925621846690774,0.9996500015258789,0.0,0.0,0.0,2.9435386657714844,2.091350793838501,4.390482425689697,-532.786376953125,0
535.1930000000011,-0.04200313985347748,0.0047253952361643314,-0.03903128579258919,0.0,0.0,0.0,0.0,0.001077953027561307,-0.00019588254508562386,-0.0011232326505705714,0.999222993850708,0.0,0.0,0.0,2.940539598464966,2.0858075618743896,4.378282070159912,-532.2435302734375,0
545.1059999999998,-0.0423065721988678,0.0047875358723104,-0.03922690823674202,0.0,0.0,0.0,0.0,0.0010649331379681826,0.0002732505672611296,0.00016911669808905572,1.0014755725860596,0.0,0.0,0.0,2.937502861022949,2.083946704864502,4.374212265014648,-531.69384765625,0
555.0169999999998,-0.04261182248592377,0.0048496052622795105,-0.039422448724508286,0.0,0.0,0.0,0.0,-0.0014583385782316327,0.0006056947750039399,-0.0016375844134017825,0.998142421245575,0.0,0.0,0.0,2.9352848529815674,2.0788075923919678,4.365636348724365,-531.2923583984375,0
564.9320000000007,-0.042918309569358826,0.004910972900688648,-0.039617691189050674,0.0,0.0,0.0,0.0,0.0005169833893887699,-0.0003422386071179062,-0.00022474663273897022,1.0002405643463135,0.0,0.0,0.0,2.9312901496887207,2.0789828300476074,4.352560997009277,-530.5693969726562,0
574.8379999999997,-0.04322681203484535,0.0049703908152878284,-0.03981339558959007,0.0,0.0,0.0,0.0,-0.0016836446011438966,0.0008569840574637055,-0.003985594492405653,1.0002411603927612,0.0,0.0,0.0,2.928224563598633,2.0802388191223145,4.353575229644775,-530.0144653320312,0
584.759,-0.043538592755794525,0.005027844104915857,-0.04000912979245186,0.0,0.0,0.0,0.0,-0.0010452180868014693,-0.0011868892470374703,-0.0013799956068396568,0.9991317987442017,0.0,0.0,0.0,2.924813985824585,2.0743939876556396,4.345504283905029,-529.3971557617188,0
594.6679999999997,-0.04385434091091156,0.005084926728159189,-0.04020480439066887,0.0,0.0,0.0,0.0,0.0008073869394138455,-0.000573698605876416,0.0014177397824823856,0.9975307583808899,0.0,0.0,0.0,2.9214277267456055,2.0749173164367676,4.343561172485352,-528.7842407226562,0
604.5780000000013,-0.040900204330682755,0.0047431993298232555,-0.03905533254146576,0.0,0.0,0.0,0.0,-0.00034824758768081665,0.002306260634213686,-0.003660241374745965,0.9995524287223816,0.0,0.0,0.0,2.9312288761138916,2.1367571353912354,4.556727886199951,-530.5582885742188,0
614.4850000000006,-0.04115866497159004,0.004809878766536713,-0.03926890715956688,0.0,0.0,0.0,0.0,0.0024804221466183662,0.0007870232802815735,-0.0013845989014953375,1.0008275508880615,0.0,0.0,0.0,2.92840313911438,2.1398730278015137,4.557425498962402,-530.0468139648438,0
624.4030000000002,-0.04026659578084946,0.004563619382679462,-0.03853142261505127,0.0,0.0,0.0,0.0,-0.0013185713905841112,0.0004281739820726216,-0.0015978505834937096,1.0007941722869873,0.0,0.0,0.0,2.947499990463257,2.1310465335845947,4.5692315101623535,-533.5033569335938,0
634.3040000000001,-0.04051586240530014,0.004625821020454168,-0.038739800453186035,0.0,0.0,0.0,0.0,0.0027510051149874926,0.005094891879707575,-0.0004682687867898494,0.9996158480644226,0.0,0.0,0.0,2.9450507164001465,2.128208875656128,4.562602519989014,-533.06005859375,0
644.2219999999998,-0.040066055953502655,0.00450396491214633,-0.03838971629738808,0.0,0.0,0.0,0.0,0.0030026196036487818,-0.002699401928111911,0.001018190523609519,0.9994722604751587,0.0,0.0,0.0,2.9490244388580322,2.1231062412261963,4.574437618255615,-533.7793579101562,0
654.1280000000006,-0.040311530232429504,0.004564277362078428,-0.03859608247876167,0.0,0.0,0.0,0.0,0.0017095486400648952,-0.003916034009307623,0.00022092241852078587,1.0003035068511963,0.0,0.0,0.0,2.9458606243133545,2.109081745147705,4.578012943267822,-533.2066650390625,0
664.0439999999999,-0.0397113598883152,0.004372635390609503,-0.03799164295196533,0.0,0.0,0.0,0.0,0.0013544756220653653,0.0011535333469510078,0.0025532979052513838,0.999092698097229,0.0,0.0,0.0,2.964693546295166,2.1065917015075684,4.582242488861084,-536.6154174804688,0
673.9580000000005,-0.039977364242076874,0.004438773263245821,-0.038212791085243225,0.0,0.0,0.0,0.0,0.0015110899694263935,0.004920032806694508,-0.001269026892259717,1.0006415843963623,0.0,0.0,0.0,2.962175130844116,2.1040823459625244,4.578728675842285,-536.1596069335938,0
683.8770000000004,-0.03974708914756775,0.004376827739179134,-0.03799191489815712,0.0,0.0,0.0,0.0,-0.0013346101623028517,0.002032741904258728,-0.004241617396473885,1.000688910484314,0.0,0.0,0.0,2.97326397895813,2.103281259536743,4.576723098754883,-538.1666870117188,0
693.7749999999996,-0.03998617082834244,0.00443885987624526,-0.03819059953093529,0.0,0.0,0.0,0.0,-0.0011705731740221381,0.0001464767410652712,-0.001422983012162149,0.9992144703865051,0.0,0.0,0.0,2.9694433212280273,2.100026845932007,4.556583881378174,-537.47509765625,0
703.6890000000003,-0.039741501212120056,0.004370654001832008,-0.03797385096549988,0.0,0.0,0.0,0.0,0.0015288718277588487,-0.0005168667994439602,-0.003452999982982874,0.9998624920845032,0.0,0.0,0.0,2.975627899169922,2.1014747619628906,4.567953109741211,-538.5946044921875,0
713.594000000001,-0.039980266243219376,0.00443370221182704,-0.03817117586731911,0.0,0.0,0.0,0.0,-0.0035402157809585333,0.0005188945215195417,0.002445105230435729,1.000097632408142,0.0,0.0,0.0,2.9724514484405518,2.0996296405792236,4.550832748413086,-538.0196533203125,0
723.5130000000008,-0.03923766687512398,0.004207381047308445,-0.03747550770640373,0.0,0.0,0.0,0.0,0.00011246321810176596,0.005235759075731039,-0.0021796715445816517,0.999440610408783,0.0,0.0,0.0,2.9840781688690186,2.1021368503570557,4.563958168029785,-540.1241455078125,0
733.4150000000009,-0.03947191312909126,0.004267561249434948,-0.03766779974102974,0.0,0.0,0.0,0.0,0.0027606026269495487,-0.0018773237243294716,-0.003510391106829047,0.9994366765022278,0.0,0.0,0.0,2.9798288345336914,2.0998611450195312,4.550506591796875,-539.3549194335938,0
743.335000000001,-0.03858349844813347,0.004003218375146389,-0.03689894825220108,0.0,0.0,0.0,0.0,-0.0019432808039709926,0.0029441211372613907,-0.0017578292172402143,0.9987760186195374,0.0,0.0,0.0,2.990537166595459,2.099597930908203,4.575202941894531,-541.293212890625,0
753.2380000000012,-0.0388091616332531,0.004057748708873987,-0.0370892658829689,0.0,0.0,0.0,0.0,-0.0015329690650105476,0.00032757423468865454,-0.00013889576075598598,1.000026822090149,0.0,0.0,0.0,2.9884910583496094,2.0961601734161377,4.562666416168213,-540.9228515625,0
763.1550000000007,-0.038183391094207764,0.0039243875071406364,-0.036529120057821274,0.0,0.0,0.0,0.0,-0.004577099345624447,-0.0017759834881871939,0.004438907373696566,0.9997836947441101,0.0,0.0,0.0,3.0002331733703613,2.1174123287200928,4.584171772003174,-543.0481567382812,0
773.0609999999997,-0.038403112441301346,0.003980865236371756,-0.03671688959002495,0.0,0.0,0.0,0.0,-0.0001241487916558981,-0.000643576611764729,-0.001277472823858261,0.9998611807823181,0.0,0.0,0.0,2.9993934631347656,2.1188056468963623,4.583340644836426,-542.8961181640625,0
782.9860000000008,-0.038625117391347885,0.004035675898194313,-0.03690466657280922,0.0,0.0,0.0,0.0,-0.0005609513027593493,0.0015176873421296477,-0.0008674445562064648,1.0001070499420166,0.0,0.0,0.0,2.996124267578125,2.1138346195220947,4.578011989593506,-542.304443359375,0
792.8829999999998,-0.038848746567964554,0.004089124966412783,-0.03709227219223976,0.0,0.0,0.0,0.0,-0.0037176504265516996,0.0027748493012040854,0.004704544320702553,0.9993798136711121,0.0,0.0,0.0,2.993720054626465,2.113973379135132,4.572275638580322,-541.8693237304688,0
802.7990000000009,-0.039073798805475235,0.004142616409808397,-0.037279993295669556,0.0,0.0,0.0,0.0,-0.0029166413005441427,0.003360352013260126,-0.0011572269722819328,0.9984429478645325,0.0,0.0,0.0,2.9912242889404297,2.114269971847534,4.557839393615723,-541.4175415039062,0
812.7049999999999,-0.039301127195358276,0.00419671181589365,-0.037468649446964264,0.0,0.0,0.0,0.0,4.753435860038735e-05,-0.0045761968940496445,0.0031078667379915714,0.9993687868118286,0.0,0.0,0.0,2.987602710723877,2.111633777618408,4.5502214431762695,-540.7620239257812,0
822.6239999999998,-0.03953102231025696,0.004251280799508095,-0.03765867277979851,0.0,0.0,0.0,0.0,-7.37295049475506e-05,0.0007637710659764707,-0.0008299982873722911,1.0014749765396118,0.0,0.0,0.0,2.9842803478240967,2.1107802391052246,4.547970771789551,-540.1607055664062,0
832.5280000000002,-0.03976299241185188,0.004306204617023468,-0.03784904256463051,0.0,0.0,0.0,0.0,0.0022993108723312616,-0.004209635313600302,0.002767437370494008,0.9999960660934448,0.0,0.0,0.0,2.981360912322998,2.110896110534668,4.543387413024902,-539.63232421875,0
842.4470000000001,-0.03999602794647217,0.00436154892668128,-0.03803859278559685,0.0,0.0,0.0,0.0,-0.0015671587316319346,0.0009056513081304729,-0.0019585173577070236,1.0013880729675293,0.0,0.0,0.0,2.978903293609619,2.1054205894470215,4.541745662689209,-539.1874389648438,0
852.3559999999998,-0.040230635553598404,0.004416482523083687,-0.0382271371781826,0.0,0.0,0.0,0.0,0.0018796466756612062,0.001575781381689012,0.001940202317200601,1.0035395622253418,0.0,0.0,0.0,2.975219249725342,2.1065821647644043,4.536007404327393,-538.5205688476562,0
862.277,-0.04046812281012535,0.004470078740268946,-0.038413725793361664,0.0,0.0,0.0,0.0,0.004393396433442831,0.002448365790769458,0.0020533695351332426,1.000748872756958,0.0,0.0,0.0,2.972686767578125,2.1027042865753174,4.5281572341918945,-538.0621948242188,0
872.1720000000005,-0.04070806875824928,0.004523301962763071,-0.03859763592481613,0.0,0.0,0.0,0.0,-0.0025306115858256817,-0.002931984607130289,-0.0010911441640928388,0.9987707734107971,0.0,0.0,0.0,2.9702398777008057,2.100393056869507,4.531886577606201,-537.6192626953125,0
882.094000000001,-0.040949925780296326,0.0045768748968839645,-0.03878060355782509,0.0,0.0,0.0,0.0,0.003652911866083741,0.0007827545050531626,-0.0017914186464622617,1.0015225410461426,0.0,0.0,0.0,2.967193841934204,2.09855055809021,4.527073860168457,-537.0679321289062,0
891.9940000000006,-0.04119374603033066,0.004630103707313538,-0.03896335884928703,0.0,0.0,0.0,0.0,-0.0038924759719520807,0.0014783323276787996,-0.0017149846535176039,0.9999578595161438,0.0,0.0,0.0,2.9650866985321045,2.089508056640625,4.514968395233154,-536.6865844726562,0
901.9189999999999,-0.04143981263041496,0.004682880360633135,-0.03914543241262436,0.0,0.0,0.0,0.0,0.00045662905904464424,-0.0011560419807210565,-0.0004889979027211666,0.998602032661438,0.0,0.0,0.0,2.96101975440979,2.097210645675659,4.510542869567871,-535.950439453125,0
911.8180000000011,-0.04168839752674103,0.004736024886369705,-0.03932759538292885,0.0,0.0,0.0,0.0,0.001415097969584167,0.00162757677026093,-0.004162734840065241,0.998266339302063,0.0,0.0,0.0,2.9584784507751465,2.093132495880127,4.502017974853516,-535.490478515625,0
921.7399999999998,-0.04193921759724617,0.004789632745087147,-0.03951094672083855,0.0,0.0,0.0,0.0,-0.0009080830495804548,0.0005148681811988354,-0.003307337872684002,0.9983506798744202,0.0,0.0,0.0,2.9552559852600098,2.0861923694610596,4.50588321685791,-534.9071655273438,0
931.639000000001,-0.04219204559922218,0.004843270406126976,-0.039695970714092255,0.0,0.0,0.0,0.0,-0.00023742606572341174,-0.0011536115780472755,-0.0010230110492557287,1.0010950565338135,0.0,0.0,0.0,2.9512135982513428,2.0862414836883545,4.497175693511963,-534.175537109375,0
941.5580000000009,-0.04082518443465233,0.004692279268056154,-0.0388864129781723,0.0,0.0,0.0,0.0,-0.00023858496570028365,-0.0030488839838653803,0.0011999011039733887,1.0011268854141235,0.0,0.0,0.0,2.9584736824035645,2.1290693283081055,4.583033561706543,-535.4896240234375,0
951.4620000000014,-0.0410565622150898,0.0047546508722007275,-0.0390726737678051,0.0,0.0,0.0,0.0,0.0008277195156551898,-0.001333688385784626,-0.0012104694033041596,1.0012202262878418,0.0,0.0,0.0,2.9558887481689453,2.12260365486145,4.581387042999268,-535.0217895507812,0
961.3819999999996,-0.040498580783605576,0.0046240235678851604,-0.038653478026390076,0.0,0.0,0.0,0.0,0.0008717391756363213,0.005964318756014109,-0.0021694758906960487,1.0019148588180542,0.0,0.0,0.0,2.9596335887908936,2.1239430904388428,4.603147983551025,-535.6995849609375,0
971.2820000000011,-0.040727294981479645,0.004686035681515932,-0.038835540413856506,0.0,0.0,0.0,0.0,-0.0015506285708397627,-0.0066495630890131,0.0009736574138514698,0.9994282722473145,0.0,0.0,0.0,2.9566709995269775,2.121992588043213,4.58575439453125,-535.1633911132812,0
981.2030000000013,-0.04095938801765442,0.00474753649905324,-0.03901628777384758,0.0,0.0,0.0,0.0,0.0007208787137642503,-0.0012164991348981857,-0.0020620215218514204,1.000457525253296,0.0,0.0,0.0,2.953054666519165,2.1212594509124756,4.582243919372559,-534.5087890625,0
991.1050000000014,-0.04119456186890602,0.004809251520782709,-0.039196714758872986,0.0,0.0,0.0,0.0,-0.0015905344625934958,-0.0026479214429855347,-0.0013889935798943043,0.999712347984314,0.0,0.0,0.0,2.9495747089385986,2.1213035583496094,4.585113525390625,-533.87890625,0
1001.0280000000002,-0.04143267497420311,0.004871678538620472,-0.039376866072416306,0.0,0.0,0.0,0.0,-0.0033462983556091785,-0.0012375330552458763,-0.0022549047134816647,1.0003196001052856,0.0,0.0,0.0,2.945829391479492,2.1253321170806885,4.5802764892578125,-533.2010498046875,0
1010.9279999999999,-0.041698429733514786,0.004940827842801809,-0.03957495838403702,0.0,0.0,0.0,0.0,-0.004295709542930126,0.005982152186334133,0.0012637239415198565,1.0004650354385376,0.0,0.0,0.0,2.942755937576294,2.134528160095215,4.580254554748535,-532.6446533203125,0
1020.853000000001,-0.04194248095154762,0.00500353192910552,-0.03975488618016243,0.0,0.0,0.0,0.0,-0.0006800938281230628,-0.0034259201493114233,0.0002389646106166765,0.9988035559654236,0.0,0.0,0.0,2.9404008388519287,2.1394741535186768,4.564786434173584,-532.2183837890625,0
1030.7520000000004,-0.04218831658363342,0.005065367557108402,-0.039934493601322174,0.0,0.0,0.0,0.0,-0.0009324917919002473,0.002537690568715334,-0.00017805449897423387,0.9973533749580383,0.0,0.0,0.0,2.937314510345459,2.1368649005889893,4.563807487487793,-531.6597900390625,0
1040.6720000000005,-0.04243643954396248,0.005126032046973705,-0.04011533781886101,0.0,0.0,0.0,0.0,-0.0010074909077957273,-0.002102534519508481,0.000887907634023577,1.0001651048660278,0.0,0.0,0.0,2.9338796138763428,2.139479637145996,4.5559234619140625,-531.0380249023438,0
1050.5730000000003,-0.042686861008405685,0.005186260212212801,-0.04029785469174385,0.0,0.0,0.0,0.0,-0.00012946079368703067,-0.003897294169291854,-0.0028129529673606157,1.0010004043579102,0.0,0.0,0.0,2.930105686187744,2.1407909393310547,4.555689334869385,-530.3549194335938,0
1060.496000000001,-0.04293973743915558,0.005247542634606361,-0.04048027843236923,0.0,0.0,0.0,0.0,0.0017204664181917906,-0.0029724242631345987,0.003055306151509285,0.9999887347221375,0.0,0.0,0.0,2.9266769886016846,2.136578321456909,4.554281711578369,-529.7343139648438,0
1070.3960000000006,-0.04319511353969574,0.005309506319463253,-0.04066203534603119,0.0,0.0,0.0,0.0,0.00015563436318188906,0.001534991548396647,-0.0014953822828829288,0.9994577765464783,0.0,0.0,0.0,2.9244775772094727,2.133066177368164,4.555569648742676,-529.3363037109375,0
1080.3140000000003,-0.04345264285802841,0.005370672792196274,-0.04084382951259613,0.0,0.0,0.0,0.0,-7.269996331160655e-06,0.000699069641996175,0.0018217040924355388,0.9999452829360962,0.0,0.0,0.0,2.921264171600342,2.130467414855957,4.5422539710998535,-528.754638671875,0
1090.2180000000008,-0.04371228069067001,0.005430291872471571,-0.0410260409116745,0.0,0.0,0.0,0.0,0.002212864812463522,0.0001208852045238018,0.0009064628393389285,1.0003294944763184,0.0,0.0,0.0,2.9188992977142334,2.127523899078369,4.53157901763916,-528.3265991210938,0
1100.1370000000006,-0.04397442191839218,0.005488128867000341,-0.041208162903785706,0.0,0.0,0.0,0.0,-0.00048253271961584687,0.001105276751331985,-0.0025098291225731373,1.0014793872833252,0.0,0.0,0.0,2.9155027866363525,2.122349500656128,4.526342391967773,-527.7118530273438,0
1110.0380000000005,-0.04423936456441879,0.005545323248952627,-0.04138960316777229,0.0,0.0,0.0,0.0,-0.00043020694283768535,-0.0006681763916276395,-5.937413880019449e-05,1.0006091594696045,0.0,0.0,0.0,2.911929130554199,2.1195871829986572,4.511374473571777,-527.06494140625,0
1119.9560000000001,-0.04450679197907448,0.005603902507573366,-0.04157015308737755,0.0,0.0,0.0,0.0,0.0022917860187590122,-0.005929932929575443,-0.003957690205425024,0.9998579025268555,0.0,0.0,0.0,2.9091858863830566,2.123090982437134,4.51162052154541,-526.5684204101562,0
1129.8610000000008,-0.044776029884815216,0.005664885975420475,-0.04174993187189102,0.0,0.0,0.0,0.0,2.1549123630393296e-05,-0.004065375775098801,0.002106624422594905,1.000588297843933,0.0,0.0,0.0,2.9058358669281006,2.116948366165161,4.5213847160339355,-525.9620361328125,0
1139.7800000000007,-0.04504646733403206,0.005727345123887062,-0.04192940890789032,0.0,0.0,0.0,0.0,-0.0017426330596208572,-8.251352119259536e-05,-0.0012551486724987626,1.000595211982727,0.0,0.0,0.0,2.9036967754364014,2.117583751678467,4.532168865203857,-525.5748901367188,0
1149.683000000001,-0.0453178808093071,0.005790143273770809,-0.04210864380002022,0.0,0.0,0.0,0.0,-0.0006982161430642009,0.0032762533519417048,0.0007885396480560303,1.0004889965057373,0.0,0.0,0.0,2.899287700653076,2.117565155029297,4.526149749755859,-524.77685546875,0
1159.603000000001,-0.045590635389089584,0.005853141192346811,-0.0422871969640255,0.0,0.0,0.0,0.0,0.0021582250483334064,-0.0030536092817783356,0.0019365379121154547,1.0017495155334473,0.0,0.0,0.0,2.896813154220581,2.1165285110473633,4.522062301635742,-524.3289184570312,0
1169.5060000000012,-0.045864660292863846,0.005916660651564598,-0.042464904487133026,0.0,0.0,0.0,0.0,0.001811756519600749,0.003163242479786277,0.001643326599150896,1.002047061920166,0.0,0.0,0.0,2.894097328186035,2.111488103866577,4.519179344177246,-523.83740234375,0
1179.4260000000013,-0.04613972455263138,0.005980725400149822,-0.04264090582728386,0.0,0.0,0.0,0.0,0.0009677625494077802,0.0036769849248230457,-0.001820458099246025,0.9981939792633057,0.0,0.0,0.0,2.8912110328674316,2.112701177597046,4.510812759399414,-523.3150024414062,0
1189.3320000000003,-0.046416811645030975,0.006044425535947084,-0.04281593859195709,0.0,0.0,0.0,0.0,-0.004768194165080786,-0.00019382609752938151,0.0014069870812818408,0.9972533583641052,0.0,0.0,0.0,2.8876607418060303,2.113252639770508,4.505058765411377,-522.67236328125,0
1199.2489999999998,-0.046697214245796204,0.006106782238930464,-0.04299236834049225,0.0,0.0,0.0,0.0,0.0006345380679704249,0.0015393622452393174,-0.0014446284621953964,0.9991032481193542,0.0,0.0,0.0,2.884193181991577,2.1162335872650146,4.498892307281494,-522.0447387695312,0
1209.1499999999996,-0.046980854123830795,0.006167744752019644,-0.04317044839262962,0.0,0.0,0.0,0.0,0.0004142032703384757,-0.002343697240576148,-0.0032287330832332373,0.9995213747024536,0.0,0.0,0.0,2.88181209564209,2.1149964332580566,4.489574432373047,-521.6137084960938,0
1219.0699999999997,-0.043352898210287094,0.005423383321613073,-0.04128185287117958,0.0,0.0,0.0,0.0,-0.0017578202532604337,-0.0034322787541896105,-0.0007148178410716355,0.9998352527618408,0.0,0.0,0.0,2.8970232009887695,2.126140832901001,4.67227029800415,-524.366943359375,0
1228.9719999999998,-0.04357749968767166,0.005484574008733034,-0.041468024253845215,0.0,0.0,0.0,0.0,0.0024936555419117212,0.0012202200014144182,0.0033460594713687897,0.9998027086257935,0.0,0.0,0.0,2.894483804702759,2.1317012310028076,4.672765254974365,-523.9073486328125,0
1238.8940000000002,-0.04238951578736305,0.005184501875191927,-0.04053634777665138,0.0,0.0,0.0,0.0,-1.3536860024032649e-06,-0.0013384323101490736,-0.0028341764118522406,1.0014550685882568,0.0,0.0,0.0,2.9082295894622803,2.129195213317871,4.708003997802734,-526.3953247070312,0
1248.799000000001,-0.042601171880960464,0.005245642736554146,-0.04071804881095886,0.0,0.0,0.0,0.0,0.002182435942813754,0.0011745268711820245,0.001843846752308309,1.0017993450164795,0.0,0.0,0.0,2.9038212299346924,2.1265029907226562,4.701507091522217,-525.597412109375,0
1258.7150000000001,-0.04135195538401604,0.004894982557743788,-0.03960901498794556,0.0,0.0,0.0,0.0,2.4687196855666116e-05,0.000248598400503397,-0.003293572925031185,1.0015751123428345,0.0,0.0,0.0,2.923981189727783,2.1221773624420166,4.718837261199951,-529.2463989257812,0
1268.6200000000008,-0.0415552519261837,0.004953202325850725,-0.03978057578206062,0.0,0.0,0.0,0.0,0.00040491041727364063,0.002644025022163987,0.0021519239526242018,1.0011911392211914,0.0,0.0,0.0,2.9206671714782715,2.1220602989196777,4.710541248321533,-528.6466064453125,0
1278.5420000000013,-0.0403282605111599,0.004593465942889452,-0.03866095095872879,0.0,0.0,0.0,0.0,-0.00030267544207163155,0.002192263724282384,0.0002981614670716226,1.0006295442581177,0.0,0.0,0.0,2.9454734325408936,2.125537633895874,4.7191290855407715,-533.1365966796875,0
1288.4390000000003,-0.04052174836397171,0.004651946481317282,-0.038822684437036514,0.0,0.0,0.0,0.0,-0.0018707948038354516,-0.0009879659628495574,-0.0015289736911654472,0.9986189007759094,0.0,0.0,0.0,2.9431803226470947,2.11782169342041,4.712798118591309,-532.721435546875,0
1298.3590000000004,-0.039440710097551346,0.004334027413278818,-0.037824176251888275,0.0,0.0,0.0,0.0,-0.0003785861190408468,0.002331063849851489,0.00041281746234744787,1.0004451274871826,0.0,0.0,0.0,2.9627983570098877,2.1206226348876953,4.729095458984375,-536.2723999023438,0
1308.2610000000004,-0.03962770476937294,0.004392772447317839,-0.03798013925552368,0.0,0.0,0.0,0.0,0.0014037075452506542,0.0033487132750451565,-0.0014975933590903878,1.0003217458724976,0.0,0.0,0.0,2.959744691848755,2.116473913192749,4.717115879058838,-535.7197265625,0
1318.184000000001,-0.038838088512420654,0.004143700934946537,-0.03719605132937431,0.0,0.0,0.0,0.0,-0.0016193119809031487,-0.001960843801498413,0.0022459854371845722,0.9990842938423157,0.0,0.0,0.0,2.9753715991973877,2.106555938720703,4.714245319366455,-538.5481567382812,0
1328.0830000000005,-0.03902522101998329,0.004200931638479233,-0.037345144897699356,0.0,0.0,0.0,0.0,-0.0016328060301020741,0.0018000429263338447,-0.0005271953414194286,0.9999207258224487,0.0,0.0,0.0,2.9722464084625244,2.100320339202881,4.7085862159729,-537.9825439453125,0
1338.0030000000006,-0.03826727718114853,0.003960069734603167,-0.036605559289455414,0.0,0.0,0.0,0.0,0.0016169011360034347,-0.0017872139578685164,0.001153517165221274,0.9985935688018799,0.0,0.0,0.0,2.9796674251556396,2.098799467086792,4.709778308868408,-539.3257446289062,0
1347.9060000000009,-0.03847045451402664,0.004019102081656456,-0.03676394373178482,0.0,0.0,0.0,0.0,-3.725018905242905e-05,-0.0011041541583836079,-0.0007126571726985276,0.9998595714569092,0.0,0.0,0.0,2.976984977722168,2.0881216526031494,4.702422142028809,-538.8402709960938,0
1357.8320000000003,-0.037748802453279495,0.0037355306558310986,-0.03602708503603935,0.0,0.0,0.0,0.0,0.0021757089998573065,0.0022602665703743696,0.005443792324513197,0.9977607727050781,0.0,0.0,0.0,2.9812214374542236,2.0623319149017334,4.699812889099121,-539.6069946289062,0
1367.7300000000014,-0.037934865802526474,0.003781963372603059,-0.03616664931178093,0.0,0.0,0.0,0.0,0.004176207818090916,0.0023349160328507423,0.002755335997790098,0.9998053312301636,0.0,0.0,0.0,2.978374719619751,2.0538785457611084,4.683007717132568,-539.0917358398438,0
1377.6460000000006,-0.037355467677116394,0.0035434190649539232,-0.0355171300470829,0.0,0.0,0.0,0.0,0.00193545944057405,-0.0005888578598387539,-0.0015793533530086279,0.9998118877410889,0.0,0.0,0.0,2.974987745285034,2.04479718208313,4.664583206176758,-538.4786376953125,0
1387.5519999999997,-0.03754571080207825,0.0035843055229634047,-0.03565114364027977,0.0,0.0,0.0,0.0,0.002168291946873069,4.394236748339608e-05,0.0005584442405961454,1.001401662826538,0.0,0.0,0.0,2.9711434841156006,2.04362416267395,4.654440879821777,-537.7828369140625,0
1397.4800000000014,-0.036828771233558655,0.003314725821837783,-0.03491954877972603,0.0,0.0,0.0,0.0,2.9907538191764615e-05,7.407576504192548e-06,-0.0012852518120780587,1.0005607604980469,0.0,0.0,0.0,2.978368043899536,2.025601863861084,4.649907112121582,-539.090576171875,0
1407.380000000001,-0.037016935646533966,0.0033525556791573763,-0.03504679724574089,0.0,0.0,0.0,0.0,0.0014611691003665328,0.0022278104443103075,0.0038813240826129913,1.0011361837387085,0.0,0.0,0.0,2.9749035835266113,2.025299549102783,4.647902488708496,-538.4634399414062,0
1417.2970000000005,-0.03627945855259895,0.003160168183967471,-0.03435010462999344,0.0,0.0,0.0,0.0,0.0021337694488465786,0.0033605298958718777,-0.0009941087337210774,1.0017307996749878,0.0,0.0,0.0,2.9843192100524902,2.0397884845733643,4.661293983459473,-540.167724609375,0
1427.2070000000003,-0.036464039236307144,0.003199446713551879,-0.03447119891643524,0.0,0.0,0.0,0.0,9.254476753994823e-05,-0.003372523467987776,0.00037515099393203855,0.999197244644165,0.0,0.0,0.0,2.9810433387756348,2.032970428466797,4.648917198181152,-539.5748291015625,0
1437.1180000000004,-0.03555819392204285,0.002961711259558797,-0.03367422893643379,0.0,0.0,0.0,0.0,-0.0025078014004975557,0.0032105438876897097,-0.0003130418772343546,1.0002018213272095,0.0,0.0,0.0,2.9966437816619873,2.0448977947235107,4.678400993347168,-542.3984375,0
1447.0249999999996,-0.035735636949539185,0.003002310171723366,-0.0337924025952816,0.0,0.0,0.0,0.0,0.0012419936247169971,-0.004572808742523193,-0.0007921431679278612,1.0003464221954346,0.0,0.0,0.0,2.9933862686157227,2.0488522052764893,4.672463417053223,-541.8088989257812,0
1456.9350000000013,-0.03479514271020889,0.0027691316790878773,-0.03304661437869072,0.0,0.0,0.0,0.0,0.0018414250807836652,0.001615813816897571,-0.0023631597869098186,1.0004476308822632,0.0,0.0,0.0,3.002178430557251,2.0586535930633545,4.720871925354004,-543.4002075195312,0
1466.848,-0.03496075049042702,0.0028089138213545084,-0.033164627850055695,0.0,0.0,0.0,0.0,0.0007699489942751825,-0.0015102203469723463,-0.0013061712961643934,1.0002315044403076,0.0,0.0,0.0,2.998089075088501,2.057522773742676,4.7125043869018555,-542.6600341796875,0
1476.7530000000006,-0.034437764436006546,0.0026854942552745342,-0.03280364349484444,0.0,0.0,0.0,0.0,-0.00028168287826702,-0.00617237389087677,-0.0019435301655903459,1.0007647275924683,0.0,0.0,0.0,3.0012378692626953,2.058434247970581,4.750666618347168,-543.2300415039062,0
1486.6689999999999,-0.03459491953253746,0.0027264452073723078,-0.03292287513613701,0.0,0.0,0.0,0.0,-0.0019243491115048528,0.00020752365526277572,-0.0007292284863069654,1.0001685619354248,0.0,0.0,0.0,2.9977355003356934,2.0570712089538574,4.7610650062561035,-542.5960693359375,0
1496.5820000000003,-0.03394092619419098,0.0025445171631872654,-0.03233044221997261,0.0,0.0,0.0,0.0,0.0036934111267328262,0.007495598401874304,-0.0019270924385637045,1.0001355409622192,0.0,0.0,0.0,3.0095102787017822,2.061692476272583,4.785789966583252,-544.7274169921875,0
1506.4940000000006,-0.03409280627965927,0.00258527509868145,-0.03244544193148613,0.0,0.0,0.0,0.0,0.0031780500430613756,-0.003366876393556595,0.005642357282340527,1.002177357673645,0.0,0.0,0.0,3.006206750869751,2.0543196201324463,4.770796298980713,-544.12939453125,0
1516.398000000001,-0.033524200320243835,0.002424380276352167,-0.03194723278284073,0.0,0.0,0.0,0.0,0.00045721043716184795,-0.002801517490297556,-0.0009548129164613783,1.0003072023391724,0.0,0.0,0.0,3.014920949935913,2.0530145168304443,4.7929582595825195,-545.7067260742188,0
1526.312,-0.03367169201374054,0.0024624608922749758,-0.03205794468522072,0.0,0.0,0.0,0.0,-0.00032550544710829854,0.0012970088282600045,0.0035996383521705866,0.9987690448760986,0.0,0.0,0.0,3.010396718978882,2.0513393878936768,4.791915416717529,-544.8878173828125,0
1536.2210000000014,-0.03333563730120659,0.002387451007962227,-0.03184795752167702,0.0,0.0,0.0,0.0,-0.003539151744917035,-0.000912872317712754,0.005189976654946804,1.000059723854065,0.0,0.0,0.0,3.008073329925537,2.0486419200897217,4.796301364898682,-544.46728515625,0
1546.134,-0.03347428888082504,0.002425322076305747,-0.0319611020386219,0.0,0.0,0.0,0.0,0.0006183010991662741,-0.002517716959118843,0.002200523391366005,1.0002262592315674,0.0,0.0,0.0,3.00538969039917,2.0550079345703125,4.796918869018555,-543.9815063476562,0
1556.0400000000009,-0.033291853964328766,0.0023867979180067778,-0.03187907114624977,0.0,0.0,0.0,0.0,0.0009869630448520184,0.0008534796652384102,-0.0034541033674031496,1.0001540184020996,0.0,0.0,0.0,3.003246784210205,2.059048652648926,4.796688079833984,-543.5935668945312,0
1565.951000000001,-0.03342530131340027,0.0024246536195278168,-0.031993549317121506,0.0,0.0,0.0,0.0,0.0009758997475728393,-0.0006422809674404562,0.00046456942800432444,0.9994631409645081,0.0,0.0,0.0,2.9989662170410156,2.0539608001708984,4.788390159606934,-542.8187866210938,0
1575.8640000000014,-0.03281928971409798,0.002248156815767288,-0.03148861601948738,0.0,0.0,0.0,0.0,-0.000449016981292516,-0.0007159399683587253,0.0016066408716142178,1.0003583431243896,0.0,0.0,0.0,3.006366014480591,2.047527313232422,4.811470031738281,-544.1582641601562,0
1585.773000000001,-0.03294740244746208,0.002283580368384719,-0.03160133957862854,0.0,0.0,0.0,0.0,0.002890076022595167,0.0008334518643096089,0.0019200994865968823,1.001579999923706,0.0,0.0,0.0,3.0039608478546143,2.048214912414551,4.810453414916992,-543.7228393554688,0
1595.684000000001,-0.032756779342889786,0.0022252327762544155,-0.03148367255926132,0.0,0.0,0.0,0.0,-0.0012016237014904618,-0.0032229057978838682,-0.0023174381349235773,0.999936044216156,0.0,0.0,0.0,3.0081562995910645,2.040271282196045,4.822747707366943,-544.4822998046875,0
1605.603000000001,-0.03288319334387779,0.002258895430713892,-0.03159534931182861,0.0,0.0,0.0,0.0,0.002101140795275569,0.0026424408424645662,0.001067705568857491,0.999342679977417,0.0,0.0,0.0,3.003751277923584,2.0442888736724854,4.822679042816162,-543.6849365234375,0
1615.5079999999998,-0.032315537333488464,0.002152606612071395,-0.03112562745809555,0.0,0.0,0.0,0.0,-0.0027886927127838135,-0.00316718895919621,-0.0006688092835247517,0.9995136260986328,0.0,0.0,0.0,3.0137104988098145,2.0568366050720215,4.848982334136963,-545.4876098632812,0
1625.4279999999999,-0.03243335708975792,0.002189493039622903,-0.03123617358505726,0.0,0.0,0.0,0.0,-2.249264252895955e-05,-0.0015387296443805099,-6.0785758250858635e-05,0.9993205070495605,0.0,0.0,0.0,3.0105013847351074,2.054021120071411,4.847890377044678,-544.90673828125,0
1635.3280000000013,-0.032364118844270706,0.0021633647847920656,-0.031209545210003853,0.0,0.0,0.0,0.0,-0.004670309834182262,-0.0005367197445593774,0.0026102857664227486,1.0001394748687744,0.0,0.0,0.0,3.017655611038208,2.0520153045654297,4.85214900970459,-546.2017211914062,0
1645.2569999999996,-0.03248097747564316,0.002196765970438719,-0.03132132068276405,0.0,0.0,0.0,0.0,0.0008307784446515143,0.0005945733864791691,0.0016115986509248614,0.9989554286003113,0.0,0.0,0.0,3.015380382537842,2.055123805999756,4.8543171882629395,-545.7898559570312,0
1655.1560000000009,-0.032046686857938766,0.0020541443955153227,-0.030915411189198494,0.0,0.0,0.0,0.0,-0.0002979754644911736,0.005463951267302036,0.0016272193752229214,0.9983423352241516,0.0,0.0,0.0,3.0220911502838135,2.048386573791504,4.850618362426758,-547.0045166015625,0
1665.071,-0.0321645513176918,0.0020830335561186075,-0.031024973839521408,0.0,0.0,0.0,0.0,-0.0020638960413634777,-0.000488540914375335,0.004079603124409914,1.0009535551071167,0.0,0.0,0.0,3.0196964740753174,2.053318500518799,4.845180034637451,-546.571044921875,0
1674.9740000000002,-0.03234463930130005,0.002124815946444869,-0.031140416860580444,0.0,0.0,0.0,0.0,0.00026053571491502225,0.0031203918624669313,-0.000436893169535324,1.0017995834350586,0.0,0.0,0.0,3.024440050125122,2.0494563579559326,4.8314409255981445,-547.4296875,0
1684.8909999999996,-0.03246844932436943,0.0021533321123570204,-0.03124764747917652,0.0,0.0,0.0,0.0,0.0019843452610075474,0.002703197067603469,-0.0017172193620353937,1.0011875629425049,0.0,0.0,0.0,3.0214803218841553,2.042188882827759,4.822773456573486,-546.8939819335938,0
1694.7970000000005,-0.032623715698719025,0.002138149458914995,-0.03130193427205086,0.0,0.0,0.0,0.0,0.003111275378614664,0.0004890394047833979,-0.0054962970316410065,1.000033974647522,0.0,0.0,0.0,3.0178730487823486,2.038119316101074,4.815040111541748,-546.2410278320312,0
1704.710000000001,-0.03275417163968086,0.0021658451296389103,-0.03140407055616379,0.0,0.0,0.0,0.0,-0.000888324691914022,-0.001061836490407586,-0.002924992237240076,1.0012027025222778,0.0,0.0,0.0,3.0142107009887695,2.0298190116882324,4.813451766967773,-545.578125,0
1714.6200000000008,-0.03283306956291199,0.002150218468159437,-0.03141365200281143,0.0,0.0,0.0,0.0,-0.004362155683338642,0.005973268765956163,-0.005638455040752888,1.0000606775283813,0.0,0.0,0.0,3.0189590454101562,2.021385431289673,4.798005104064941,-546.4376220703125,0
1724.5290000000005,-0.032970130443573,0.0021761448588222265,-0.03151239827275276,0.0,0.0,0.0,0.0,0.0028074493166059256,0.002669512527063489,-0.0024283109232783318,0.9999238848686218,0.0,0.0,0.0,3.0142037868499756,2.0228140354156494,4.787666320800781,-545.5768432617188,0
1734.4390000000003,-0.03305454179644585,0.0021821316331624985,-0.03154468908905983,0.0,0.0,0.0,0.0,0.0011494520585983992,-0.0016930669080466032,0.001238400349393487,1.0014090538024902,0.0,0.0,0.0,3.0170795917510986,2.0165791511535645,4.769869327545166,-546.097412109375,0
1744.3649999999998,-0.033195845782756805,0.002209255238994956,-0.031641799956560135,0.0,0.0,0.0,0.0,0.00025078043108806014,0.002014538738876581,9.126483200816438e-05,0.9998749494552612,0.0,0.0,0.0,3.013631820678711,2.0129287242889404,4.763914585113525,-545.4733276367188,0
1754.2659999999996,-0.03292591869831085,0.002175298286601901,-0.03147956728935242,0.0,0.0,0.0,0.0,-0.0017684530466794968,-0.0019229687750339508,0.0007598486845381558,0.9997876882553101,0.0,0.0,0.0,3.010338068008423,2.012308359146118,4.762962341308594,-544.877197265625,0
1764.1850000000013,-0.03306134417653084,0.002204024698585272,-0.031578097492456436,0.0,0.0,0.0,0.0,0.0007744258618913591,-0.0011941831326112151,-0.004685514606535435,1.0019214153289795,0.0,0.0,0.0,3.007323980331421,2.0042386054992676,4.761033058166504,-544.3316040039062,0
1774.085000000001,-0.032644763588905334,0.0021010017953813076,-0.031191447749733925,0.0,0.0,0.0,0.0,-0.0017189827049151063,-0.005148257128894329,0.0013698936672881246,0.999853789806366,0.0,0.0,0.0,3.013272762298584,2.0092155933380127,4.773035526275635,-545.4083862304688,0
1784.0069999999996,-0.03277818486094475,0.002130648121237755,-0.03128625452518463,0.0,0.0,0.0,0.0,0.0034977879840880632,-0.0010435133008286357,-0.00033670684206299484,0.9979007244110107,0.0,0.0,0.0,3.010690689086914,2.0125370025634766,4.77476167678833,-544.9409790039062,0
1793.907000000001,-0.032305870205163956,0.002001323038712144,-0.030839858576655388,0.0,0.0,0.0,0.0,-0.0009076878777705133,-0.0005644734483212233,0.0029392442665994167,1.0004979372024536,0.0,0.0,0.0,3.0193042755126953,2.014193534851074,4.79164981842041,-546.5001220703125,0
1803.83,-0.03243941813707352,0.0020312522538006306,-0.03093341365456581,0.0,0.0,0.0,0.0,-0.0018107837531715631,-0.001965409843251109,0.002231886610388756,0.9987375736236572,0.0,0.0,0.0,3.0166118144989014,2.0113346576690674,4.798453330993652,-546.0127563476562,0
1813.7290000000012,-0.03242414444684982,0.002055864315479994,-0.03093927539885044,0.0,0.0,0.0,0.0,0.002505473792552948,-0.002579565392807126,-0.00037354871165007353,1.0000245571136475,0.0,0.0,0.0,3.0206098556518555,2.0270307064056396,4.8075127601623535,-546.7363891601562,0
1823.6450000000004,-0.032556768506765366,0.002087049651890993,-0.031034503132104874,0.0,0.0,0.0,0.0,-0.0005301836063154042,-0.0003959886380471289,0.0011534139048308134,0.99898362159729,0.0,0.0,0.0,3.017077684402466,2.0229077339172363,4.807724952697754,-546.0971069335938,0
1833.5510000000013,-0.03218244016170502,0.00199017021805048,-0.03069499507546425,0.0,0.0,0.0,0.0,0.0034479168243706226,-0.0004941212246194482,-0.002214063424617052,0.9990732073783875,0.0,0.0,0.0,3.0264782905578613,2.0316319465637207,4.814541816711426,-547.798583984375,0
1843.473,-0.03231292590498924,0.0020236398559063673,-0.030789991840720177,0.0,0.0,0.0,0.0,-0.0012180502526462078,-0.0006519345915876329,0.00011251909745624289,1.000673532485962,0.0,0.0,0.0,3.0231099128723145,2.0296952724456787,4.808757305145264,-547.1889038085938,0
1853.3739999999998,-0.03202298656105995,0.0019515935564413667,-0.030479341745376587,0.0,0.0,0.0,0.0,0.0015870275674387813,-0.00030358810909092426,-0.0003567581588868052,1.0010559558868408,0.0,0.0,0.0,3.033491373062134,2.042645215988159,4.811712265014648,-549.0679321289062,0
1863.2920000000013,-0.03215308114886284,0.0019858500454574823,-0.030571039766073227,0.0,0.0,0.0,0.0,-0.0022806208580732346,0.0008642546599730849,-0.003632545005530119,1.0010712146759033,0.0,0.0,0.0,3.03188419342041,2.039738655090332,4.816065788269043,-548.7770385742188,0
1873.1970000000001,-0.03210269287228584,0.001993426587432623,-0.030581075698137283,0.0,0.0,0.0,0.0,-0.002484915778040886,-0.0006978820892982185,-0.0018015385139733553,0.9983271956443787,0.0,0.0,0.0,3.0269815921783447,2.039733648300171,4.800288677215576,-547.8896484375,0
1883.1090000000004,-0.032229941338300705,0.002027965383604169,-0.03067352995276451,0.0,0.0,0.0,0.0,-0.0027675002347677946,-0.0021807581651955843,0.0026069132145494223,0.9986804127693176,0.0,0.0,0.0,3.022966146469116,2.037477731704712,4.794619083404541,-547.1629028320312,0
1893.0169999999998,-0.03179251402616501,0.0018998505547642708,-0.030292818322777748,0.0,0.0,0.0,0.0,0.001533425529487431,-0.002854052232578397,0.0012480204459279776,1.0014917850494385,0.0,0.0,0.0,3.0331664085388184,2.0392425060272217,4.8103132247924805,-549.0090942382812,0
1902.938,-0.03191378712654114,0.0019329572096467018,-0.030385250225663185,0.0,0.0,0.0,0.0,0.003085771109908819,-0.004966658540070057,-0.0008278486202470958,0.9990615248680115,0.0,0.0,0.0,3.0303773880004883,2.0373775959014893,4.81810188293457,-548.5042724609375,0
1912.8410000000003,-0.0314750038087368,0.0018112852703779936,-0.029995257034897804,0.0,0.0,0.0,0.0,-0.0002244197967229411,0.00010633606871124357,-0.0004304989706724882,0.9967100620269775,0.0,0.0,0.0,3.0389742851257324,2.0347113609313965,4.832828044891357,-550.0603637695312,0
1922.7600000000002,-0.03159262239933014,0.0018439184641465545,-0.030086129903793335,0.0,0.0,0.0,0.0,0.0009089834638871253,0.0035486402921378613,-0.0003491721872705966,0.9987779259681702,0.0,0.0,0.0,3.0366051197052,2.0299341678619385,4.822455883026123,-549.631591796875,0
1932.6650000000009,-0.03106052242219448,0.0016965115210041404,-0.02968950942158699,0.0,0.0,0.0,0.0,-0.0020417117048054934,0.0007866263622418046,0.0005850124871358275,1.0008494853973389,0.0,0.0,0.0,3.04182767868042,2.0272510051727295,4.844380855560303,-550.576904296875,0
1942.585000000001,-0.031172078102827072,0.0017273699631914496,-0.02978390082716942,0.0,0.0,0.0,0.0,5.084893200546503e-05,0.0026796627789735794,-0.00456721056252718,0.9984385371208191,0.0,0.0,0.0,3.037642002105713,2.030268430709839,4.826039791107178,-549.8192749023438,0
1952.4890000000014,-0.030956609174609184,0.0016682023415341973,-0.029674142599105835,0.0,0.0,0.0,0.0,-0.0002598269493319094,0.0008060169639065862,0.0012415257515385747,0.9986358880996704,0.0,0.0,0.0,3.042259931564331,2.03349232673645,4.838151931762695,-550.6550903320312,0
1962.4040000000005,-0.031064780429005623,0.0016982092056423426,-0.029770979657769203,0.0,0.0,0.0,0.0,0.005343255121260881,0.0037768918555229902,0.001686547533608973,1.0003381967544556,0.0,0.0,0.0,3.039547920227051,2.0323691368103027,4.828183650970459,-550.1642456054688,0
1972.308000000001,-0.031121741980314255,0.001682689180597663,-0.029850872233510017,0.0,0.0,0.0,0.0,0.002072660718113184,0.00031890979153104126,0.0025650756433606148,0.999765932559967,0.0,0.0,0.0,3.0418624877929688,2.0136845111846924,4.826058864593506,-550.5831298828125,0
1982.2250000000004,-0.031232256442308426,0.001710623037070036,-0.029949234798550606,0.0,0.0,0.0,0.0,-0.0013251095078885555,0.0004254177329130471,-0.0056168329901993275,1.0003080368041992,0.0,0.0,0.0,3.0391883850097656,2.0124330520629883,4.817883491516113,-550.09912109375,0
1992.134,-0.03134230524301529,0.0017530980985611677,-0.030057106167078018,0.0,0.0,0.0,0.0,-0.00027314372709952295,0.0028394164983183146,-0.0005643142503686249,0.9979477524757385,0.0,0.0,0.0,3.035492420196533,2.0057716369628906,4.8277130126953125,-549.4301147460938,0
2002.0519999999997,-0.031454361975193024,0.001781147439032793,-0.030155954882502556,0.0,0.0,0.0,0.0,0.0006870440556667745,0.0016744895838201046,-0.004534220322966576,0.998209536075592,0.0,0.0,0.0,3.0327517986297607,2.0087759494781494,4.819977760314941,-548.9341430664062,0
2011.9560000000001,-0.031465377658605576,0.0017593950033187866,-0.030198363587260246,0.0,0.0,0.0,0.0,-0.002282570581883192,0.0030398042872548103,-0.0007033938309177756,0.9991257190704346,0.0,0.0,0.0,3.0288422107696533,2.0021770000457764,4.808598041534424,-548.2264404296875,0
2021.8680000000004,-0.031579241156578064,0.0017849677242338657,-0.03030083142220974,0.0,0.0,0.0,0.0,0.0023009958676993847,0.004388950765132904,0.0038180772680789232,1.0011415481567383,0.0,0.0,0.0,3.0259501934051514,2.0021560192108154,4.80299711227417,-547.7030029296875,0
2031.7759999999998,-0.03157965838909149,0.0018063264433294535,-0.030372098088264465,0.0,0.0,0.0,0.0,2.4807914087432437e-05,-5.346990292309783e-06,-0.0017241373425349593,1.0005977153778076,0.0,0.0,0.0,3.0233612060546875,1.9998592138290405,4.790009021759033,-547.2344360351562,0
2041.6940000000013,-0.03169291466474533,0.0018321950919926167,-0.030476097017526627,0.0,0.0,0.0,0.0,-0.0013650781475007534,-0.0011865291744470596,-0.0004639575781766325,1.0022075176239014,0.0,0.0,0.0,3.0198349952697754,1.9952976703643799,4.7735466957092285,-546.59619140625,0
2051.599,-0.031623683869838715,0.0018361832480877638,-0.03046228736639023,0.0,0.0,0.0,0.0,0.002981252735480666,0.0031614676117897034,-0.004988203756511211,0.9994457960128784,0.0,0.0,0.0,3.016779661178589,1.996718168258667,4.7674241065979,-546.0431518554688,0
2061.5200000000004,-0.0315731018781662,0.001837820396758616,-0.030455240979790688,0.0,0.0,0.0,0.0,-0.0003074209380429238,-0.0033869280014187098,0.00021887013281229883,0.998188853263855,0.0,0.0,0.0,3.022392749786377,1.9980130195617676,4.769917964935303,-547.05908203125,0
2071.4220000000005,-0.031685102730989456,0.0018664808012545109,-0.03055880405008793,0.0,0.0,0.0,0.0,0.0006696681957691908,-0.004769858904182911,-0.000519329565577209,0.9994936585426331,0.0,0.0,0.0,3.0191519260406494,1.996645212173462,4.775952339172363,-546.4725341796875,0
2081.3370000000014,-0.03179818391799927,0.0018960133893415332,-0.030663656070828438,0.0,0.0,0.0,0.0,0.002654369454830885,-0.0001487309782532975,-0.0014620742294937372,1.0015829801559448,0.0,0.0,0.0,3.0159385204315186,2.003573417663574,4.776118755340576,-545.8909301757812,0
2091.241,-0.03173147514462471,0.0018923316383734345,-0.030630920082330704,0.0,0.0,0.0,0.0,9.540317114442587e-05,-0.0019307421753183007,-0.001385767594911158,0.9994122385978699,0.0,0.0,0.0,3.0199949741363525,2.0044479370117188,4.784812927246094,-546.6251220703125,0
2101.1679999999997,-0.031431905925273895,0.0018150473479181528,-0.03035728819668293,0.0,0.0,0.0,0.0,-0.0006385814631357789,-0.002287401119247079,0.0017037795623764396,0.9980282783508301,0.0,0.0,0.0,3.0331647396087646,2.005826234817505,4.787075519561768,-549.0087890625,0
2111.062,-0.03154152259230614,0.0018448397750034928,-0.03045940212905407,0.0,0.0,0.0,0.0,-0.001036967383697629,-0.0028621056117117405,0.0011964673176407814,0.9993602633476257,0.0,0.0,0.0,3.0309815406799316,2.0038440227508545,4.77977180480957,-548.6137084960938,0
2120.9890000000014,-0.03171352669596672,0.0018958814907819033,-0.030585650354623795,0.0,0.0,0.0,0.0,0.0011244566412642598,-0.0022622887045145035,0.0010468693217262626,1.0019065141677856,0.0,0.0,0.0,3.0282933712005615,2.0113637447357178,4.787530899047852,-548.1270751953125,0
2130.8860000000004,-0.03182782977819443,0.0019261528505012393,-0.03068789467215538,0.0,0.0,0.0,0.0,0.0016353208338841796,0.0010574629995971918,-0.0017563544679433107,1.0012320280075073,0.0,0.0,0.0,3.0247609615325928,2.0091805458068848,4.781379222869873,-547.4877319335938,0
2140.8100000000013,-0.03201529383659363,0.0019913003779947758,-0.030822038650512695,0.0,0.0,0.0,0.0,0.005169969983398914,0.0015198601176962256,-0.00583846727386117,1.0002331733703613,0.0,0.0,0.0,3.029055595397949,2.0130515098571777,4.756401538848877,-548.2650756835938,0
2150.7129999999997,-0.032135311514139175,0.002025381661951542,-0.03092087432742119,0.0,0.0,0.0,0.0,7.218564132926986e-05,-0.00193780567497015,0.004252274055033922,1.0014187097549438,0.0,0.0,0.0,3.0252652168273926,2.002434730529785,4.754694938659668,-547.5790405273438,0
2160.6360000000004,-0.03232856094837189,0.002047777408733964,-0.03102172538638115,0.0,0.0,0.0,0.0,-0.001875082845799625,0.0009563139174133539,-0.0017747610108926892,1.0019463300704956,0.0,0.0,0.0,3.0283381938934326,1.9886934757232666,4.731612682342529,-548.13525390625,0
2170.535,-0.03245522081851959,0.002080372069031,-0.031116794794797897,0.0,0.0,0.0,0.0,-0.0017379776109009981,-0.005598815623670816,0.0019207301083952188,0.9996487498283386,0.0,0.0,0.0,3.0239109992980957,1.9858801364898682,4.7282609939575195,-547.3339233398438,0
