timestamp,stateEstimate.x,stateEstimate.y,stateEstimate.z,controller.cmd_thrust,controller.cmd_roll,controller.cmd_pitch,controller.cmd_yaw,controller.r_roll,controller.r_pitch,controller.r_yaw,controller.accelz,controller.actuatorThrust,controller.roll,controller.pitch,controller.yaw,controller.rollRate,controller.pitchRate,controller.yawRate,controller.ctr_yaw
0.0,0.00027030278579331934,5.951908678980544e-05,-0.0002551679499447346,0.0,0.0,0.0,0.0,0.0017887131543830037,-0.000788607110735029,-0.0007275545503944159,0.99726802110672,0.0,0.0,0.0,-0.110183484852314,0.40208423137664795,5.221156120300293,19.943429946899414,0
9.906999999999243,0.00027359227533452213,0.00011165718751726672,-0.00030957715352997184,0.0,0.0,0.0,0.0,-0.0002984063175972551,0.0039304341189563274,-0.003947600722312927,1.0005123615264893,0.0,0.0,0.0,-0.10952900350093842,0.4005185663700104,5.217826843261719,19.824966430664062,0
19.81499999999869,0.0002919630496762693,0.0001210664922837168,-0.00027603335911408067,0.0,0.0,0.0,0.0,0.0003814913798123598,-0.0008248090744018555,-0.0029271345119923353,1.000922441482544,0.0,0.0,0.0,-0.10991445183753967,0.4020189642906189,5.208690166473389,19.894733428955078,0
29.72399999999834,0.00027828640304505825,0.00014655970153398812,-0.00031416508136317134,0.0,0.0,0.0,0.0,0.0017172831576317549,0.007520008832216263,-0.0009091894025914371,0.9992764592170715,0.0,0.0,0.0,-0.11005736142396927,0.4006020724773407,5.21024751663208,19.92060089111328,0
39.6349999999984,0.0002333116135559976,0.00012085310299880803,-0.0003297083603683859,0.0,0.0,0.0,0.0,0.0037717921659350395,0.0015209458069875836,-0.0014326946111395955,0.9993282556533813,0.0,0.0,0.0,-0.11055546998977661,0.39749571681022644,5.190381050109863,20.010759353637695,0
49.54699999999866,0.00017937233496923,9.78366588242352e-05,-0.00033161963801831007,0.0,0.0,0.0,0.0,-0.0012019667774438858,-0.00047697732225060463,-0.0025308129843324423,0.9984160661697388,0.0,0.0,0.0,-0.11157605051994324,0.3891927897930145,5.182347297668457,20.195486068725586,0
59.45799999999872,0.00013056446914561093,6.859231507405639e-05,-0.00034726099693216383,0.0,0.0,0.0,0.0,-0.002407810650765896,0.0005366450059227645,4.720476135844365e-05,0.9971489310264587,0.0,0.0,0.0,-0.11249186098575592,0.3923627734184265,5.177662372589111,20.361251831054688,0
69.36799999999857,0.00010962158557958901,0.00013482752547133714,-0.0003937812289223075,0.0,0.0,0.0,0.0,0.0018418629188090563,-0.0012632636353373528,-0.0030989176593720913,0.9993930459022522,0.0,0.0,0.0,-0.11277806013822556,0.3966931700706482,5.16943883895874,20.41305160522461,0
79.27899999999863,5.976419197395444e-05,0.0001040840579662472,-0.00041508805588819087,0.0,0.0,0.0,0.0,-0.0033609315287321806,-0.0016820746241137385,-0.000965988845564425,1.000111699104309,0.0,0.0,0.0,-0.11421364545822144,0.3917721211910248,5.163880348205566,20.672897338867188,0
89.18999999999869,1.4392069715540856e-05,0.00014059942623134702,-0.0004306425107643008,0.0,0.0,0.0,0.0,-0.0004966854467056692,0.00038150986074469984,0.0034293869975954294,1.0008479356765747,0.0,0.0,0.0,-0.11520688980817795,0.39733871817588806,5.157649517059326,20.852678298950195,0
99.10099999999875,0.00024055638641584665,3.954584099119529e-05,-0.0002698396856430918,0.0,0.0,0.0,0.0,0.0005245141801424325,-0.0027640857733786106,-0.001090847421437502,0.9998104572296143,0.0,0.0,0.0,-0.11478165537118912,0.38847458362579346,5.2166523933410645,20.775707244873047,0
109.02099999999882,0.00025390658993273973,0.00010637494415277615,-0.0003176869940944016,0.0,0.0,0.0,0.0,0.0001033496591844596,0.0003490731760393828,-0.0017929502064362168,0.9996357560157776,0.0,0.0,0.0,-0.11511993408203125,0.39057493209838867,5.225072860717773,20.836936950683594,0
118.92799999999988,0.00021991171524859965,7.277139229699969e-05,-0.0003300575481262058,0.0,0.0,0.0,0.0,-0.00019988030544482172,0.002366471104323864,0.0033634109422564507,1.000909447669983,0.0,0.0,0.0,-0.11549410223960876,0.38953477144241333,5.221029281616211,20.904661178588867,0
128.84399999999914,0.00018766018911264837,0.00010786866187117994,-0.000316937715979293,0.0,0.0,0.0,0.0,-0.00028640642995014787,-0.0002273407153552398,0.001673382823355496,1.0000805854797363,0.0,0.0,0.0,-0.11500822752714157,0.38645726442337036,5.2115797996521,20.81671905517578,0
138.74599999999919,0.00033520496799610555,7.503914821427315e-05,-0.00020085695723537356,0.0,0.0,0.0,0.0,0.002365780295804143,0.002864609006792307,0.0007270336500369012,0.9992080926895142,0.0,0.0,0.0,-0.11540564149618149,0.38256844878196716,5.209012031555176,20.88865089416504,0
148.66399999999885,0.0003046144265681505,3.497476427583024e-05,-0.0002064999280264601,0.0,0.0,0.0,0.0,-0.0005043385899625719,-0.0034850791562348604,-0.0024476333055645227,0.9971222877502441,0.0,0.0,0.0,-0.11602800339460373,0.3782103359699249,5.197717666625977,21.001300811767578,0
158.5669999999991,0.0002703950449358672,-4.928602720610797e-06,-0.0002094004157697782,0.0,0.0,0.0,0.0,0.0013731059152632952,-0.001194878714159131,0.0007761386805213988,1.0003924369812012,0.0,0.0,0.0,-0.11633127182722092,0.38002529740333557,5.1989898681640625,21.05619239807129,0
168.48999999999978,0.0002488319296389818,-4.003735739388503e-06,-0.00022038262977730483,0.0,0.0,0.0,0.0,0.000191986866411753,-0.0035060658119618893,0.0009108775411732495,1.001671552658081,0.0,0.0,0.0,-0.11577724665403366,0.3768331706523895,5.196630001068115,20.95591163635254,0
178.39300000000003,0.00021246432152111083,-4.538697248790413e-05,-0.00022382552560884506,0.0,0.0,0.0,0.0,0.0033431395422667265,-0.0019313739612698555,0.0012917760759592056,0.9988186359405518,0.0,0.0,0.0,-0.11566024273633957,0.37822964787483215,5.190920352935791,20.934734344482422,0
188.3130000000001,0.00019031838746741414,3.8291869714157656e-05,-0.00021914376702625304,0.0,0.0,0.0,0.0,-0.0017913533374667168,0.0011151388753205538,0.0016991167794913054,0.9979324340820312,0.0,0.0,0.0,-0.11591341346502304,0.37499406933784485,5.181794166564941,20.980558395385742,0
198.21500000000015,0.00015039488789625466,-2.8755894163623452e-06,-0.0002226788055850193,0.0,0.0,0.0,0.0,-0.0032371445558965206,0.0004215096705593169,-0.0029205407481640577,0.9977381229400635,0.0,0.0,0.0,-0.1151556521654129,0.37658265233039856,5.169772148132324,20.843402862548828,0
208.1359999999986,0.00014502070553135127,6.559021858265623e-05,-0.0002783331146929413,0.0,0.0,0.0,0.0,0.0005966488388366997,0.001094334409572184,0.0010998692596331239,0.9986774325370789,0.0,0.0,0.0,-0.11584049463272095,0.37849149107933044,5.162967681884766,20.96735954284668,0
218.04199999999946,0.00010258865222567692,2.562041481724009e-05,-0.00028962286887690425,0.0,0.0,0.0,0.0,0.0009800380794331431,0.0017779796617105603,-1.2395584235491697e-05,0.9979506731033325,0.0,0.0,0.0,-0.11449769884347916,0.37320083379745483,5.155396938323975,20.72431182861328,0
227.95299999999952,9.2237678472884e-05,0.00010193434718530625,-0.00034561080974526703,0.0,0.0,0.0,0.0,-0.002139770658686757,0.0018739961087703705,0.0022186266724020243,0.9998794198036194,0.0,0.0,0.0,-0.11498997360467911,0.40965497493743896,5.1722941398620605,20.813413619995117,0
237.85599999999977,4.788133082911372e-05,6.686331471428275e-05,-0.0003634252061601728,0.0,0.0,0.0,0.0,0.00045348945423029363,-0.0004600287356879562,-0.002936997450888157,0.9997808337211609,0.0,0.0,0.0,-0.11419456452131271,0.41608574986457825,5.170050621032715,20.669443130493164,0
247.77700000000004,5.4351661674445495e-05,0.00013670269981957972,-0.0004589686286635697,0.0,0.0,0.0,0.0,-0.0005243514315225184,-0.0026480588130652905,0.0056674545630812645,0.9988667368888855,0.0,0.0,0.0,-0.11209014803171158,0.45063352584838867,5.196413993835449,20.28853988647461,0
257.6779999999999,1.1783609807025641e-05,0.00010765537444967777,-0.0004837792948819697,0.0,0.0,0.0,0.0,0.0019607909489423037,0.0032696097623556852,0.00043427193304523826,0.9979934096336365,0.0,0.0,0.0,-0.11111500859260559,0.4542267322540283,5.201725959777832,20.11203956604004,0
267.59999999999854,9.585515726939775e-06,0.0001997789804590866,-0.0005505676963366568,0.0,0.0,0.0,0.0,0.0006936924182809889,0.004052905831485987,-0.001892917905934155,1.002708077430725,0.0,0.0,0.0,-0.11036240309476852,0.49453145265579224,5.218588352203369,19.975814819335938,0
277.5,-3.3276657632086426e-05,0.0001765063643688336,-0.0005799382925033569,0.0,0.0,0.0,0.0,0.0016435583820566535,0.0005428355070762336,-0.0041092014871537685,0.9986175894737244,0.0,0.0,0.0,-0.11056843400001526,0.4918076992034912,5.209198474884033,20.013105392456055,0
287.41799999999967,-4.111531961825676e-05,0.0002611336240079254,-0.0006346268928609788,0.0,0.0,0.0,0.0,-0.0015478524146601558,-0.0007574037881568074,0.0017675935523584485,0.9977588057518005,0.0,0.0,0.0,-0.10970645397901535,0.5342602133750916,5.226168155670166,19.857088088989258,0
297.3199999999997,-8.591906225774437e-05,0.00024477526312693954,-0.0006671510636806488,0.0,0.0,0.0,0.0,0.0011023563565686345,0.0004440795164555311,-0.0016183052211999893,0.9981443285942078,0.0,0.0,0.0,-0.10903245210647583,0.5350775718688965,5.215060710906982,19.735090255737305,0
307.2399999999998,-0.00013621154357679188,0.00025550229474902153,-0.0007017173920758069,0.0,0.0,0.0,0.0,-0.0007149799494072795,0.0006143373320810497,0.0029892961028963327,0.9995452165603638,0.0,0.0,0.0,-0.10958509147167206,0.5311611294746399,5.200030326843262,19.835119247436523,0
317.1419999999998,-0.00018818334501702338,0.0002386038686381653,-0.0007369780214503407,0.0,0.0,0.0,0.0,0.0036919605918228626,-0.002549726516008377,0.001371170743368566,0.9989379048347473,0.0,0.0,0.0,-0.10870403051376343,0.5346772074699402,5.193620204925537,19.67564582824707,0
327.0619999999999,-0.00023890170268714428,0.0002546107571106404,-0.0007806022767908871,0.0,0.0,0.0,0.0,0.0002666886430233717,0.00045873888302594423,-0.0014008409343659878,0.9989138245582581,0.0,0.0,0.0,-0.10921623557806015,0.5288528800010681,5.1899800300598145,19.76835823059082,0
336.96299999999974,-0.0002951911592390388,0.00023784524819348007,-0.0008175659459084272,0.0,0.0,0.0,0.0,-0.00011648320651147515,-0.0044436706230044365,0.004762041382491589,1.0004431009292603,0.0,0.0,0.0,-0.1099514290690422,0.5322166681289673,5.182205677032471,19.901426315307617,0
346.8889999999992,-0.0003687057178467512,0.0002708236570470035,-0.0008181619923561811,0.0,0.0,0.0,0.0,-0.0016804173355922103,0.0007708104094490409,-0.0019316195975989103,1.0002591609954834,0.0,0.0,0.0,-0.10822553187608719,0.5335728526115417,5.188716411590576,19.589035034179688,0
356.78499999999985,-0.00043166050454601645,0.0002569990756455809,-0.0008526475285179913,0.0,0.0,0.0,0.0,0.0020104162395000458,0.001597918919287622,0.0014589130878448486,0.9971345663070679,0.0,0.0,0.0,-0.10852441936731339,0.5358875393867493,5.181866645812988,19.64313507080078,0
366.71099999999933,-0.0005288594402372837,0.00026034473557956517,-0.0008448194712400436,0.0,0.0,0.0,0.0,0.0034054683055728674,-0.001325572724454105,-0.0010158373042941093,0.9966854453086853,0.0,0.0,0.0,-0.10850390046834946,0.528613805770874,5.16643762588501,19.639423370361328,0
376.61199999999917,-0.0005978741100989282,0.00024250659043900669,-0.0008802178781479597,0.0,0.0,0.0,0.0,-0.0017879029037430882,-0.004594407044351101,0.0006222183001227677,0.999936580657959,0.0,0.0,0.0,-0.10905696451663971,0.5198965668678284,5.164078235626221,19.73952865600586,0
386.52700000000004,-0.0006663169478997588,0.0002500222180970013,-0.0009148574899882078,0.0,0.0,0.0,0.0,0.0014407089911401272,0.004099312704056501,-0.0009154512081295252,0.9987927675247192,0.0,0.0,0.0,-0.10766366869211197,0.5214922428131104,5.167392253875732,19.48733901977539,0
396.4449999999997,-0.0007382541080005467,0.0002308131952304393,-0.0009523202897980809,0.0,0.0,0.0,0.0,0.0022486713714897633,-0.0006459396681748331,0.003375476459041238,0.9992510080337524,0.0,0.0,0.0,-0.10694916546344757,0.5157166719436646,5.16204309463501,19.35801124572754,0
406.35099999999875,-0.0007995220366865396,0.00026244085165672004,-0.000986746046692133,0.0,0.0,0.0,0.0,0.0014739683829247952,-0.0030978084541857243,0.004311980679631233,0.999844491481781,0.0,0.0,0.0,-0.10645675659179688,0.511583685874939,5.152547359466553,19.268884658813477,0
416.2599999999984,-0.000872644130140543,0.00024504188331775367,-0.0010251641506329179,0.0,0.0,0.0,0.0,0.0016580440569669008,0.003200310980901122,-0.002900694729760289,1.0006226301193237,0.0,0.0,0.0,-0.10523169487714767,0.5120375156402588,5.1512346267700195,19.047143936157227,0
426.16799999999967,-0.0008980178972706199,0.00028657601797021925,-0.0010979165090247989,0.0,0.0,0.0,0.0,0.00041437410982325673,0.005428297445178032,-0.0008064614958129823,1.0011875629425049,0.0,0.0,0.0,-0.10634342581033707,0.5072903633117676,5.141941547393799,19.248371124267578,0
436.0769999999993,0.00035058471257798374,-0.00012025333126075566,5.756891914643347e-05,0.0,0.0,0.0,0.0,-0.0027374739293009043,0.0028963021468371153,0.0011965461308136582,1.001583456993103,0.0,0.0,0.0,-0.11227225512266159,0.4527597725391388,5.325439929962158,20.321500778198242,0
445.99199999999837,0.00036549154901877046,-8.197370334528387e-05,8.775073183642235e-06,0.0,0.0,0.0,0.0,0.0008831139421090484,0.0028411541134119034,-0.00019789997895713896,0.9999711513519287,0.0,0.0,0.0,-0.11213462799787521,0.4560562074184418,5.309724807739258,20.29659080505371,0
455.90200000000004,0.0003356283705215901,-0.0001121516979765147,9.018614036904182e-06,0.0,0.0,0.0,0.0,0.0019367536297068,0.000352119212038815,0.002283274196088314,1.0003342628479004,0.0,0.0,0.0,-0.11258842051029205,0.45583444833755493,5.296939849853516,20.37872886657715,0
465.8169999999991,0.0003310523461550474,-7.69475445849821e-05,-2.3850863726693206e-05,0.0,0.0,0.0,0.0,-0.0038257313426584005,0.0009576654410921037,-0.0020865616388618946,0.9986521601676941,0.0,0.0,0.0,-0.11183696985244751,0.451549232006073,5.298542499542236,20.242713928222656,0
475.72299999999996,0.00029714018455706537,-0.00010833302803803235,-2.6029809305327944e-05,0.0,0.0,0.0,0.0,-0.0007432073471136391,0.0029129323083907366,0.002293194876983762,0.9984151124954224,0.0,0.0,0.0,-0.11253724247217178,0.4538446068763733,5.288443565368652,20.36946678161621,0
485.6399999999994,0.0002988775377161801,-5.071005944046192e-05,-0.00010285104508511722,0.0,0.0,0.0,0.0,-0.00021827712771482766,-0.004816926084458828,0.00038309686351567507,0.9994236826896667,0.0,0.0,0.0,-0.11116384714841843,0.450530469417572,5.276585578918457,20.120878219604492,0
495.54799999999886,0.00034308814792893827,-8.286889351438731e-05,-4.2187828512396663e-05,0.0,0.0,0.0,0.0,-0.0013959970092400908,-0.0008077530656009912,-0.00011816481128334999,0.9994907379150391,0.0,0.0,0.0,-0.11044137179851532,0.44645920395851135,5.277385711669922,19.990108489990234,0
505.4579999999987,0.00038442458026111126,1.6426736692665145e-05,-0.0001166575966635719,0.0,0.0,0.0,0.0,0.0006011098739691079,0.008401613682508469,0.0009474140242673457,0.9982318878173828,0.0,0.0,0.0,-0.11063672602176666,0.44458648562431335,5.272709846496582,20.025466918945312,0
515.3669999999984,0.00038044489338062704,-1.552137291582767e-05,-0.00011376008478691801,0.0,0.0,0.0,0.0,-0.0011108597973361611,-0.003055889392271638,0.0017806843388825655,1.0003767013549805,0.0,0.0,0.0,-0.1101086437702179,0.44057193398475647,5.251650333404541,19.929882049560547,0
525.2759999999998,0.0004210701154079288,5.4180240113055333e-05,-0.00020280170429032296,0.0,0.0,0.0,0.0,-0.0009151240810751915,0.0018209833651781082,0.0004647161113098264,0.9990862011909485,0.0,0.0,0.0,-0.10960277169942856,0.43742868304252625,5.249464988708496,19.838319778442383,0
535.1889999999985,0.0003622689691837877,6.648345151916146e-05,-0.00020121871784795076,0.0,0.0,0.0,0.0,-0.0001027692123898305,-0.0032528669107705355,0.0026847776025533676,0.997959554195404,0.0,0.0,0.0,-0.10932758450508118,0.4373837411403656,5.243107795715332,19.788511276245117,0
545.0969999999998,0.000344984931871295,7.217141683213413e-05,-0.0002365921245655045,0.0,0.0,0.0,0.0,0.001764305168762803,0.0033358547370880842,0.001993065932765603,0.9993132948875427,0.0,0.0,0.0,-0.10802340507507324,0.43779343366622925,5.239434719085693,19.55245018005371,0
555.0059999999994,0.0003352600906509906,0.00010777210263768211,-0.00020171774667687714,0.0,0.0,0.0,0.0,-0.002980548655614257,0.0024979524314403534,0.0011564157903194427,1.0027209520339966,0.0,0.0,0.0,-0.10838794708251953,0.43685856461524963,5.221935272216797,19.61843490600586,0
564.9219999999987,0.0003539104072842747,0.00013877981109544635,-0.00027966746711172163,0.0,0.0,0.0,0.0,-0.0002035638754023239,0.0006466680206358433,-0.0017688783118501306,0.9985962510108948,0.0,0.0,0.0,-0.108766570687294,0.4421272277832031,5.2098822593688965,19.686965942382812,0
574.8259999999991,0.00029575894586741924,0.0001430134434485808,-0.00027653161669149995,0.0,0.0,0.0,0.0,-0.0008723449427634478,0.002819440560415387,-0.00361714418977499,0.9981586933135986,0.0,0.0,0.0,-0.10959181189537048,0.4461199641227722,5.2065253257751465,19.836336135864258,0
584.7369999999992,0.000302251020912081,0.00015255389735102654,-0.00035276959533803165,0.0,0.0,0.0,0.0,0.0021260236389935017,0.00012673476885538548,-0.0004922242951579392,0.9981018304824829,0.0,0.0,0.0,-0.11113706976175308,0.45417124032974243,5.199189186096191,20.116031646728516,0
594.6539999999986,0.0002763947704806924,0.00016086877440102398,-0.00033950648503378034,0.0,0.0,0.0,0.0,-5.974906889605336e-05,-0.001615716377273202,-0.0032105755526572466,0.9976027607917786,0.0,0.0,0.0,-0.11070100963115692,0.4540778398513794,5.195556163787842,20.03710174560547,0
604.5579999999991,0.0002688557142391801,0.00018749595619738102,-0.00039793207542970777,0.0,0.0,0.0,0.0,-0.000787966069765389,-0.0024949137587100267,0.0017463580006733537,0.9980042576789856,0.0,0.0,0.0,-0.1119709387421608,0.4518826901912689,5.1941657066345215,20.2669620513916,0
614.4709999999995,0.0002162164746550843,0.000141042735776864,-0.0004252735525369644,0.0,0.0,0.0,0.0,0.00011368912237230688,0.0032044649124145508,-0.002766159363090992,0.9993028044700623,0.0,0.0,0.0,-0.11057772487401962,0.4561350345611572,5.191659450531006,20.014787673950195,0
624.3849999999984,0.00017350017151329666,0.00013474679144565016,-0.00045749126002192497,0.0,0.0,0.0,0.0,-0.0008477172232232988,-0.0004508205456659198,0.0010674052173271775,0.9994922876358032,0.0,0.0,0.0,-0.11043543368577957,0.4594341814517975,5.175994396209717,19.989032745361328,0
634.2950000000001,0.00023650463845115155,0.00011945814185310155,-0.00039361711242236197,0.0,0.0,0.0,0.0,-3.176491009071469e-05,-0.0011427821591496468,-0.0023493438493460417,0.9981282949447632,0.0,0.0,0.0,-0.10971309244632721,0.4615459144115448,5.169837474822998,19.85828971862793,0
644.2019999999993,0.00016878556925803423,0.00010136219498235732,-0.0003865160688292235,0.0,0.0,0.0,0.0,0.00356739922426641,0.00494379922747612,0.001930542872287333,0.9995387196540833,0.0,0.0,0.0,-0.11128166317939758,0.46091198921203613,5.1636247634887695,20.142202377319336,0
654.1129999999994,0.00010940551874227822,4.935286779073067e-05,-0.0004084254032932222,0.0,0.0,0.0,0.0,-0.002196439541876316,-0.002384929684922099,-0.0006461493321694434,1.0013868808746338,0.0,0.0,0.0,-0.11134438961744308,0.45409905910491943,5.148534774780273,20.15355682373047,0
664.0249999999996,4.614545468939468e-05,2.3195771063910797e-05,-0.0004140671226195991,0.0,0.0,0.0,0.0,0.001298544928431511,-0.0012794359354302287,-0.0009255068143829703,0.9989875555038452,0.0,0.0,0.0,-0.11206088215112686,0.45771166682243347,5.143787384033203,20.28324317932129,0
673.9449999999997,-1.6688325558789074e-05,-3.1085906812222674e-05,-0.0004341543826740235,0.0,0.0,0.0,0.0,0.00237619923427701,0.004230391699820757,0.0018049828941002488,0.9981651902198792,0.0,0.0,0.0,-0.11241878569126129,0.453520804643631,5.135575771331787,20.348024368286133,0
683.8469999999998,-8.77229031175375e-05,-1.851265915320255e-05,-0.0004210154584143311,0.0,0.0,0.0,0.0,0.0021608835086226463,-0.0012200503842905164,-0.0014183768071234226,0.998421847820282,0.0,0.0,0.0,-0.11156429350376129,0.4515581429004669,5.11841344833374,20.193359375,0
693.7729999999992,0.00020899629453197122,-8.150845678756014e-05,-0.0001676871906965971,0.0,0.0,0.0,0.0,-0.002356401178985834,3.879080759361386e-05,-0.003668914781883359,0.9987596273422241,0.0,0.0,0.0,-0.11328571289777756,0.44395291805267334,5.207558631896973,20.504940032958984,0
703.6679999999997,0.00015791428450029343,-8.896482904674485e-05,-0.0001470093848183751,0.0,0.0,0.0,0.0,0.0005979903507977724,0.000490185571834445,0.0017664629267528653,0.9992470741271973,0.0,0.0,0.0,-0.1138831228017807,0.44732072949409485,5.203524112701416,20.613069534301758,0
713.5839999999989,0.00010431118425913155,-0.00014425253903027624,-0.0001494636235293001,0.0,0.0,0.0,0.0,2.8782653316739015e-05,-2.3532091290690005e-05,-0.001486289664171636,1.0014159679412842,0.0,0.0,0.0,-0.11333578079938889,0.44593894481658936,5.1993536949157715,20.51400375366211,0
723.4889999999996,0.00010265868331771344,-8.154066745191813e-05,-0.00019643435371108353,0.0,0.0,0.0,0.0,-0.0012958227889612317,-0.00027966295601800084,0.002537304302677512,0.9994165897369385,0.0,0.0,0.0,-0.11337802559137344,0.44731804728507996,5.197184085845947,20.521648406982422,0
733.4139999999989,4.738696588901803e-05,-0.0001367065415252,-0.00020107158343307674,0.0,0.0,0.0,0.0,0.0001747234200593084,0.000274185324087739,-0.0012467076303437352,0.9981820583343506,0.0,0.0,0.0,-0.11295504868030548,0.44789594411849976,5.196048259735107,20.445087432861328,0
743.3139999999985,5.8056393754668534e-05,-2.517242137400899e-05,-0.0002793939202092588,0.0,0.0,0.0,0.0,-0.00017531901539769024,0.0012404801091179252,-0.0003801591519732028,1.0005816221237183,0.0,0.0,0.0,-0.11400337517261505,0.48819419741630554,5.222935199737549,20.63484001159668,0
753.2289999999994,4.234818334225565e-06,-7.483333320124075e-05,-0.0002906020963564515,0.0,0.0,0.0,0.0,-0.002305016852915287,0.0005492488271556795,-0.0016625470016151667,1.000205159187317,0.0,0.0,0.0,-0.11341721564531326,0.4888400137424469,5.216976642608643,20.528743743896484,0
763.1329999999998,7.720806024735793e-06,4.1046554542845115e-05,-0.00036137260030955076,0.0,0.0,0.0,0.0,0.0020394150633364916,-0.00045440002577379346,0.0018154646968469024,0.9996439814567566,0.0,0.0,0.0,-0.11467985808849335,0.5457114577293396,5.246253967285156,20.757282257080078,0
773.0589999999993,-4.261589492671192e-05,-4.864996299147606e-07,-0.00037673680344596505,0.0,0.0,0.0,0.0,-0.0032855775207281113,-0.002667577937245369,0.0005886450526304543,0.9974134564399719,0.0,0.0,0.0,-0.11477583646774292,0.5379132628440857,5.242928504943848,20.774654388427734,0
782.9549999999999,-2.3118605895433575e-05,9.955042332876474e-05,-0.00047988269943743944,0.0,0.0,0.0,0.0,-0.003586885053664446,-0.0024270424619317055,0.00027521810261532664,0.9989268183708191,0.0,0.0,0.0,-0.1113198772072792,0.5856375694274902,5.279778957366943,20.149118423461914,0
792.8719999999994,0.0003071474493481219,3.335517249070108e-07,-0.00020294090791139752,0.0,0.0,0.0,0.0,0.0011603923048824072,0.0004259308916516602,0.0038477079942822456,0.9973950982093811,0.0,0.0,0.0,-0.11072436720132828,0.5768230557441711,5.384092330932617,20.041332244873047,0
802.777,0.00035585829755291343,8.403812535107136e-05,-0.0002901859115809202,0.0,0.0,0.0,0.0,0.0005915708607062697,0.002604769542813301,-0.0026885932311415672,0.9984161853790283,0.0,0.0,0.0,-0.10932830721139908,0.5713812112808228,5.379619121551514,19.78864097595215,0
812.6959999999999,0.00032898972858674824,4.888484545517713e-05,-0.00030699712806381285,0.0,0.0,0.0,0.0,0.002743005519732833,0.0022669301833957434,0.00046676400233991444,0.998132586479187,0.0,0.0,0.0,-0.10965520143508911,0.5628160834312439,5.37063455581665,19.847808837890625,0
822.5989999999983,0.00033923907903954387,8.724386862013489e-05,-0.0003678730863612145,0.0,0.0,0.0,0.0,0.0014606057666242123,0.0004986395942978561,-0.0032640222925692797,0.9996644854545593,0.0,0.0,0.0,-0.10945995897054672,0.5579758882522583,5.363456726074219,19.812469482421875,0
832.5199999999986,0.00038094958290457726,9.456035331822932e-05,-0.0003070957027375698,0.0,0.0,0.0,0.0,0.0017868215218186378,0.003923344891518354,-0.0006709315348416567,1.000605821609497,0.0,0.0,0.0,-0.11036939918994904,0.558246374130249,5.354377746582031,19.977081298828125,0
842.4200000000001,0.000354874151526019,8.261841139756143e-05,-0.00031470367684960365,0.0,0.0,0.0,0.0,0.00022955746680963784,0.0034592817537486553,-0.0022662056144326925,0.9996156692504883,0.0,0.0,0.0,-0.11062438040971756,0.5538635849952698,5.33723783493042,20.023231506347656,0
852.3419999999987,0.0003249136498197913,4.715248360298574e-05,-0.000329891248838976,0.0,0.0,0.0,0.0,0.0009740974637679756,-0.0017560473643243313,0.0024098139256238937,0.999075710773468,0.0,0.0,0.0,-0.11131049692630768,0.5502077341079712,5.325073719024658,20.147422790527344,0
862.244999999999,0.0002758945047389716,5.6495555327273905e-05,-0.00029604401788674295,0.0,0.0,0.0,0.0,0.0008759258198551834,-0.002240557689219713,0.002039478626102209,0.9986292123794556,0.0,0.0,0.0,-0.11045992374420166,0.548596203327179,5.328679084777832,19.993465423583984,0
872.1659999999993,0.00023934304772410542,2.1654264855897054e-05,-0.0003088455705437809,0.0,0.0,0.0,0.0,-0.0022258898243308067,-0.004086815286427736,-0.0023992350324988365,0.998708188533783,0.0,0.0,0.0,-0.11019089072942734,0.5465836524963379,5.327275276184082,19.944772720336914,0
882.0659999999989,0.000200344598852098,4.369562157080509e-05,-0.00030076756956987083,0.0,0.0,0.0,0.0,5.209008668316528e-05,-0.0017136420356109738,9.653886809246615e-05,0.9985309839248657,0.0,0.0,0.0,-0.11019934713840485,0.5478720664978027,5.326690673828125,19.946300506591797,0
891.9849999999988,0.00016112867160700262,9.650593710830435e-06,-0.0003143352805636823,0.0,0.0,0.0,0.0,-0.0002689579559955746,-0.001970618264749646,0.0020748574752360582,1.0002670288085938,0.0,0.0,0.0,-0.11001615971326828,0.5455280542373657,5.323563098907471,19.913143157958984,0
901.8859999999986,0.000127299630548805,2.1577521692961454e-05,-0.00033167953370139003,0.0,0.0,0.0,0.0,0.0024555043783038855,0.002474718727171421,0.0017988481558859348,0.9994909167289734,0.0,0.0,0.0,-0.11007678508758545,0.5477444529533386,5.317470550537109,19.924118041992188,0
911.8109999999997,8.449006418231875e-05,-1.334110856987536e-05,-0.0003461433807387948,0.0,0.0,0.0,0.0,-0.0016473563155159354,-0.000616189616266638,0.002199283568188548,0.998683512210846,0.0,0.0,0.0,-0.10992392897605896,0.5440278053283691,5.306159019470215,19.89645004272461,0
921.7179999999989,5.072070416645147e-05,-1.0855328582692891e-06,-0.00037255650386214256,0.0,0.0,0.0,0.0,-0.0015248946147039533,0.00041472294833511114,-0.0043446156196296215,0.9983636736869812,0.0,0.0,0.0,-0.10901164263486862,0.5470120906829834,5.306116580963135,19.7313232421875,0
931.637999999999,0.00027820729883387685,-3.595003727241419e-05,-0.00012364474241621792,0.0,0.0,0.0,0.0,0.0038897653575986624,0.0018110825913026929,-0.0008412174065597355,1.000952124595642,0.0,0.0,0.0,-0.1082117110490799,0.548507034778595,5.370418548583984,19.58653450012207,0
941.5299999999988,0.00028457498410716653,2.5798264687182382e-05,-0.00014017420471645892,0.0,0.0,0.0,0.0,0.0003715524508152157,-0.0007506103138439357,0.0002972060174215585,1.0013319253921509,0.0,0.0,0.0,-0.1085432767868042,0.5432058572769165,5.363478183746338,19.64655113220215,0
951.4539999999997,0.00025345419999212027,-8.245053322752938e-06,-0.00014139807899482548,0.0,0.0,0.0,0.0,0.0011790960561484098,-5.4512524911842775e-06,-0.0028291058260947466,0.9990400075912476,0.0,0.0,0.0,-0.10805371403694153,0.5431538224220276,5.361458778381348,19.557937622070312,0
961.357,0.0002664021449163556,6.054717960068956e-05,-0.000188410806003958,0.0,0.0,0.0,0.0,0.0025697534438222647,-0.002519157947972417,-0.0021556769497692585,0.9986922740936279,0.0,0.0,0.0,-0.10904736816883087,0.5402456521987915,5.356337547302246,19.737789154052734,0
971.268,0.00036499087582342327,-4.89193553221412e-06,-0.00012246781261637807,0.0,0.0,0.0,0.0,0.001126723363995552,-0.001088036224246025,-0.0005337902694009244,1.0005344152450562,0.0,0.0,0.0,-0.1097320169210434,0.5393706560134888,5.353239059448242,19.861713409423828,0
981.1819999999989,0.00042345208930782974,7.993669714778662e-05,-0.00021503919560927898,0.0,0.0,0.0,0.0,7.600519165862352e-05,0.00411470839753747,-0.004748904146254063,0.9996402859687805,0.0,0.0,0.0,-0.10911442339420319,0.5387087464332581,5.34791898727417,19.74992561340332,0
991.0989999999983,0.0003936596622224897,4.6301262045744807e-05,-0.00022201381216291338,0.0,0.0,0.0,0.0,-0.0023154800292104483,0.0015222689835354686,-0.001408935058861971,0.9988422989845276,0.0,0.0,0.0,-0.1100456640124321,0.5333612561225891,5.330958843231201,19.91848373413086,0
1001.0,0.0003746834408957511,5.766652975580655e-05,-0.00023458327632397413,0.0,0.0,0.0,0.0,-0.001018538256175816,-0.0010068120900541544,0.00040097892633639276,0.9990938305854797,0.0,0.0,0.0,-0.1099034771323204,0.5356566309928894,5.322446823120117,19.892745971679688,0
1010.9129999999986,0.0003613066510297358,6.615331949433312e-05,-0.00019777218403760344,0.0,0.0,0.0,0.0,-0.0009897042764350772,0.00033306682598777115,-0.0007301889709196985,1.0001939535140991,0.0,0.0,0.0,-0.1097995862364769,0.5374799966812134,5.320137977600098,19.873945236206055,0
1020.8220000000001,0.00035441332147456706,7.925874524516985e-05,-0.00022732339857611805,0.0,0.0,0.0,0.0,0.0023707959335297346,0.000923251558560878,-0.0017559978878125548,1.0011714696884155,0.0,0.0,0.0,-0.11015400290489197,0.5366598963737488,5.312649726867676,19.938095092773438,0
1030.7419999999984,0.0003194184391759336,4.4207870814716443e-05,-0.0002341741492273286,0.0,0.0,0.0,0.0,-0.00125921331346035,-0.0007896510069258511,-0.0019318670965731144,0.9989741444587708,0.0,0.0,0.0,-0.11011411249637604,0.5358607172966003,5.306618690490723,19.930871963500977,0
1040.6399999999994,0.000280446169199422,4.893401273875497e-05,-0.0002192762040067464,0.0,0.0,0.0,0.0,-0.0013831021497026086,-0.005373033694922924,-0.00025776843540370464,0.9980327486991882,0.0,0.0,0.0,-0.109665147960186,0.5344316363334656,5.300562381744385,19.849611282348633,0
1050.5609999999997,0.00024142746406141669,1.1448013538029045e-05,-0.0002254961000289768,0.0,0.0,0.0,0.0,0.0016932740109041333,0.0019803703762590885,0.00019953046285081655,0.9994107484817505,0.0,0.0,0.0,-0.10914018005132675,0.5327091813087463,5.298572540283203,19.754589080810547,0
1060.4609999999993,0.00020926220167893916,4.401869227876887e-05,-0.00022693818027619272,0.0,0.0,0.0,0.0,0.0011280495673418045,0.0027859718538820744,-0.006103847175836563,0.9985294342041016,0.0,0.0,0.0,-0.10911890119314194,0.5305992960929871,5.283594131469727,19.750736236572266,0
1070.3819999999996,0.0002319890190847218,4.9160498747369274e-05,-0.00015580588660668582,0.0,0.0,0.0,0.0,0.001828496577218175,-0.0008706413791514933,-0.0002199468872277066,0.9996801018714905,0.0,0.0,0.0,-0.11051318049430847,0.5243911147117615,5.2698893547058105,20.00310516357422,0
1080.2829999999994,0.0002056151133729145,3.138223473797552e-05,-0.0001743771426845342,0.0,0.0,0.0,0.0,-0.0010706180473789573,0.0017222431488335133,0.00020428397692739964,1.0008256435394287,0.0,0.0,0.0,-0.1100643128156662,0.5178657174110413,5.2668776512146,19.921857833862305,0
1090.2029999999995,0.00023061242245603353,4.644550062948838e-05,-0.00011281936167506501,0.0,0.0,0.0,0.0,0.001763634500093758,-0.00175073416903615,0.000676777446642518,1.000287413597107,0.0,0.0,0.0,-0.10884609818458557,0.5153834819793701,5.260236740112305,19.701358795166016,0
1100.1049999999996,0.00021236311295069754,3.952588667743839e-05,-0.00013852071424480528,0.0,0.0,0.0,0.0,0.002257654210552573,0.004326806403696537,-0.0028538566548377275,0.9986553192138672,0.0,0.0,0.0,-0.10826171934604645,0.5113504528999329,5.258598804473877,19.5955867767334,0
1110.0239999999994,0.00021268842101562768,3.222887607989833e-05,-0.00010643475980032235,0.0,0.0,0.0,0.0,0.0011375201866030693,-0.000630637863650918,-0.0014518355019390583,1.0002095699310303,0.0,0.0,0.0,-0.1093338206410408,0.5066601037979126,5.246212482452393,19.78963851928711,0
1119.9259999999995,0.0001982805842999369,3.280072633060627e-05,-0.0001381341426167637,0.0,0.0,0.0,0.0,0.0007206062437035143,0.0003436040133237839,0.0005729272379539907,1.000290036201477,0.0,0.0,0.0,-0.10942849516868591,0.5033687353134155,5.239290714263916,19.80677604675293,0
1129.8469999999998,0.000250251468969509,-7.517406629631296e-06,-0.00010263088915962726,0.0,0.0,0.0,0.0,0.003964560106396675,-8.769801206653938e-05,0.002959019038826227,0.999937117099762,0.0,0.0,0.0,-0.10966631770133972,0.5024850964546204,5.233872890472412,19.849821090698242,0
1139.7489999999998,0.00024869281332939863,4.3626001570373774e-05,-0.00012865688768215477,0.0,0.0,0.0,0.0,8.481257100356743e-05,-0.0010868166573345661,0.0001692071818979457,0.9991266131401062,0.0,0.0,0.0,-0.10933677852153778,0.49574771523475647,5.227280139923096,19.790176391601562,0
1149.6679999999997,0.00030995692941360176,1.4645254850620404e-05,-8.522013376932591e-05,0.0,0.0,0.0,0.0,-0.0020670907106250525,-0.0007987144053913653,-0.005315293092280626,1.0000160932540894,0.0,0.0,0.0,-0.10958816111087799,0.4946500360965729,5.22235631942749,19.835676193237305,0
1159.574999999999,0.00032852619187906384,6.122523336671293e-05,-0.00014153060328681022,0.0,0.0,0.0,0.0,-0.0009498015861026943,-0.002868529874831438,-0.00039276276947930455,1.0000941753387451,0.0,0.0,0.0,-0.11132309585809708,0.4955332577228546,5.217545509338379,20.149702072143555,0
1169.4939999999988,0.00036450877087190747,-7.670656486880034e-06,-0.00012701400555670261,0.0,0.0,0.0,0.0,-0.0015195414889603853,0.004549904260784388,0.003923751413822174,1.0011773109436035,0.0,0.0,0.0,-0.11102154105901718,0.49495938420295715,5.2190141677856445,20.09511947631836,0
1179.3919999999998,0.0003593117871787399,1.7502999980933964e-05,-0.00016304332530125976,0.0,0.0,0.0,0.0,0.0012209718115627766,-0.0014524548314511776,-0.00020180092542432249,1.000437617301941,0.0,0.0,0.0,-0.1101413294672966,0.4960169196128845,5.203941822052002,19.935800552368164,0
1189.316999999999,0.00030891099595464766,-2.3796383175067604e-05,-0.00016524747479707003,0.0,0.0,0.0,0.0,0.0015161606715992093,0.0019430964021012187,-0.003894450142979622,0.9991031885147095,0.0,0.0,0.0,-0.11055091768503189,0.49625030159950256,5.202796459197998,20.00993537902832,0
1199.223,0.000258210813626647,-4.4375425204634666e-05,-0.00017051122267730534,0.0,0.0,0.0,0.0,-0.000598045124206692,-0.00117776682600379,-0.0019319818820804358,0.9984544515609741,0.0,0.0,0.0,-0.11234404146671295,0.494509220123291,5.190650463104248,20.334495544433594,0
1209.1389999999992,0.00020279266755096614,-8.74871839187108e-05,-0.00017394742462784052,0.0,0.0,0.0,0.0,0.00092824746388942,0.0023570694029331207,-0.00013798435975331813,0.9986843466758728,0.0,0.0,0.0,-0.11308947950601578,0.4982045590877533,5.185892105102539,20.469423294067383,0
1219.0389999999989,0.0001652779901633039,-2.5658009690232575e-06,-0.00017368380213156343,0.0,0.0,0.0,0.0,0.00037051388062536716,-0.0033080338034778833,-0.0011410858714953065,0.9991611838340759,0.0,0.0,0.0,-0.11576873809099197,0.5310518145561218,5.185751438140869,20.954370498657227,0
1228.9609999999993,0.00010656879749149084,-4.15210633946117e-05,-0.00017864329856820405,0.0,0.0,0.0,0.0,-0.00025952793657779694,-0.000828414224088192,0.002685725223273039,0.9994192719459534,0.0,0.0,0.0,-0.11634206026792526,0.5309931039810181,5.18794059753418,21.058143615722656,0
1238.8599999999988,7.685580931138247e-05,-2.041407788055949e-05,-0.00022291563800536096,0.0,0.0,0.0,0.0,-0.0008057465311139822,-0.003805693006142974,-3.3708733099047095e-05,1.0000770092010498,0.0,0.0,0.0,-0.11532720178365707,0.533105731010437,5.186412334442139,20.874452590942383,0
1248.7829999999994,1.5024073945824057e-05,-5.7318786275573075e-05,-0.0002315459423698485,0.0,0.0,0.0,0.0,0.002122655510902405,0.003544196020811796,-0.0001412829151377082,0.9995332956314087,0.0,0.0,0.0,-0.11604230850934982,0.5321088433265686,5.187618255615234,21.003890991210938,0
1258.6809999999987,1.5051497030071914e-05,4.567008727462962e-05,-0.00030226263334043324,0.0,0.0,0.0,0.0,0.003095076885074377,0.004266032017767429,-0.0017764661461114883,0.9988506436347961,0.0,0.0,0.0,-0.11704342067241669,0.5741480588912964,5.207180500030518,21.18509292602539,0
1268.5969999999998,-4.3236963392701e-05,1.5771500329719856e-05,-0.0003166862588841468,0.0,0.0,0.0,0.0,-0.0035363086499273777,-0.0036087045446038246,0.0002661682665348053,0.9982601404190063,0.0,0.0,0.0,-0.1175566241145134,0.5690672993659973,5.196682453155518,21.277982711791992,0
1278.503999999999,-4.034654557472095e-05,0.00014890829334035516,-0.0003749587631318718,0.0,0.0,0.0,0.0,0.0023793024010956287,-0.002838486572727561,0.001822515856474638,0.9978405833244324,0.0,0.0,0.0,-0.11418303847312927,0.6283750534057617,5.233548641204834,20.6673583984375,0
1288.4319999999989,-9.69469256233424e-05,0.00012847012840211391,-0.00039604975609108806,0.0,0.0,0.0,0.0,0.003083679359406233,-0.003215515287593007,0.0030370340682566166,0.9992265105247498,0.0,0.0,0.0,-0.11325596272945404,0.6252652406692505,5.236495018005371,20.499553680419922,0
1298.325999999999,-0.00010459694021847099,0.00018888221529778093,-0.0004643911961466074,0.0,0.0,0.0,0.0,0.00040869004442356527,-0.00422299187630415,-0.001237311284057796,0.9992598295211792,0.0,0.0,0.0,-0.11332597583532333,0.6193158626556396,5.236759662628174,20.51222801208496,0
1308.2419999999984,-0.00016133554163388908,0.00017502540140412748,-0.000491009559482336,0.0,0.0,0.0,0.0,-0.00010623356502037495,-0.0014832504093647003,0.0028737790416926146,0.9983352422714233,0.0,0.0,0.0,-0.11481966078281403,0.6171814203262329,5.237624168395996,20.78258514404297,0
1318.1459999999988,-0.0001646726013859734,0.00023526110453531146,-0.0005640504532493651,0.0,0.0,0.0,0.0,0.001499122241511941,-0.0005752079305239022,-0.000929871341213584,0.9979948401451111,0.0,0.0,0.0,-0.11461669206619263,0.6108444333076477,5.237168788909912,20.745847702026367,0
1328.065999999999,-0.00022055424051359296,0.00022785722103435546,-0.0005967864999547601,0.0,0.0,0.0,0.0,-0.0023506793659180403,-0.0017138146795332432,0.0020298538729548454,1.0005122423171997,0.0,0.0,0.0,-0.11453235149383545,0.6055335402488708,5.23874044418335,20.7305850982666,0
1337.9719999999998,-0.0002653042902238667,0.000258339976426214,-0.0006344981957226992,0.0,0.0,0.0,0.0,-0.0016336262924596667,-9.37759323278442e-05,0.0006390496273525059,0.9980947375297546,0.0,0.0,0.0,-0.11378220468759537,0.6092758774757385,5.240237712860107,20.594804763793945,0
1347.884,0.0003681211674120277,6.476502312580124e-05,-7.988610013853759e-05,0.0,0.0,0.0,0.0,-0.0014230516972020268,-0.004239607602357864,-0.001735424972139299,0.9953256249427795,0.0,0.0,0.0,-0.11940325051546097,0.5784152150154114,5.378438949584961,21.612224578857422,0
1357.7889999999989,0.0003579936164896935,9.390462946612388e-05,-9.53991839196533e-05,0.0,0.0,0.0,0.0,0.0008503958233632147,0.00015225350216496736,0.003444701200351119,0.9974318146705627,0.0,0.0,0.0,-0.11964711546897888,0.581580638885498,5.383289337158203,21.65636444091797,0
1367.7079999999987,0.00040852828533388674,8.095457451418042e-05,-6.211332220118493e-05,0.0,0.0,0.0,0.0,0.0023113891948014498,-0.0012578255264088511,0.0008575558313168585,0.9996327757835388,0.0,0.0,0.0,-0.11839211732149124,0.5769210457801819,5.378331184387207,21.429208755493164,0
1377.6149999999998,0.0003888829378411174,8.224096382036805e-05,-7.940738578327e-05,0.0,0.0,0.0,0.0,-3.6428800740395673e-06,-0.0021795432548969984,0.0038610512856394053,0.9984548687934875,0.0,0.0,0.0,-0.11853130906820297,0.5701322555541992,5.374484062194824,21.45440101623535,0
1387.5319999999992,0.0003596838505472988,6.250736623769626e-05,-9.295128984376788e-05,0.0,0.0,0.0,0.0,-0.002062629209831357,-0.004368640948086977,0.0002913293137680739,1.0004342794418335,0.0,0.0,0.0,-0.11695320159196854,0.5692777633666992,5.372641086578369,21.16876220703125,0
1397.437,0.00033434457145631313,4.342928878031671e-05,-0.00011733066639862955,0.0,0.0,0.0,0.0,-9.635332389734685e-05,0.003758559003472328,0.0005185460322536528,1.0006780624389648,0.0,0.0,0.0,-0.11030702292919159,0.5724576115608215,5.3734517097473145,19.965791702270508,0
1407.3529999999992,0.0003000775177497417,2.1041676518507302e-05,-0.00013123694225214422,0.0,0.0,0.0,0.0,0.0014264296041801572,-0.0038602000568062067,-0.0006867105839774013,1.0007280111312866,0.0,0.0,0.0,-0.11003374308347702,0.5766980648040771,5.36191987991333,19.916324615478516,0
1417.262999999999,0.00029481344972737134,7.709500641794875e-05,-0.00018657633336260915,0.0,0.0,0.0,0.0,-0.0006483375327661633,0.002045491011813283,0.0009829305345192552,1.0002332925796509,0.0,0.0,0.0,-0.11067754775285721,0.5724892020225525,5.371191501617432,20.032855987548828,0
1427.1779999999999,0.00025880197063088417,5.720328408642672e-05,-0.00020208436762914062,0.0,0.0,0.0,0.0,-0.0004366481152828783,0.0023460129741579294,-0.0014936724910512567,0.9992669820785522,0.0,0.0,0.0,-0.1103031262755394,0.5661496520042419,5.360707759857178,19.965087890625,0
1437.083999999999,0.00023820705246180296,0.00010741030564531684,-0.00024708762066438794,0.0,0.0,0.0,0.0,0.0016737263649702072,0.002124909544363618,0.004359460901468992,0.9990597367286682,0.0,0.0,0.0,-0.11115646362304688,0.5612194538116455,5.351236820220947,20.11954116821289,0
1446.9969999999994,0.00019769050413742661,9.00619852473028e-05,-0.0002655840653460473,0.0,0.0,0.0,0.0,0.0021193663123995066,-5.379705544328317e-05,-0.004922717344015837,0.9995876550674438,0.0,0.0,0.0,-0.11006519198417664,0.5564377307891846,5.339028358459473,19.92201805114746,0
1456.905999999999,0.00017002563981804997,9.014092211145908e-05,-0.00032377144088968635,0.0,0.0,0.0,0.0,-5.262536069494672e-05,0.0063200052827596664,0.0015413692453876138,0.9991686940193176,0.0,0.0,0.0,-0.11166080832481384,0.5531494617462158,5.329509258270264,20.21082878112793,0
1466.821,0.00036464512231759727,4.7703109885333106e-05,-0.00013989521539770067,0.0,0.0,0.0,0.0,-6.764230784028769e-05,0.002758411690592766,0.0024552331306040287,0.9987587332725525,0.0,0.0,0.0,-0.11410403996706009,0.5496163368225098,5.364719390869141,20.653059005737305,0
1476.7339999999986,0.0003645731194410473,8.713364513823763e-05,-0.0001788204681361094,0.0,0.0,0.0,0.0,0.00414754543453455,-0.0029146051965653896,-0.00020101496193092316,0.9983185529708862,0.0,0.0,0.0,-0.11461620777845383,0.5461341738700867,5.34854793548584,20.745759963989258,0
1486.643,0.00041502443491481245,8.775519381742924e-05,-0.00013452729035634547,0.0,0.0,0.0,0.0,0.0011233973782509565,-0.002893857192248106,0.000607371621299535,0.9979920983314514,0.0,0.0,0.0,-0.11551938205957413,0.5355790257453918,5.344773292541504,20.909238815307617,0
1496.5549999999985,0.00040423788595944643,0.00010200063843512908,-0.00016756606055423617,0.0,0.0,0.0,0.0,0.0017923954874277115,0.001211337628774345,-0.0002584393077995628,0.9988555908203125,0.0,0.0,0.0,-0.11569777131080627,0.5336148142814636,5.339834690093994,20.941526412963867,0
1506.4650000000001,0.0003708746808115393,8.240646275226027e-05,-0.00018230709247291088,0.0,0.0,0.0,0.0,-0.002195348497480154,-0.004471172112971544,-0.0016887322999536991,0.9991825819015503,0.0,0.0,0.0,-0.11581035703420639,0.5248833894729614,5.330196857452393,20.961904525756836,0
1516.3719999999994,0.0003560404002200812,0.00015114163397811353,-0.00020031431631650776,0.0,0.0,0.0,0.0,0.0004028265830129385,0.0026337134186178446,-0.00029706204077228904,1.0002363920211792,0.0,0.0,0.0,-0.11602611094713211,0.5260397791862488,5.33590841293335,21.000959396362305,0
1526.2829999999994,0.000379594333935529,0.0001294949761359021,-0.00017553454381413758,0.0,0.0,0.0,0.0,0.0011183051392436028,-0.005664781201630831,0.0003028225037269294,0.9985604882240295,0.0,0.0,0.0,-0.11589643359184265,0.5228017568588257,5.328375816345215,20.977487564086914,0
1536.1939999999995,0.0003492351097520441,0.00011850977898575366,-0.00020042576943524182,0.0,0.0,0.0,0.0,-0.0013310028007254004,-0.002444694982841611,-0.00519199576228857,0.9968326687812805,0.0,0.0,0.0,-0.11539307981729507,0.52243971824646,5.336825847625732,20.886377334594727,0
1546.1119999999992,0.00030304986285045743,9.693845640867949e-05,-0.00021829086472280324,0.0,0.0,0.0,0.0,0.0015486297197639942,-0.0005389854195527732,0.000825710769277066,0.999075710773468,0.0,0.0,0.0,-0.11599931120872498,0.5227384567260742,5.340687274932861,20.99610710144043,0
1556.0149999999994,0.000284349313005805,0.00013146451965440065,-0.00025995526812039316,0.0,0.0,0.0,0.0,-0.0022962517105042934,0.00036287581315264106,-0.0006190463318489492,1.0001174211502075,0.0,0.0,0.0,-0.11440203338861465,0.518257200717926,5.340857982635498,20.70699691772461,0
1565.9259999999995,0.00023896590573713183,0.00011249515955569223,-0.0002800400834530592,0.0,0.0,0.0,0.0,-0.00166348647326231,0.0021328344009816647,-0.0008558595436625183,0.9998241662979126,0.0,0.0,0.0,-0.11390286684036255,0.5217421054840088,5.332190036773682,20.61664390563965,0
1575.8310000000001,0.00020741346816066653,0.0001431560522178188,-0.00031702566775493324,0.0,0.0,0.0,0.0,0.0011710955295711756,0.0016830823151394725,-0.003283259691670537,0.9983303546905518,0.0,0.0,0.0,-0.11392314732074738,0.5237318873405457,5.321208477020264,20.620315551757812,0
1585.7519999999986,0.00015827799506951123,0.0001233990042237565,-0.0003389682387933135,0.0,0.0,0.0,0.0,0.001208156463690102,-0.0008764169178903103,-0.0010806985665112734,0.9966157078742981,0.0,0.0,0.0,-0.11465689539909363,0.5234558582305908,5.3162102699279785,20.753124237060547,0
1595.6689999999999,9.942776523530483e-05,0.0001442780194338411,-0.00033258271287195385,0.0,0.0,0.0,0.0,0.0006872592493891716,-0.001984542002901435,0.003907236736267805,0.9987974166870117,0.0,0.0,0.0,-0.11510682106018066,0.5237126350402832,5.313724040985107,20.834566116333008,0
1605.571,4.564670962281525e-05,0.00012462199083529413,-0.0003567090316209942,0.0,0.0,0.0,0.0,-0.0009242704836651683,0.002774178748950362,0.001210358226671815,0.9993844032287598,0.0,0.0,0.0,-0.11370938271284103,0.5246469378471375,5.313267230987549,20.58162498474121,0
1615.4869999999992,-1.048972990247421e-05,0.0001046225952450186,-0.0003819072444457561,0.0,0.0,0.0,0.0,-0.0005092339124530554,0.0015591747360303998,0.0021511614322662354,0.9990113377571106,0.0,0.0,0.0,-0.113612599670887,0.5249539613723755,5.301140785217285,20.564105987548828,0
1625.393,-6.968925299588591e-05,8.364749373868108e-05,-0.00040800284477882087,0.0,0.0,0.0,0.0,0.00011958933464484289,-0.0006290247547440231,0.0005368488491512835,0.9986460208892822,0.0,0.0,0.0,-0.1135583445429802,0.523788332939148,5.288812637329102,20.55428695678711,0
1635.3009999999995,-0.00013151770690456033,6.181511707836762e-05,-0.00043529702816158533,0.0,0.0,0.0,0.0,0.0005809332942590117,-0.0053345030173659325,0.0005422972026281059,0.9979234933853149,0.0,0.0,0.0,-0.11398608237504959,0.5243397355079651,5.285368919372559,20.6317081451416,0
1645.2159999999985,-0.00019517517648637295,3.939529415220022e-05,-0.00046428077621385455,0.0,0.0,0.0,0.0,0.0008538126712664962,0.0017454642802476883,-0.0004422922502271831,0.9967964291572571,0.0,0.0,0.0,-0.11317745596170425,0.5255948901176453,5.289877891540527,20.4853458404541,0
1655.1279999999988,-0.0002600032021291554,1.6528007108718157e-05,-0.0004958034842275083,0.0,0.0,0.0,0.0,0.0001043963129632175,-0.00451623136177659,0.0008831857703626156,0.997582733631134,0.0,0.0,0.0,-0.11253172159194946,0.524691104888916,5.28026819229126,20.368465423583984,0
1665.0379999999986,-0.0003264800179749727,-7.505463145207614e-06,-0.0005299246404320002,0.0,0.0,0.0,0.0,0.0012226300314068794,0.002966903615742922,0.0002636579447425902,0.9987937808036804,0.0,0.0,0.0,-0.11276599019765854,0.5216456055641174,5.2796759605407715,20.41086769104004,0
1674.946,-0.00039616439607925713,-3.357611421961337e-05,-0.0005656309658661485,0.0,0.0,0.0,0.0,0.001967969350516796,0.004351973067969084,-0.0014878191286697984,0.9994266629219055,0.0,0.0,0.0,-0.11222586035728455,0.520776629447937,5.269803047180176,20.3131046295166,0
1684.8689999999988,-0.000469017744762823,-6.138181925052777e-05,-0.0006019595311954618,0.0,0.0,0.0,0.0,-0.0011347210966050625,-0.002992058638483286,-0.0013508487027138472,1.0001907348632812,0.0,0.0,0.0,-0.1121351346373558,0.5184834003448486,5.260100364685059,20.29668426513672,0
1694.771999999999,-0.0005432236357592046,-9.117698937188834e-05,-0.0006383153377100825,0.0,0.0,0.0,0.0,0.00011384709796402603,0.0053261020220816135,-3.0692302971147e-05,1.0003629922866821,0.0,0.0,0.0,-0.11208833754062653,0.5201660394668579,5.252359867095947,20.288211822509766,0
1704.6809999999987,-0.0006179648917168379,-0.00012311540194787085,-0.0006743624107912183,0.0,0.0,0.0,0.0,-8.73428289196454e-05,0.0016584639670327306,0.002231457969173789,1.0010621547698975,0.0,0.0,0.0,-0.11136544495820999,0.5150081515312195,5.231997013092041,20.157367706298828,0
1714.5919999999987,-0.0005433839978650212,0.00028960403869859874,-0.0007785384077578783,0.0,0.0,0.0,0.0,-0.0013145986013114452,-0.0029359569307416677,-0.003472240176051855,0.9986180663108826,0.0,0.0,0.0,-0.11417952179908752,0.6390467882156372,5.280766010284424,20.66672134399414,0
1724.509,-0.0006085772765800357,0.0002834987244568765,-0.0008181168232113123,0.0,0.0,0.0,0.0,0.0010240892879664898,-0.0010938105406239629,-0.0008430840098299086,0.9963670969009399,0.0,0.0,0.0,-0.11559442430734634,0.6413125395774841,5.282723426818848,20.922821044921875,0
1734.4129999999986,-0.0006424136226996779,0.000318452890496701,-0.0008971229544840753,0.0,0.0,0.0,0.0,0.0015050763031467795,0.0027158320881426334,0.0035701682791113853,0.9976730346679688,0.0,0.0,0.0,-0.11583418399095535,0.6358329057693481,5.282446384429932,20.966217041015625,0
1744.324999999999,-0.0007057147449813783,0.00031447166111320257,-0.0009433444938622415,0.0,0.0,0.0,0.0,0.002009244868531823,0.004546791315078735,-0.0022680836264044046,0.997349202632904,0.0,0.0,0.0,-0.11497194319963455,0.6342419981956482,5.278244972229004,20.810150146484375,0
1754.2379999999994,-0.0007069343701004982,0.0003966231015510857,-0.0010537263005971909,0.0,0.0,0.0,0.0,-0.0008580507710576057,-0.001289306441321969,-0.0015051235677674413,0.9982814192771912,0.0,0.0,0.0,-0.11576104164123535,0.6320472955703735,5.272180080413818,20.952980041503906,0
1764.1499999999996,-0.000770913960877806,0.0003962487098760903,-0.0011076560476794839,0.0,0.0,0.0,0.0,-0.003545100335031748,-2.308037437614985e-06,0.0012104421621188521,0.9998931884765625,0.0,0.0,0.0,-0.11571598052978516,0.6327514052391052,5.2687578201293945,20.944822311401367,0
1774.0639999999985,-0.0008006099960766733,0.0004457145114429295,-0.001194759039208293,0.0,0.0,0.0,0.0,0.005389792378991842,0.003009192645549774,0.001987299881875515,1.0006580352783203,0.0,0.0,0.0,-0.11606618762016296,0.6366760730743408,5.261250019073486,21.00821304321289,0
1783.967999999999,-0.0008677042787894607,0.00044724124018102884,-0.0012514686677604914,0.0,0.0,0.0,0.0,-0.0005733965081162751,0.001237926771864295,-0.0049620820209383965,1.0007137060165405,0.0,0.0,0.0,-0.11547774821519852,0.6284194588661194,5.248706340789795,20.901702880859375,0
1793.8809999999994,-0.0009355266229249537,0.00043514437857083976,-0.0013237729435786605,0.0,0.0,0.0,0.0,0.0004839255416300148,-0.001053587649948895,0.002717573195695877,0.999885618686676,0.0,0.0,0.0,-0.11714877188205719,0.6312704086303711,5.241755962371826,21.204160690307617,0
1803.7909999999993,-0.0010067579569295049,0.0004335355188231915,-0.001379967201501131,0.0,0.0,0.0,0.0,0.0008937740349210799,0.00012183851504232734,0.001262008328922093,0.9989852905273438,0.0,0.0,0.0,-0.1161833107471466,0.6281663179397583,5.2386274337768555,21.029409408569336,0
1813.6979999999985,-0.001081171678379178,0.00043026122148148715,-0.0014363492373377085,0.0,0.0,0.0,0.0,-0.0038258046843111515,-0.005650045350193977,0.0010133831528946757,0.9995445609092712,0.0,0.0,0.0,-0.11644487082958221,0.6233400106430054,5.229619026184082,21.076753616333008,0
1823.6079999999984,-0.0011590867070481181,0.0004258347034920007,-0.0014931985642760992,0.0,0.0,0.0,0.0,-0.001745362300425768,-0.004274757578969002,0.0018485885811969638,0.9989653825759888,0.0,0.0,0.0,-0.11705830693244934,0.6314714550971985,5.230158805847168,21.187788009643555,0
1833.5329999999994,-0.0012393647339195013,0.0004204057913739234,-0.0015506739728152752,0.0,0.0,0.0,0.0,0.0033951401710510254,0.0007276740507222712,-0.002237352542579174,1.0017316341400146,0.0,0.0,0.0,-0.11748597025871277,0.6303210258483887,5.2318902015686035,21.265193939208984,0
1843.4249999999993,-0.001320871408097446,0.00041354188579134643,-0.0016077663749456406,0.0,0.0,0.0,0.0,5.2765295549761504e-05,0.006178909447044134,0.0014182564336806536,1.0009183883666992,0.0,0.0,0.0,-0.11854573339223862,0.6224896907806396,5.227721214294434,21.457014083862305,0
1853.3419999999987,-0.0014040038222447038,0.0004049314884468913,-0.001663387636654079,0.0,0.0,0.0,0.0,-0.0017451090971007943,-0.0039398642256855965,0.0011495290091261268,0.9987236857414246,0.0,0.0,0.0,-0.118358314037323,0.6171730160713196,5.204150199890137,21.4230899810791,0
1863.2469999999994,-0.0014893466141074896,0.00039420046960003674,-0.0017187668709084392,0.0,0.0,0.0,0.0,0.0018036996480077505,-0.0025784014724195004,0.0003785551234614104,0.9973980784416199,0.0,0.0,0.0,-0.11875825375318527,0.6220672130584717,5.210114002227783,21.495481491088867,0
1873.17,-0.0015762185212224722,0.0003809926856774837,-0.0017757297027856112,0.0,0.0,0.0,0.0,-1.1874058145622257e-05,0.006472725886851549,-0.0033958798740059137,0.9969286918640137,0.0,0.0,0.0,-0.11865809559822083,0.6222465634346008,5.21068811416626,21.47735023498535,0
1883.074999999999,-0.0016644422430545092,0.0003661027003545314,-0.0018352246843278408,0.0,0.0,0.0,0.0,0.00039183965418487787,0.0008208779618144035,0.0020490651950240135,0.9987255334854126,0.0,0.0,0.0,-0.11970376968383789,0.6202460527420044,5.185433864593506,21.666622161865234,0
1892.9899999999998,-0.0017642267048358917,0.00034864654298871756,-0.00190291041508317,0.0,0.0,0.0,0.0,0.0031571441795676947,0.0027349949814379215,3.7401616282295436e-05,1.0005913972854614,0.0,0.0,0.0,-0.11891808360815048,0.6142821311950684,5.1733245849609375,21.524410247802734,0
1902.893,-0.0018578737508505583,0.00033112685196101665,-0.001964757451787591,0.0,0.0,0.0,0.0,-0.0022008074447512627,0.002058213111013174,0.0004379189049359411,1.0009225606918335,0.0,0.0,0.0,-0.11916936933994293,0.6060008406639099,5.164068698883057,21.56989288330078,0
1912.815999999999,-0.001953922910615802,0.0003117583109997213,-0.0020258312579244375,0.0,0.0,0.0,0.0,0.001027149730361998,0.0021581260953098536,-0.0017906780121847987,1.0015350580215454,0.0,0.0,0.0,-0.11877431720495224,0.610657274723053,5.160036087036133,21.498390197753906,0
1922.7150000000001,-0.002051865914836526,0.0002912463678512722,-0.0020858310163021088,0.0,0.0,0.0,0.0,0.0014633623650297523,-0.0016890916740521789,0.001303946366533637,1.000000238418579,0.0,0.0,0.0,-0.11973784863948822,0.6105871200561523,5.152499198913574,21.67279052734375,0
1932.6319999999996,-0.0021517230197787285,0.0002698023454286158,-0.0021451469510793686,0.0,0.0,0.0,0.0,0.0008578079286962748,-0.0042747328989207745,0.0004589498566929251,0.9999091625213623,0.0,0.0,0.0,-0.11948692053556442,0.6059678792953491,5.1553215980529785,21.627368927001953,0
1942.5349999999999,-0.0022536080796271563,0.00024805215070955455,-0.0022045697551220655,0.0,0.0,0.0,0.0,0.0020137981045991182,0.0027840484399348497,0.0024382027331739664,0.9982945919036865,0.0,0.0,0.0,-0.1195453554391861,0.6029333472251892,5.158311367034912,21.6379451751709,0
1952.4539999999997,-0.002357990713790059,0.0002263905480504036,-0.0022646193392574787,0.0,0.0,0.0,0.0,0.0002808916615322232,0.0018539844313636422,0.00011060018005082384,0.9998975992202759,0.0,0.0,0.0,-0.11901277303695679,0.5988470911979675,5.141618728637695,21.541549682617188,0
1962.357,0.00015453326341230422,-0.00024166815273929387,9.79479227680713e-05,0.0,0.0,0.0,0.0,-0.0028226301074028015,0.0011955014197155833,-0.0016085333190858364,0.9983609318733215,0.0,0.0,0.0,-0.11849220842123032,0.6052592396736145,5.421385765075684,21.447324752807617,0
1972.2779999999984,0.00012300685921218246,-0.0002712528803385794,0.0001006419479381293,0.0,0.0,0.0,0.0,-0.0028473003767430782,0.000871744123287499,0.0022630158346146345,1.0011324882507324,0.0,0.0,0.0,-0.11932575702667236,0.6088278293609619,5.418466567993164,21.59819793701172,0
1982.1899999999987,8.905687718652189e-05,-0.0003021885931957513,0.00010308818309567869,0.0,0.0,0.0,0.0,0.0013613136252388358,-0.0004573779588099569,-0.0010711343493312597,0.9965980648994446,0.0,0.0,0.0,-0.11814198642969131,0.6101789474487305,5.416461944580078,21.383935928344727,0
1992.1009999999987,5.248080924502574e-05,-0.0003342058917041868,0.00010456386371515691,0.0,0.0,0.0,0.0,0.0006403489969670773,-4.450203414307907e-05,-0.001589035615324974,0.9992276430130005,0.0,0.0,0.0,-0.11785642802715302,0.6059446334838867,5.418294906616211,21.33224868774414,0
2002.012999999999,1.2974458513781428e-05,-0.00036794328480027616,0.00010441095218993723,0.0,0.0,0.0,0.0,0.002580926287919283,-0.0017030797898769379,-0.00023603437875863165,0.9989885687828064,0.0,0.0,0.0,-0.11728862673044205,0.6030365228652954,5.412045001983643,21.229475021362305,0
2011.9269999999997,-2.8815895348088816e-05,-0.0004027934919577092,0.00010340751032344997,0.0,0.0,0.0,0.0,-0.0007098753121681511,-0.0026827380061149597,0.0009646756807342172,0.9982059597969055,0.0,0.0,0.0,-0.1169843003153801,0.5987671613693237,5.415754795074463,21.17439079284668,0
2021.83,-7.229691254906356e-05,-0.000438295683125034,0.00010122990352101624,0.0,0.0,0.0,0.0,-0.0006541397306136787,0.00012730143498629332,-0.0008259010501205921,0.9993926882743835,0.0,0.0,0.0,-0.11608939617872238,0.6038456559181213,5.417285442352295,21.012413024902344,0
2031.7459999999992,-0.00011789061682065949,-0.0004746419726870954,9.805712033994496e-05,0.0,0.0,0.0,0.0,0.0011625996557995677,0.00017089636821765453,-0.0038151966873556376,0.9981113076210022,0.0,0.0,0.0,-0.11636342108249664,0.6066048741340637,5.41493558883667,21.06201171875,0
2041.6499999999996,-0.0001657107495702803,-0.0005122428410686553,9.40420723054558e-05,0.0,0.0,0.0,0.0,-0.0001994676422327757,0.000326992420013994,0.000968460866715759,1.0008697509765625,0.0,0.0,0.0,-0.11668447405099869,0.6028040051460266,5.407658100128174,21.1201229095459,0
2051.565999999999,6.854736420791596e-05,7.168979936977848e-05,-0.0006327398004941642,0.0,0.0,0.0,0.0,0.0020067032892256975,7.801922765793279e-05,-0.0005052848719060421,1.0003507137298584,0.0,0.0,0.0,-0.11616187542676926,0.7305514216423035,5.470317363739014,21.025531768798828,0
2061.4749999999985,3.247777567594312e-05,6.146311352495104e-05,-0.0006597494939342141,0.0,0.0,0.0,0.0,0.0014428459107875824,0.0050895847380161285,-0.00488486560061574,0.9974382519721985,0.0,0.0,0.0,-0.11508433520793915,0.7265996336936951,5.469956398010254,20.830493927001953,0
2071.383,-1.6562831660849042e-05,8.660054299980402e-05,-0.0005936844972893596,0.0,0.0,0.0,0.0,-0.0017639152938500047,-0.0007151734898798168,0.0018388344906270504,0.9980143904685974,0.0,0.0,0.0,-0.117001011967659,0.7250171899795532,5.453764915466309,21.17741584777832,0
2081.2959999999985,-5.5525932111777365e-05,7.770971569698304e-05,-0.0006192827131599188,0.0,0.0,0.0,0.0,-0.00047332109534181654,-0.002189790131524205,-0.0010496731847524643,0.9985315799713135,0.0,0.0,0.0,-0.11568421125411987,0.7255771160125732,5.443800449371338,20.939071655273438,0
2091.2119999999995,-9.041311568580568e-05,0.00015520077431574464,-0.0005909032188355923,0.0,0.0,0.0,0.0,0.0034800716675817966,0.0016095556784421206,0.00027532552485354245,0.9993601441383362,0.0,0.0,0.0,-0.10928142815828323,0.7479851841926575,5.44126558303833,19.7801570892334,0
2101.1229999999996,-0.00013198016677051783,0.00014932529302313924,-0.0006165989325381815,0.0,0.0,0.0,0.0,0.0015558217419311404,0.0015606138622388244,-0.001320951385423541,0.9983888268470764,0.0,0.0,0.0,-0.10890240967273712,0.7419928908348083,5.431901454925537,19.711551666259766,0
2111.026,-0.00019449589308351278,0.00015852085198275745,-0.0005784733803011477,0.0,0.0,0.0,0.0,-0.0013414237182587385,-0.0007431517005898058,0.0006782413693144917,0.9967021942138672,0.0,0.0,0.0,-0.10917318612337112,0.7408947348594666,5.426896095275879,19.760562896728516,0
