timestamp,stateEstimate.x,stateEstimate.y,stateEstimate.z,controller.cmd_thrust,controller.cmd_roll,controller.cmd_pitch,controller.cmd_yaw,controller.r_roll,controller.r_pitch,controller.r_yaw,controller.accelz,controller.actuatorThrust,controller.roll,controller.pitch,controller.yaw,controller.rollRate,controller.pitchRate,controller.yawRate,controller.ctr_yaw
0.0,-0.005717626307159662,-0.00668600108474493,-0.00014969687617849559,0.0,0.0,0.0,0.0,0.001153061748482287,0.0014406731352210045,-0.0019639807287603617,1.001822829246521,0.0,0.0,0.0,-5.129040718078613,5.1427388191223145,1.8375879526138306,928.3665771484375,0
9.894000000000233,-0.00573700712993741,-0.00663391500711441,-0.00010430660768179223,0.0,0.0,0.0,0.0,-0.0017129828920587897,0.0040282271802425385,0.004441557452082634,1.0023247003555298,0.0,0.0,0.0,-5.117969036102295,5.1552534103393555,1.8359103202819824,926.3626098632812,0
19.775000000001455,-0.005789572838693857,-0.006729884073138237,-8.376874029636383e-05,0.0,0.0,0.0,0.0,-0.0004093831521458924,3.544758146745153e-05,0.001625247998163104,0.999947190284729,0.0,0.0,0.0,-5.124790668487549,5.134187698364258,1.8317941427230835,927.5972900390625,0
29.671000000000276,-0.005831992253661156,-0.0066680749878287315,-3.6857636587228626e-05,0.0,0.0,0.0,0.0,-0.0027546680066734552,-0.006698444485664368,0.0017752036219462752,1.0001814365386963,0.0,0.0,0.0,-5.109800815582275,5.143394947052002,1.8172622919082642,924.8841552734375,0
39.54500000000007,-0.005856507457792759,-0.006732601672410965,-2.941085767815821e-05,0.0,0.0,0.0,0.0,0.0016195120988413692,-0.0006458425777964294,-0.0008451761677861214,0.9996832013130188,0.0,0.0,0.0,-5.1151909828186035,5.132689476013184,1.8220598697662354,925.8598022460938,0
49.444000000001324,-0.005848267115652561,-0.006695104762911797,3.7480509490706027e-05,0.0,0.0,0.0,0.0,-0.002795597305521369,-0.0031517038587480783,-0.0005226529319770634,0.9993169903755188,0.0,0.0,0.0,-5.102297306060791,5.139957904815674,1.8219285011291504,923.52587890625,0
59.31800000000112,-0.005800272803753614,-0.006684690248221159,1.6633086943329545e-06,0.0,0.0,0.0,0.0,-0.001032023224979639,-0.004788189195096493,-0.0005353884771466255,1.0000532865524292,0.0,0.0,0.0,-5.1143059730529785,5.148197650909424,1.8349586725234985,925.6995849609375,0
69.21500000000015,-0.0057975417003035545,-0.006667671259492636,4.594905112753622e-05,0.0,0.0,0.0,0.0,0.0012316427892073989,0.002315207850188017,-0.0038762723561376333,1.0008583068847656,0.0,0.0,0.0,-5.10869836807251,5.147141456604004,1.8507065773010254,924.6845092773438,0
79.08700000000135,-0.005751370452344418,-0.006663968786597252,1.1866992281284183e-05,0.0,0.0,0.0,0.0,-0.0013169371522963047,-0.0009111000690609217,0.001810968853533268,1.001624345779419,0.0,0.0,0.0,-5.119197845458984,5.152698040008545,1.8583518266677856,926.5850830078125,0
88.98600000000079,-0.0057839201763272285,-0.00662187347188592,4.971025919076055e-05,0.0,0.0,0.0,0.0,0.0021765294950455427,-0.00018786199507303536,-5.18467859365046e-05,1.000015139579773,0.0,0.0,0.0,-5.115058422088623,5.1469340324401855,1.8573393821716309,925.8357543945312,0
98.86000000000058,-0.005799219943583012,-0.006703692488372326,3.558239768608473e-05,0.0,0.0,0.0,0.0,0.0014441604726016521,-0.001812849543057382,0.0016914221923798323,1.0019124746322632,0.0,0.0,0.0,-5.126955509185791,5.131215572357178,1.8594733476638794,927.9890747070312,0
108.75500000000102,-0.0058214133605360985,-0.0066707250662148,7.749133510515094e-05,0.0,0.0,0.0,0.0,0.001323307165876031,0.0019407562213018537,0.0011391601292416453,0.9983369708061218,0.0,0.0,0.0,-5.1159281730651855,5.132347583770752,1.848362922668457,925.9931640625,0
118.63300000000163,-0.005794327240437269,-0.006683393381536007,6.180543277878314e-05,0.0,0.0,0.0,0.0,0.001876695896498859,0.0015020883874967694,-0.0023379786871373653,0.9989712834358215,0.0,0.0,0.0,-5.122159957885742,5.136073112487793,1.851877212524414,927.1211547851562,0
128.52100000000064,-0.005845097824931145,-0.006673688068985939,6.844738527433947e-05,0.0,0.0,0.0,0.0,0.0011254637502133846,0.004722282290458679,0.0006694510229863226,0.999202311038971,0.0,0.0,0.0,-5.11690616607666,5.129121780395508,1.848692536354065,926.170166015625,0
138.40600000000086,-0.005801463034003973,-0.0066766273230314255,2.7946782211074606e-05,0.0,0.0,0.0,0.0,0.00040886388160288334,0.004572595469653606,0.0024849888868629932,0.9986079335212708,0.0,0.0,0.0,-5.127582550048828,5.130999565124512,1.8414380550384521,928.1026611328125,0
148.29100000000108,-0.005846481304615736,-0.006657796911895275,3.9515976823167875e-05,0.0,0.0,0.0,0.0,-0.002654618350788951,-0.0005773115553893149,0.00021413266949821264,1.000225305557251,0.0,0.0,0.0,-5.1156511306762695,5.136194229125977,1.8288933038711548,925.9430541992188,0
158.1869999999999,-0.005784049164503813,-0.006639905273914337,-2.1381174519774504e-05,0.0,0.0,0.0,0.0,-0.00033133538090623915,0.004233639687299728,0.001206449931487441,1.0011234283447266,0.0,0.0,0.0,-5.1220221519470215,5.141382217407227,1.8446156978607178,927.09619140625,0
168.06800000000112,-0.005760381929576397,-0.006673959083855152,-1.434413752576802e-05,0.0,0.0,0.0,0.0,0.0009096766589209437,-0.0025515740271657705,0.003278527408838272,1.0002411603927612,0.0,0.0,0.0,-5.108878135681152,5.136658668518066,1.8435295820236206,924.7171020507812,0
177.94700000000012,-0.005737474653869867,-0.006692417431622744,-4.1109811718342826e-05,0.0,0.0,0.0,0.0,0.0018174239667132497,0.002313920995220542,-0.0010959943756461143,1.0019848346710205,0.0,0.0,0.0,-5.120148181915283,5.132687568664551,1.8397973775863647,926.7570190429688,0
187.83899999999994,-0.005735241342335939,-0.006716884206980467,-3.81646204914432e-05,0.0,0.0,0.0,0.0,-0.001994364196434617,0.0017242551548406482,-0.0017057366203516722,1.0009078979492188,0.0,0.0,0.0,-5.1142964363098145,5.1258625984191895,1.8377794027328491,925.6978759765625,0
197.71900000000096,-0.005733439698815346,-0.006744649726897478,-3.387785909580998e-05,0.0,0.0,0.0,0.0,0.001632561325095594,-0.001253180904313922,6.809502519899979e-05,0.999859094619751,0.0,0.0,0.0,-5.109766960144043,5.115819931030273,1.8358234167099,924.8779907226562,0
207.60500000000138,-0.005732245277613401,-0.0067756096832454205,-2.8442253096727654e-05,0.0,0.0,0.0,0.0,-0.00037668520235456526,-0.0036536655388772488,0.004728748928755522,1.0009981393814087,0.0,0.0,0.0,-5.104167938232422,5.119251728057861,1.8284835815429688,923.864501953125,0
217.49099999999999,-0.0057775601744651794,-0.0067448425106704235,6.905722329975106e-06,0.0,0.0,0.0,0.0,-4.357956186140655e-06,-0.004328023176640272,0.0002996489929500967,0.9983287453651428,0.0,0.0,0.0,-5.09805965423584,5.113234996795654,1.8340387344360352,922.7589721679688,0
227.39000000000124,-0.005781832151114941,-0.0067735291086137295,1.5530933524132706e-05,0.0,0.0,0.0,0.0,0.0035428539849817753,-0.00733840512111783,0.0031162435188889503,1.0004075765609741,0.0,0.0,0.0,-5.0919952392578125,5.106836318969727,1.8397129774093628,921.6613159179688,0
237.26300000000083,-0.005855435971170664,-0.006746890489012003,4.250546044204384e-05,0.0,0.0,0.0,0.0,-0.0014834232861176133,-4.117590287933126e-05,0.0005999663844704628,1.0004171133041382,0.0,0.0,0.0,-5.086771011352539,5.099817752838135,1.852454662322998,920.7157592773438,0
247.15000000000146,-0.00586518831551075,-0.006773804780095816,5.1621071179397404e-05,0.0,0.0,0.0,0.0,0.0008543082512915134,-0.0009386497549712658,0.0017435429617762566,1.0002154111862183,0.0,0.0,0.0,-5.0813422203063965,5.089156150817871,1.8479944467544556,919.7330322265625,0
257.03700000000026,-0.005851142108440399,-0.006753577850759029,0.0001176381265395321,0.0,0.0,0.0,0.0,0.00139094318728894,0.0003180865605827421,-0.0006414542440325022,0.9995220899581909,0.0,0.0,0.0,-5.076781272888184,5.085231304168701,1.8502649068832397,918.9075317382812,0
266.9220000000005,-0.005861553829163313,-0.006777081172913313,0.00013186337309889495,0.0,0.0,0.0,0.0,-0.0018286320846527815,0.0028078111354261637,0.0023146464955061674,1.0012314319610596,0.0,0.0,0.0,-5.071768283843994,5.077154636383057,1.8559390306472778,918.0001220703125,0
276.8070000000007,-0.005845139268785715,-0.0068022143095731735,0.00015512788377236575,0.0,0.0,0.0,0.0,-0.0003900315205100924,-0.005399297457188368,-0.004221348557621241,0.9989044666290283,0.0,0.0,0.0,-5.060877323150635,5.076432704925537,1.8571317195892334,916.02880859375,0
286.70100000000093,-0.005850734189152718,-0.006828494369983673,0.0001702252047834918,0.0,0.0,0.0,0.0,-0.003256383817642927,0.0026737984735518694,-0.0012300488306209445,0.9997906684875488,0.0,0.0,0.0,-5.056150913238525,5.075960159301758,1.8653138875961304,915.1734619140625,0
296.5799999999999,-0.005855539347976446,-0.006849863100796938,0.00019137329945806414,0.0,0.0,0.0,0.0,-0.002890912117436528,-0.0030028074979782104,-0.00042542870505712926,0.9993495941162109,0.0,0.0,0.0,-5.0518646240234375,5.07877254486084,1.8727470636367798,914.3975830078125,0
306.46500000000015,-0.005862371064722538,-0.006877622567117214,0.00020614302775356919,0.0,0.0,0.0,0.0,0.000992251792922616,0.002434053225442767,0.0037022021133452654,1.0008925199508667,0.0,0.0,0.0,-5.048001289367676,5.0730462074279785,1.8647855520248413,913.6982421875,0
316.35100000000057,-0.005859635304659605,-0.006893535144627094,0.0002378267963649705,0.0,0.0,0.0,0.0,-0.002687089378014207,-0.003299941075965762,-0.0006884108297526836,0.9989233613014221,0.0,0.0,0.0,-5.03554630279541,5.065678596496582,1.865100622177124,911.44384765625,0
326.2400000000016,-0.005867463536560535,-0.006924336310476065,0.00025385391199961305,0.0,0.0,0.0,0.0,0.0003253175236750394,-0.00010886428935918957,-8.609692304162309e-05,1.0007766485214233,0.0,0.0,0.0,-5.031567573547363,5.058326244354248,1.8572434186935425,910.7237548828125,0
336.1240000000016,-0.0058835530653595924,-0.006940735969692469,0.00028119489434175193,0.0,0.0,0.0,0.0,-0.0028155758045613766,0.0025953021831810474,-0.0009030092624016106,0.9993866086006165,0.0,0.0,0.0,-5.024954319000244,5.050518989562988,1.8688019514083862,909.5267333984375,0
346.0100000000002,-0.005894348490983248,-0.0069726258516311646,0.0002980286080855876,0.0,0.0,0.0,0.0,0.00019249491742812097,0.005663264077156782,0.0014218703145161271,0.998714029788971,0.0,0.0,0.0,-5.019844055175781,5.0486674308776855,1.875038504600525,908.6017456054688,0
355.89500000000044,-0.005902813281863928,-0.0069459835067391396,0.00035964144626632333,0.0,0.0,0.0,0.0,0.00020224832405801862,-0.0036508918274194,0.0028243865817785263,0.9981502294540405,0.0,0.0,0.0,-5.0148024559021,5.0483927726745605,1.8676950931549072,907.689208984375,0
365.78100000000086,-0.00591481477022171,-0.006974266842007637,0.0003782882704399526,0.0,0.0,0.0,0.0,-0.0018121039029210806,-8.91915915417485e-05,-0.001363673829473555,1.0015143156051636,0.0,0.0,0.0,-5.008470058441162,5.044407367706299,1.8676241636276245,906.5430297851562,0
375.66899999999987,-0.005961949005723,-0.006965647917240858,0.0004116050258744508,0.0,0.0,0.0,0.0,-0.0010447435779497027,-0.0050569078885018826,0.0001739862927934155,1.000913381576538,0.0,0.0,0.0,-5.004370212554932,5.0389204025268555,1.869202971458435,905.801025390625,0
385.5550000000003,-0.0059778750874102116,-0.00699327327311039,0.0004313176905270666,0.0,0.0,0.0,0.0,-0.0012833795044571161,0.0017006114358082414,0.002981101628392935,1.0010215044021606,0.0,0.0,0.0,-4.999029636383057,5.035933494567871,1.8773962259292603,904.8343505859375,0
395.4400000000005,-0.005993160419166088,-0.00702195568010211,0.00045240242616273463,0.0,0.0,0.0,0.0,2.8422502509783953e-05,0.00020186304755043238,-0.00011775125312851742,1.0002713203430176,0.0,0.0,0.0,-4.993479251861572,5.023411750793457,1.8698391914367676,903.8297119140625,0
405.32800000000134,-0.006007071118801832,-0.007051827851682901,0.0004744713369291276,0.0,0.0,0.0,0.0,0.00023633391538169235,0.0053846584632992744,-0.0022332847584038973,1.0008583068847656,0.0,0.0,0.0,-4.987790584564209,5.023950099945068,1.8676387071609497,902.800048828125,0
415.21100000000115,-0.005772715900093317,-0.006694117560982704,-2.847182986442931e-05,0.0,0.0,0.0,0.0,0.001798191573470831,0.0030810809694230556,0.00033353257458657026,1.0002104043960571,0.0,0.0,0.0,-5.01117467880249,5.083260536193848,1.8755953311920166,907.0325927734375,0
425.0970000000016,-0.005774681456387043,-0.006708868313580751,-2.5677163648651913e-05,0.0,0.0,0.0,0.0,-0.001626277226023376,-0.005162715911865234,-0.0009069031802937388,0.9998276233673096,0.0,0.0,0.0,-5.006058216094971,5.076130390167236,1.873691439628601,906.1065673828125,0
434.9830000000002,-0.005738931242376566,-0.006672154180705547,-8.13992228358984e-05,0.0,0.0,0.0,0.0,0.0019394551636651158,-0.00019026226073037833,-0.001298549585044384,0.9998249411582947,0.0,0.0,0.0,-5.026327610015869,5.081094264984131,1.8827080726623535,909.7752685546875,0
444.8690000000006,-0.005738903768360615,-0.006686958484351635,-8.089176844805479e-05,0.0,0.0,0.0,0.0,-0.0007243569125421345,0.001769757247529924,-0.0006594166625291109,1.000778079032898,0.0,0.0,0.0,-5.021217346191406,5.0817742347717285,1.8961219787597656,908.8504028320312,0
454.755000000001,-0.005745271220803261,-0.006707245949655771,-6.183141522342339e-05,0.0,0.0,0.0,0.0,0.003064783988520503,0.002613528398796916,-0.00025130168069154024,1.000903844833374,0.0,0.0,0.0,-5.031437873840332,5.070937156677246,1.8808491230010986,910.7001953125,0
464.64100000000144,-0.005745260044932365,-0.006727731786668301,-5.911521293455735e-05,0.0,0.0,0.0,0.0,-0.0006516146822832525,-0.008082500658929348,0.003480162238702178,1.0012085437774658,0.0,0.0,0.0,-5.025928497314453,5.05971097946167,1.8649208545684814,909.7030639648438,0
474.53100000000086,-0.005720875691622496,-0.006722004618495703,-8.349608833668754e-05,0.0,0.0,0.0,0.0,-0.0010482550133019686,0.00031445513013750315,0.00203772378154099,1.0004607439041138,0.0,0.0,0.0,-5.048496246337891,5.060186862945557,1.8774826526641846,913.787841796875,0
484.4220000000005,-0.005720359273254871,-0.006743211764842272,-8.017219806788489e-05,0.0,0.0,0.0,0.0,0.00034858789877034724,0.0010546479607000947,0.0005658284644596279,0.9982129335403442,0.0,0.0,0.0,-5.0432610511779785,5.050047397613525,1.880885362625122,912.8402709960938,0
494.3040000000001,-0.005726795177906752,-0.006762105971574783,-6.062371176085435e-05,0.0,0.0,0.0,0.0,-0.0002265076182084158,0.0001582632539793849,0.00404439028352499,0.9996309280395508,0.0,0.0,0.0,-5.055290222167969,5.047876358032227,1.88642418384552,915.017578125,0
504.1890000000003,-0.005731002427637577,-0.006786078680306673,-5.6766639318084344e-05,0.0,0.0,0.0,0.0,0.0017673508264124393,-0.005912186577916145,-0.0008801560616120696,0.9998425841331482,0.0,0.0,0.0,-5.0507073402404785,5.040594577789307,1.8749275207519531,914.1881103515625,0
514.0780000000013,-0.005724501796066761,-0.0067909336648881435,-4.4683412852464244e-05,0.0,0.0,0.0,0.0,-0.00071821513120085,0.0036394016351550817,0.0019199999514967203,0.9985253810882568,0.0,0.0,0.0,-5.0672149658203125,5.046671390533447,1.8750829696655273,917.176025390625,0
523.9590000000007,-0.005732063669711351,-0.006818211171776056,-4.133263064431958e-05,0.0,0.0,0.0,0.0,0.00014499487588182092,-0.008632127195596695,-3.35007171088364e-05,0.9998865127563477,0.0,0.0,0.0,-5.061854839324951,5.047998905181885,1.8792940378189087,916.205810546875,0
533.8550000000014,-0.005738127510994673,-0.0068481601774692535,-4.641911800717935e-05,0.0,0.0,0.0,0.0,0.0006642036605626345,6.969470268813893e-05,0.0002088542387355119,0.9991021156311035,0.0,0.0,0.0,-5.072804927825928,5.037172794342041,1.8882474899291992,918.187744140625,0
543.7290000000012,-0.005746063310652971,-0.006880079861730337,-4.460280615603551e-05,0.0,0.0,0.0,0.0,0.001657499698922038,0.007220470812171698,0.0017049432499334216,0.9986141324043274,0.0,0.0,0.0,-5.067928791046143,5.032188892364502,1.9005135297775269,917.3052368164062,0
553.6220000000012,-0.005731634330004454,-0.006874412763863802,-1.7138409020844847e-05,0.0,0.0,0.0,0.0,0.0016678585670888424,-0.0016582031967118382,-0.0007721475558355451,1.0001107454299927,0.0,0.0,0.0,-5.0789337158203125,5.043628215789795,1.8945050239562988,919.297119140625,0
563.5020000000004,-0.005736378021538258,-0.006904349196702242,-1.5793870261404663e-05,0.0,0.0,0.0,0.0,0.0011503645218908787,0.00022275188530329615,0.0006531357648782432,1.0004258155822754,0.0,0.0,0.0,-5.073539733886719,5.033985137939453,1.890872597694397,918.3207397460938,0
573.3940000000002,-0.005689640995115042,-0.0068923174403607845,-2.1079664293210953e-05,0.0,0.0,0.0,0.0,0.0006578573375009,-0.00023662905732635409,0.00038769232924096286,0.9997667670249939,0.0,0.0,0.0,-5.095067501068115,5.054296970367432,1.901127815246582,922.2173461914062,0
583.2850000000017,-0.0056877764873206615,-0.006921457592397928,-2.0781641069334e-05,0.0,0.0,0.0,0.0,-0.0004446647653821856,-0.0008881720132194459,0.0008075452060438693,0.9999691247940063,0.0,0.0,0.0,-5.090095043182373,5.043979167938232,1.8911908864974976,921.3173217773438,0
593.1689999999999,-0.005617530085146427,-0.006916727405041456,-5.275493458611891e-05,0.0,0.0,0.0,0.0,-0.0016805045306682587,0.0019906158559024334,-0.0016382783651351929,0.9992510676383972,0.0,0.0,0.0,-5.111075401306152,5.063872814178467,1.9154446125030518,925.1148071289062,0
603.0570000000007,-0.00583469495177269,-0.0067611620761454105,-0.00017501691763754934,0.0,0.0,0.0,0.0,0.0006380754057317972,0.0034543557558208704,0.0010196225484833121,1.0019019842147827,0.0,0.0,0.0,-5.099086761474609,5.097785949707031,1.859255313873291,922.94482421875,0
612.9390000000003,-0.0058033159002661705,-0.006742369383573532,-0.00020047499856445938,0.0,0.0,0.0,0.0,-0.002413115231320262,-0.006940383464097977,0.001783477608114481,1.0008803606033325,0.0,0.0,0.0,-5.115203380584717,5.101020336151123,1.8616831302642822,925.8619995117188,0
622.8180000000011,-0.005783322267234325,-0.0067133293487131596,-0.00012743858678732067,0.0,0.0,0.0,0.0,5.23789094586391e-06,0.00792351458221674,0.003820930840447545,1.0005155801773071,0.0,0.0,0.0,-5.10945987701416,5.0984673500061035,1.855963110923767,924.8223266601562,0
632.7220000000016,-0.005733487196266651,-0.006701015401631594,-0.00018417999672237784,0.0,0.0,0.0,0.0,-0.002800173358991742,-0.0004665778251364827,0.0014104499714449048,1.0018945932388306,0.0,0.0,0.0,-5.123047828674316,5.102451324462891,1.8692806959152222,927.2817993164062,0
642.594000000001,-0.005756870377808809,-0.006638017017394304,-0.00012796906230505556,0.0,0.0,0.0,0.0,0.0013581656385213137,-0.0041855936869978905,0.002098443917930126,0.9991310834884644,0.0,0.0,0.0,-5.110238075256348,5.110106945037842,1.8446444272994995,924.9632568359375,0
652.4850000000006,-0.005726184695959091,-0.006652430631220341,-0.0001701735454844311,0.0,0.0,0.0,0.0,-0.002740920754149556,-0.00038673149538226426,0.004247915465384722,0.9997542500495911,0.0,0.0,0.0,-5.1250433921813965,5.113325595855713,1.860427975654602,927.6430053710938,0
662.3630000000012,-0.005771186668425798,-0.0065949298441410065,-0.0001358217850793153,0.0,0.0,0.0,0.0,-0.00034308998147025704,-1.2942009561811574e-06,-0.002453765133395791,1.0010789632797241,0.0,0.0,0.0,-5.109487533569336,5.116118907928467,1.846125841140747,924.827392578125,0
672.255000000001,-0.005773832555860281,-0.006635150406509638,-0.0001432243880117312,0.0,0.0,0.0,0.0,0.002054478507488966,0.00011033864575438201,-0.003011187305673957,1.0008153915405273,0.0,0.0,0.0,-5.1153883934021,5.113327503204346,1.8406239748001099,925.8955078125,0
682.1330000000016,-0.005813034251332283,-0.0066064465790987015,-0.0001238883996848017,0.0,0.0,0.0,0.0,-0.00246224133297801,0.002228099387139082,0.0016772930976003408,1.0000041723251343,0.0,0.0,0.0,-5.103647232055664,5.115285873413086,1.8457987308502197,923.770263671875,0
692.0320000000011,-0.005807104054838419,-0.0066404263488948345,-0.00013619732635561377,0.0,0.0,0.0,0.0,0.0006176559836603701,-0.005412162281572819,0.0031923281494528055,1.0006996393203735,0.0,0.0,0.0,-5.118762016296387,5.110225200653076,1.8455190658569336,926.506103515625,0
701.9060000000009,-0.0058151958510279655,-0.006603779271245003,-8.504728612024337e-05,0.0,0.0,0.0,0.0,0.00035716115962713957,-0.0013383796904236078,0.003601600881665945,1.000873327255249,0.0,0.0,0.0,-5.10585355758667,5.1108198165893555,1.8511062860488892,924.169677734375,0
711.8000000000011,-0.005807849112898111,-0.006636782083660364,-9.617608156986535e-05,0.0,0.0,0.0,0.0,-0.0005749649135395885,0.005062722600996494,-0.0006997890304774046,1.001197338104248,0.0,0.0,0.0,-5.122344017028809,5.105983257293701,1.8554521799087524,927.1544799804688,0
721.6770000000015,-0.005799405742436647,-0.006647786125540733,-6.756006041541696e-05,0.0,0.0,0.0,0.0,0.000499228888656944,0.003634221851825714,-0.0027880442794412374,1.0024633407592773,0.0,0.0,0.0,-5.116843223571777,5.106732368469238,1.8498919010162354,926.1587524414062,0
731.5740000000005,-0.005784295499324799,-0.0066769118420779705,-8.657448051963001e-05,0.0,0.0,0.0,0.0,-0.00046563055366277695,-5.783110827906057e-05,-0.0042762234807014465,1.0020785331726074,0.0,0.0,0.0,-5.133095741271973,5.11052131652832,1.8456188440322876,929.1005859375,0
741.4490000000005,-0.005782374646514654,-0.00668357266113162,-5.481013431563042e-05,0.0,0.0,0.0,0.0,0.0011301105841994286,0.01086896751075983,-0.0020976250525563955,1.0000203847885132,0.0,0.0,0.0,-5.127906799316406,5.10206937789917,1.8341583013534546,928.161376953125,0
751.3540000000012,-0.005761610809713602,-0.006701902020722628,-6.717757059959695e-05,0.0,0.0,0.0,0.0,0.00010702817235141993,0.0011790144490078092,0.0001998316729441285,1.0000553131103516,0.0,0.0,0.0,-5.141714572906494,5.102721691131592,1.8222259283065796,930.6605224609375,0
761.2210000000014,-0.0057570962235331535,-0.006708094850182533,-3.2245214242720976e-05,0.0,0.0,0.0,0.0,0.001141959335654974,0.0005147025804035366,-0.004821913316845894,1.000598430633545,0.0,0.0,0.0,-5.129467010498047,5.105200290679932,1.8060572147369385,928.4437255859375,0
771.1170000000002,-0.005757235921919346,-0.006739681586623192,-1.9206359866075218e-05,0.0,0.0,0.0,0.0,0.0010733162052929401,-0.004894999787211418,-0.00041986964060924947,1.0024597644805908,0.0,0.0,0.0,-5.143871784210205,5.1031599044799805,1.801995873451233,931.051025390625,0
780.9930000000004,-0.005727774929255247,-0.006739587523043156,3.7801368307555094e-05,0.0,0.0,0.0,0.0,0.0012486613122746348,-0.0004919633502140641,0.0002671889669727534,1.0038000345230103,0.0,0.0,0.0,-5.129809856414795,5.0961809158325195,1.813646674156189,928.5057983398438,0
790.889000000001,-0.00569369038566947,-0.006746226456016302,2.3774293367750943e-05,0.0,0.0,0.0,0.0,0.002971268491819501,0.0007640738622285426,-0.001290186308324337,1.0006978511810303,0.0,0.0,0.0,-5.145350456237793,5.097111225128174,1.809989333152771,931.3187255859375,0
800.7650000000012,-0.005680675618350506,-0.006779255345463753,4.669501868193038e-05,0.0,0.0,0.0,0.0,0.0009069234947673976,-0.003055039094761014,-0.0002614840632304549,0.9997292160987854,0.0,0.0,0.0,-5.133599281311035,5.083386421203613,1.8137074708938599,929.191650390625,0
810.6590000000015,-0.005672625731676817,-0.0068022278137505054,6.909713556524366e-05,0.0,0.0,0.0,0.0,-0.0003462821478024125,0.002054185140877962,0.002497407142072916,1.0002771615982056,0.0,0.0,0.0,-5.14846658706665,5.078813552856445,1.8077009916305542,931.8826904296875,0
820.5430000000015,-0.005748276598751545,-0.006785324774682522,7.455450395355001e-05,0.0,0.0,0.0,0.0,0.0009910942753776908,-0.004110261797904968,-0.002719150623306632,1.0021902322769165,0.0,0.0,0.0,-5.133112907409668,5.078929424285889,1.7857767343521118,929.1036987304688,0
830.4360000000015,-0.005679483059793711,-0.006762114819139242,2.884043351514265e-05,0.0,0.0,0.0,0.0,-0.0030025714077055454,-0.005775613244622946,0.0016177588840946555,1.0011041164398193,0.0,0.0,0.0,-5.142338275909424,5.088810920715332,1.7979711294174194,930.7734375,0
840.3090000000011,-0.005746679380536079,-0.006740951910614967,3.7115136365173385e-05,0.0,0.0,0.0,0.0,0.0018557267030701041,0.0015539209125563502,0.005344581324607134,1.0002533197402954,0.0,0.0,0.0,-5.128726005554199,5.092207431793213,1.7851243019104004,928.3095703125,0
850.2060000000001,-0.005734819453209639,-0.006760698743164539,4.0380698919761926e-05,0.0,0.0,0.0,0.0,-0.0014642041642218828,0.0007754084072075784,-0.00039920551353134215,0.9995150566101074,0.0,0.0,0.0,-5.1387152671813965,5.09063196182251,1.791804552078247,930.1176147460938,0
860.0810000000001,-0.005826918408274651,-0.006712935399264097,5.1582130254246294e-05,0.0,0.0,0.0,0.0,0.0009819295955821872,-0.0005880373064428568,-0.004210152663290501,0.9989555478096008,0.0,0.0,0.0,-5.126405239105225,5.099081039428711,1.7693448066711426,927.8895263671875,0
869.9850000000006,-0.005767253693193197,-0.006694173905998468,-3.829976321867434e-06,0.0,0.0,0.0,0.0,-0.0002562879817560315,-0.00027572232647798955,0.0011473324848338962,1.0009702444076538,0.0,0.0,0.0,-5.134488105773926,5.102871894836426,1.7715095281600952,929.3525390625,0
879.857,-0.005855898838490248,-0.006614550482481718,2.8124506570748053e-05,0.0,0.0,0.0,0.0,-0.0012129396200180054,-0.00026712266844697297,-0.0016097574261948466,1.0007375478744507,0.0,0.0,0.0,-5.1225128173828125,5.111433506011963,1.7690352201461792,927.18505859375,0
889.7540000000008,-0.0058110561221838,-0.006577862426638603,6.868428499728907e-06,0.0,0.0,0.0,0.0,-0.00032126501901075244,-0.0017988440813496709,0.0005941493436694145,1.0017871856689453,0.0,0.0,0.0,-5.13992166519165,5.122195720672607,1.7825214862823486,930.3359985351562,0
899.625,-0.005797484889626503,-0.006576091051101685,4.1241994040319696e-05,0.0,0.0,0.0,0.0,-0.001627073041163385,-0.003043430857360363,0.002128207590430975,1.0021229982376099,0.0,0.0,0.0,-5.126525402069092,5.123868942260742,1.7794266939163208,927.9113159179688,0
909.5190000000002,-0.005786776077002287,-0.006606871262192726,1.6748746929806657e-05,0.0,0.0,0.0,0.0,-0.002319294260814786,-0.002755440305918455,0.0005133574013598263,1.0031909942626953,0.0,0.0,0.0,-5.1390275955200195,5.117746353149414,1.7850620746612549,930.1741943359375,0
919.3970000000008,-0.005766496527940035,-0.0066076237708330154,5.7073484640568495e-05,0.0,0.0,0.0,0.0,-0.00014718201418872923,-0.0022808897774666548,5.43056485184934e-05,1.0002509355545044,0.0,0.0,0.0,-5.125936508178711,5.112576007843018,1.7867159843444824,927.8046875,0
929.2939999999999,-0.005740193650126457,-0.006603491026908159,5.117254477227107e-05,0.0,0.0,0.0,0.0,0.000716164824552834,0.0002068527101073414,-0.00030893704388290644,1.0011427402496338,0.0,0.0,0.0,-5.142993927001953,5.123305797576904,1.789057970046997,930.8921508789062,0
939.1689999999999,-0.005807006731629372,-0.006587580777704716,5.0659138651099056e-05,0.0,0.0,0.0,0.0,0.0014928315067663789,-0.0013917908072471619,0.002321364590898156,1.0014312267303467,0.0,0.0,0.0,-5.130113124847412,5.118499279022217,1.783403992652893,928.5606689453125,0
949.0709999999999,-0.005760597065091133,-0.006587429437786341,-7.943015589262359e-06,0.0,0.0,0.0,0.0,0.0018712504534050822,0.0019437838345766068,-0.0013182952534407377,1.0015325546264648,0.0,0.0,0.0,-5.1446356773376465,5.117417335510254,1.7984776496887207,931.1892700195312,0
958.9530000000013,-0.005749336909502745,-0.006625261157751083,-2.042934056589729e-06,0.0,0.0,0.0,0.0,-0.003716235514730215,-0.004128139466047287,-0.0023959195241332054,1.0022876262664795,0.0,0.0,0.0,-5.130835056304932,5.107890605926514,1.795945405960083,928.69140625,0
968.8370000000014,-0.005732194520533085,-0.00665128743276,-3.505135464365594e-05,0.0,0.0,0.0,0.0,0.0007566221174784005,-0.0021123476326465607,0.002212054096162319,1.0020033121109009,0.0,0.0,0.0,-5.140178203582764,5.096269130706787,1.788221001625061,930.3823852539062,0
978.719000000001,-0.005737575702369213,-0.00666046841070056,-1.802672522899229e-05,0.0,0.0,0.0,0.0,-0.00011233075929339975,0.0007219835533760488,-0.0014145218301564455,0.9998952746391296,0.0,0.0,0.0,-5.129331111907959,5.09291934967041,1.7962020635604858,928.419189453125,0
988.6100000000006,-0.00573078403249383,-0.006680061109364033,-1.9874045392498374e-05,0.0,0.0,0.0,0.0,0.0007340892916545272,-0.003998474217951298,-0.00027597867301665246,1.00040864944458,0.0,0.0,0.0,-5.139286518096924,5.092013359069824,1.8042900562286377,930.2210083007812,0
998.4970000000012,-0.005755570251494646,-0.006665702443569899,5.61346632821369e-06,0.0,0.0,0.0,0.0,0.00044805227662436664,-0.00520379887893796,-0.000965448678471148,0.9999151229858398,0.0,0.0,0.0,-5.134453296661377,5.084408283233643,1.7951873540878296,929.3462524414062,0
1008.3780000000006,-0.0057596368715167046,-0.006698272190988064,6.534412932523992e-06,0.0,0.0,0.0,0.0,0.0002740026393439621,-0.0009539282764308155,0.0006083007901906967,1.0000839233398438,0.0,0.0,0.0,-5.145909309387207,5.082653999328613,1.8042263984680176,931.4198608398438,0
1018.264000000001,-0.005781912244856358,-0.006670961156487465,4.772625834448263e-05,0.0,0.0,0.0,0.0,0.0017932899063453078,0.006837930995970964,0.0001529454457340762,0.9996631741523743,0.0,0.0,0.0,-5.131726264953613,5.091102600097656,1.8155831098556519,928.8526611328125,0
1028.1550000000007,-0.005757118575274944,-0.006677678786218166,2.107341424562037e-05,0.0,0.0,0.0,0.0,-0.0012930799275636673,-0.003408525139093399,-0.0013231562916189432,0.9984064698219299,0.0,0.0,0.0,-5.146151542663574,5.089153289794922,1.821181297302246,931.4636840820312,0
1038.0290000000005,-0.005817006807774305,-0.006652754731476307,3.269680019002408e-05,0.0,0.0,0.0,0.0,-3.822239887085743e-05,0.00781701784580946,0.0015161356423050165,1.0003973245620728,0.0,0.0,0.0,-5.132873058319092,5.098133563995361,1.7973456382751465,929.0602416992188,0
1047.9230000000007,-0.00579091627150774,-0.0066594211384654045,-1.403298142577114e-06,0.0,0.0,0.0,0.0,0.0010155923664569855,-0.00019607115245889872,0.0007367086363956332,1.0024693012237549,0.0,0.0,0.0,-5.143500328063965,5.102006435394287,1.8026727437973022,930.9838256835938,0
1057.8060000000005,-0.005855394061654806,-0.0065959179773926735,3.3298172638751566e-05,0.0,0.0,0.0,0.0,0.0014902716502547264,-0.0036683897487819195,-0.004248000215739012,1.001137137413025,0.0,0.0,0.0,-5.1389312744140625,5.102839946746826,1.789768099784851,930.15673828125,0
1067.6940000000013,-0.00579177075996995,-0.006557638756930828,-2.156060145352967e-05,0.0,0.0,0.0,0.0,0.00038307212525978684,-0.00323347095400095,0.0018213405273854733,0.9984202980995178,0.0,0.0,0.0,-5.150227069854736,5.11240291595459,1.7967265844345093,932.201416015625,0
1077.58,-0.005809715483337641,-0.00656423345208168,-1.827094456530176e-05,0.0,0.0,0.0,0.0,-0.000358265737304464,0.0029484571423381567,0.0006914593395777047,1.0000051259994507,0.0,0.0,0.0,-5.137342929840088,5.113125801086426,1.785284161567688,929.8692626953125,0
1087.482,-0.0057853152975440025,-0.006590008735656738,-7.65876320656389e-05,0.0,0.0,0.0,0.0,0.0009419476264156401,0.0023266186472028494,-0.0010587080614641309,0.9982655048370361,0.0,0.0,0.0,-5.15176248550415,5.109789848327637,1.8053817749023438,932.479248046875,0
1097.3450000000012,-0.005803660489618778,-0.006585333961993456,-6.739457603543997e-05,0.0,0.0,0.0,0.0,0.0008446317515335977,-0.002752783941105008,0.0012551405234262347,0.9978766441345215,0.0,0.0,0.0,-5.139192581176758,5.104093074798584,1.7893946170806885,930.2040405273438,0
1107.241,-0.005778038874268532,-0.006595015991479158,-0.00011781225475715473,0.0,0.0,0.0,0.0,0.0015965572092682123,-0.0009741733083501458,-0.0015382792335003614,0.9981442093849182,0.0,0.0,0.0,-5.1568756103515625,5.100346565246582,1.7913541793823242,933.4047241210938,0
1117.1170000000002,-0.005750536918640137,-0.006614433601498604,-0.00010175766510656103,0.0,0.0,0.0,0.0,0.0008933951612561941,-0.001855945331044495,-0.0013125642435625196,1.0011063814163208,0.0,0.0,0.0,-5.144230365753174,5.092669486999512,1.8104355335235596,931.1159057617188,0
1127.014000000001,-0.005755036603659391,-0.006650138646364212,-0.00012200287892483175,0.0,0.0,0.0,0.0,-0.0006433117669075727,0.0004886022652499378,-0.001251877169124782,1.0029815435409546,0.0,0.0,0.0,-5.155279636383057,5.086409568786621,1.805503487586975,933.1159057617188,0
1136.8940000000002,-0.005746788345277309,-0.00666077109053731,-0.00010916827886831015,0.0,0.0,0.0,0.0,-0.0007480531348846853,0.008390742354094982,0.00044184099533595145,0.9997541308403015,0.0,0.0,0.0,-5.138508319854736,5.084897041320801,1.8177496194839478,930.0802612304688,0
1146.7890000000007,-0.005742367822676897,-0.0066901459358632565,-0.00012815999798476696,0.0,0.0,0.0,0.0,-0.0006106917280703783,0.0027995756827294827,-0.00130390003323555,0.9995383024215698,0.0,0.0,0.0,-5.146899223327637,5.0882720947265625,1.8081077337265015,931.5989990234375,0
1156.6640000000007,-0.005761660169810057,-0.006665888708084822,-0.00010108726564794779,0.0,0.0,0.0,0.0,0.004254459869116545,0.003949586767703295,-0.00011098351387772709,0.9998841881752014,0.0,0.0,0.0,-5.142354488372803,5.0797119140625,1.7949246168136597,930.7763671875,0
1166.5560000000005,-0.005753809120506048,-0.006685941480100155,-0.00011489340977277607,0.0,0.0,0.0,0.0,-0.002780957380309701,0.0003548230743035674,5.1316386816324666e-05,0.9979803562164307,0.0,0.0,0.0,-5.154910087585449,5.079078674316406,1.775090217590332,933.0489501953125,0
1176.4400000000005,-0.00568266911432147,-0.006729128770530224,-7.981005182955414e-05,0.0,0.0,0.0,0.0,0.0007417253218591213,0.001867304788902402,-0.001260151737369597,0.9996393918991089,0.0,0.0,0.0,-5.142383098602295,5.068580150604248,1.7801183462142944,930.7816162109375,0
1186.3340000000007,-0.005645576398819685,-0.006731853820383549,-0.00012605982192326337,0.0,0.0,0.0,0.0,0.0003984647337347269,-0.0010986271081492305,0.001598236383870244,1.0015432834625244,0.0,0.0,0.0,-5.159735202789307,5.069336891174316,1.7886978387832642,933.92236328125,0
1196.2080000000005,-0.0056580775417387486,-0.006699013523757458,-8.127649198286235e-05,0.0,0.0,0.0,0.0,0.000916400458663702,0.0047552455216646194,0.0007715647807344794,1.0020731687545776,0.0,0.0,0.0,-5.143917560577393,5.079160213470459,1.7813376188278198,931.0593872070312,0
1206.1010000000006,-0.005654125474393368,-0.006738978438079357,-0.00010238932009087875,0.0,0.0,0.0,0.0,0.005004232283681631,-0.0006810532649978995,9.520805906504393e-05,0.9995083212852478,0.0,0.0,0.0,-5.150424480438232,5.073361873626709,1.7911150455474854,932.237060546875,0
1215.9800000000014,-0.005721458699554205,-0.0067106192000210285,-9.531195973977447e-05,0.0,0.0,0.0,0.0,-0.0033121039159595966,-0.007592720445245504,0.00036516852560453117,0.9984380602836609,0.0,0.0,0.0,-5.136022567749023,5.067111492156982,1.7624452114105225,929.6303100585938,0
1225.8790000000008,-0.005701054353266954,-0.006721412297338247,-0.00012075379345333204,0.0,0.0,0.0,0.0,-0.00017886223213281482,0.0028646946884691715,0.002087680622935295,0.9984444379806519,0.0,0.0,0.0,-5.150190830230713,5.07066011428833,1.767844557762146,932.1947631835938,0
1235.7520000000004,-0.0057554724626243114,-0.006681982893496752,-0.00010054594167741016,0.0,0.0,0.0,0.0,0.004011971410363913,-0.000985426246188581,0.003486876841634512,0.999631941318512,0.0,0.0,0.0,-5.137024402618408,5.080245494842529,1.7614489793777466,929.8115844726562,0
1245.6460000000006,-0.005745052359998226,-0.0066985804587602615,-0.00012095819693058729,0.0,0.0,0.0,0.0,0.0016406805953010917,0.00794968195259571,-0.0022323601879179478,1.0001088380813599,0.0,0.0,0.0,-5.149448871612549,5.07557487487793,1.7607041597366333,932.0604858398438,0
1255.5240000000013,-0.005814243108034134,-0.006653407588601112,-0.00010469581320649013,0.0,0.0,0.0,0.0,-0.000249874428845942,-0.0020420767832547426,0.0010278314584866166,1.0014891624450684,0.0,0.0,0.0,-5.136898517608643,5.081187725067139,1.7293033599853516,929.7888793945312,0
1265.42,-0.00579501036554575,-0.006656850688159466,-0.0001368000521324575,0.0,0.0,0.0,0.0,0.0011861524544656277,-4.7470392019022256e-05,-0.001955088460817933,1.0000989437103271,0.0,0.0,0.0,-5.152464389801025,5.081090927124023,1.7236690521240234,932.6063842773438,0
1275.2960000000003,-0.005787252448499203,-0.00666048051789403,-0.00010300687426934019,0.0,0.0,0.0,0.0,-0.0016379571752622724,-0.0020729016978293657,-0.0031540472991764545,0.9979352951049805,0.0,0.0,0.0,-5.141348838806152,5.076414585113525,1.7235329151153564,930.5943603515625,0
1285.1940000000013,-0.005802551284432411,-0.006688331253826618,-9.400597627973184e-05,0.0,0.0,0.0,0.0,0.000968741427641362,-0.00028774203383363783,-0.003899830626323819,1.00139319896698,0.0,0.0,0.0,-5.143622875213623,5.0741753578186035,1.7335669994354248,931.0059814453125,0
1295.0790000000015,-0.005808701738715172,-0.006690542213618755,-6.305964780040085e-05,0.0,0.0,0.0,0.0,-0.00013705226592719555,-0.005075659602880478,-0.0009545893990434706,1.0004276037216187,0.0,0.0,0.0,-5.1382222175598145,5.067193984985352,1.7406638860702515,930.0284423828125,0
1304.9650000000001,-0.005781888030469418,-0.006672597024589777,-8.14102022559382e-05,0.0,0.0,0.0,0.0,-0.0019468199461698532,-0.0011922571575269103,-0.0021479304414242506,0.9992672801017761,0.0,0.0,0.0,-5.155949115753174,5.072898864746094,1.7443568706512451,933.2369995117188,0
1314.8400000000001,-0.005775484722107649,-0.006687007378786802,-5.302108183968812e-05,0.0,0.0,0.0,0.0,0.0004308201605454087,0.00017898183432407677,0.003926051314920187,1.0009446144104004,0.0,0.0,0.0,-5.141409873962402,5.074962139129639,1.7466665506362915,930.6054077148438,0
1324.7380000000012,-0.005763656459748745,-0.0067021893337368965,-7.384100899798796e-05,0.0,0.0,0.0,0.0,0.0009690314764156938,0.005599893629550934,0.0006919060251675546,1.0007988214492798,0.0,0.0,0.0,-5.152947902679443,5.072788238525391,1.7479218244552612,932.69384765625,0
1334.612000000001,-0.005772510077804327,-0.006711934693157673,-5.133803279022686e-05,0.0,0.0,0.0,0.0,-0.0005294258007779717,0.0005573366652242839,0.0016525890678167343,1.0011357069015503,0.0,0.0,0.0,-5.1381378173828125,5.070850372314453,1.7430707216262817,930.01318359375,0
1344.5110000000004,-0.005706436466425657,-0.006667283829301596,-9.725197014631703e-05,0.0,0.0,0.0,0.0,-0.0031345791649073362,-0.007616688963025808,0.0014917649095878005,0.9982070922851562,0.0,0.0,0.0,-5.147371292114258,5.090840816497803,1.7524038553237915,931.6844482421875,0
1354.3850000000002,-0.005730742122977972,-0.006669006776064634,-8.127332694130018e-05,0.0,0.0,0.0,0.0,0.0019295396050438285,-0.00611427566036582,0.0011142379371449351,0.9992341995239258,0.0,0.0,0.0,-5.13529109954834,5.086921215057373,1.7488791942596436,929.4979248046875,0
1364.277,-0.005701578222215176,-0.0066866204142570496,-0.0001334797270828858,0.0,0.0,0.0,0.0,-0.0012317473301663995,0.0015186634846031666,0.0008470040047541261,0.999374270439148,0.0,0.0,0.0,-5.145785808563232,5.094107151031494,1.766764760017395,931.3974609375,0
1374.1560000000009,-0.005727458745241165,-0.006678983569145203,-0.00011575769894989207,0.0,0.0,0.0,0.0,0.0015499299624934793,-0.005197681020945311,0.00176987424492836,0.9986867904663086,0.0,0.0,0.0,-5.133395195007324,5.0967912673950195,1.7690383195877075,929.1547241210938,0
1384.0520000000015,-0.005699025932699442,-0.006682862993329763,-0.00015707113198004663,0.0,0.0,0.0,0.0,0.0027691449504345655,0.0031878617592155933,0.0011304998770356178,0.9996984004974365,0.0,0.0,0.0,-5.144290924072266,5.099742412567139,1.7883720397949219,931.1268920898438,0
1393.9279999999999,-0.005723179318010807,-0.006672130897641182,-0.00013987971760798246,0.0,0.0,0.0,0.0,0.0011679194867610931,0.0007793002296239138,-0.0004415443981997669,0.9997209310531616,0.0,0.0,0.0,-5.131434440612793,5.101352214813232,1.7731003761291504,928.7998657226562,0
1403.8250000000007,-0.005710469093173742,-0.006691921968013048,-0.000170954066561535,0.0,0.0,0.0,0.0,-0.0010032738791778684,0.00043804282904602587,0.001937620691023767,1.0016497373580933,0.0,0.0,0.0,-5.146488666534424,5.094100475311279,1.7632859945297241,931.524658203125,0
1413.701000000001,-0.005737231113016605,-0.006676441989839077,-0.00015258495113812387,0.0,0.0,0.0,0.0,0.0009690475999377668,0.007324157748371363,0.0008122051367536187,1.0015050172805786,0.0,0.0,0.0,-5.1351799964904785,5.1002583503723145,1.758813738822937,929.477783203125,0
1423.6000000000004,-0.005726626608520746,-0.006691014394164085,-0.00017381984798703343,0.0,0.0,0.0,0.0,-0.0011513684876263142,0.008177624084055424,0.004316467791795731,0.9998941421508789,0.0,0.0,0.0,-5.14314079284668,5.0968017578125,1.7630224227905273,930.9187622070312,0
1433.4710000000014,-0.005749612580984831,-0.006661092396825552,-0.00013669489999301732,0.0,0.0,0.0,0.0,-0.0018724140245467424,-0.0036823153495788574,0.00301479478366673,0.9988388419151306,0.0,0.0,0.0,-5.136839389801025,5.092202186584473,1.7430367469787598,929.7781982421875,0
1443.366,-0.005739062558859587,-0.006680788937956095,-0.00016268252511508763,0.0,0.0,0.0,0.0,-0.002794062253087759,0.002129399450495839,0.0021131683606654406,1.0008047819137573,0.0,0.0,0.0,-5.147144794464111,5.088805675506592,1.7494252920150757,931.6434936523438,0
1453.2440000000006,-0.005744480062276125,-0.006684255786240101,-0.00014102757268119603,0.0,0.0,0.0,0.0,-0.000704715377651155,-0.001919409609399736,-0.0007955048931762576,1.0024893283843994,0.0,0.0,0.0,-5.133484840393066,5.089818477630615,1.7696754932403564,929.1708984375,0
1463.1350000000002,-0.005762071348726749,-0.0067457049153745174,-0.00015974890266079456,0.0,0.0,0.0,0.0,-0.0032020651269704103,0.0006812099600210786,-7.899500633357093e-05,0.9993906021118164,0.0,0.0,0.0,-5.143417835235596,5.085275173187256,1.7627546787261963,930.9688720703125,0
1473.0260000000017,-0.005794866476207972,-0.006719793658703566,-0.00012527541548479348,0.0,0.0,0.0,0.0,0.000477392110042274,-0.002057059435173869,0.0028408984653651714,1.0001943111419678,0.0,0.0,0.0,-5.138840675354004,5.087972164154053,1.7633538246154785,930.140380859375,0
1482.902,-0.005773474927991629,-0.00672370009124279,-0.00015006607281975448,0.0,0.0,0.0,0.0,0.0028476023580878973,0.0064966753125190735,0.0014983023284003139,1.0017739534378052,0.0,0.0,0.0,-5.147149085998535,5.091418743133545,1.7673543691635132,931.6442260742188,0
1492.7900000000009,-0.005792521871626377,-0.006686785724014044,-9.734206105349585e-05,0.0,0.0,0.0,0.0,-0.0020027097780257463,0.0025662367697805166,0.0004169107705820352,1.001060962677002,0.0,0.0,0.0,-5.132630348205566,5.096336364746094,1.7510448694229126,929.0162353515625,0
1502.6779999999999,-0.005763661582022905,-0.0066907331347465515,-0.00012969518138561398,0.0,0.0,0.0,0.0,-0.0002499072579666972,-0.0004283532325644046,0.00041625567246228456,1.000993251800537,0.0,0.0,0.0,-5.137012481689453,5.094898223876953,1.7480871677398682,929.8094482421875,0
1512.5720000000001,-0.005816382821649313,-0.006628227885812521,-7.724117313046008e-05,0.0,0.0,0.0,0.0,-0.0005712208803743124,-0.005080030299723148,0.002347757341340184,1.0004043579101562,0.0,0.0,0.0,-5.132599353790283,5.091912746429443,1.7480255365371704,929.0106811523438,0
1522.4440000000013,-0.005830557085573673,-0.006670142989605665,-7.897171599324793e-05,0.0,0.0,0.0,0.0,-0.0015143341151997447,0.0012787528103217483,6.177109753480181e-05,0.9997454285621643,0.0,0.0,0.0,-5.138871192932129,5.084933280944824,1.7455655336380005,930.1459350585938,0
1532.3290000000015,-0.005819062236696482,-0.006660771556198597,-1.925727519846987e-05,0.0,0.0,0.0,0.0,0.00016095422324724495,-0.0009164707153104246,-0.0009031221270561218,0.9984765648841858,0.0,0.0,0.0,-5.125282287597656,5.093160152435303,1.7743990421295166,927.6863403320312,0
1542.2160000000003,-0.0058149779215455055,-0.0066782268695533276,-2.2950946004129946e-05,0.0,0.0,0.0,0.0,-0.0019354313844814897,-0.00017775596643332392,-0.0019905602093786,1.0012725591659546,0.0,0.0,0.0,-5.129802227020264,5.0868144035339355,1.7820613384246826,928.5043334960938,0
1552.103000000001,-0.005794846918433905,-0.006712402682751417,8.194362635549624e-06,0.0,0.0,0.0,0.0,0.003212595358490944,0.005581683479249477,0.00034409668296575546,1.0008857250213623,0.0,0.0,0.0,-5.119302272796631,5.083791732788086,1.789754033088684,926.6039428710938,0
1562.005000000001,-0.005754734855145216,-0.006702829618006945,-2.7353704354027286e-05,0.0,0.0,0.0,0.0,-0.000261539506027475,0.004434459377080202,-0.001541114179417491,0.9988867044448853,0.0,0.0,0.0,-5.127434730529785,5.092515468597412,1.7839796543121338,928.0758666992188,0
1571.8730000000014,-0.005785334389656782,-0.006694118492305279,3.448488541835104e-06,0.0,0.0,0.0,0.0,0.0018815678777173162,0.0013286179164424539,0.0009253579773940146,1.0000666379928589,0.0,0.0,0.0,-5.122230529785156,5.086470603942871,1.7801399230957031,927.1339721679688,0
1581.7630000000008,-0.005734428763389587,-0.006684649270027876,-4.826722579309717e-05,0.0,0.0,0.0,0.0,-0.002905249362811446,-0.0014178660931065679,0.0003176225000061095,1.0006731748580933,0.0,0.0,0.0,-5.131381034851074,5.090550422668457,1.7853550910949707,928.7901611328125,0
1591.6450000000004,-0.00581216299906373,-0.006661518942564726,-4.102645470993593e-05,0.0,0.0,0.0,0.0,-0.0015150861581787467,-0.00013174624473322183,0.0018310777377337217,1.0018175840377808,0.0,0.0,0.0,-5.120561599731445,5.092563152313232,1.772108793258667,926.8319091796875,0
1601.541000000001,-0.005763339344412088,-0.0066596586257219315,-0.00010248678881907836,0.0,0.0,0.0,0.0,-0.0007796166464686394,0.004821144510060549,0.0010090740397572517,1.00116765499115,0.0,0.0,0.0,-5.134875297546387,5.103166580200195,1.7938735485076904,929.422607421875,0
1611.4170000000013,-0.00580426212400198,-0.006619792431592941,-6.397977995220572e-05,0.0,0.0,0.0,0.0,-0.0010246011661365628,-0.0026138261891901493,0.0025662730913609266,1.000570297241211,0.0,0.0,0.0,-5.120431423187256,5.111111640930176,1.778808832168579,926.8082885742188,0
1621.3190000000013,-0.0057667954824864864,-0.006626482587307692,-0.00010824373021023348,0.0,0.0,0.0,0.0,-0.0013555885525420308,-0.0010039684129878879,0.0011101386044174433,1.0017313957214355,0.0,0.0,0.0,-5.133357048034668,5.11807107925415,1.7906110286712646,929.1478881835938,0
1631.1890000000003,-0.005786396563053131,-0.0065982164815068245,-6.519085582112893e-05,0.0,0.0,0.0,0.0,0.001252851216122508,0.0026606901083141565,0.0005963395233266056,1.0005083084106445,0.0,0.0,0.0,-5.121129035949707,5.123414039611816,1.7871520519256592,926.9345703125,0
1641.0820000000003,-0.005752234254032373,-0.006611586082726717,-0.000106348808913026,0.0,0.0,0.0,0.0,-0.00034653753391467035,0.001703657559119165,0.0009125104988925159,1.00112783908844,0.0,0.0,0.0,-5.132730007171631,5.129429817199707,1.7904093265533447,929.0343627929688,0
1650.9720000000016,-0.005738337058573961,-0.006634213030338287,-8.017527579795569e-05,0.0,0.0,0.0,0.0,-0.002271973295137286,0.0003806207678280771,-0.002737835282459855,1.0014992952346802,0.0,0.0,0.0,-5.126323699951172,5.122708797454834,1.7848013639450073,927.874755859375,0
1660.8550000000014,-0.005713249556720257,-0.006650806870311499,-0.00011252778494963422,0.0,0.0,0.0,0.0,-0.0016990622971206903,-0.0007735689869150519,0.0021553796250373125,1.0006440877914429,0.0,0.0,0.0,-5.138377666473389,5.1294965744018555,1.7958488464355469,930.0565795898438,0
1670.7330000000002,-0.005742709618061781,-0.006640802603214979,-8.770942076807842e-05,0.0,0.0,0.0,0.0,0.0007395442808046937,-0.0003606780373957008,0.004851760808378458,1.000687837600708,0.0,0.0,0.0,-5.133496284484863,5.121451377868652,1.7860296964645386,929.1730346679688,0
1680.6440000000002,-0.0057412623427808285,-0.006672768387943506,-9.881381265586242e-05,0.0,0.0,0.0,0.0,-0.0009334819624200463,0.0064109624363482,-0.002523136790841818,1.0011354684829712,0.0,0.0,0.0,-5.144120216369629,5.122503757476807,1.7819174528121948,931.0960693359375,0
1690.5070000000014,-0.005780414678156376,-0.006661944091320038,-7.61537958169356e-05,0.0,0.0,0.0,0.0,0.00045923562720417976,0.004143622238188982,-0.0009800895350053906,1.0027093887329102,0.0,0.0,0.0,-5.133488178253174,5.12761926651001,1.7761147022247314,929.1715087890625,0
1700.4010000000017,-0.005800951737910509,-0.006707554217427969,-6.248334830161184e-05,0.0,0.0,0.0,0.0,-0.0005613952525891364,-0.0017756017623469234,-0.0005813293973915279,0.9998990893363953,0.0,0.0,0.0,-5.141297817230225,5.120092391967773,1.755854606628418,930.5850830078125,0
1710.277,-0.005793051794171333,-0.0067246221005916595,-2.3768596292939037e-05,0.0,0.0,0.0,0.0,-0.0016115528997033834,-0.0031266463920474052,0.0012449780479073524,0.9978984594345093,0.0,0.0,0.0,-5.130876541137695,5.114771366119385,1.7567583322525024,928.6989135742188,0
1720.174000000001,-0.005799770355224609,-0.006753180176019669,-1.0445854968565982e-05,0.0,0.0,0.0,0.0,-0.0012263262178748846,0.002307620132341981,-0.002722308970987797,0.9990461468696594,0.0,0.0,0.0,-5.134723663330078,5.118043422698975,1.7604514360427856,929.3952026367188,0
1730.049000000001,-0.005816346034407616,-0.006764992140233517,1.7447047866880894e-05,0.0,0.0,0.0,0.0,0.00023862395028118044,-0.0013735571410506964,0.0018493757816031575,1.0016192197799683,0.0,0.0,0.0,-5.122034549713135,5.114457607269287,1.7546465396881104,927.098388671875,0
1739.9470000000001,-0.005804169457405806,-0.006769332103431225,1.869003608589992e-05,0.0,0.0,0.0,0.0,-0.004261370282620192,-0.0031637276988476515,0.0009640149073675275,1.0018446445465088,0.0,0.0,0.0,-5.129465579986572,5.118102550506592,1.7527177333831787,928.4434814453125,0
1749.821,-0.005836198106408119,-0.006760475691407919,5.7222554460167885e-05,0.0,0.0,0.0,0.0,-0.0003700985689647496,0.0004089924041181803,-0.0017704045167192817,0.9985337257385254,0.0,0.0,0.0,-5.124496936798096,5.116802215576172,1.7537720203399658,927.5441284179688,0
1759.7150000000001,-0.005782505962997675,-0.006730821914970875,1.5483208699151874e-05,0.0,0.0,0.0,0.0,0.001499160542152822,-0.0018030295614153147,-0.002997784409672022,1.0016499757766724,0.0,0.0,0.0,-5.134759426116943,5.132532596588135,1.7711060047149658,929.4016723632812,0
1769.6000000000004,-0.005797937512397766,-0.006759085692465305,3.087453660555184e-05,0.0,0.0,0.0,0.0,-0.0013477718457579613,-0.003925750032067299,-0.0015152364503592253,1.00107741355896,0.0,0.0,0.0,-5.1297078132629395,5.125976085662842,1.7738919258117676,928.4873046875,0
1779.4930000000004,-0.0057474118657410145,-0.0067318156361579895,-6.106900855229469e-06,0.0,0.0,0.0,0.0,-0.0016243604477494955,0.0011264255736023188,-0.0005007085856050253,1.0011621713638306,0.0,0.0,0.0,-5.134676456451416,5.138933181762695,1.7889498472213745,929.3866577148438,0
1789.3650000000016,-0.005783582106232643,-0.0067170774564146996,2.5136074327747338e-05,0.0,0.0,0.0,0.0,0.001891963416710496,0.005847251508384943,-0.0032003310043364763,1.0023704767227173,0.0,0.0,0.0,-5.129646301269531,5.135925769805908,1.7842473983764648,928.4761962890625,0
1799.2740000000013,-0.0057175615802407265,-0.006670947652310133,-1.6699435946065933e-05,0.0,0.0,0.0,0.0,-0.0018710331059992313,0.005369347985833883,0.0023525392170995474,1.00084388256073,0.0,0.0,0.0,-5.138047695159912,5.149943828582764,1.8000966310501099,929.996826171875,0
1809.1370000000006,-0.005804641172289848,-0.006631630938500166,-7.994767656782642e-06,0.0,0.0,0.0,0.0,0.003004634752869606,-0.0029862429946660995,-0.0042117079719901085,0.9988355040550232,0.0,0.0,0.0,-5.125297546386719,5.1544108390808105,1.7754020690917969,927.6890258789062,0
1819.036,-0.0057936920784413815,-0.0066533335484564304,-2.9116692530806176e-05,0.0,0.0,0.0,0.0,0.0005178344435989857,-0.0036230217665433884,0.001822583144530654,1.0027077198028564,0.0,0.0,0.0,-5.136476516723633,5.157644748687744,1.7698262929916382,929.71240234375,0
1828.9090000000015,-0.005796385463327169,-0.006662791594862938,1.4334645470626128e-07,0.0,0.0,0.0,0.0,-0.0037463451735675335,-0.005269971210509539,-0.001072668586857617,1.001180648803711,0.0,0.0,0.0,-5.1321516036987305,5.149709224700928,1.7735556364059448,928.9296264648438,0
1838.812,-0.005733748897910118,-0.006627170369029045,-4.8025191063061357e-05,0.0,0.0,0.0,0.0,0.0008923077839426696,0.0007981442613527179,-0.0017774360021576285,0.9998524188995361,0.0,0.0,0.0,-5.140089511871338,5.161799430847168,1.7968175411224365,930.3663940429688,0
1848.6820000000007,-0.0057566300965845585,-0.006623418070375919,-2.5454080969211645e-05,0.0,0.0,0.0,0.0,0.00032699390430934727,-0.0014026224380359054,0.000875448458828032,1.0016098022460938,0.0,0.0,0.0,-5.135670185089111,5.161212921142578,1.8049925565719604,929.5665283203125,0
1858.5880000000016,-0.005753595847636461,-0.006653554737567902,-3.518170342431404e-05,0.0,0.0,0.0,0.0,-0.00038795609725639224,0.0007538318750448525,-0.00032648525666445494,1.0015398263931274,0.0,0.0,0.0,-5.14485502243042,5.154844284057617,1.7857855558395386,931.2290649414062,0
1868.4540000000015,-0.0057686627842485905,-0.006655540782958269,-8.905837603379041e-06,0.0,0.0,0.0,0.0,0.0009327887673862278,-0.004490514751523733,0.0025290807243436575,0.9985882043838501,0.0,0.0,0.0,-5.140125274658203,5.156472682952881,1.7941980361938477,930.3728637695312,0
1878.3470000000016,-0.005720106884837151,-0.0066533563658595085,-6.0497874073917046e-05,0.0,0.0,0.0,0.0,-0.0005549899069592357,0.0008955653756856918,0.0035290943924337626,1.0002108812332153,0.0,0.0,0.0,-5.1535468101501465,5.159165859222412,1.7997409105300903,932.8021850585938,0
1888.2260000000006,-0.005727882031351328,-0.006668980233371258,-4.766284109791741e-05,0.0,0.0,0.0,0.0,0.0006811177008785307,-0.0009434416424483061,0.0009128901874646544,1.0009747743606567,0.0,0.0,0.0,-5.13694429397583,5.153469085693359,1.7990669012069702,929.7970581054688,0
1898.121000000001,-0.0056718564592301846,-0.006641775835305452,-8.583949238527566e-05,0.0,0.0,0.0,0.0,0.001620840048417449,0.0020885153207927942,-0.0005033610505051911,1.0009512901306152,0.0,0.0,0.0,-5.150684833526611,5.164076328277588,1.8037383556365967,932.2842407226562,0
1908.0040000000008,-0.005659245420247316,-0.006627495866268873,-4.1545827116351575e-05,0.0,0.0,0.0,0.0,-0.004363991320133209,-0.002884624293074012,-5.685430733137764e-05,1.0022177696228027,0.0,0.0,0.0,-5.145551681518555,5.15578031539917,1.7913343906402588,931.3550415039062,0
1917.8960000000006,-0.005646925885230303,-0.006664401385933161,-6.763786223018542e-05,0.0,0.0,0.0,0.0,0.0023047849535942078,-0.003968325909227133,-0.00013370273518376052,1.0021822452545166,0.0,0.0,0.0,-5.154702186584473,5.147922039031982,1.7933326959609985,933.0114135742188,0
1927.7690000000002,-0.005695757456123829,-0.006650334689766169,-5.997524203849025e-05,0.0,0.0,0.0,0.0,0.0016417696606367826,0.003730298252776265,-0.0006166932289488614,1.0024199485778809,0.0,0.0,0.0,-5.141663074493408,5.148879051208496,1.7957273721694946,930.6511840820312,0
1937.6630000000005,-0.0056695048697292805,-0.006670711096376181,-9.433554805582389e-05,0.0,0.0,0.0,0.0,0.00015928065113257617,0.0005799627979286015,-0.0016391616081818938,1.0017517805099487,0.0,0.0,0.0,-5.152425289154053,5.141811847686768,1.799002766609192,932.5991821289062,0
1947.541000000001,-0.0057197436690330505,-0.006655191536992788,-8.671602699905634e-05,0.0,0.0,0.0,0.0,-0.0016872884007170796,0.006898827385157347,0.0005148238269612193,1.0013424158096313,0.0,0.0,0.0,-5.138702869415283,5.1457390785217285,1.7878658771514893,930.1154174804688,0
1957.4360000000015,-0.005671410821378231,-0.006632824894040823,-0.00011229406663915142,0.0,0.0,0.0,0.0,-0.0036888988688588142,-0.0012526557547971606,-0.00016576335474383086,1.0043418407440186,0.0,0.0,0.0,-5.15059757232666,5.151956558227539,1.7926392555236816,932.2683715820312,0
1967.3160000000007,-0.005705310497432947,-0.006626551039516926,-0.00010078727063955739,0.0,0.0,0.0,0.0,0.00028334581293165684,0.0023390918504446745,0.000673190806992352,1.0020344257354736,0.0,0.0,0.0,-5.138875484466553,5.155027866363525,1.7897875308990479,930.1466064453125,0
1977.2090000000007,-0.005708698648959398,-0.006666597910225391,-9.876461263047531e-05,0.0,0.0,0.0,0.0,0.0004843959759455174,0.0015891720540821552,-0.0011009243316948414,0.9979125261306763,0.0,0.0,0.0,-5.147451400756836,5.149166584014893,1.790260672569275,931.698974609375,0
1987.0860000000011,-0.0057976217940449715,-0.00662327790632844,-8.506103040417656e-05,0.0,0.0,0.0,0.0,-0.0004448161635082215,-0.004297927021980286,0.0013629314489662647,0.9993786215782166,0.0,0.0,0.0,-5.134582042694092,5.152676105499268,1.7677899599075317,929.3695678710938,0
1996.9800000000014,-0.005847149062901735,-0.006705942563712597,-6.0356047470122576e-05,0.0,0.0,0.0,0.0,-0.002023387933149934,0.0012481918092817068,0.00020614532695617527,0.9989849328994751,0.0,0.0,0.0,-5.142112731933594,5.138763427734375,1.7729427814483643,930.7325439453125,0
2006.8590000000004,-0.0058910781517624855,-0.0066823214292526245,-2.9336386432987638e-05,0.0,0.0,0.0,0.0,-0.0005643413169309497,-0.0012643960071727633,0.002401050878688693,1.0004091262817383,0.0,0.0,0.0,-5.1304450035095215,5.148133277893066,1.7684422731399536,928.6207275390625,0
2016.7650000000012,-0.005879397038370371,-0.006686746142804623,-3.731435208464973e-05,0.0,0.0,0.0,0.0,-0.0008111341157928109,0.0023202679585665464,0.0004773960681632161,1.0021755695343018,0.0,0.0,0.0,-5.133596420288086,5.151890754699707,1.7770051956176758,929.191162109375,0
2026.6290000000008,-0.005835194606333971,-0.006695508491247892,2.6737858206615783e-05,0.0,0.0,0.0,0.0,-0.0006628904957324266,0.0005286820814944804,0.0016505018575116992,0.999727725982666,0.0,0.0,0.0,-5.120325088500977,5.1521196365356445,1.784807562828064,926.7890014648438,0
2036.5280000000002,-0.005858790595084429,-0.006765460129827261,2.0046698409714736e-05,0.0,0.0,0.0,0.0,-0.0008673706906847656,0.0005874446942470968,-0.000351837050402537,0.998884916305542,0.0,0.0,0.0,-5.12709903717041,5.1371331214904785,1.7805629968643188,928.0150756835938,0
2046.4040000000005,-0.005843144841492176,-0.006784067489206791,6.472061795648187e-05,0.0,0.0,0.0,0.0,-0.0007558256038464606,-0.007628103718161583,-0.0001895747409434989,1.0007071495056152,0.0,0.0,0.0,-5.121065139770508,5.133944511413574,1.7857953310012817,926.9229736328125,0
2056.2970000000005,-0.005805692635476589,-0.006770559120923281,4.2839157686103135e-05,0.0,0.0,0.0,0.0,0.0038006340619176626,0.004550198093056679,-0.0007774882833473384,0.9993977546691895,0.0,0.0,0.0,-5.127594470977783,5.13832426071167,1.7946996688842773,928.1047973632812,0
2066.1770000000015,-0.00581645593047142,-0.006781287025660276,7.497522165067494e-05,0.0,0.0,0.0,0.0,-0.002076978562399745,-0.0011803022352978587,-0.00040563923539593816,0.9996803998947144,0.0,0.0,0.0,-5.115921974182129,5.136375904083252,1.7941882610321045,925.9921264648438,0
2076.076000000001,-0.005767522379755974,-0.006755806505680084,3.9200251194415614e-05,0.0,0.0,0.0,0.0,-0.00014932194608263671,-0.0040792375802993774,0.003223514650017023,1.0001380443572998,0.0,0.0,0.0,-5.126814365386963,5.140974998474121,1.7932724952697754,927.9635620117188,0
2085.9500000000007,-0.005791760981082916,-0.006762886419892311,5.9394595155026764e-05,0.0,0.0,0.0,0.0,7.969090802362189e-05,-0.0021393655333667994,-0.00253832945600152,0.9978507161140442,0.0,0.0,0.0,-5.114380836486816,5.143332481384277,1.8010386228561401,925.7130737304688,0
2095.8550000000014,-0.005747159477323294,-0.0067403498105704784,1.945279655046761e-05,0.0,0.0,0.0,0.0,-0.0019249203614890575,-0.0010985792614519596,0.0019626314751803875,0.9977107644081116,0.0,0.0,0.0,-5.126163959503174,5.1448140144348145,1.8172019720077515,927.8458251953125,0
2105.7180000000008,-0.005782189778983593,-0.006738900672644377,3.052039392059669e-05,0.0,0.0,0.0,0.0,0.0033085292670875788,0.0019285568268969655,-0.0029684766195714474,0.998604953289032,0.0,0.0,0.0,-5.114785194396973,5.1475067138671875,1.8177682161331177,925.786376953125,0
2115.611000000001,-0.005752468015998602,-0.006732440087944269,-5.294703896652209e-06,0.0,0.0,0.0,0.0,0.001996653852984309,-0.00033766840351745486,0.00012181864440208301,0.9980494379997253,0.0,0.0,0.0,-5.125701427459717,5.155717849731445,1.8310548067092896,927.7621459960938,0
2125.496000000001,-0.005718125496059656,-0.0067438483238220215,3.449396535870619e-05,0.0,0.0,0.0,0.0,0.0024424614384770393,0.00237658410333097,-0.0014947304734960198,1.0013017654418945,0.0,0.0,0.0,-5.112695693969727,5.151552200317383,1.8357157707214355,925.4080810546875,0
2135.3860000000004,-0.005668007768690586,-0.00673091784119606,-2.4354569177376106e-05,0.0,0.0,0.0,0.0,0.0014119960833340883,0.0012437768746167421,-0.0028658013325184584,1.0012495517730713,0.0,0.0,0.0,-5.122340202331543,5.153321266174316,1.8342599868774414,927.15380859375,0
