timestamp,stateEstimate.x,stateEstimate.y,stateEstimate.z,controller.cmd_thrust,controller.cmd_roll,controller.cmd_pitch,controller.cmd_yaw,controller.r_roll,controller.r_pitch,controller.r_yaw,controller.accelz,controller.actuatorThrust,controller.roll,controller.pitch,controller.yaw,controller.rollRate,controller.pitchRate,controller.yawRate,controller.ctr_yaw
0.0,-0.011115292087197304,0.0032086472492665052,-0.00030318775679916143,0.0,0.0,0.0,0.0,0.0011784399393945932,-0.0018634560983628035,0.001414082944393158,1.0007613897323608,0.0,0.0,0.0,-0.25176987051963806,5.047126770019531,0.8189244270324707,45.57084655761719,0
9.893000000000029,-0.011074443347752094,0.0028526573441922665,-0.0006394709344021976,0.0,0.0,0.0,0.0,0.0011191872181370854,-0.0022496364545077085,-0.004005638882517815,0.9977344274520874,0.0,0.0,0.0,-0.23440693318843842,4.973048210144043,0.834857165813446,42.42811965942383,0
19.771999999999025,-0.01107016485184431,0.0032356667798012495,-0.000301538675557822,0.0,0.0,0.0,0.0,0.002275139791890979,-0.003735280828550458,0.0003823474107775837,0.9975438117980957,0.0,0.0,0.0,-0.24338631331920624,5.045940399169922,0.8332972526550293,44.053409576416016,0
29.67399999999907,-0.011010042391717434,0.0028839181177318096,-0.0006662398809567094,0.0,0.0,0.0,0.0,0.00020211948140058666,-0.003384522395208478,-0.0004637206729967147,0.9998833537101746,0.0,0.0,0.0,-0.2248937040567398,4.972039699554443,0.852144181728363,40.706207275390625,0
39.54399999999987,-0.011062883771955967,0.003296894719824195,-0.00034419746953062713,0.0,0.0,0.0,0.0,0.001640210160985589,-0.0016392087563872337,-0.00033618678571656346,1.0001922845840454,0.0,0.0,0.0,-0.2361127734184265,5.051610946655273,0.844237744808197,42.736881256103516,0
49.440999999998894,-0.011043226346373558,0.0029078745283186436,-0.000665163854137063,0.0,0.0,0.0,0.0,0.0013375083217397332,-0.002866283291950822,-0.0005734901060350239,0.9986839890480042,0.0,0.0,0.0,-0.22770710289478302,4.971269130706787,0.8524903059005737,41.21543502807617,0
59.32300000000032,-0.011019960977137089,0.003303022123873234,-0.0003074646519962698,0.0,0.0,0.0,0.0,-0.0005241493927314878,-0.0020573472138494253,-0.0006646637339144945,1.0006152391433716,0.0,0.0,0.0,-0.2388591468334198,5.04457426071167,0.8562338948249817,43.233978271484375,0
69.21299999999974,-0.011003795079886913,0.0029037133790552616,-0.0006234012544155121,0.0,0.0,0.0,0.0,-0.002663496881723404,-0.0017957065720111132,0.004046882037073374,0.9982612133026123,0.0,0.0,0.0,-0.21880784630775452,4.96207332611084,0.859821617603302,39.60465621948242,0
79.09199999999873,-0.011005464941263199,0.0033000048715621233,-0.0002749478444457054,0.0,0.0,0.0,0.0,0.002617001300677657,0.00255771866068244,0.0005854397895745933,0.9990629553794861,0.0,0.0,0.0,-0.22796016931533813,5.039172172546387,0.8523319363594055,41.26124572753906,0
88.99799999999959,-0.010988458059728146,0.0028922068886458874,-0.0005928566679358482,0.0,0.0,0.0,0.0,0.002140461467206478,-5.933236388955265e-05,0.0014168841298669577,1.0016729831695557,0.0,0.0,0.0,-0.2272970825433731,4.954871654510498,0.8518141508102417,41.1412239074707,0
98.86199999999917,-0.01102167833596468,0.0032697217538952827,-0.0002779870410449803,0.0,0.0,0.0,0.0,-0.0027886584866791964,-0.00858562346547842,-0.001678836066275835,1.000400185585022,0.0,0.0,0.0,-0.23555925488471985,5.02646541595459,0.8451502919197083,42.63669967651367,0
108.76499999999942,-0.010974131524562836,0.0028903598431497812,-0.000633249175734818,0.0,0.0,0.0,0.0,-0.002179086906835437,-0.0021799542009830475,-0.0033302821684628725,1.0002309083938599,0.0,0.0,0.0,-0.21266810595989227,4.95267391204834,0.8737388849258423,38.49334716796875,0
118.63400000000001,-0.010903512127697468,0.0032369541004300117,-0.0002851448371075094,0.0,0.0,0.0,0.0,0.0022889855317771435,-0.0011407790007069707,0.0017564549343660474,0.9998928308486938,0.0,0.0,0.0,-0.21777142584323883,5.023486137390137,0.8851926326751709,39.41706085205078,0
128.52800000000025,-0.010866773314774036,0.00283408397808671,-0.0006187963299453259,0.0,0.0,0.0,0.0,-0.0023782227654010057,-0.0007463944493792951,-0.0016294261440634727,0.9996969699859619,0.0,0.0,0.0,-0.2018130123615265,4.933662414550781,0.8911065459251404,36.52855682373047,0
138.41300000000047,-0.010969470255076885,0.0032448237761855125,-0.00031559140188619494,0.0,0.0,0.0,0.0,-0.00013159973605070263,0.0008368528797291219,0.0043875365518033504,0.9993992447853088,0.0,0.0,0.0,-0.21079695224761963,5.013685703277588,0.8679728507995605,38.154666900634766,0
148.3050000000003,-0.010973258875310421,0.002785902936011553,-0.0006180023774504662,0.0,0.0,0.0,0.0,0.0002295414451509714,-0.0015376346418634057,0.0017114469083026052,0.9989270567893982,0.0,0.0,0.0,-0.18589594960212708,4.92672061920166,0.8687146306037903,33.64753341674805,0
158.18299999999908,-0.011065969243645668,0.0032023743260651827,-0.00029868350247852504,0.0,0.0,0.0,0.0,-0.002445471938699484,-0.0023442134261131287,0.002330183517187834,0.9981775283813477,0.0,0.0,0.0,-0.19235199689865112,5.003054618835449,0.8508180379867554,34.816097259521484,0
168.0759999999991,-0.011030136607587337,0.002815843326970935,-0.0006154124857857823,0.0,0.0,0.0,0.0,0.003661480965092778,4.918947888654657e-05,0.0017288560047745705,0.9985758066177368,0.0,0.0,0.0,-0.17629370093345642,4.928902626037598,0.8588417172431946,31.909509658813477,0
177.95199999999932,-0.011034155264496803,0.003217030083760619,-0.00025648786686360836,0.0,0.0,0.0,0.0,-0.0039269705303013325,0.00019444013014435768,-0.00016417975712101907,0.9989569187164307,0.0,0.0,0.0,-0.1902289092540741,5.000278949737549,0.8475121855735779,34.43181228637695,0
187.84799999999996,-0.010961903259158134,0.0028489497490227222,-0.0006259072106331587,0.0,0.0,0.0,0.0,-0.0001525695261079818,0.004542394075542688,0.002716226037591696,0.9979193806648254,0.0,0.0,0.0,-0.1783534437417984,4.932417869567871,0.8572779893875122,32.28232955932617,0
197.72500000000036,-0.010971053503453732,0.0032425594981759787,-0.00028419235604815185,0.0,0.0,0.0,0.0,0.0014846075791865587,-0.0022658195812255144,-0.0002879345847759396,1.0005638599395752,0.0,0.0,0.0,-0.18881236016750336,5.007992744445801,0.8340350985527039,34.175411224365234,0
207.61899999999878,-0.010948420502245426,0.0027905984316021204,-0.0006207003025338054,0.0,0.0,0.0,0.0,-0.004680018872022629,0.0012990649556741118,0.0006780286785215139,0.9997583627700806,0.0,0.0,0.0,-0.18880431354045868,4.9127631187438965,0.844119668006897,34.173954010009766,0
217.4979999999996,-0.01102609746158123,0.0031907791271805763,-0.00030700970091857016,0.0,0.0,0.0,0.0,0.002339840168133378,-0.0002625049091875553,0.0024259514175355434,0.9974109530448914,0.0,0.0,0.0,-0.20124877989292145,4.99899959564209,0.8202268481254578,36.426429748535156,0
227.39500000000044,-0.01097580324858427,0.0028169064316898584,-0.0006360061233863235,0.0,0.0,0.0,0.0,-0.0004337214631959796,0.0010237946407869458,0.003817660268396139,0.9994356036186218,0.0,0.0,0.0,-0.1975245624780655,4.919519901275635,0.8290473818778992,35.75233840942383,0
237.27099999999882,-0.011030369438230991,0.003203165251761675,-0.0003233480965718627,0.0,0.0,0.0,0.0,-0.0044988002628088,-0.001019321265630424,-0.003471038769930601,1.0004421472549438,0.0,0.0,0.0,-0.20543162524700165,4.999355316162109,0.8117634057998657,37.18353271484375,0
247.16599999999926,-0.010990327224135399,0.002783501287922263,-0.0006728237494826317,0.0,0.0,0.0,0.0,-0.0007083620293997228,-0.0007736008265055716,0.0019910940900444984,0.9982099533081055,0.0,0.0,0.0,-0.20517587661743164,4.922202110290527,0.8149507641792297,37.137245178222656,0
257.04299999999967,-0.010993343777954578,0.0031829066574573517,-0.00031584122916683555,0.0,0.0,0.0,0.0,-0.0001784990745363757,-0.0017796320607885718,5.88733655604301e-06,0.997262716293335,0.0,0.0,0.0,-0.21527349948883057,5.001482963562012,0.8142146468162537,38.96493148803711,0
266.9390000000003,-0.01094384677708149,0.00278001232072711,-0.00065206567524001,0.0,0.0,0.0,0.0,0.00539026316255331,0.0007204526336863637,0.0007828563102521002,0.9982428550720215,0.0,0.0,0.0,-0.21234285831451416,4.929108619689941,0.8327885866165161,38.434478759765625,0
276.8169999999991,-0.0110279880464077,0.0031995060853660107,-0.0003197026380803436,0.0,0.0,0.0,0.0,0.0018764232518151402,-0.0007286157924681902,-0.0025470126420259476,1.0000383853912354,0.0,0.0,0.0,-0.22363267838954926,5.011574745178223,0.8120108246803284,40.477962493896484,0
286.71500000000015,-0.010984111577272415,0.0028109420090913773,-0.0006635345052927732,0.0,0.0,0.0,0.0,4.978985816705972e-05,-0.005169288255274296,0.0008429767331108451,1.0021322965621948,0.0,0.0,0.0,-0.2215881198644638,4.932307720184326,0.8293630480766296,40.107887268066406,0
296.58899999999994,-0.011003238148987293,0.00323941046372056,-0.00027525046607479453,0.0,0.0,0.0,0.0,0.0020636627450585365,0.00015699469076935202,-0.001160050043836236,0.9989559054374695,0.0,0.0,0.0,-0.2275373935699463,5.022048473358154,0.831307590007782,41.18471908569336,0
306.4830000000002,-0.010980522260069847,0.0027965400367975235,-0.0006254091858863831,0.0,0.0,0.0,0.0,-0.0003349157050251961,-0.007498654071241617,0.0017902411054819822,0.9975981116294861,0.0,0.0,0.0,-0.22453616559505463,4.931671142578125,0.8326254487037659,40.64149475097656,0
316.3629999999994,-0.011057332158088684,0.0032048188149929047,-0.00028887539519928396,0.0,0.0,0.0,0.0,0.00035156472586095333,0.00016240433615166694,-0.0006867744959890842,0.9995717406272888,0.0,0.0,0.0,-0.23713278770446777,5.016177177429199,0.8306113481521606,42.9215087890625,0
326.2549999999992,-0.011005958542227745,0.002832993632182479,-0.0006387520697899163,0.0,0.0,0.0,0.0,-0.003511535469442606,0.0015880271093919873,0.0001062776573235169,0.99996417760849,0.0,0.0,0.0,-0.23464906215667725,4.9400835037231445,0.8437156081199646,42.471946716308594,0
336.1350000000002,-0.010997223667800426,0.0032134067732840776,-0.0002833736944012344,0.0,0.0,0.0,0.0,0.0004212861822452396,-0.0034231978934258223,0.0010129956062883139,0.9998860955238342,0.0,0.0,0.0,-0.24135072529315948,5.024048805236816,0.8399350643157959,43.68496322631836,0
346.03899999999885,-0.01095425896346569,0.002828775905072689,-0.0006132599664852023,0.0,0.0,0.0,0.0,0.0020897930953651667,0.00046176358591765165,-0.0003108857199549675,0.9985157251358032,0.0,0.0,0.0,-0.23812349140644073,4.947568416595459,0.8542712926864624,43.100826263427734,0
355.90999999999985,-0.01095124613493681,0.003180293133482337,-0.00028654723428189754,0.0,0.0,0.0,0.0,0.0018166692461818457,-0.0036542501766234636,-0.0020626282785087824,0.9973265528678894,0.0,0.0,0.0,-0.24715979397296906,5.018043041229248,0.8432906866073608,44.73641586303711,0
365.8140000000003,-0.010888274759054184,0.002807058161124587,-0.0006379890255630016,0.0,0.0,0.0,0.0,0.0008600145811215043,0.0032051389571279287,-0.0028678569942712784,0.9982234239578247,0.0,0.0,0.0,-0.22209490835666656,4.9386796951293945,0.8490034341812134,40.19961929321289,0
375.6909999999989,-0.01094350591301918,0.00317944074049592,-0.00033518177224323153,0.0,0.0,0.0,0.0,0.00046445810585282743,-0.001096456777304411,-0.003946090582758188,0.9986523985862732,0.0,0.0,0.0,-0.23079918324947357,5.017531394958496,0.8236381411552429,41.77511215209961,0
385.5730000000003,-0.010909485630691051,0.0027565753553062677,-0.0006774035282433033,0.0,0.0,0.0,0.0,0.00092115014558658,0.003834086935967207,-0.00039335721521638334,0.9996271729469299,0.0,0.0,0.0,-0.22785651683807373,4.929499626159668,0.8319140672683716,41.24248123168945,0
395.4529999999995,-0.010963503271341324,0.0031804265454411507,-0.00033107789931818843,0.0,0.0,0.0,0.0,-0.0002738304901868105,0.0033663043286651373,0.0017141638090834022,0.997780978679657,0.0,0.0,0.0,-0.23566314578056335,5.015274524688721,0.8179075121879578,42.65549850463867,0
405.34599999999955,-0.010905023664236069,0.0028167932759970427,-0.0006758208619430661,0.0,0.0,0.0,0.0,0.00032910844311118126,0.0017513494240120053,0.0035822640638798475,1.00054931640625,0.0,0.0,0.0,-0.21678930521011353,4.936858177185059,0.8288443088531494,39.239295959472656,0
415.22500000000036,-0.010939061641693115,0.0031889555975794792,-0.000366612512152642,0.0,0.0,0.0,0.0,-0.0002734460576903075,0.0012216611066833138,-0.0008160988800227642,1.0031392574310303,0.0,0.0,0.0,-0.22577005624771118,5.014065742492676,0.809015691280365,40.864830017089844,0
425.1139999999996,-0.010941826738417149,0.002732202410697937,-0.0006665365071967244,0.0,0.0,0.0,0.0,-0.0009261969244107604,0.001670842175371945,0.0017866111593320966,0.9997060298919678,0.0,0.0,0.0,-0.2061140239238739,4.923976898193359,0.8063292503356934,37.307044982910156,0
434.9979999999996,-0.011036600917577744,0.003155080135911703,-0.00034745116136036813,0.0,0.0,0.0,0.0,-0.0006944478955119848,0.0030231717973947525,0.0012554280692711473,0.9992259740829468,0.0,0.0,0.0,-0.2120428830385208,5.009119987487793,0.7765594720840454,38.380184173583984,0
444.8850000000002,-0.01104355975985527,0.00269694603048265,-0.0006377431564033031,0.0,0.0,0.0,0.0,-0.0013137258356437087,0.00376552389934659,-0.0017491771141067147,1.0013856887817383,0.0,0.0,0.0,-0.2083277851343155,4.9147210121154785,0.7663765549659729,37.707740783691406,0
454.7709999999988,-0.01111654844135046,0.0031233085319399834,-0.00029623383306898177,0.0,0.0,0.0,0.0,0.0010485949460417032,-0.0018021146534010768,0.0006874353275634348,1.001151442527771,0.0,0.0,0.0,-0.21775050461292267,5.007874488830566,0.7438552975654602,39.413272857666016,0
464.66100000000006,-0.011041577905416489,0.0027882568538188934,-0.0006381856510415673,0.0,0.0,0.0,0.0,0.001036992878653109,-0.0015391529304906726,-0.001432316959835589,1.0000736713409424,0.0,0.0,0.0,-0.21544590592384338,4.9402923583984375,0.7668792009353638,38.99613571166992,0
474.54399999999987,-0.011087819002568722,0.003223686944693327,-0.0002794254687614739,0.0,0.0,0.0,0.0,0.0009096942376345396,-0.0012599281035363674,0.001284829922951758,1.0014452934265137,0.0,0.0,0.0,-0.22699129581451416,5.030621528625488,0.7503765225410461,41.08587646484375,0
484.4309999999987,-0.011047450825572014,0.0028157206252217293,-0.0006111441180109978,0.0,0.0,0.0,0.0,0.0016144569963216782,-0.003130711615085602,-0.003168359398841858,1.0005468130111694,0.0,0.0,0.0,-0.22441290318965912,4.944413661956787,0.7510329484939575,40.61918258666992,0
494.3179999999993,-0.011098471470177174,0.003217420307919383,-0.00028468621894717216,0.0,0.0,0.0,0.0,0.0023052056785672903,-0.0013858196325600147,-0.0017417478375136852,0.9987715482711792,0.0,0.0,0.0,-0.23267334699630737,5.025770664215088,0.7412182092666626,42.114341735839844,0
504.2029999999995,-0.01108346227556467,0.002779764821752906,-0.0005939509719610214,0.0,0.0,0.0,0.0,-0.0019781209994107485,-0.0070786308497190475,0.003918973263353109,0.9981133937835693,0.0,0.0,0.0,-0.2134770005941391,4.931079864501953,0.755595326423645,38.6397590637207,0
514.0889999999999,-0.011104685254395008,0.003159912535920739,-0.00026954393251799047,0.0,0.0,0.0,0.0,0.002118257340043783,0.004640465136617422,-0.002415117109194398,0.9977338910102844,0.0,0.0,0.0,-0.22172915935516357,5.015963077545166,0.7578600645065308,40.133419036865234,0
523.9779999999992,-0.01105379220098257,0.0027643877547234297,-0.0006113882409408689,0.0,0.0,0.0,0.0,0.00031126828980632126,0.0046658143401145935,0.003665582276880741,0.9978411197662354,0.0,0.0,0.0,-0.22759366035461426,4.934831142425537,0.7604085803031921,41.19490432739258,0
533.8619999999992,-0.01104460097849369,0.003158064093440771,-0.00026302848709747195,0.0,0.0,0.0,0.0,0.0006856333347968757,-0.007414556574076414,-0.0013042656937614083,0.9994463324546814,0.0,0.0,0.0,-0.23718641698360443,5.021871089935303,0.7663462162017822,42.931209564208984,0
543.7579999999998,-0.010984485037624836,0.00276203197427094,-0.0006199305644258857,0.0,0.0,0.0,0.0,-0.0018019492272287607,0.00369445513933897,-0.0011013979092240334,0.9973677396774292,0.0,0.0,0.0,-0.2182706594467163,4.941398620605469,0.8027195930480957,39.50741958618164,0
553.6450000000004,-0.011011140421032906,0.003171480493620038,-0.0002866741851903498,0.0,0.0,0.0,0.0,-0.0023506965953856707,0.00174612773116678,0.002397622913122177,0.9991247057914734,0.0,0.0,0.0,-0.22551888227462769,5.0299973487854,0.782769501209259,40.819366455078125,0
563.5200000000004,-0.010942360386252403,0.002826092066243291,-0.0006259444635361433,0.0,0.0,0.0,0.0,-0.0007845052750781178,-0.005590044427663088,0.003851940855383873,1.0001884698867798,0.0,0.0,0.0,-0.20832574367523193,4.961237907409668,0.7947301864624023,37.70737075805664,0
573.405999999999,-0.01099280547350645,0.00323341297917068,-0.0003083429764956236,0.0,0.0,0.0,0.0,0.0014577878173440695,-0.0008654214907437563,8.598752901889384e-05,0.9997078776359558,0.0,0.0,0.0,-0.21627777814865112,5.045806407928467,0.7895177006721497,39.14670944213867,0
583.2919999999995,-0.010976697318255901,0.002792749786749482,-0.0006279932567849755,0.0,0.0,0.0,0.0,-0.002032587304711342,0.0007200631662271917,0.0015531405806541443,1.0014288425445557,0.0,0.0,0.0,-0.21185363829135895,4.951509475708008,0.7939617037773132,38.34592819213867,0
593.1779999999999,-0.011002068407833576,0.0031984380912035704,-0.0002943854487966746,0.0,0.0,0.0,0.0,-0.002960147801786661,-0.0015722925309091806,0.00440669059753418,1.0016696453094482,0.0,0.0,0.0,-0.22041109204292297,5.043300628662109,0.7871016263961792,39.89485168457031,0
603.0640000000003,-0.010930510237812996,0.0028480812907218933,-0.0006346013979054987,0.0,0.0,0.0,0.0,0.0022808799985796213,0.005207394249737263,-0.0016026870580390096,0.9987013936042786,0.0,0.0,0.0,-0.21545641124248505,4.9734272956848145,0.8041375875473022,38.998043060302734,0
612.9499999999989,-0.01097886636853218,0.0032569922041147947,-0.0003103171184193343,0.0,0.0,0.0,0.0,-0.0019797871354967356,-0.0013451296836137772,0.000986986211501062,0.9978253245353699,0.0,0.0,0.0,-0.2271532118320465,5.061870574951172,0.7814574241638184,41.11518096923828,0
622.8379999999997,-0.010924405418336391,0.0028717645909637213,-0.0006490162340924144,0.0,0.0,0.0,0.0,-0.001984509639441967,-0.0020802889484912157,0.0017131416825577617,0.997085452079773,0.0,0.0,0.0,-0.22727008163928986,4.984897136688232,0.8026101589202881,41.13633728027344,0
632.723,-0.011000175029039383,0.0032613961957395077,-0.00036420815740711987,0.0,0.0,0.0,0.0,0.00035685457987710834,-0.0035196414683014154,0.00039046944584697485,1.001250147819519,0.0,0.0,0.0,-0.23298782110214233,5.070911407470703,0.7911663055419922,42.17125701904297,0
642.6090000000004,-0.010945429094135761,0.0028794771060347557,-0.000705188955180347,0.0,0.0,0.0,0.0,-0.0013568910071626306,-0.00044982091640122235,0.00282100192271173,0.9995086193084717,0.0,0.0,0.0,-0.23267774283885956,4.996025085449219,0.8061645030975342,42.11513137817383,0
652.4969999999994,-0.010955991223454475,0.0032749632373452187,-0.00037933842395432293,0.0,0.0,0.0,0.0,0.001413810532540083,0.005003319121897221,0.0020491748582571745,0.9979429841041565,0.0,0.0,0.0,-0.23830477893352509,5.0846476554870605,0.7984634041786194,43.13364028930664,0
662.3829999999998,-0.010947671718895435,0.0028469604440033436,-0.0006632276927120984,0.0,0.0,0.0,0.0,-0.00010228190512862056,0.0014780741184949875,0.003541043261066079,0.9992669820785522,0.0,0.0,0.0,-0.23472970724105835,4.99469518661499,0.7900689840316772,42.486541748046875,0
672.2749999999996,-0.010966102592647076,0.0032394309528172016,-0.00033971178345382214,0.0,0.0,0.0,0.0,0.00257943756878376,0.00355950347147882,-0.0016286148456856608,0.9987324476242065,0.0,0.0,0.0,-0.24306564033031464,5.074878692626953,0.7728826403617859,43.995361328125,0
682.1549999999988,-0.010946964845061302,0.0028133464511483908,-0.0006365293520502746,0.0,0.0,0.0,0.0,-0.0033177013974636793,-0.00308446423150599,0.0029394072480499744,0.9950523972511292,0.0,0.0,0.0,-0.24218878149986267,4.982165336608887,0.764807939529419,43.83665084838867,0
692.0419999999995,-0.011045572347939014,0.003232987830415368,-0.0003309268213342875,0.0,0.0,0.0,0.0,-0.0009930222295224667,0.0016447871457785368,-0.0020830370485782623,0.9991737008094788,0.0,0.0,0.0,-0.2524116635322571,5.074691295623779,0.7551608681678772,45.68701171875,0
701.9249999999993,-0.01101495511829853,0.0028274261858314276,-0.0006440231809392571,0.0,0.0,0.0,0.0,0.0021608027163892984,0.00394105352461338,-0.00017929634486790746,1.0008906126022339,0.0,0.0,0.0,-0.24947643280029297,4.995477199554443,0.7529901266098022,45.15573501586914,0
711.8159999999989,-0.011052194982767105,0.0032040695659816265,-0.0003393324732314795,0.0,0.0,0.0,0.0,-0.00017650348308961838,0.003092903411015868,0.0004559796943794936,0.9997060298919678,0.0,0.0,0.0,-0.2593502700328827,5.072079658508301,0.7291086912155151,46.94291305541992,0
721.7049999999999,-0.011030149646103382,0.0027596515137702227,-0.0006650040159001946,0.0,0.0,0.0,0.0,-0.0011116079986095428,-0.005972365383058786,0.003729491261765361,0.9989115595817566,0.0,0.0,0.0,-0.2561531960964203,4.981558322906494,0.7307798862457275,46.36423873901367,0
731.5939999999991,-0.011051034554839134,0.0031625358387827873,-0.0003246998239774257,0.0,0.0,0.0,0.0,-0.00039775026380084455,0.0031253243796527386,0.00011611954687396064,0.9971669912338257,0.0,0.0,0.0,-0.264358788728714,5.068483829498291,0.7365595698356628,47.849464416503906,0
741.4719999999998,-0.011020570993423462,0.002776949666440487,-0.0006253694882616401,0.0,0.0,0.0,0.0,0.0004059677303303033,0.0002879703533835709,-0.0017732924316078424,0.999230682849884,0.0,0.0,0.0,-0.24104861915111542,4.991607666015625,0.7473570704460144,43.630279541015625,0
751.3649999999998,-0.01110908668488264,0.003215319709852338,-0.00029555262881331146,0.0,0.0,0.0,0.0,-0.004334585275501013,-0.0031999023631215096,-0.00034339126432314515,0.9994473457336426,0.0,0.0,0.0,-0.2478610873222351,5.083774089813232,0.7290617227554321,44.86334991455078,0
761.244999999999,-0.011085806414484978,0.0027898706030100584,-0.000624172855168581,0.0,0.0,0.0,0.0,0.0010876173619180918,-0.0009322208352386951,-0.0032607438042759895,0.9999008178710938,0.0,0.0,0.0,-0.22740139067173004,5.004465103149414,0.7381189465522766,41.16010284423828,0
771.1419999999998,-0.011066253297030926,0.003176905680447817,-0.00027430185582488775,0.0,0.0,0.0,0.0,0.0026852055452764034,0.001291087712161243,0.0012839778792113066,1.000394344329834,0.0,0.0,0.0,-0.23822207748889923,5.086977958679199,0.7378286719322205,43.11867141723633,0
781.0229999999992,-0.011041294783353806,0.0032503206748515368,-0.00030105491168797016,0.0,0.0,0.0,0.0,-0.0012953560799360275,-0.004353719763457775,0.003327476792037487,0.9993429183959961,0.0,0.0,0.0,-0.23300404846668243,5.096526145935059,0.7488976716995239,42.174198150634766,0
790.9120000000003,-0.011013883166015148,0.003217784222215414,-0.00029421242652460933,0.0,0.0,0.0,0.0,0.002083639847114682,0.0007906582322902977,-0.002766939578577876,0.9992246031761169,0.0,0.0,0.0,-0.23196177184581757,5.095443248748779,0.7563124895095825,41.98554229736328,0
800.7919999999995,-0.011022205464541912,0.003275808412581682,-0.00032916711643338203,0.0,0.0,0.0,0.0,-0.0005502696731127799,0.00754217803478241,-0.00019754006643779576,1.0002567768096924,0.0,0.0,0.0,-0.24186037480831146,5.105200290679932,0.7508037090301514,43.7772102355957,0
810.6839999999993,-0.01099453866481781,0.0032460219226777554,-0.00032374548027291894,0.0,0.0,0.0,0.0,0.001170115196146071,0.0006704801926389337,-9.574775322107598e-05,0.9991003274917603,0.0,0.0,0.0,-0.2420111447572708,5.099048614501953,0.7392093539237976,43.804500579833984,0
820.5649999999987,-0.011023889295756817,0.003271344816312194,-0.0003392842481844127,0.0,0.0,0.0,0.0,0.001982958521693945,-0.003292724722996354,-0.0015326824504882097,0.9966354370117188,0.0,0.0,0.0,-0.24530087411403656,5.105137348175049,0.7298840880393982,44.39994812011719,0
830.4570000000003,-0.010996472090482712,0.0032410419080406427,-0.00033596070716157556,0.0,0.0,0.0,0.0,0.0018831680063158274,-0.0026759260799735785,-0.0005311681888997555,0.9996554851531982,0.0,0.0,0.0,-0.2459307461977005,5.094542026519775,0.7285391092300415,44.51395797729492,0
840.3369999999995,-0.011043524369597435,0.0032777918968349695,-0.00036033702781423926,0.0,0.0,0.0,0.0,-0.0008189638610929251,-0.000567783834412694,0.00014995297533459961,0.9999101758003235,0.0,0.0,0.0,-0.24919581413269043,5.096886157989502,0.7275245189666748,45.10493850708008,0
850.2340000000004,-0.011017508804798126,0.0032481036614626646,-0.00035844603553414345,0.0,0.0,0.0,0.0,-0.0006493357359431684,0.0024151308462023735,0.000955024326685816,0.9994411468505859,0.0,0.0,0.0,-0.24914538860321045,5.096279621124268,0.7262665629386902,45.0958137512207,0
860.1099999999988,-0.011121934279799461,0.0032118395902216434,-0.00033401159453205764,0.0,0.0,0.0,0.0,-0.0009079519077204168,-0.0007546712295152247,0.00039712461875751615,1.0015113353729248,0.0,0.0,0.0,-0.23657503724098206,5.085422515869141,0.7024930715560913,42.820552825927734,0
870.0029999999988,-0.01109697762876749,0.0031786009203642607,-0.0003274919872637838,0.0,0.0,0.0,0.0,-0.00014003031537868083,0.000554282742086798,-0.0027610601391643286,0.9981498718261719,0.0,0.0,0.0,-0.23597845435142517,5.078254222869873,0.7057936191558838,42.71257019042969,0
879.884,-0.011134037747979164,0.003256245981901884,-0.00029026262927800417,0.0,0.0,0.0,0.0,0.0008011936442926526,0.0028431701939553022,-0.0026033944450318813,0.9992238283157349,0.0,0.0,0.0,-0.2279910147190094,5.09135103225708,0.7007542252540588,41.26682662963867,0
889.7849999999999,-0.01110980473458767,0.0028426297940313816,-0.0005947963800281286,0.0,0.0,0.0,0.0,-0.0007799935410730541,-0.006732182111591101,0.003099133027717471,1.0019291639328003,0.0,0.0,0.0,-0.22444027662277222,5.000338554382324,0.7035046219825745,40.62413787841797,0
899.6549999999988,-0.011150671169161797,0.0032216671388596296,-0.0002915385994128883,0.0,0.0,0.0,0.0,-0.0017412240849807858,-0.003072587074711919,0.0012077989522367716,0.9996699094772339,0.0,0.0,0.0,-0.23553644120693207,5.079615592956543,0.7083295583724976,42.63256072998047,0
909.5509999999995,-0.011123054660856724,0.003189588664099574,-0.00027973129181191325,0.0,0.0,0.0,0.0,-0.001330309547483921,0.0017589263152331114,0.0007929966086521745,0.9988745450973511,0.0,0.0,0.0,-0.2347663938999176,5.071894645690918,0.7080050110816956,42.493186950683594,0
919.4279999999999,-0.01110360398888588,0.0031844654586166143,-0.0002477518282830715,0.0,0.0,0.0,0.0,0.0012224878882989287,0.0030793894547969103,0.0016641897382214665,0.9988148212432861,0.0,0.0,0.0,-0.22493694722652435,5.0736494064331055,0.7175820469856262,40.71403503417969,0
929.3220000000001,-0.011093893088400364,0.002764665288850665,-0.0005163789028301835,0.0,0.0,0.0,0.0,0.000895844423212111,-0.0018574794521555305,-0.0016496817115694284,0.9996016621589661,0.0,0.0,0.0,-0.21994557976722717,4.98612117767334,0.7247751355171204,39.81058883666992,0
939.2009999999991,-0.01113040279597044,0.0031293234787881374,-0.00021776901849079877,0.0,0.0,0.0,0.0,-0.00263963476754725,-0.0014810230350121856,-0.00023411153233610094,0.999606192111969,0.0,0.0,0.0,-0.22967134416103363,5.062360763549805,0.7247369885444641,41.57096862792969,0
949.0949999999993,-0.01110133808106184,0.0030927248299121857,-0.00020272967230994254,0.0,0.0,0.0,0.0,0.0013598303776234388,-0.001607136451639235,0.0005171758239157498,0.9985741972923279,0.0,0.0,0.0,-0.2290237545967102,5.061617374420166,0.7353670597076416,41.45375442504883,0
958.9740000000002,-0.011074833571910858,0.0031345912721008062,-0.00021653166913893074,0.0,0.0,0.0,0.0,0.001086286618374288,0.003892692271620035,0.0013568324502557516,0.999302864074707,0.0,0.0,0.0,-0.23124082386493683,5.071320533752441,0.7475680112838745,41.855045318603516,0
968.8729999999996,-0.011039392091333866,0.0030985879711806774,-0.00020274681446608156,0.0,0.0,0.0,0.0,0.0022150615695863962,-0.0009417103719897568,-0.004351322539150715,1.000261902809143,0.0,0.0,0.0,-0.2303435057401657,5.07316780090332,0.7455146908760071,41.69263458251953,0
978.75,-0.011043035425245762,0.0031029239762574434,-0.00021255383035168052,0.0,0.0,0.0,0.0,-0.00101747817825526,-0.001815845724195242,-0.000787805300205946,0.9996193051338196,0.0,0.0,0.0,-0.2196855992078781,5.070383548736572,0.7509689927101135,39.76353073120117,0
988.643,-0.011006222106516361,0.003065414261072874,-0.00019893253920599818,0.0,0.0,0.0,0.0,-0.0001619228714844212,-0.0032894741743803024,0.0017670255620032549,0.9989758133888245,0.0,0.0,0.0,-0.22000430524349213,5.062240123748779,0.7557371854782104,39.82121658325195,0
998.5200000000004,-0.011081911623477936,0.003184218192473054,-0.00023822310322429985,0.0,0.0,0.0,0.0,0.0019539413042366505,0.008882986381649971,0.0034308822359889746,1.0001999139785767,0.0,0.0,0.0,-0.21783067286014557,5.08707857131958,0.7542193531990051,39.42778396606445,0
1008.4110000000001,-0.011048366315662861,0.0031490661203861237,-0.00022712691861670464,0.0,0.0,0.0,0.0,0.0040648747235536575,0.0039651356637477875,0.0009596259333193302,0.9996683597564697,0.0,0.0,0.0,-0.21759463846683502,5.076167583465576,0.7354792952537537,39.38506317138672,0
1018.2919999999995,-0.011030961759388447,0.003246491076424718,-0.00024290430883411318,0.0,0.0,0.0,0.0,0.000865476846229285,0.00255468487739563,-0.0014967175666242838,0.9986688494682312,0.0,0.0,0.0,-0.21429049968719482,5.089457988739014,0.7311972379684448,38.78700637817383,0
1028.1899999999987,-0.01099342666566372,0.0028633701149374247,-0.0005264146602712572,0.0,0.0,0.0,0.0,0.004148571752011776,-0.0023103184066712856,-0.0009262275416404009,0.9982042908668518,0.0,0.0,0.0,-0.21235622465610504,5.006634712219238,0.7248047590255737,38.43689727783203,0
1038.065999999999,-0.011013926938176155,0.0032345103099942207,-0.00022919030743651092,0.0,0.0,0.0,0.0,0.0008029942982830107,0.001059285132214427,-0.002232589293271303,1.000430703163147,0.0,0.0,0.0,-0.22104373574256897,5.079420566558838,0.7111698389053345,40.00935745239258,0
1047.9650000000001,-0.01098276861011982,0.0028234203346073627,-0.0005265360232442617,0.0,0.0,0.0,0.0,-0.0009739053784869611,0.001986017683520913,0.00017018606013152748,0.9992958307266235,0.0,0.0,0.0,-0.21850425004959106,4.991481781005859,0.7087513208389282,39.549705505371094,0
1057.8369999999995,-0.011092175729572773,0.0032244736794382334,-0.00025115179596468806,0.0,0.0,0.0,0.0,0.0014577895635738969,-0.001464511500671506,-0.002465338446199894,1.0010489225387573,0.0,0.0,0.0,-0.22853843867778778,5.08390474319458,0.6807336211204529,41.36591339111328,0
1067.7340000000004,-0.01100036222487688,0.0029358449392020702,-0.0005700492765754461,0.0,0.0,0.0,0.0,0.0007382204639725387,0.001169573632068932,-0.0029094053898006678,1.0021473169326782,0.0,0.0,0.0,-0.22468319535255432,5.019155979156494,0.6973984837532043,40.66810607910156,0
1077.6090000000004,-0.011040590703487396,0.0032935512717813253,-0.0002982250589411706,0.0,0.0,0.0,0.0,-6.008145282976329e-05,-0.0008396821795031428,-0.0002044249849859625,0.9987143278121948,0.0,0.0,0.0,-0.23484064638614655,5.093944072723389,0.6821539402008057,42.506622314453125,0
1087.5079999999998,-0.010994598269462585,0.0029226159676909447,-0.000608593865763396,0.0,0.0,0.0,0.0,-0.0002793946478050202,-0.002792946295812726,0.0017095416551455855,0.9996486306190491,0.0,0.0,0.0,-0.2198503315448761,5.012388706207275,0.6899423599243164,39.79335021972656,0
1097.3919999999998,-0.011077865026891232,0.003317275084555149,-0.0003349077014718205,0.0,0.0,0.0,0.0,0.001432205899618566,-0.0024616606533527374,0.000319127575494349,0.9997908473014832,0.0,0.0,0.0,-0.22825530171394348,5.095754623413086,0.6738982200622559,41.314666748046875,0
1107.2839999999997,-0.011033356189727783,0.0029552082996815443,-0.000645940366666764,0.0,0.0,0.0,0.0,0.0009393083164468408,0.002034015953540802,-0.0011627746280282736,0.9981937408447266,0.0,0.0,0.0,-0.209152489900589,5.012855052947998,0.684143602848053,37.857017517089844,0
1117.1630000000005,-0.011051044799387455,0.0033167987130582333,-0.00036261658533476293,0.0,0.0,0.0,0.0,0.002226891927421093,0.002138281473889947,0.0014246493810787797,0.9983581304550171,0.0,0.0,0.0,-0.2213979959487915,5.086766719818115,0.6725217700004578,40.0734748840332,0
1127.0529999999999,-0.011029699817299843,0.0029299589805305004,-0.0006539240130223334,0.0,0.0,0.0,0.0,0.0026565094012767076,0.0009888650383800268,-0.0005040370160713792,1.0012091398239136,0.0,0.0,0.0,-0.22131255269050598,5.003673553466797,0.6811214685440063,40.058013916015625,0
1136.937,-0.011082180775702,0.003313103225082159,-0.0003716919163707644,0.0,0.0,0.0,0.0,-0.0013168592704460025,-0.001402329420670867,0.0027684716042131186,0.99916011095047,0.0,0.0,0.0,-0.23268195986747742,5.07634973526001,0.6676300168037415,42.11589813232422,0
1146.83,-0.011079696007072926,0.002876737853512168,-0.0006634424789808691,0.0,0.0,0.0,0.0,0.0005889584426768124,-0.0010646730661392212,0.002716864226385951,1.0004730224609375,0.0,0.0,0.0,-0.22621123492717743,4.982839107513428,0.67922443151474,40.94468307495117,0
1156.7019999999993,-0.01100657694041729,0.00320370658300817,-0.000380821933504194,0.0,0.0,0.0,0.0,0.00015667839033994824,-0.00451175682246685,1.6675950973876752e-05,0.9990028142929077,0.0,0.0,0.0,-0.23675355315208435,5.02608585357666,0.6860089302062988,42.85286331176758,0
1166.601999999999,-0.010986130684614182,0.0027437300886958838,-0.0006624312372878194,0.0,0.0,0.0,0.0,0.00034283334389328957,0.002899149665609002,0.0013180261012166739,0.9997848868370056,0.0,0.0,0.0,-0.2310056835412979,4.954841613769531,0.6862146854400635,41.8124885559082,0
1176.4719999999998,-0.010979276150465012,0.0031468577217310667,-0.00034288704046048224,0.0,0.0,0.0,0.0,-0.0009418101399205625,0.00016787523054517806,0.001925433985888958,1.0008223056793213,0.0,0.0,0.0,-0.2389591485261917,5.030084133148193,0.6872474551200867,43.252079010009766,0
1186.3719999999994,-0.010923359543085098,0.0027927765622735023,-0.0006279101362451911,0.0,0.0,0.0,0.0,0.00037782095023430884,-0.0015981848118826747,0.000769852427765727,0.9989435076713562,0.0,0.0,0.0,-0.2193838506937027,4.961921215057373,0.7009562849998474,39.70891189575195,0
1196.2439999999988,-0.011037132702767849,0.003181282663717866,-0.00037598353810608387,0.0,0.0,0.0,0.0,-0.0006128792301751673,0.00013789777585770935,0.0011673178523778915,1.0000545978546143,0.0,0.0,0.0,-0.23086203634738922,5.038054466247559,0.676089346408844,41.78649139404297,0
1206.1450000000004,-0.010963313281536102,0.0027705440297722816,-0.0006749362219125032,0.0,0.0,0.0,0.0,0.001507837325334549,0.0014020598027855158,-0.002414264250546694,1.0016603469848633,0.0,0.0,0.0,-0.2249419391155243,4.963788032531738,0.6866380572319031,40.71493911743164,0
1216.0169999999998,-0.011060696095228195,0.0032139094546437263,-0.0003647482953965664,0.0,0.0,0.0,0.0,-0.0004891410935670137,-0.0007782307802699506,0.0007311481167562306,1.0012680292129517,0.0,0.0,0.0,-0.2344672530889511,5.052772521972656,0.6690837144851685,42.43903732299805,0
1225.9169999999995,-0.01103829126805067,0.0028034711722284555,-0.0006559619214385748,0.0,0.0,0.0,0.0,-0.002437703777104616,-0.005433452315628529,-0.0009073473047465086,1.0015980005264282,0.0,0.0,0.0,-0.2322862595319748,4.960875034332275,0.6665091514587402,42.04427719116211,0
1235.7889999999989,-0.011105628684163094,0.003232615301385522,-0.0003291189204901457,0.0,0.0,0.0,0.0,-0.0008846951532177627,0.0006357490201480687,0.0026543305721133947,1.0004500150680542,0.0,0.0,0.0,-0.2393968105316162,5.055728912353516,0.6505988836288452,43.331302642822266,0
1245.682999999999,-0.011040031909942627,0.002892156131565571,-0.0006461192388087511,0.0,0.0,0.0,0.0,0.0019307296024635434,-0.0012481765588745475,0.00027943405439145863,1.0006800889968872,0.0,0.0,0.0,-0.22180165350437164,4.985931396484375,0.6769000291824341,40.14653778076172,0
1255.5649999999987,-0.011102775111794472,0.0033065530005842447,-0.0003294832422398031,0.0,0.0,0.0,0.0,-0.001160084968432784,-0.0003302943368908018,0.0015549174277111888,0.9999544024467468,0.0,0.0,0.0,-0.2316979318857193,5.06781530380249,0.647599995136261,41.937782287597656,0
1265.4560000000001,-0.011049126274883747,0.0029536939691752195,-0.0006414831150323153,0.0,0.0,0.0,0.0,0.0027287218254059553,0.0026591646019369364,0.0002941252605523914,0.9995803236961365,0.0,0.0,0.0,-0.21347714960575104,4.993875503540039,0.6570292115211487,38.63978958129883,0
1275.3359999999993,-0.011093372479081154,0.0033551822416484356,-0.0003256309137213975,0.0,0.0,0.0,0.0,-0.0021180787589401007,-0.0005674047279171646,0.0015905110631138086,1.0006523132324219,0.0,0.0,0.0,-0.22105064988136292,5.0803542137146,0.6403043270111084,40.0106086730957,0
1285.2279999999992,-0.011070964857935905,0.0029630642384290695,-0.0006204224191606045,0.0,0.0,0.0,0.0,-0.002712271874770522,0.0006956313736736774,0.0013476698659360409,1.0016132593154907,0.0,0.0,0.0,-0.19830644130706787,4.99550724029541,0.6480571031570435,35.89385986328125,0
1295.107,-0.011098461225628853,0.0033476243261247873,-0.00030394113855436444,0.0,0.0,0.0,0.0,-0.0010760057484731078,0.0031583260279148817,0.004947752691805363,1.0007126331329346,0.0,0.0,0.0,-0.20750559866428375,5.0815534591674805,0.6455342173576355,37.55892562866211,0
1305.027,-0.011033195070922375,0.0029329266399145126,-0.000618673802819103,0.0,0.0,0.0,0.0,0.001794728566892445,-0.0019151716260239482,-0.0016697765095159411,0.9987499713897705,0.0,0.0,0.0,-0.19577474892139435,5.002974987030029,0.6483131051063538,35.43561935424805,0
1314.8799999999992,-0.01103460043668747,0.0033235338050872087,-0.00028959341580048203,0.0,0.0,0.0,0.0,-0.0033192685805261135,-0.0008686119108460844,-0.0021021426655352116,1.0003412961959839,0.0,0.0,0.0,-0.2080303281545639,5.081977367401123,0.6482216119766235,37.653900146484375,0
1324.7829999999994,-0.010997237637639046,0.0029456759802997112,-0.000596419966313988,0.0,0.0,0.0,0.0,-0.002882973290979862,-0.009576340205967426,0.00428647780790925,0.9999697208404541,0.0,0.0,0.0,-0.194175124168396,4.997414588928223,0.6546533703804016,35.14608383178711,0
1334.6530000000002,-0.011011834256350994,0.003308879444375634,-0.0002839384542312473,0.0,0.0,0.0,0.0,0.0013175347121432424,0.0029380745254456997,-0.005053017754107714,0.9995075464248657,0.0,0.0,0.0,-0.20507246255874634,5.080300807952881,0.6585443019866943,37.11852264404297,0
1344.5550000000003,-0.010979305021464825,0.0029309422243386507,-0.0005813378957100213,0.0,0.0,0.0,0.0,-0.0002739671035669744,0.005411840509623289,0.0002630270319059491,0.9979572892189026,0.0,0.0,0.0,-0.19059357047080994,5.001131057739258,0.6822017431259155,34.49781799316406,0
1354.4249999999993,-0.01104078907519579,0.0032951643224805593,-0.0002974019735120237,0.0,0.0,0.0,0.0,-0.0004978391225449741,-0.004888798110187054,0.0003614988527260721,0.994818925857544,0.0,0.0,0.0,-0.20301440358161926,5.078549861907959,0.6547790169715881,36.746009826660156,0
1364.3449999999993,-0.011055626906454563,0.002787417033687234,-0.0005578724667429924,0.0,0.0,0.0,0.0,0.0016416384605690837,-0.0040928372181952,0.0021788431331515312,0.9999178051948547,0.0,0.0,0.0,-0.1955917626619339,4.974694728851318,0.669590413570404,35.40250015258789,0
1374.1980000000003,-0.011062142439186573,0.0031890375539660454,-0.00022261857520788908,0.0,0.0,0.0,0.0,0.0014378051273524761,-0.0048943194560706615,0.0023235774133354425,0.9998739361763,0.0,0.0,0.0,-0.20614652335643768,5.05553674697876,0.6680548191070557,37.31292724609375,0
1384.098,-0.011064953170716763,0.0027695856988430023,-0.0004975908086635172,0.0,0.0,0.0,0.0,0.0015655631432309747,0.00490857008844614,-0.002507440047338605,0.9995023608207703,0.0,0.0,0.0,-0.2051435261964798,4.9710917472839355,0.6850699186325073,37.131385803222656,0
1393.9709999999995,-0.01108493097126484,0.003149712458252907,-0.00016483987565152347,0.0,0.0,0.0,0.0,-0.001419269246980548,0.002671133494004607,-0.0011535080848261714,1.0001124143600464,0.0,0.0,0.0,-0.2165372669696808,5.051571369171143,0.6732240319252014,39.19367980957031,0
1403.869999999999,-0.011047575622797012,0.0028062299825251102,-0.00045808134018443525,0.0,0.0,0.0,0.0,0.0012472211383283138,-0.0006297193467617035,-0.0020185215398669243,1.0003341436386108,0.0,0.0,0.0,-0.19647374749183655,4.98315954208374,0.667967677116394,35.562137603759766,0
1413.7439999999988,-0.011130277067422867,0.003177601145580411,-0.00016686352319084108,0.0,0.0,0.0,0.0,0.004612850956618786,0.0002441442047711462,0.0023496528156101704,0.9998401999473572,0.0,0.0,0.0,-0.20919907093048096,5.066183090209961,0.658126950263977,37.86545181274414,0
1423.6530000000002,-0.011087947525084019,0.002836342668160796,-0.0004680958518292755,0.0,0.0,0.0,0.0,-0.0008355412865057588,-0.002374946605414152,-0.0014746624510735273,0.998445451259613,0.0,0.0,0.0,-0.19246819615364075,4.9875617027282715,0.6595985293388367,34.83712387084961,0
1433.5159999999996,-0.011072786524891853,0.003186650574207306,-0.00014368313713930547,0.0,0.0,0.0,0.0,0.001935912761837244,-0.0015551981050521135,-0.0021479842253029346,1.001695156097412,0.0,0.0,0.0,-0.20080389082431793,5.054176330566406,0.6589725613594055,36.34590148925781,0
1443.4120000000003,-0.01105282362550497,0.0027896531391888857,-0.00044690826325677335,0.0,0.0,0.0,0.0,0.00027488000341691077,0.0026087346486747265,-0.00011836612247861922,1.0005066394805908,0.0,0.0,0.0,-0.18258704245090485,4.975453853607178,0.6722082495689392,33.04861831665039,0
1453.2960000000003,-0.01106017641723156,0.0031456274446099997,-0.00012632904690690339,0.0,0.0,0.0,0.0,-0.0012454143725335598,-0.0015251210425049067,-0.0007712668157182634,0.9994341135025024,0.0,0.0,0.0,-0.19288749992847443,5.053451061248779,0.6574625372886658,34.913021087646484,0
1463.1839999999993,-0.010983540676534176,0.0028307943139225245,-0.0004645492881536484,0.0,0.0,0.0,0.0,0.0025580315850675106,0.0016906504752114415,0.0029160394333302975,1.0007259845733643,0.0,0.0,0.0,-0.17401351034641266,4.987806797027588,0.679781973361969,31.496789932250977,0
1473.062,-0.011046864092350006,0.003207082161679864,-0.00016467308159917593,0.0,0.0,0.0,0.0,-0.0032448030542582273,-0.008645235560834408,-0.00038028848939575255,0.9992496371269226,0.0,0.0,0.0,-0.18375445902347565,5.067015171051025,0.6606082320213318,33.25992202758789,0
1482.9629999999997,-0.010971026495099068,0.0028276853263378143,-0.0004952299641445279,0.0,0.0,0.0,0.0,0.0048164743930101395,-0.0016957423649728298,0.004267687909305096,1.0010778903961182,0.0,0.0,0.0,-0.16430352628231049,4.9952898025512695,0.6945492029190063,29.7392635345459,0
1492.833999999999,-0.011045526713132858,0.003247229615226388,-0.00018426244787406176,0.0,0.0,0.0,0.0,0.0011660089949145913,-0.0013063157675787807,0.0034813121892511845,1.0007599592208862,0.0,0.0,0.0,-0.17584829032421112,5.079413414001465,0.6812295913696289,31.828889846801758,0
1502.7309999999998,-0.010972702875733376,0.0028610394801944494,-0.0005170453805476427,0.0,0.0,0.0,0.0,0.0003124671638943255,0.003532025497406721,-0.0004847772652283311,0.9978183507919312,0.0,0.0,0.0,-0.15925878286361694,4.993680477142334,0.6853734254837036,28.826156616210938,0
1512.6080000000002,-0.01107944268733263,0.003298423485830426,-0.00021085342450533062,0.0,0.0,0.0,0.0,-0.0011326185194775462,7.996225031092763e-05,0.00022387804347090423,0.9978585839271545,0.0,0.0,0.0,-0.16949056088924408,5.0813469886779785,0.6665164232254028,30.678129196166992,0
1522.5110000000004,-0.011034051887691021,0.0029366803355515003,-0.0005365226534195244,0.0,0.0,0.0,0.0,0.0007529383874498308,-0.0018941264133900404,-0.0012848515762016177,1.000048041343689,0.0,0.0,0.0,-0.15498653054237366,5.00094747543335,0.667927086353302,28.052871704101562,0
1532.378999999999,-0.01109581533819437,0.003325071418657899,-0.00024047780607361346,0.0,0.0,0.0,0.0,-0.0016890312545001507,-6.518778536701575e-05,-0.0019624095875769854,1.0015549659729004,0.0,0.0,0.0,-0.1655065268278122,5.087007522583008,0.6553319096565247,29.957012176513672,0
1542.2839999999997,-0.011032063513994217,0.002920194063335657,-0.0005858551594428718,0.0,0.0,0.0,0.0,0.0028814622201025486,0.00153943186160177,0.0021012905053794384,1.0019134283065796,0.0,0.0,0.0,-0.15152929723262787,5.00388765335083,0.6682463884353638,27.427104949951172,0
1552.152,-0.011115237139165401,0.0033239067997783422,-0.00029592227656394243,0.0,0.0,0.0,0.0,-0.0014342839131131768,-0.002727976068854332,-0.00539594329893589,1.000152826309204,0.0,0.0,0.0,-0.16444437205791473,5.084969520568848,0.6531425714492798,29.76475715637207,0
1562.0529999999999,-0.01105398591607809,0.002926166635006666,-0.0006352151394821703,0.0,0.0,0.0,0.0,-0.0013754754327237606,0.002682298654690385,-0.001411733916029334,0.9998425245285034,0.0,0.0,0.0,-0.15120026469230652,5.001216888427734,0.6666945219039917,27.367549896240234,0
1571.9259999999995,-0.01104702241718769,0.0033062102738767862,-0.0003131899575237185,0.0,0.0,0.0,0.0,0.0012531292159110308,-0.0008714950527064502,-0.003306899918243289,0.9995431303977966,0.0,0.0,0.0,-0.16231456398963928,5.07765007019043,0.6682887077331543,29.37925910949707,0
1581.8220000000001,-0.011038480326533318,0.0029184622690081596,-0.000591495365370065,0.0,0.0,0.0,0.0,0.0004874207079410553,0.0038010147400200367,0.001273322501219809,0.9996132254600525,0.0,0.0,0.0,-0.15990333259105682,5.006923675537109,0.6633931398391724,28.942819595336914,0
1591.6970000000001,-0.011047227308154106,0.0032841197680681944,-0.00028766997274942696,0.0,0.0,0.0,0.0,0.002036523073911667,0.003302791155874729,-0.0011218342697247863,1.0007301568984985,0.0,0.0,0.0,-0.17237968742847443,5.080749988555908,0.6532328128814697,31.201068878173828,0
1601.5969999999998,-0.011020033620297909,0.0029204515740275383,-0.000583405839279294,0.0,0.0,0.0,0.0,-0.0029953147750347853,-0.007003481034189463,0.0032177292741835117,1.0006382465362549,0.0,0.0,0.0,-0.15432876348495483,5.000847339630127,0.6610121130943298,27.93381118774414,0
1611.4750000000004,-0.010954252444207668,0.0032389608677476645,-0.0002731386630330235,0.0,0.0,0.0,0.0,-0.000146246820804663,-0.007667188998311758,0.0021365336142480373,1.000267744064331,0.0,0.0,0.0,-0.16304609179496765,5.067153453826904,0.6713327169418335,29.511667251586914,0
1621.366,-0.010914226062595844,0.002881856868043542,-0.0005781138897873461,0.0,0.0,0.0,0.0,6.900775042595342e-05,0.0005248346133157611,-1.9960227291448973e-05,1.0021227598190308,0.0,0.0,0.0,-0.14853030443191528,4.995681285858154,0.7018018364906311,26.8842830657959,0
1631.244999999999,-0.011014465242624283,0.0032666854094713926,-0.00030585931381210685,0.0,0.0,0.0,0.0,0.0004217773675918579,-0.001361994305625558,-0.002811985556036234,1.0000593662261963,0.0,0.0,0.0,-0.15983493626117706,5.0778045654296875,0.6779433488845825,28.930442810058594,0
1641.1409999999996,-0.0109856016933918,0.0028999827336519957,-0.0006086465436965227,0.0,0.0,0.0,0.0,0.0004618550301529467,0.00048090791096910834,0.0008732673595659435,0.999179482460022,0.0,0.0,0.0,-0.14562875032424927,5.001775741577148,0.7053934335708618,26.359092712402344,0
1651.0169999999998,-0.011001513339579105,0.0032742582261562347,-0.00029875352629460394,0.0,0.0,0.0,0.0,-0.0013535133330151439,-0.002563106594607234,-0.0007120738155208528,0.9989202618598938,0.0,0.0,0.0,-0.1533978432416916,5.0752272605896,0.6852743625640869,27.765316009521484,0
1660.9130000000005,-0.010983094573020935,0.0028462084010243416,-0.0005808159476146102,0.0,0.0,0.0,0.0,0.00017121100972872227,-1.3431625120574608e-05,-0.0008297557942569256,0.9978103637695312,0.0,0.0,0.0,-0.1522538661956787,4.9902024269104,0.690536379814148,27.558252334594727,0
1670.789999999999,-0.011052500456571579,0.003269588341936469,-0.00026630525826476514,0.0,0.0,0.0,0.0,0.00015918978897389024,0.004084831103682518,-1.575957503519021e-05,0.9984732270240784,0.0,0.0,0.0,-0.1650802493095398,5.0755391120910645,0.6781232357025146,29.879854202270508,0
1680.688,-0.01100926473736763,0.0029255624394863844,-0.0005816125776618719,0.0,0.0,0.0,0.0,0.0019510178826749325,0.00038782341289334,0.005717912223190069,0.9994044899940491,0.0,0.0,0.0,-0.14368292689323425,4.996249675750732,0.6828576922416687,26.006895065307617,0
1690.566999999999,-0.011112845502793789,0.003346823388710618,-0.0002842012618202716,0.0,0.0,0.0,0.0,-0.0037287971936166286,-0.0017430788138881326,0.0013677338138222694,1.0003904104232788,0.0,0.0,0.0,-0.15658946335315704,5.081688404083252,0.6534696817398071,28.343006134033203,0
1700.4560000000001,-0.011116217821836472,0.0029536858201026917,-0.0005598163115791976,0.0,0.0,0.0,0.0,0.0027369363233447075,0.004745632875710726,-0.0006859592394903302,0.9995059370994568,0.0,0.0,0.0,-0.13788804411888123,4.9929890632629395,0.6577366590499878,24.958009719848633,0
1710.3329999999987,-0.011145142838358879,0.003349913749843836,-0.00023874157341197133,0.0,0.0,0.0,0.0,-0.0019274988444522023,-0.0008531287312507629,0.00028184373513795435,0.9985954165458679,0.0,0.0,0.0,-0.15046316385269165,5.074713706970215,0.6577737927436829,27.234130859375,0
1720.232,-0.011140391230583191,0.0029396263416856527,-0.0005423215916380286,0.0,0.0,0.0,0.0,-0.0016567978309467435,0.0025426920037716627,0.0009544008644297719,0.9989686012268066,0.0,0.0,0.0,-0.1483084261417389,4.983823299407959,0.6507075428962708,26.8441219329834,0
1730.1129999999994,-0.011194776743650436,0.0033091739751398563,-0.00025813007960096,0.0,0.0,0.0,0.0,-0.000653817318379879,-0.004850681871175766,0.0019638047087937593,0.9992974400520325,0.0,0.0,0.0,-0.15953199565410614,5.067557334899902,0.647384762763977,28.875606536865234,0
1740.0,-0.011181392706930637,0.002939083846285939,-0.0005500345723703504,0.0,0.0,0.0,0.0,0.00503239780664444,0.005549379624426365,-0.0014285040087997913,0.9995663166046143,0.0,0.0,0.0,-0.14165480434894562,4.98714542388916,0.6561466455459595,25.639802932739258,0
1749.8779999999988,-0.011117243207991123,0.003284833859652281,-0.00021957750141154975,0.0,0.0,0.0,0.0,-0.0014974174555391073,-0.001413346384651959,-0.0012121862964704633,1.0003137588500977,0.0,0.0,0.0,-0.15737256407737732,5.055885314941406,0.6641997694969177,28.4847469329834,0
1759.7739999999994,-0.01109764538705349,0.0028832447715103626,-0.000535487721208483,0.0,0.0,0.0,0.0,-0.0021795551292598248,0.0026001576334238052,-0.0020325162913650274,0.999305009841919,0.0,0.0,0.0,-0.15971416234970093,4.967544078826904,0.664086103439331,28.908580780029297,0
1769.6509999999998,-0.011064325459301472,0.0032350528053939342,-0.00021793440100736916,0.0,0.0,0.0,0.0,-0.0017641086596995592,-0.004443018697202206,0.0010011455742642283,0.998091459274292,0.0,0.0,0.0,-0.16938301920890808,5.041464805603027,0.6721673607826233,30.65866470336914,0
1779.5499999999993,-0.010986565612256527,0.0028622252866625786,-0.0005609819781966507,0.0,0.0,0.0,0.0,-0.00012468986096791923,-0.0035961298272013664,0.0015089387306943536,0.9974700212478638,0.0,0.0,0.0,-0.14992962777614594,4.96711540222168,0.6938917636871338,27.137561798095703,0
1789.423999999999,-0.011004987172782421,0.0032207565382122993,-0.00027539124130271375,0.0,0.0,0.0,0.0,-0.004842155147343874,2.9424163585645147e-05,-0.00017966979066841304,0.9978204965591431,0.0,0.0,0.0,-0.1594058871269226,5.03955078125,0.690574586391449,28.852783203125,0
1799.324999999999,-0.01093780156224966,0.002833133563399315,-0.0006159195327199996,0.0,0.0,0.0,0.0,-0.0012688529677689075,-0.004245102871209383,-0.001993769546970725,0.9982817769050598,0.0,0.0,0.0,-0.14496813714504242,4.967266082763672,0.7145659923553467,26.239519119262695,0
1809.196,-0.010990883223712444,0.0032233945094048977,-0.00032411751453764737,0.0,0.0,0.0,0.0,-0.00140875275246799,0.002844669623300433,0.00037898222217336297,0.9986391663551331,0.0,0.0,0.0,-0.15573112666606903,5.046047687530518,0.7049882411956787,28.187644958496094,0
1819.098,-0.010975589044392109,0.0027999673038721085,-0.0006127266678959131,0.0,0.0,0.0,0.0,-0.001994335325434804,-0.0005546999746002257,0.0005444127600640059,0.9980834722518921,0.0,0.0,0.0,-0.13738340139389038,4.967651844024658,0.7086068987846375,24.866668701171875,0
1828.9699999999993,-0.011037998832762241,0.003233082126826048,-0.0002889304014388472,0.0,0.0,0.0,0.0,0.0025319179985672235,0.0006008762866258621,-0.001306281890720129,0.9996262788772583,0.0,0.0,0.0,-0.15121933817863464,5.05499267578125,0.6979588866233826,27.371002197265625,0
1838.8680000000004,-0.010998439975082874,0.0028825753834098577,-0.0006023267051205039,0.0,0.0,0.0,0.0,-0.004046767018735409,0.0013290389906615019,0.0020062047988176346,1.0001952648162842,0.0,0.0,0.0,-0.13939140737056732,4.97899055480957,0.7107157111167908,25.230121612548828,0
1848.7420000000002,-0.011061266995966434,0.003260737517848611,-0.00032890107831917703,0.0,0.0,0.0,0.0,0.0009351499611511827,-0.001371515914797783,0.001524584018625319,0.9991292357444763,0.0,0.0,0.0,-0.15178579092025757,5.0571393966674805,0.6942166686058044,27.473529815673828,0
1858.637999999999,-0.011006899178028107,0.002867934526875615,-0.0006668368587270379,0.0,0.0,0.0,0.0,4.362649633549154e-05,0.0017769025871530175,-0.000907951791305095,0.9985849261283875,0.0,0.0,0.0,-0.13534288108348846,4.977891445159912,0.7147162556648254,24.497331619262695,0
1868.5139999999992,-0.011092396453022957,0.0033159649465233088,-0.00034369880449958146,0.0,0.0,0.0,0.0,-0.0025085220113396645,-0.008712267503142357,-0.002097374526783824,1.0004011392593384,0.0,0.0,0.0,-0.14524590969085693,5.068138122558594,0.6993817090988159,26.289796829223633,0
1878.4179999999997,-0.0110612278804183,0.002892943797633052,-0.0006670900620520115,0.0,0.0,0.0,0.0,0.0009088797960430384,0.003908201586455107,0.0015491736121475697,0.9995224475860596,0.0,0.0,0.0,-0.1458553820848465,4.980784893035889,0.7092463374137878,26.400114059448242,0
1888.2880000000005,-0.011046931147575378,0.0032865717075765133,-0.0003304887795820832,0.0,0.0,0.0,0.0,-0.0002809099096339196,0.005393700208514929,-0.0002750495623331517,0.9968024492263794,0.0,0.0,0.0,-0.15870623290538788,5.060224533081055,0.7119975090026855,28.72614288330078,0
1898.182999999999,-0.011016243137419224,0.002860477427020669,-0.0006458851275965571,0.0,0.0,0.0,0.0,-0.0027750879526138306,-0.005723572801798582,0.0019735568203032017,0.9985369443893433,0.0,0.0,0.0,-0.1539171040058136,4.972029209136963,0.7044709324836731,27.85930061340332,0
1908.066999999999,-0.011047369800508022,0.0032763879280537367,-0.0003154188161715865,0.0,0.0,0.0,0.0,-0.00013276864774525166,-0.0018563774647191167,-0.0009781023254618049,0.9991626739501953,0.0,0.0,0.0,-0.16741637885570526,5.055850982666016,0.6990076303482056,30.302696228027344,0
1917.9539999999997,-0.010995635762810707,0.002863141242414713,-0.0006639258353970945,0.0,0.0,0.0,0.0,-0.001686320872977376,-0.0006305839633569121,-0.00019392005924601108,0.9982882738113403,0.0,0.0,0.0,-0.15469354391098022,4.978519916534424,0.7165152430534363,27.999839782714844,0
1927.8320000000003,-0.01103629544377327,0.0032872147858142853,-0.0003301475662738085,0.0,0.0,0.0,0.0,0.0013704902958124876,0.0019263430731371045,-0.0008713675779290497,0.9977637529373169,0.0,0.0,0.0,-0.16805362701416016,5.063843250274658,0.709743082523346,30.418041229248047,0
1937.7309999999998,-0.010988705791532993,0.0028689978644251823,-0.0006790949846617877,0.0,0.0,0.0,0.0,-0.0006640527280978858,-0.0006969849346205592,-0.0005043032579123974,0.9993848204612732,0.0,0.0,0.0,-0.1544933319091797,4.974955081939697,0.7006542682647705,27.96360206604004,0
1947.6049999999996,-0.01103493943810463,0.0032972877379506826,-0.00034460474853403866,0.0,0.0,0.0,0.0,0.001256809220649302,-0.0009446076001040637,-0.0012927661882713437,0.9999127984046936,0.0,0.0,0.0,-0.16810165345668793,5.061123847961426,0.6924961805343628,30.42673110961914,0
1957.5020000000004,-0.010987023822963238,0.0028756309766322374,-0.0006878562271595001,0.0,0.0,0.0,0.0,-0.0019294536905363202,0.0024968967773020267,-0.0018377259839326143,1.0016789436340332,0.0,0.0,0.0,-0.15325483679771423,4.97614860534668,0.7110852599143982,27.739431381225586,0
1967.3809999999994,-0.011012887582182884,0.0032923505641520023,-0.00035213379305787385,0.0,0.0,0.0,0.0,0.0030104294419288635,-0.004418307915329933,0.004167837090790272,0.9999610781669617,0.0,0.0,0.0,-0.1664624810218811,5.060160160064697,0.705733597278595,30.130043029785156,0
1977.2690000000002,-0.010958360508084297,0.002880896208807826,-0.0006844016606919467,0.0,0.0,0.0,0.0,0.0020005900878459215,3.631130311987363e-05,0.0012849322520196438,0.9991265535354614,0.0,0.0,0.0,-0.16431553661823273,4.972191333770752,0.7181446552276611,29.741437911987305,0
1987.152,-0.011001805774867535,0.0032990046311169863,-0.0003560843179002404,0.0,0.0,0.0,0.0,0.0015533152036368847,0.005860459990799427,0.0010158049408346415,0.9993663430213928,0.0,0.0,0.0,-0.1761343777179718,5.056338310241699,0.7100090384483337,31.880674362182617,0
1997.0469999999987,-0.010947437025606632,0.002882882487028837,-0.0006886832998134196,0.0,0.0,0.0,0.0,-0.002887094859033823,-0.00012757010699715465,-0.00047641925630159676,0.9997453093528748,0.0,0.0,0.0,-0.1747453212738037,4.973922252655029,0.6997338533401489,31.629249572753906,0
2006.9229999999989,-0.011065103113651276,0.003343057818710804,-0.0003670880105346441,0.0,0.0,0.0,0.0,-0.0010457412572577596,-0.002328431000933051,-0.0011692215921357274,1.002240777015686,0.0,0.0,0.0,-0.18302947282791138,5.066232204437256,0.6785268783569336,33.12869644165039,0
2016.8149999999987,-0.011002284474670887,0.002946101129055023,-0.000707040133420378,0.0,0.0,0.0,0.0,0.0008609015494585037,-0.006136961281299591,0.0003984864742960781,1.0013543367385864,0.0,0.0,0.0,-0.1804949790239334,4.995416164398193,0.6959829926490784,32.669952392578125,0
2026.7029999999995,-0.011075236834585667,0.003378988243639469,-0.0003807959146797657,0.0,0.0,0.0,0.0,-0.0018526256317272782,0.004838520660996437,-0.004670792259275913,0.999699592590332,0.0,0.0,0.0,-0.19064177572727203,5.082279205322266,0.6831315159797668,34.50654220581055,0
2036.5869999999995,-0.01103955041617155,0.0029417199548333883,-0.0007073796587064862,0.0,0.0,0.0,0.0,0.0003365921147633344,-0.004338433500379324,0.00010504361853236333,0.999715268611908,0.0,0.0,0.0,-0.1788671612739563,4.995174884796143,0.6892940402030945,32.37531280517578,0
2046.4709999999995,-0.011150081641972065,0.003373910440132022,-0.0004035800520796329,0.0,0.0,0.0,0.0,-0.0010646716691553593,0.005864815320819616,-0.0013656660448759794,0.997580885887146,0.0,0.0,0.0,-0.18705971539020538,5.081780910491943,0.6696456670761108,33.858177185058594,0
2056.367,-0.011139128357172012,0.0029290723614394665,-0.0007076171459630132,0.0,0.0,0.0,0.0,0.00431842589750886,0.0023826288525015116,7.780866144457832e-05,1.0004090070724487,0.0,0.0,0.0,-0.1848980188369751,4.988053321838379,0.6609153747558594,33.4669075012207,0
2066.241,-0.011133386753499508,0.003341407049447298,-0.000352646253304556,0.0,0.0,0.0,0.0,0.0009605432278476655,-0.00322436704300344,0.0016408605733886361,1.0023298263549805,0.0,0.0,0.0,-0.19627059996128082,5.070960521697998,0.662004828453064,35.525367736816406,0
2076.128999999999,-0.01111946813762188,0.003316206857562065,-0.0003429365169722587,0.0,0.0,0.0,0.0,0.00019151448213960975,-0.002787790959700942,0.0007057706243358552,1.0001240968704224,0.0,0.0,0.0,-0.1961456686258316,5.072238445281982,0.6537966132164001,35.50275421142578,0
2086.021999999999,-0.011049352586269379,0.003558309283107519,-8.489647734677419e-05,0.0,0.0,0.0,0.0,0.0005997963598929346,-6.91431705490686e-06,-0.0023125114385038614,0.9997636675834656,0.0,0.0,0.0,-0.2090197652578354,5.141038417816162,0.6684280037879944,37.8329963684082,0
2095.9069999999992,-0.011032049544155598,0.003550685243681073,-5.1434348279144615e-05,0.0,0.0,0.0,0.0,-0.0002423387923045084,0.001353576430119574,-0.00266171689145267,1.0021206140518188,0.0,0.0,0.0,-0.2079787701368332,5.134668827056885,0.6599528789520264,37.644569396972656,0
2105.7870000000003,-0.010913226753473282,0.003722989931702614,0.00017908615700434893,0.0,0.0,0.0,0.0,-0.0015981022734194994,-0.0007847275701351464,0.0015287436544895172,1.0014008283615112,0.0,0.0,0.0,-0.22145488858222961,5.1953444480896,0.6837432384490967,40.08377456665039,0
2115.6800000000003,-0.010891339741647243,0.0037296824157238007,0.00023163649893831462,0.0,0.0,0.0,0.0,0.0007210993207991123,0.003599443007260561,0.00015866455214563757,1.0010831356048584,0.0,0.0,0.0,-0.2229141741991043,5.187464714050293,0.6803083419799805,40.3479118347168,0
2125.5589999999993,-0.010869842022657394,0.0037341120187193155,0.00028616335475817323,0.0,0.0,0.0,0.0,-0.0006355080986395478,-0.002165282377973199,0.002899140352383256,0.9991320967674255,0.0,0.0,0.0,-0.2223614901304245,5.1852264404296875,0.6869657635688782,40.24787139892578,0
