timestamp,stateEstimate.x,stateEstimate.y,stateEstimate.z,controller.cmd_thrust,controller.cmd_roll,controller.cmd_pitch,controller.cmd_yaw,controller.r_roll,controller.r_pitch,controller.r_yaw,controller.accelz,controller.actuatorThrust,controller.roll,controller.pitch,controller.yaw,controller.rollRate,controller.pitchRate,controller.yawRate,controller.ctr_yaw
0.0,-3.166856549796648e-05,-0.00019155745394527912,-5.212013638811186e-05,0.0,0.0,0.0,0.0,0.0009243887616321445,0.003169964998960495,-0.0033946267794817686,1.0023117065429688,0.0,0.0,0.0,0.15683694183826447,5.59681510925293,0.6465798616409302,-28.38779640197754,0
9.89600000000064,-5.5230008001672104e-05,-0.00024477875558659434,-6.810810009483248e-05,0.0,0.0,0.0,0.0,0.0013686834136024117,0.005007599946111441,0.0007641324191354215,1.001265525817871,0.0,0.0,0.0,0.14762721955776215,5.591212272644043,0.6300050616264343,-26.720821380615234,0
19.772000000000844,1.0111489245900884e-07,-0.00022845753119327128,-6.695414776913822e-05,0.0,0.0,0.0,0.0,-0.0016760524595156312,0.009163946844637394,-0.0018451465293765068,1.0006815195083618,0.0,0.0,0.0,0.16209878027439117,5.598296642303467,0.6245739459991455,-29.34020233154297,0
29.670000000000073,-0.00011831767915282398,-0.0002248987293569371,-9.681498340796679e-05,0.0,0.0,0.0,0.0,-0.0005737316678278148,-0.003939331509172916,0.002294022124260664,1.0014585256576538,0.0,0.0,0.0,0.16123582422733307,5.597827911376953,0.6124622821807861,-29.184003829956055,0
39.5530000000017,-4.239765621605329e-05,-0.00018413543875794858,-0.00011043639824492857,0.0,0.0,0.0,0.0,-0.0007477115141227841,0.0034557771869003773,-0.0007809007074683905,1.0005401372909546,0.0,0.0,0.0,0.16259756684303284,5.588585376739502,0.6154162287712097,-29.430482864379883,0
49.4380000000001,-7.60783877922222e-05,-0.0002062164421658963,-0.00010621473484206945,0.0,0.0,0.0,0.0,-0.0003494315897114575,-0.0009997213492169976,0.001293796580284834,1.0007716417312622,0.0,0.0,0.0,0.16265636682510376,5.585582733154297,0.6100572943687439,-29.44112777709961,0
59.32600000000093,4.024432200822048e-07,-0.00015287412679754198,-0.00010390454553999007,0.0,0.0,0.0,0.0,-0.00048768092528916895,0.0014556185342371464,0.00023361973580904305,1.001121997833252,0.0,0.0,0.0,0.16247251629829407,5.577213764190674,0.6113224029541016,-29.407846450805664,0
69.21600000000035,-9.464249887969345e-05,-0.00016116391634568572,-0.00013381811731960624,0.0,0.0,0.0,0.0,0.000408582593081519,-0.003929713275283575,0.00016473495634272695,1.0013127326965332,0.0,0.0,0.0,0.15552929043769836,5.580233097076416,0.5900773406028748,-28.151111602783203,0
79.09799999999996,-2.0060670067323372e-05,-0.00010279208072461188,-0.00012818949471693486,0.0,0.0,0.0,0.0,0.001597589929588139,-0.003678509732708335,0.005407980177551508,1.0012192726135254,0.0,0.0,0.0,0.17067164182662964,5.595994472503662,0.6086792945861816,-30.89190673828125,0
88.98700000000099,-9.032544767251238e-05,-0.00013228078023530543,-0.0001588241575518623,0.0,0.0,0.0,0.0,-0.002193908905610442,0.0027911155484616756,-0.0022349439095705748,1.0016734600067139,0.0,0.0,0.0,0.1720886379480362,5.588630676269531,0.6148351430892944,-31.14838409423828,0
98.87200000000121,-1.1116092537122313e-05,-6.813748041167855e-05,-0.0001550844026496634,0.0,0.0,0.0,0.0,0.002707418520003557,0.0015701651573181152,0.0007643880671821535,0.9982215762138367,0.0,0.0,0.0,0.1716407686471939,5.595904350280762,0.6131987571716309,-31.067319869995117,0
108.75700000000143,-2.165324258385226e-05,-9.78048046818003e-05,-0.0001456613972550258,0.0,0.0,0.0,0.0,-1.6626812794129364e-05,-0.0024385631550103426,0.0005114191444590688,1.0016391277313232,0.0,0.0,0.0,0.16292372345924377,5.591843605041504,0.6098063588142395,-29.489519119262695,0
118.64300000000003,4.231510501995217e-06,-0.0001149065064964816,-0.00012965504720341414,0.0,0.0,0.0,0.0,-0.0003869245119858533,0.0006135329604148865,-0.000841327419038862,1.0016143321990967,0.0,0.0,0.0,0.1574534773826599,5.594613075256348,0.6178565621376038,-28.499393463134766,0
128.52900000000045,-8.670058014104143e-05,-0.00013673024659510702,-0.00016062631038948894,0.0,0.0,0.0,0.0,4.4939559302292764e-05,-0.00281643052585423,-0.0013123626122251153,0.9996120929718018,0.0,0.0,0.0,0.1516202688217163,5.5978312492370605,0.5937943458557129,-27.44356918334961,0
138.41600000000108,-5.2936054999008775e-05,-0.00013618105731438845,-0.00014679280866403133,0.0,0.0,0.0,0.0,-0.0007120802183635533,0.0006361526320688426,0.0019918084144592285,0.9993690252304077,0.0,0.0,0.0,0.16380904614925385,5.5993428230285645,0.6058747172355652,-29.649763107299805,0
148.3080000000009,-0.00011654103582259268,-0.00015759150846861303,-0.00015951314708217978,0.0,0.0,0.0,0.0,0.001929329358972609,0.0013207272859290242,-0.0010012119309976697,1.0028362274169922,0.0,0.0,0.0,0.15761755406856537,5.596222877502441,0.5928328633308411,-28.529090881347656,0
158.1910000000007,-5.1984181482112035e-05,-0.00012111304386053234,-0.00016010405670385808,0.0,0.0,0.0,0.0,-0.001798194949515164,0.002599450759589672,0.002005406655371189,1.000147819519043,0.0,0.0,0.0,0.1517557054758072,5.604689121246338,0.6013085842132568,-27.468082427978516,0
168.08600000000115,-5.505445005837828e-05,-0.00014684021880384535,-0.00013518755440600216,0.0,0.0,0.0,0.0,8.428815635852516e-05,0.0009367995080538094,0.0011452449252828956,1.0000526905059814,0.0,0.0,0.0,0.14449480175971985,5.6078596115112305,0.5990288257598877,-26.153846740722656,0
177.96300000000156,-3.2378457035520114e-06,-0.00011063759302487597,-0.00011143399751745164,0.0,0.0,0.0,0.0,-0.0011285418877378106,0.001997049432247877,0.0006107278750278056,1.0022108554840088,0.0,0.0,0.0,0.15484149754047394,5.620680809020996,0.6090701818466187,-28.02661895751953,0
187.85000000000036,-9.467680501984432e-05,-0.00013169646263122559,-0.00013842491898685694,0.0,0.0,0.0,0.0,1.8805891158990562e-05,0.00014934792125131935,0.0006207373226061463,1.0004292726516724,0.0,0.0,0.0,0.14848685264587402,5.626421928405762,0.5963835716247559,-26.876415252685547,0
197.7380000000012,-4.480150164454244e-05,-0.00011412039748392999,-0.00013305376342032105,0.0,0.0,0.0,0.0,-0.0023104101419448853,0.0010841398034244776,-0.0016348371282219887,0.9988176226615906,0.0,0.0,0.0,0.1415315568447113,5.632802486419678,0.609432578086853,-25.617494583129883,0
207.6230000000014,-4.382216138765216e-05,-0.00017699404270388186,-0.00013327821216080338,0.0,0.0,0.0,0.0,-0.0017227550270035863,0.0015295834746211767,0.0009497246937826276,1.0004626512527466,0.0,0.0,0.0,0.13482941687107086,5.632081985473633,0.6090235114097595,-24.40439224243164,0
217.51100000000042,7.223360626085196e-06,-0.00013974850298836827,-0.00010470972483744845,0.0,0.0,0.0,0.0,-0.0008766004466451705,0.001497422344982624,0.004114918410778046,1.0003926753997803,0.0,0.0,0.0,0.14750507473945618,5.650667190551758,0.6123122572898865,-26.698713302612305,0
227.39100000000144,-1.3484795999829657e-05,-0.00019617042562458664,-0.00011300688493065536,0.0,0.0,0.0,0.0,-0.0005187393398955464,0.005813748575747013,1.690773933660239e-05,1.0009095668792725,0.0,0.0,0.0,0.14176441729068756,5.6493306159973145,0.6051647067070007,-25.65964126586914,0
237.27800000000025,2.692561611183919e-05,-0.00020011229207739234,-0.0001048244594130665,0.0,0.0,0.0,0.0,0.00200153817422688,0.0028469564858824015,-0.0020617919508367777,1.001139760017395,0.0,0.0,0.0,0.13176476955413818,5.652724266052246,0.5905624628067017,-23.849685668945312,0
247.16500000000087,-4.05900354962796e-05,-0.00019110049470327795,-9.233609307557344e-05,0.0,0.0,0.0,0.0,-0.003333696397021413,0.0027086588088423014,0.0007038137409836054,1.000594139099121,0.0,0.0,0.0,0.12479375302791595,5.6548027992248535,0.5687084197998047,-22.58791732788086,0
257.0510000000013,6.499054961750517e-06,-0.00017883750842884183,-8.34720631246455e-05,0.0,0.0,0.0,0.0,0.004531520884484053,0.0036321962252259254,0.0028589260764420033,0.9993506669998169,0.0,0.0,0.0,0.11704686284065247,5.666828632354736,0.5664986968040466,-21.18571662902832,0
266.9480000000003,-4.384317799122073e-05,-0.00017655413830652833,-6.598680192837492e-05,0.0,0.0,0.0,0.0,0.000561215216293931,4.852416896028444e-05,2.329042399651371e-05,0.9984445571899414,0.0,0.0,0.0,0.10928346961736679,5.669676303863525,0.5557900667190552,-19.78052520751953,0
276.84000000000015,3.597396244003903e-06,-0.00016172288451343775,-6.038157152943313e-05,0.0,0.0,0.0,0.0,-0.00032857488258741796,0.0025774980895221233,0.002073027426376939,1.0008249282836914,0.0,0.0,0.0,0.10865970700979233,5.6633124351501465,0.5474742650985718,-19.66762351989746,0
286.71900000000096,-4.7048313717823476e-05,-0.0001704426686046645,-5.514384247362614e-05,0.0,0.0,0.0,0.0,-0.0012729973532259464,-0.0011711283586919308,-0.000123405727208592,0.9992982745170593,0.0,0.0,0.0,0.10935741662979126,5.654646396636963,0.5373275876045227,-19.79391098022461,0
296.59600000000137,7.86366672400618e-06,-0.00014315807493403554,-5.5307376896962523e-05,0.0,0.0,0.0,0.0,-0.000795117870438844,-0.0021754552144557238,0.002664202591404319,1.0001660585403442,0.0,0.0,0.0,0.10880295187234879,5.65062141418457,0.5415140390396118,-19.69355010986328,0
306.4840000000004,-9.471377416048199e-05,-0.00015234554302878678,-8.637987775728106e-05,0.0,0.0,0.0,0.0,0.001106871641241014,-0.0031403740867972374,-0.00039570635999552906,1.0006693601608276,0.0,0.0,0.0,0.10893581807613373,5.643312454223633,0.5528768301010132,-19.71759796142578,0
316.375,-4.9732483603293076e-05,-0.00012542260810732841,-8.114754018606618e-05,0.0,0.0,0.0,0.0,-0.00039546770858578384,-0.0022526278626173735,0.00023915327619761229,0.9999571442604065,0.0,0.0,0.0,0.10918916761875153,5.6385817527771,0.5628151297569275,-19.76345443725586,0
326.2610000000004,-0.0001371911639580503,-9.901933663059026e-05,-7.30282990843989e-05,0.0,0.0,0.0,0.0,-0.0025551815051585436,0.0010650830809026957,0.0026776075828820467,0.9996311664581299,0.0,0.0,0.0,0.10252194106578827,5.647394180297852,0.5448869466781616,-18.55667495727539,0
336.14900000000125,-9.365842561237514e-05,-8.249067468568683e-05,-8.191850793082267e-05,0.0,0.0,0.0,0.0,0.0011504365829750896,-0.010198015719652176,-0.0008863755501806736,1.0008997917175293,0.0,0.0,0.0,0.09470151364803314,5.657616138458252,0.5448153614997864,-17.14116096496582,0
346.02900000000045,-7.784760236972943e-05,-0.0001340734597761184,-6.947352085262537e-05,0.0,0.0,0.0,0.0,0.0004833158745896071,0.003632831620052457,-0.00119486590847373,0.9975582957267761,0.0,0.0,0.0,0.08705729246139526,5.649072170257568,0.5680533051490784,-15.757543563842773,0
355.9160000000011,-1.744660039548762e-05,-8.093759242910892e-05,-6.154683069325984e-05,0.0,0.0,0.0,0.0,-0.00164652185048908,-0.0029481807723641396,0.0017335308948531747,0.998201847076416,0.0,0.0,0.0,0.10185489058494568,5.661519527435303,0.5668290853500366,-18.43593978881836,0
365.8020000000015,-8.66215632413514e-05,-0.00011340167839080095,-9.404949378222227e-05,0.0,0.0,0.0,0.0,0.0030922037549316883,0.0020355540327727795,-0.0013875601580366492,0.9992024898529053,0.0,0.0,0.0,0.10248412936925888,5.664236068725586,0.5723503828048706,-18.549829483032227,0
375.6950000000015,-2.883659726649057e-05,-7.033913425402716e-05,-0.00010010230471380055,0.0,0.0,0.0,0.0,-0.0009931648382917047,0.005389783997088671,0.0005532714421860874,0.9988850355148315,0.0,0.0,0.0,0.11263614892959595,5.6697258949279785,0.5692538619041443,-20.387367248535156,0
385.5750000000007,-0.0001055370521498844,-9.200246859109029e-05,-0.00013565405970439315,0.0,0.0,0.0,0.0,0.0024376055225729942,-0.005127887707203627,0.0009699757792986929,0.9987838268280029,0.0,0.0,0.0,0.10336116701364517,5.6705121994018555,0.5406738519668579,-18.708576202392578,0
395.47100000000137,-7.146235293475911e-05,-8.198643627110869e-05,-0.00014116938109509647,0.0,0.0,0.0,0.0,7.202275446616113e-05,0.004879913758486509,-0.004243255592882633,0.9995184540748596,0.0,0.0,0.0,0.10288682579994202,5.660262107849121,0.5504409670829773,-18.62272071838379,0
405.34200000000055,-7.70816914155148e-05,-0.00012415369565133005,-0.00014512904454022646,0.0,0.0,0.0,0.0,0.0005193850956857204,-0.002758312737569213,0.0006802669377066195,0.999915599822998,0.0,0.0,0.0,0.10186641663312912,5.6515984535217285,0.5354561805725098,-18.438024520874023,0
415.2350000000006,-3.7597681512124836e-05,-0.00010664438013918698,-0.00014779940829612315,0.0,0.0,0.0,0.0,-5.346741454559378e-05,0.0020000457298010588,-0.0027295458130538464,1.000749111175537,0.0,0.0,0.0,0.09456886351108551,5.660091400146484,0.5543505549430847,-17.117151260375977,0
425.112000000001,-3.4360477002337575e-05,-0.00016127550043165684,-0.00015735997294541448,0.0,0.0,0.0,0.0,-0.0004077406192664057,-0.00044423609506338835,-0.0013473660219460726,0.9983612298965454,0.0,0.0,0.0,0.09433922916650772,5.653744220733643,0.54941326379776,-17.075590133666992,0
435.01800000000003,6.8012527663086075e-06,-0.00014712840493302792,-0.00015721040836069733,0.0,0.0,0.0,0.0,-0.0015898046549409628,0.0014257414732128382,-0.0013359558070078492,1.0003948211669922,0.0,0.0,0.0,0.09462691098451614,5.645383358001709,0.5518583655357361,-17.12765884399414,0
444.88300000000163,-4.5941644202684984e-05,-0.00014177782577462494,-0.00015510972298216075,0.0,0.0,0.0,0.0,-0.0007706291507929564,-0.0031492493581026793,-0.0007665020530112088,0.9993715882301331,0.0,0.0,0.0,0.08781450986862183,5.653364658355713,0.5356833338737488,-15.894600868225098,0
454.7900000000009,-1.2310911188251339e-05,-0.00011445698328316212,-0.00013153019244782627,0.0,0.0,0.0,0.0,0.0032924702391028404,0.0025153285823762417,-0.0029426810797303915,1.000276803970337,0.0,0.0,0.0,0.09910375624895096,5.657713413238525,0.5490996241569519,-17.937976837158203,0
464.66100000000006,-0.00010392039985163137,-0.00012966296344529837,-0.00016640334797557443,0.0,0.0,0.0,0.0,0.0012232750887051225,-0.004869718104600906,0.00029467427521012723,0.9997715950012207,0.0,0.0,0.0,0.09235461056232452,5.650878429412842,0.5371633172035217,-16.716367721557617,0
474.5560000000005,-5.937613968853839e-05,-8.393223106395453e-05,-0.00014684109191875905,0.0,0.0,0.0,0.0,-0.0024934641551226377,-0.0012668411945924163,0.00020237622084096074,1.0001505613327026,0.0,0.0,0.0,0.10564407706260681,5.661863803863525,0.5627085566520691,-19.121789932250977,0
484.4290000000001,-6.835948443040252e-05,-0.00011092415661551058,-0.00014099548570811749,0.0,0.0,0.0,0.0,-0.0021915955003350973,-0.004820161499083042,0.0017198299756273627,1.002126932144165,0.0,0.0,0.0,0.10617758333683014,5.6610002517700195,0.5580638647079468,-19.218353271484375,0
494.3220000000001,-4.300139335100539e-05,-0.00011904681014129892,-0.00013364627375267446,0.0,0.0,0.0,0.0,0.0027013688813894987,0.0033278216142207384,0.003412485821172595,1.0005199909210205,0.0,0.0,0.0,0.11601897329092026,5.670927047729492,0.5710585713386536,-20.999664306640625,0
504.20400000000154,-0.0001208852045238018,-0.00013865881192032248,-0.00015808429452590644,0.0,0.0,0.0,0.0,-0.0013846970396116376,0.00471533415839076,-0.0004462403303477913,0.9996896386146545,0.0,0.0,0.0,0.1168937161564827,5.663280487060547,0.5681074857711792,-21.157995223999023,0
514.0950000000012,-5.642702672048472e-05,-8.838711073622108e-05,-0.00016020075418055058,0.0,0.0,0.0,0.0,0.0032543123234063387,0.004700982477515936,-0.0020853918977081776,1.0021860599517822,0.0,0.0,0.0,0.13006675243377686,5.679010391235352,0.5735739469528198,-23.542339324951172,0
523.9770000000008,-5.467945811687969e-05,-0.00011511211050674319,-0.00014091988850850612,0.0,0.0,0.0,0.0,0.0008716387092135847,0.0021161253098398447,0.0020714481361210346,1.00144624710083,0.0,0.0,0.0,0.1224096268415451,5.6751837730407715,0.5618540644645691,-22.15638542175293,0
533.8730000000014,-3.0332771530083846e-06,-7.343987817876041e-05,-0.00012286737910471857,0.0,0.0,0.0,0.0,0.0008607411873526871,0.0026056014467030764,-0.0003988560347352177,0.9999616146087646,0.0,0.0,0.0,0.13437409698963165,5.684779167175293,0.5611282587051392,-24.321977615356445,0
543.7470000000012,-3.477545396890491e-05,-0.00010193558409810066,-0.00012147212692070752,0.0,0.0,0.0,0.0,-0.0024027274921536446,-0.0014869683654978871,-0.0006896177656017244,1.0006866455078125,0.0,0.0,0.0,0.1343928575515747,5.678689002990723,0.5662357211112976,-24.325374603271484,0
553.6410000000014,7.700466994720045e-06,-7.62401323299855e-05,-0.00010686457244446501,0.0,0.0,0.0,0.0,0.002093394985422492,0.0014116582460701466,-0.001560619450174272,1.0003044605255127,0.0,0.0,0.0,0.14110900461673737,5.69366979598999,0.5875909924507141,-25.5410099029541,0
563.5190000000002,-2.855517595889978e-05,-0.0001071855949703604,-0.00011089700274169445,0.0,0.0,0.0,0.0,-0.00142464239615947,-0.00555455544963479,4.806343713426031e-05,0.9998024106025696,0.0,0.0,0.0,0.14059051871299744,5.683407306671143,0.5831171274185181,-25.44716453552246,0
573.4130000000005,1.8045631804852746e-05,-7.969079888425767e-05,-9.98341929516755e-05,0.0,0.0,0.0,0.0,0.003374530700966716,0.0066581298597157,-0.003227842040359974,0.9993022084236145,0.0,0.0,0.0,0.1505506932735443,5.696477890014648,0.6020830273628235,-27.249977111816406,0
583.2930000000015,-9.026164480019361e-05,-5.098610927234404e-05,-0.00010716980614233762,0.0,0.0,0.0,0.0,-0.0007971879676915705,-3.969205863540992e-06,0.0021079261787235737,0.9996518492698669,0.0,0.0,0.0,0.14102205634117126,5.695573806762695,0.5636998414993286,-25.525272369384766,0
593.1900000000005,-6.516378925880417e-05,-6.00746861891821e-05,-0.00010409423703094944,0.0,0.0,0.0,0.0,0.0017621024744585156,0.006341565866023302,-0.006023429334163666,1.0017999410629272,0.0,0.0,0.0,0.13279786705970764,5.699701309204102,0.5650956034660339,-24.036678314208984,0
603.0660000000007,-0.000130787753732875,-5.642557516694069e-05,-0.00010040949564427137,0.0,0.0,0.0,0.0,-0.0013743636664003134,-0.006247913930565119,0.002666459884494543,0.9994545578956604,0.0,0.0,0.0,0.122477225959301,5.699154853820801,0.5369687080383301,-22.168621063232422,0
612.9580000000005,-9.241585212294012e-05,-5.5793687351979315e-05,-0.0001095625848392956,0.0,0.0,0.0,0.0,0.0020681663881987333,0.0028014418203383684,0.0004319037834648043,1.0010533332824707,0.0,0.0,0.0,0.11663918942213058,5.706307411193848,0.5462341904640198,-21.11192512512207,0
622.8370000000014,-0.00012066042108926922,-0.0001177636077045463,-0.00013482641952577978,0.0,0.0,0.0,0.0,-0.001460651750676334,0.0004636272497009486,-0.0018071728991344571,1.0003573894500732,0.0,0.0,0.0,0.1168207898736,5.692417144775391,0.5318499803543091,-21.144794464111328,0
632.7310000000016,-7.825704960850999e-05,-0.00010243093129247427,-0.00013557977217715234,0.0,0.0,0.0,0.0,-0.0027358762454241514,-0.0018594423308968544,-0.0022869245149195194,0.9990621209144592,0.0,0.0,0.0,0.12791849672794342,5.701498508453369,0.5330142378807068,-23.153501510620117,0
642.6110000000008,-5.513909491128288e-05,-0.00017600067076273263,-0.0001348081132164225,0.0,0.0,0.0,0.0,-0.0016147545538842678,0.0015239020576700568,-0.0026223501190543175,1.0007833242416382,0.0,0.0,0.0,0.1282135248184204,5.699437618255615,0.528684139251709,-23.20690155029297,0
652.509,-1.305658406636212e-05,-0.00017091455811168998,-0.00014125052257440984,0.0,0.0,0.0,0.0,-0.0009325522114522755,-0.0016170088201761246,0.002034758450463414,0.9998420476913452,0.0,0.0,0.0,0.11866258084774017,5.708074569702148,0.5340400338172913,-21.47816276550293,0
662.3920000000016,-0.00011269577225903049,-0.00016783925821073353,-0.00015931496454868466,0.0,0.0,0.0,0.0,0.0002216604771092534,-0.006751787383109331,0.0007652259664610028,1.001222848892212,0.0,0.0,0.0,0.1119893342256546,5.714603424072266,0.5243044495582581,-20.27029037475586,0
672.2830000000013,-5.7099052355624735e-05,-0.00010425873915664852,-0.0001411401608493179,0.0,0.0,0.0,0.0,0.002756371395662427,0.0014326670207083225,0.0014521739212796092,0.9994001388549805,0.0,0.0,0.0,0.12843313813209534,5.732051372528076,0.5442670583724976,-23.246654510498047,0
682.1660000000011,-6.593566649826244e-05,-0.000147154918522574,-0.00013469009718392044,0.0,0.0,0.0,0.0,-0.0036714263260364532,-0.004214942920953035,0.0011903588892892003,0.9972386360168457,0.0,0.0,0.0,0.12848910689353943,5.721963405609131,0.529742419719696,-23.256786346435547,0
692.0510000000013,-4.4235752284293994e-05,-0.000148992141475901,-0.00013093456800561398,0.0,0.0,0.0,0.0,-0.0005925080622546375,0.0009406119934283197,-0.001037885551340878,0.9976540207862854,0.0,0.0,0.0,0.14008446037769318,5.732034206390381,0.5463561415672302,-25.355567932128906,0
701.9280000000017,-0.0001256390241906047,-0.0001652491046115756,-0.0001514605974080041,0.0,0.0,0.0,0.0,0.0003410369099583477,4.565322888083756e-05,0.0007373206317424774,0.9984361529350281,0.0,0.0,0.0,0.13021697103977203,5.73472785949707,0.5366719365119934,-23.569530487060547,0
711.8260000000009,-6.71767265885137e-05,-0.00010018465400207788,-0.00015486966003663838,0.0,0.0,0.0,0.0,-0.0011851972667500377,0.0005411304300650954,0.0006731361499987543,0.9980564117431641,0.0,0.0,0.0,0.14197419583797455,5.749462127685547,0.549798309803009,-25.69761085510254,0
721.7010000000009,-7.96908134361729e-05,-0.0001311001251451671,-0.00014790873683523387,0.0,0.0,0.0,0.0,0.0016803595935925841,-0.0013210615143179893,0.00013899404439143836,0.999386727809906,0.0,0.0,0.0,0.14277485013008118,5.744785785675049,0.5416920185089111,-25.842533111572266,0
731.603000000001,-4.63450160168577e-05,-9.164941729977727e-05,-0.00013794841652270406,0.0,0.0,0.0,0.0,0.0007713066879659891,0.0014092102646827698,-0.0009195718448609114,0.9991647601127625,0.0,0.0,0.0,0.15182937681674957,5.753715515136719,0.5482516288757324,-27.481420516967773,0
741.4770000000008,-0.00012990078539587557,-0.00011052620538976043,-0.0001677057589404285,0.0,0.0,0.0,0.0,0.001659747795201838,0.0021425357554107904,0.00026728733791969717,1.0002633333206177,0.0,0.0,0.0,0.14325319230556488,5.747698783874512,0.5326107740402222,-25.929113388061523,0
751.3680000000004,-8.200251613743603e-05,-4.762251046486199e-05,-0.00016764442261774093,0.0,0.0,0.0,0.0,-0.0029679241124540567,0.0012266684789210558,0.003548760898411274,1.001729965209961,0.0,0.0,0.0,0.15423519909381866,5.758481979370117,0.5338729619979858,-27.916879653930664,0
761.2470000000012,-6.849259079899639e-05,-9.10610833670944e-05,-0.00015340432582888752,0.0,0.0,0.0,0.0,0.003520307596772909,-0.006352230440825224,0.002532991347834468,1.001363754272461,0.0,0.0,0.0,0.1459614485502243,5.7596306800842285,0.5320386290550232,-26.4193115234375,0
771.139000000001,-7.282701699296013e-05,-0.00010881425987463444,-0.0001377251755911857,0.0,0.0,0.0,0.0,0.0026239657308906317,-0.0014624169562011957,-0.003108466509729624,1.0007447004318237,0.0,0.0,0.0,0.15738990902900696,5.754076957702637,0.5377780795097351,-28.48788833618164,0
781.0200000000004,-7.016086601652205e-05,-0.00017557927640154958,-0.00014520494733005762,0.0,0.0,0.0,0.0,-0.0001656984823057428,0.0048760618083179,0.00036608907976187766,0.9998664855957031,0.0,0.0,0.0,0.14893989264965057,5.741602897644043,0.5352285504341125,-26.95841407775879,0
790.9100000000017,-8.38251507957466e-05,-0.0001898925402201712,-0.0001046170000336133,0.0,0.0,0.0,0.0,-0.0030605504289269447,0.0009461453300900757,0.0019652436021715403,0.9994363784790039,0.0,0.0,0.0,0.16133634746074677,5.74014949798584,0.5264529585838318,-29.202198028564453,0
800.7920000000013,-9.405518358107656e-05,-0.00023610235075466335,-9.80867916950956e-05,0.0,0.0,0.0,0.0,0.0003155553713440895,-0.0021552173420786858,-0.0002120623830705881,1.0007590055465698,0.0,0.0,0.0,0.1534668654203415,5.737650394439697,0.5189277529716492,-27.777807235717773,0
810.6790000000001,-4.888794501312077e-05,-0.00018925110634882003,-9.968363883672282e-05,0.0,0.0,0.0,0.0,0.00251404894515872,0.0011990772327408195,-0.0012615695595741272,0.9994184374809265,0.0,0.0,0.0,0.1670118123292923,5.753025531768799,0.5342695116996765,-30.22947120666504,0
820.5640000000003,-7.137712964322418e-05,-0.00023559339751955122,-0.00010500206553842872,0.0,0.0,0.0,0.0,0.0009307190193794668,-0.0025023825000971556,-0.0024026057217270136,0.9993511438369751,0.0,0.0,0.0,0.16617049276828766,5.74545431137085,0.5287652015686035,-30.07718849182129,0
830.4520000000011,-3.001176537509309e-06,-0.00014333997387439013,-0.0001009641564451158,0.0,0.0,0.0,0.0,-0.0014889069134369493,-0.005847407039254904,-5.056718873674981e-05,1.0005921125411987,0.0,0.0,0.0,0.1657416820526123,5.73809289932251,0.5317504405975342,-29.99957275390625,0
840.3380000000016,-7.109585567377508e-05,-0.00015060781151987612,-0.00010788588406285271,0.0,0.0,0.0,0.0,-0.0016326525947079062,0.0009165865485556424,-0.00036579128936864436,1.0000578165054321,0.0,0.0,0.0,0.1659214347600937,5.736559867858887,0.5441176891326904,-30.03211212158203,0
850.2300000000014,9.349130777991377e-06,-6.0207516071386635e-05,-0.00013466250675264746,0.0,0.0,0.0,0.0,-9.480850712861866e-05,0.0006702147657051682,-0.00020769450929947197,0.9995761513710022,0.0,0.0,0.0,0.16567346453666687,5.736438751220703,0.5437440276145935,-29.987228393554688,0
860.1190000000006,-2.8361309887259267e-05,-7.871104753576219e-05,-0.0001426914386684075,0.0,0.0,0.0,0.0,-0.00022153827012516558,0.003995637875050306,0.0002459318784531206,1.0010522603988647,0.0,0.0,0.0,0.15852543711662292,5.736828327178955,0.5392060279846191,-28.69342041015625,0
870.0030000000006,9.544628483126871e-06,-2.6711732061812654e-05,-0.0001318762660957873,0.0,0.0,0.0,0.0,0.0006226454279385507,0.0016152625903487206,-0.0004516183980740607,0.9990207552909851,0.0,0.0,0.0,0.1525833159685135,5.749260425567627,0.5361640453338623,-27.61788558959961,0
879.884,-1.9172859538230114e-05,-5.612058885162696e-05,-0.00014282460324466228,0.0,0.0,0.0,0.0,0.0022619073279201984,-0.0018413368379697204,0.003716601524502039,0.9979115724563599,0.0,0.0,0.0,0.14514492452144623,5.746126174926758,0.5186371207237244,-26.27151870727539,0
889.7690000000002,-1.847985913627781e-06,-3.111760815954767e-05,-0.0001235899399034679,0.0,0.0,0.0,0.0,0.000551053206436336,-0.003548800013959408,-0.003594143083319068,1.0002394914627075,0.0,0.0,0.0,0.15831372141838074,5.74675989151001,0.523063063621521,-28.655099868774414,0
899.6570000000011,-7.958937931107357e-05,-5.564091770793311e-05,-0.00016202779079321772,0.0,0.0,0.0,0.0,-0.0034493254497647285,0.0011386631522327662,-0.0006991910049691796,0.9995306730270386,0.0,0.0,0.0,0.1505734920501709,5.740801811218262,0.5224139094352722,-27.254100799560547,0
909.5460000000003,-8.180609438568354e-05,-6.170665437821299e-05,-0.00015389040345326066,0.0,0.0,0.0,0.0,-0.0016561112133786082,0.001160384970717132,-0.002455283422023058,0.9987887144088745,0.0,0.0,0.0,0.1657325178384781,5.745055198669434,0.5275762677192688,-29.997915267944336,0
919.4300000000003,-8.190416701836511e-05,-9.91423730738461e-05,-0.00015154170978348702,0.0,0.0,0.0,0.0,-0.0014971968485042453,0.003517253790050745,-0.0001666542375460267,0.9994848966598511,0.0,0.0,0.0,0.15940500795841217,5.737335205078125,0.5248107314109802,-28.852622985839844,0
929.3210000000017,-5.924285505898297e-05,-5.3632316848961636e-05,-0.00013776372361462563,0.0,0.0,0.0,0.0,0.0007690408965572715,-0.004167064558714628,0.0005145088653080165,0.9996460676193237,0.0,0.0,0.0,0.16827738285064697,5.747078895568848,0.5262020230293274,-30.458539962768555,0
939.2130000000016,-0.00013615340867545456,-7.66491430113092e-05,-0.00017298328748438507,0.0,0.0,0.0,0.0,-0.001836853683926165,-0.0014248696388676763,0.0018849006155505776,0.9967823028564453,0.0,0.0,0.0,0.16844923794269562,5.741865634918213,0.5335993766784668,-30.489648818969727,0
949.0930000000008,-0.00015214314043987542,-8.160099969245493e-05,-0.0001571860775584355,0.0,0.0,0.0,0.0,-0.00133279908914119,-0.0004096768971066922,-0.0005836411146447062,0.9999114274978638,0.0,0.0,0.0,0.15841223299503326,5.743515491485596,0.5378124713897705,-28.672929763793945,0
958.973,-0.0001768963411450386,-0.00012210890417918563,-0.00017043501429725438,0.0,0.0,0.0,0.0,0.002856789156794548,-0.0007982212700881064,-0.004197165369987488,0.999228835105896,0.0,0.0,0.0,0.15076954662799835,5.740508556365967,0.5383146405220032,-27.289588928222656,0
968.8600000000006,-0.0001854208530858159,-0.00010755225957836956,-0.0001488249545218423,0.0,0.0,0.0,0.0,0.0009755334467627108,0.003395599778741598,-9.693967876955867e-05,0.9988470077514648,0.0,0.0,0.0,0.14920876920223236,5.731335163116455,0.5357002019882202,-27.007081985473633,0
978.7480000000014,-0.0001499814970884472,-0.00015754697960801423,-0.00012846272147726268,0.0,0.0,0.0,0.0,0.0014108519535511732,-0.0010720875579863787,-0.00012994608550798148,1.000645637512207,0.0,0.0,0.0,0.14268359541893005,5.725644588470459,0.5488580465316772,-25.826017379760742,0
988.6320000000014,-0.00012296324712224305,-0.00012221458018757403,-0.00013945854152552783,0.0,0.0,0.0,0.0,0.002658794168382883,0.005270036868751049,0.00024183362256735563,0.9990932941436768,0.0,0.0,0.0,0.15607307851314545,5.73045539855957,0.5507136583328247,-28.24953842163086,0
998.5190000000002,-0.00010951550939353183,-0.00019303183944430202,-0.0001500502257840708,0.0,0.0,0.0,0.0,-0.0009960237657651305,0.0018571483669802547,0.0014982059365138412,0.9998750686645508,0.0,0.0,0.0,0.14978939294815063,5.707441806793213,0.5402960777282715,-27.112178802490234,0
1008.4060000000009,-6.056632264517248e-05,-0.00011158626875840127,-0.00014603656018152833,0.0,0.0,0.0,0.0,0.0020316150039434433,-0.0015065355692058802,0.00334405479952693,0.9997441172599792,0.0,0.0,0.0,0.14981599152088165,5.7044243812561035,0.5317409038543701,-27.11699104309082,0
1018.2910000000011,-6.117983866715804e-05,-0.00016514310846105218,-0.0001573571062181145,0.0,0.0,0.0,0.0,-0.0005103576113469899,0.002164807403460145,-0.0017045475542545319,0.9989846348762512,0.0,0.0,0.0,0.14371927082538605,5.691542625427246,0.5362972617149353,-26.01347541809082,0
1028.1800000000003,-4.52958483947441e-05,-0.0001381254696752876,-0.00015347036242019385,0.0,0.0,0.0,0.0,-0.00010753132664831355,-0.0016415414866060019,0.0015723102260380983,1.000171422958374,0.0,0.0,0.0,0.15764270722866058,5.692112445831299,0.545649528503418,-28.53364372253418,0
1038.0650000000005,-0.00015146585064940155,-0.0001305480400333181,-0.00018470449140295386,0.0,0.0,0.0,0.0,0.0008061349508352578,0.0032325098291039467,-0.0003136383311357349,0.9976077675819397,0.0,0.0,0.0,0.149369016289711,5.695505619049072,0.534599244594574,-27.036088943481445,0
1047.9500000000007,-0.00012610561680048704,-9.191204298986122e-05,-0.00019843170593958348,0.0,0.0,0.0,0.0,-0.002699854550883174,-0.009018072858452797,-0.0005770599818788469,1.000438928604126,0.0,0.0,0.0,0.1634468138217926,5.7020416259765625,0.5356101989746094,-29.584197998046875,0
1057.844000000001,-0.0001667277392698452,-0.00012023632734781131,-0.00021856279636267573,0.0,0.0,0.0,0.0,0.0013335413532331586,-0.0026053343899548054,0.003447567578405142,1.0016003847122192,0.0,0.0,0.0,0.16342832148075104,5.705755233764648,0.5507495999336243,-29.58085060119629,0
1067.7290000000012,-0.00012840247654821724,-5.342259828466922e-05,-0.00021894469682592899,0.0,0.0,0.0,0.0,-0.0027782111428678036,0.004504306707531214,0.0004868347605224699,1.0009386539459229,0.0,0.0,0.0,0.17023685574531555,5.7169084548950195,0.5687742233276367,-30.81321144104004,0
1077.6100000000006,-0.00018691536388359964,-4.1786574001889676e-05,-0.00021378045494202524,0.0,0.0,0.0,0.0,-0.001260373624972999,0.0014978082617744803,0.00029142547282390296,1.0013941526412964,0.0,0.0,0.0,0.16999506950378418,5.716776371002197,0.5605520606040955,-30.76944351196289,0
1087.4980000000014,-0.00015588451060466468,1.0080419087898917e-05,-0.0002197784633608535,0.0,0.0,0.0,0.0,0.00047186363372020423,0.0030393910128623247,0.0034517592284828424,1.0005536079406738,0.0,0.0,0.0,0.16949863731861115,5.7103495597839355,0.5630971789360046,-30.67959213256836,0
1097.393,-0.00011722312774509192,1.113412236009026e-05,-0.0002369754365645349,0.0,0.0,0.0,0.0,-0.000479331414680928,-0.0036405271384865046,-0.0009698306676000357,1.0047067403793335,0.0,0.0,0.0,0.16457395255565643,5.694075107574463,0.5628589391708374,-29.7882137298584,0
1107.2690000000002,-0.00013691991625819355,-1.8942813767353073e-05,-0.00023632729426026344,0.0,0.0,0.0,0.0,-0.0009559923782944679,-0.007567412219941616,-0.0002199310256401077,1.0002449750900269,0.0,0.0,0.0,0.1640738993883133,5.693058013916016,0.5742153525352478,-29.697704315185547,0
1117.1550000000007,-0.0001706183684291318,-6.31977673037909e-05,-0.000251180084887892,0.0,0.0,0.0,0.0,-0.0010593573097139597,-0.0013731434009969234,-0.002747909165918827,1.00102698802948,0.0,0.0,0.0,0.15854154527187347,5.688831806182861,0.5926204323768616,-28.696334838867188,0
1127.041000000001,-0.00015455624088644981,-4.644914224627428e-05,-0.0002532968937885016,0.0,0.0,0.0,0.0,-0.0004813024715986103,-0.0006728994776494801,-0.0020894622430205345,1.0004757642745972,0.0,0.0,0.0,0.15840400755405426,5.687735557556152,0.597069501876831,-28.67144203186035,0
1136.929,-0.0001044335585902445,-0.0001359232555842027,-0.00024797586956992745,0.0,0.0,0.0,0.0,-0.0014139370759949088,-0.0020158174447715282,0.0008717105956748128,0.9980341196060181,0.0,0.0,0.0,0.1513734757900238,5.670983791351318,0.6078850030899048,-27.398902893066406,0
1146.8140000000003,-6.728054722771049e-05,-7.204740541055799e-05,-0.00022233826166484505,0.0,0.0,0.0,0.0,0.003052238142117858,-0.004181340802460909,0.002733819652348757,1.0000813007354736,0.0,0.0,0.0,0.16618242859840393,5.687343120574951,0.6172746419906616,-30.079349517822266,0
1156.7060000000001,-4.7774086851859465e-05,-0.0001307352795265615,-0.0002167724014725536,0.0,0.0,0.0,0.0,0.0017170844366773963,0.005517297424376011,7.961160008562729e-05,0.9999902248382568,0.0,0.0,0.0,0.15618138015270233,5.675305366516113,0.622882068157196,-28.269140243530273,0
1166.5900000000001,-1.9969709683209658e-05,-0.00010573041799943894,-0.0002062400890281424,0.0,0.0,0.0,0.0,0.0017234557308256626,0.004489685408771038,-0.000757216417696327,0.9992530345916748,0.0,0.0,0.0,0.15638130903244019,5.667377471923828,0.6072620153427124,-28.305328369140625,0
1176.473,-4.926047404296696e-05,-9.945616329787299e-05,-0.0001826020743465051,0.0,0.0,0.0,0.0,-0.0012708742870017886,-0.0034517969470471144,0.003131634322926402,1.0009430646896362,0.0,0.0,0.0,0.14704777300357819,5.666210174560547,0.5922442078590393,-26.615938186645508,0
1186.3590000000004,-2.0506988221313804e-05,-6.27551635261625e-05,-0.0001608894526725635,0.0,0.0,0.0,0.0,-0.0023136509116739035,0.0017756493762135506,0.0012942006578668952,1.0017826557159424,0.0,0.0,0.0,0.1549876630306244,5.680749893188477,0.6126261949539185,-28.053075790405273,0
1196.264000000001,-1.5592626368743367e-05,-4.353848271421157e-05,-0.00014549092156812549,0.0,0.0,0.0,0.0,-0.0006272958707995713,0.0010771221714094281,-0.0012309339363127947,1.0004587173461914,0.0,0.0,0.0,0.14830848574638367,5.684241771697998,0.6148936748504639,-26.84412956237793,0
1206.1320000000014,-1.737152888381388e-05,-7.563552935607731e-05,-0.00013401301112025976,0.0,0.0,0.0,0.0,-0.0018363420385867357,-0.0020005470141768456,0.003215325064957142,0.9988822340965271,0.0,0.0,0.0,0.14806045591831207,5.681386947631836,0.6167099475860596,-26.799238204956055,0
1216.0240000000013,-0.00010101523366756737,-9.390403283759952e-05,-0.00016609719023108482,0.0,0.0,0.0,0.0,0.0018318739021196961,7.2279799496755e-05,0.0019527289550751448,0.9987419843673706,0.0,0.0,0.0,0.14266298711299896,5.67965841293335,0.5999926924705505,-25.822284698486328,0
1225.9090000000015,-5.188501745578833e-05,-3.151905184495263e-05,-0.00013715578825213015,0.0,0.0,0.0,0.0,-0.0008034739294089377,0.0009361824486404657,0.0008299049222841859,0.9978207349777222,0.0,0.0,0.0,0.1351514458656311,5.672688961029053,0.594438374042511,-24.462682723999023,0
1235.8120000000017,-3.4451331885065883e-05,-3.116243169642985e-05,-0.00012815774243790656,0.0,0.0,0.0,0.0,-0.0010095916222780943,0.00233146408572793,0.00019843225891236216,0.9993330240249634,0.0,0.0,0.0,0.13491113483905792,5.668693542480469,0.5932454466819763,-24.4191837310791,0
1245.679,-3.785609078477137e-05,-8.898113446775824e-05,-0.00014104995352681726,0.0,0.0,0.0,0.0,-0.0007146865827962756,0.004254318308085203,-0.0010524012614041567,1.0004708766937256,0.0,0.0,0.0,0.12776118516921997,5.662292003631592,0.5941623449325562,-23.125028610229492,0
1255.5640000000003,-4.1375391447218135e-05,-0.00012600753689184785,-0.00013569409202318639,0.0,0.0,0.0,0.0,0.0010917872423306108,0.005532110575586557,0.0002984737220685929,0.9998300075531006,0.0,0.0,0.0,0.12809446454048157,5.656155586242676,0.5873546600341797,-23.18535041809082,0
1265.451000000001,-4.96375396323856e-05,-9.095662244362757e-05,-0.0001311927189817652,0.0,0.0,0.0,0.0,-0.002684496808797121,0.0011244580382481217,-0.000154810884851031,1.0001591444015503,0.0,0.0,0.0,0.11953381448984146,5.657792568206787,0.5853625535964966,-21.63585662841797,0
1275.3380000000016,-5.3216655942378566e-05,-0.00012882887676823884,-0.00012474598770495504,0.0,0.0,0.0,0.0,0.001417678315192461,-0.0003528301604092121,-0.0008833654574118555,0.9994568824768066,0.0,0.0,0.0,0.11978209018707275,5.6563005447387695,0.5880143046379089,-21.680797576904297,0
1285.232,-9.929689986165613e-05,-9.619392949389294e-05,-0.00013934800517745316,0.0,0.0,0.0,0.0,0.0009908200008794665,-0.007382540497928858,-0.0023836821783334017,0.9968529343605042,0.0,0.0,0.0,0.11151277273893356,5.661250591278076,0.6000872850418091,-20.18403434753418,0
1295.1190000000006,-0.00010564530384726822,-0.00013200224202591926,-0.00013671463239006698,0.0,0.0,0.0,0.0,0.0005729592521674931,-0.0002080002159345895,0.0011284484062343836,0.9971851110458374,0.0,0.0,0.0,0.11135866492986679,5.658431529998779,0.6148277521133423,-20.156139373779297,0
1304.996000000001,-0.00014587676560040563,-1.888902988866903e-05,-0.00015381109551526606,0.0,0.0,0.0,0.0,-0.0008317793835885823,0.003489883616566658,0.0017922284314408898,1.0003516674041748,0.0,0.0,0.0,0.12429247051477432,5.671941757202148,0.6250341534614563,-22.497182846069336,0
1314.884,-0.0001532353344373405,-5.106846583657898e-05,-0.00015539382002316415,0.0,0.0,0.0,0.0,-0.0004860161861870438,0.004120503552258015,0.00019482184143271297,1.000622272491455,0.0,0.0,0.0,0.12492799758911133,5.666038513183594,0.6166346669197083,-22.612215042114258,0
1324.7690000000002,-6.485550693469122e-05,-3.0774306651437655e-05,-0.00014924487913958728,0.0,0.0,0.0,0.0,-0.0022250653710216284,-0.004889016505330801,-0.0009558146120980382,1.0007011890411377,0.0,0.0,0.0,0.12636035680770874,5.668907642364502,0.6182969212532043,-22.871475219726562,0
1334.6550000000007,-6.916758138686419e-05,-6.493812543340027e-05,-0.00014889377052895725,0.0,0.0,0.0,0.0,0.0004316627455409616,-0.001993261743336916,0.0006272289901971817,1.0003595352172852,0.0,0.0,0.0,0.1259530484676361,5.667829990386963,0.6226809620857239,-22.797752380371094,0
1344.5430000000015,-0.0001243013102794066,8.294626240967773e-06,-0.00015670030552428216,0.0,0.0,0.0,0.0,0.0004285413888283074,0.0022657988592982292,0.00038796867011114955,0.9989778399467468,0.0,0.0,0.0,0.13050615787506104,5.6796555519104,0.6167969703674316,-23.62187385559082,0
1354.4310000000005,-0.0001312417589360848,-2.6625149985193275e-05,-0.00015642358630429953,0.0,0.0,0.0,0.0,-0.0008979444392025471,-0.0012955238344147801,-0.002052786061540246,1.0007392168045044,0.0,0.0,0.0,0.13066531717777252,5.674188137054443,0.6109837293624878,-23.650684356689453,0
1364.3200000000015,-0.00012137478188378736,-2.027715163421817e-05,-0.00018156734586227685,0.0,0.0,0.0,0.0,0.0032153381034731865,-0.00041277380660176277,-9.430206409888342e-05,1.001945972442627,0.0,0.0,0.0,0.1388239860534668,5.682126998901367,0.6148388385772705,-25.127418518066406,0
1374.2000000000007,-0.00012716760102193803,-5.785477696917951e-05,-0.00018142095359507948,0.0,0.0,0.0,0.0,-0.00013304701133165509,-0.0005520065897144377,-0.00012427054753061384,0.9996606111526489,0.0,0.0,0.0,0.13894052803516388,5.673689365386963,0.6140105724334717,-25.14851188659668,0
1384.0870000000014,-0.00014240213204175234,-6.794941145926714e-05,-0.00019067982793785632,0.0,0.0,0.0,0.0,0.0010664897272363305,0.0017880757804960012,0.0014893478946760297,1.0008713006973267,0.0,0.0,0.0,0.14182811975479126,5.6751532554626465,0.607468843460083,-25.671173095703125,0
1393.9720000000016,-0.00015135834109969437,-0.00010511610889807343,-0.00018973692203871906,0.0,0.0,0.0,0.0,0.0015508991200476885,9.348728053737432e-05,-0.0008746480452828109,1.0007253885269165,0.0,0.0,0.0,0.14336246252059937,5.667954921722412,0.610647976398468,-25.948890686035156,0
1403.862000000001,-9.808649338083342e-05,-7.332817767746747e-05,-0.00016220533871091902,0.0,0.0,0.0,0.0,0.0015604760264977813,0.00500487769022584,0.0006340253166854382,1.0020833015441895,0.0,0.0,0.0,0.15339669585227966,5.675452709197998,0.6204054355621338,-27.765106201171875,0
1413.7450000000008,-0.00010624653077684343,-0.0001088308054022491,-0.0001565770071465522,0.0,0.0,0.0,0.0,-0.0017266017384827137,0.00034676797804422677,0.0004774609114974737,1.0010946989059448,0.0,0.0,0.0,0.15316887199878693,5.66680908203125,0.611321210861206,-27.723873138427734,0
1423.6320000000014,-0.00010620201646815985,-0.00012758697266690433,-8.782276563579217e-05,0.0,0.0,0.0,0.0,0.0018364404095336795,0.00194920611102134,-0.0017406600527465343,0.9991246461868286,0.0,0.0,0.0,0.15962862968444824,5.6689863204956055,0.6222960352897644,-28.893096923828125,0
1433.518,-0.00011670881212921813,-0.00016627859440632164,-7.585556159028783e-05,0.0,0.0,0.0,0.0,6.388094789144816e-06,0.004700103774666786,0.002050163224339485,0.9997690916061401,0.0,0.0,0.0,0.1585882604122162,5.656274795532227,0.6115514039993286,-28.704792022705078,0
1443.4080000000013,-0.00020254388800822198,-9.58864256972447e-05,-5.728297037421726e-05,0.0,0.0,0.0,0.0,-0.0007367426296696067,-0.0060678692534565926,1.8981058019562624e-05,1.0013231039047241,0.0,0.0,0.0,0.1651858687400818,5.674139499664307,0.5909411907196045,-29.898971557617188,0
1453.291000000001,-0.0002173840330215171,-0.00013321152073331177,-4.377291406854056e-05,0.0,0.0,0.0,0.0,0.0010459149489179254,0.0041747731156647205,-0.0016525849932804704,1.000900149345398,0.0,0.0,0.0,0.164897158741951,5.670466423034668,0.5938838720321655,-29.846715927124023,0
1463.1770000000015,-0.00016520061763003469,-8.888194861356169e-05,-0.00010247265890939161,0.0,0.0,0.0,0.0,0.0031833117827773094,0.003076795255765319,0.0020877940114587545,1.0015066862106323,0.0,0.0,0.0,0.16442734003067017,5.661224365234375,0.5804986357688904,-29.761676788330078,0
1473.063,-0.00017955951625481248,-0.00012867810437455773,-9.164987568510696e-05,0.0,0.0,0.0,0.0,-0.0015828929608687758,-0.001408532727509737,-0.0002407433930784464,1.0033645629882812,0.0,0.0,0.0,0.16502568125724792,5.651499271392822,0.5777612328529358,-29.869977951049805,0
1482.9500000000007,-0.00013817554281558841,-8.392099698539823e-05,-0.00011381131480447948,0.0,0.0,0.0,0.0,-0.0017108968459069729,-0.00011790607823058963,0.002028099959716201,0.9995974898338318,0.0,0.0,0.0,0.16928991675376892,5.664535999298096,0.5984142422676086,-30.64181137084961,0
1492.8360000000011,-0.00015170070400927216,-0.00012153986608609557,-0.00010138700599782169,0.0,0.0,0.0,0.0,0.0016079209744930267,0.004605071619153023,0.0027479715645313263,1.0001718997955322,0.0,0.0,0.0,0.16896677017211914,5.665304660797119,0.5969918966293335,-30.583322525024414,0
1502.7220000000016,-0.00010215314978267998,-2.0677125576185063e-05,-0.0001918527705129236,0.0,0.0,0.0,0.0,-0.0032920371741056442,0.0003242354141548276,-0.0010786550119519234,1.0004647970199585,0.0,0.0,0.0,0.15774762630462646,5.682806968688965,0.5986897945404053,-28.55263328552246,0
1512.6180000000004,-0.00011102821736130863,-5.421391688287258e-05,-0.00018665564130060375,0.0,0.0,0.0,0.0,-0.00042840177775360644,0.0014171939110383391,-0.0027423501014709473,0.9996692538261414,0.0,0.0,0.0,0.15722310543060303,5.681241035461426,0.5969697833061218,-28.45769500732422,0
1522.4950000000008,-9.554097050568089e-05,5.89123510508216e-06,-0.00022215649369172752,0.0,0.0,0.0,0.0,-0.0012041362933814526,0.0015362657140940428,-0.00042531685903668404,1.0013155937194824,0.0,0.0,0.0,0.14330743253231049,5.6982102394104,0.5975556969642639,-25.938928604125977,0
1532.3810000000012,-0.00010369239316787571,-2.46739018621156e-05,-0.0002191395906265825,0.0,0.0,0.0,0.0,-0.0005501490668393672,-0.0008186767809092999,0.0014185881009325385,1.0032625198364258,0.0,0.0,0.0,0.142969012260437,5.693649768829346,0.5928847193717957,-25.87767791748047,0
1542.268,-1.37303350129514e-05,-2.3332175260293297e-05,-0.0002344836830161512,0.0,0.0,0.0,0.0,-0.0027471990324556828,-0.0003194913442712277,0.002353135496377945,1.0019927024841309,0.0,0.0,0.0,0.14429816603660583,5.694492340087891,0.609340488910675,-26.118253707885742,0
1552.1550000000007,-1.8474922399036586e-05,-5.714937287848443e-05,-0.00022814597468823195,0.0,0.0,0.0,0.0,-0.0006145119550637901,-0.002939690835773945,-0.0007610644097439945,0.9993370771408081,0.0,0.0,0.0,0.1445605307817459,5.692203044891357,0.6075155735015869,-26.165742874145508,0
1562.0480000000007,-4.396761141833849e-06,-5.9873036661883816e-05,-0.00020817818585783243,0.0,0.0,0.0,0.0,-0.001790878945030272,0.0011218670988455415,0.00218939664773643,1.001125693321228,0.0,0.0,0.0,0.14648982882499695,5.697688102722168,0.6208853721618652,-26.514951705932617,0
1571.933000000001,1.441148833691841e-05,-3.917550930054858e-05,-0.00018158115562982857,0.0,0.0,0.0,0.0,0.0019474594155326486,0.003607420017942786,0.000755205110181123,1.0006519556045532,0.0,0.0,0.0,0.15619467198848724,5.709254741668701,0.6239737868309021,-28.271547317504883,0
1581.813,-1.9353803509147838e-05,-0.00010604847921058536,-0.00019979373610112816,0.0,0.0,0.0,0.0,-0.0011006381828337908,-0.006805851124227047,0.0030289862770587206,1.0002774000167847,0.0,0.0,0.0,0.1488071084022522,5.700954437255859,0.6144318580627441,-26.934383392333984,0
1591.7000000000007,-8.615287697466556e-06,-7.201861444627866e-05,-0.0001822733029257506,0.0,0.0,0.0,0.0,-0.001421630964614451,-0.002353597665205598,-0.003307322971522808,1.0015428066253662,0.0,0.0,0.0,0.1488071084022522,5.700954437255859,0.6144318580627441,-26.934383392333984,0
1601.5930000000008,-0.00010976007615681738,-8.039124077185988e-05,-0.0001998020597966388,0.0,0.0,0.0,0.0,-0.0015013250522315502,-0.0022428089287132025,0.0009188845288008451,0.9986633658409119,0.0,0.0,0.0,0.15039153397083282,5.693395137786865,0.6103771328926086,-27.221166610717773,0
1611.4830000000002,-0.00012047924974467605,-0.00012248933489900082,-0.0001898979680845514,0.0,0.0,0.0,0.0,0.0019000843167304993,0.0007903407677076757,0.0006663560634478927,0.9999788403511047,0.0,0.0,0.0,0.1492738425731659,5.689786911010742,0.6119005084037781,-27.018863677978516,0
1621.3590000000004,-8.613195677753538e-05,-8.547351171728224e-05,-0.00016325421165674925,0.0,0.0,0.0,0.0,0.0006373720243573189,-0.0008454553899355233,-0.0020011402666568756,0.998583972454071,0.0,0.0,0.0,0.15961529314517975,5.700007438659668,0.6161225438117981,-28.890684127807617,0
1631.2490000000016,-5.164293907000683e-05,-5.932039493927732e-05,-0.00015619264740962535,0.0,0.0,0.0,0.0,0.0018340699607506394,0.004464863799512386,-0.0018809245666489005,0.9998567700386047,0.0,0.0,0.0,0.1590230017900467,5.692941188812256,0.6155828833580017,-28.783479690551758,0
1641.1350000000002,-6.812613719375804e-05,-9.148692333837971e-05,-0.0001389277895214036,0.0,0.0,0.0,0.0,-0.002280108630657196,0.0023205180186778307,-0.0003971629776060581,1.000083088874817,0.0,0.0,0.0,0.15818233788013458,5.686397552490234,0.6212396621704102,-28.631319046020508,0
1651.0190000000002,-4.8350037104683e-05,-0.00012122669431846589,-0.0001210589543916285,0.0,0.0,0.0,0.0,-0.0007240500999614596,-0.0009874672396108508,0.002556238090619445,0.9989582896232605,0.0,0.0,0.0,0.15785250067710876,5.6724443435668945,0.5987984538078308,-28.571617126464844,0
1660.9040000000005,-7.603660196764395e-05,-0.00010574074258329347,-0.00012432903167791665,0.0,0.0,0.0,0.0,-0.0007932970765978098,-0.0015684786485508084,0.0011869691079482436,0.9992967844009399,0.0,0.0,0.0,0.15785250067710876,5.6724443435668945,0.5987984538078308,-28.571617126464844,0
1670.795,-0.00010943104280158877,-0.0001808239467209205,-6.907031638547778e-05,0.0,0.0,0.0,0.0,0.0014155760873109102,-0.00038578303065150976,0.0009495523991063237,1.002166986465454,0.0,0.0,0.0,0.16853675246238708,5.671786308288574,0.6035575866699219,-30.5054874420166,0
1680.6770000000015,-0.00013079566997475922,-0.00016193378542084247,-6.619441410293803e-05,0.0,0.0,0.0,0.0,0.0017877623904496431,0.0013329533394426107,-5.741946370108053e-05,1.0011675357818604,0.0,0.0,0.0,0.16277378797531128,5.675637245178223,0.5997955203056335,-29.462379455566406,0
1690.5660000000007,-9.248608694178984e-05,-0.00016350318037439138,-5.730018892791122e-05,0.0,0.0,0.0,0.0,-0.0004513234016485512,-0.00185641017742455,-0.0016476064920425415,0.9990422129631042,0.0,0.0,0.0,0.17306381464004517,5.682359218597412,0.6302884221076965,-31.32489585876465,0
1700.4560000000001,-0.00011161978909512982,-0.00015806502779014409,-6.321534601738676e-05,0.0,0.0,0.0,0.0,-0.002235742751508951,-0.0012833024375140667,0.0007519781356677413,0.9969032406806946,0.0,0.0,0.0,0.17306381464004517,5.682359218597412,0.6302884221076965,-31.32489585876465,0
1710.344000000001,-5.985491588944569e-05,-0.00013546395348384976,-4.9772403144743294e-05,0.0,0.0,0.0,0.0,-0.0005873680929653347,0.0023077838122844696,0.0027364781126379967,0.9983522295951843,0.0,0.0,0.0,0.18137338757514954,5.6956868171691895,0.650331437587738,-32.82894515991211,0
1720.2290000000012,-5.8125879149883986e-05,-0.0001663790608290583,-7.474033918697387e-05,0.0,0.0,0.0,0.0,0.0013302809093147516,0.0023351432755589485,-0.00045538079575635493,0.998309850692749,0.0,0.0,0.0,0.1747630387544632,5.689937114715576,0.649102509021759,-31.632457733154297,0
1730.1100000000006,-1.8266550796397496e-06,-0.00014470746100414544,-7.555322372354567e-05,0.0,0.0,0.0,0.0,-0.0007619314710609615,-0.0010968217393383384,-0.0032715380657464266,1.0004279613494873,0.0,0.0,0.0,0.18218161165714264,5.703206539154053,0.6595540046691895,-32.97523498535156,0
1739.9950000000008,-0.00010551363084232435,-0.00010728448978625238,-0.00011166593321831897,0.0,0.0,0.0,0.0,0.0011063582496717572,0.00047387892846018076,0.0024675000458955765,1.0029791593551636,0.0,0.0,0.0,0.18218161165714264,5.703206539154053,0.6595540046691895,-32.97523498535156,0
1749.8820000000014,-6.162490899441764e-05,-8.56013793963939e-05,-0.0001123403271776624,0.0,0.0,0.0,0.0,0.001233412534929812,-0.0001315239060204476,-0.0008092575590126216,1.0006166696548462,0.0,0.0,0.0,0.195627361536026,5.7150797843933105,0.6823861002922058,-35.40894317626953,0
1759.773000000001,-6.585216760868207e-05,-7.593681220896542e-05,-0.00010828684025909752,0.0,0.0,0.0,0.0,0.0014657762367278337,0.0030074415262788534,0.0009399849222972989,0.9982634782791138,0.0,0.0,0.0,0.18575088679790497,5.717723369598389,0.6797597408294678,-33.621280670166016,0
1769.657000000001,-3.5640623536892235e-05,-7.607187581015751e-05,-0.00010022131755249575,0.0,0.0,0.0,0.0,0.000962433812674135,-0.0002844537084456533,0.00237441249191761,0.9968544244766235,0.0,0.0,0.0,0.1967494636774063,5.720013618469238,0.6842150688171387,-35.61204147338867,0
1779.5420000000013,-4.400684338179417e-05,-7.566580461570993e-05,-0.00010591914906399325,0.0,0.0,0.0,0.0,-0.000842391571495682,0.00024206905800383538,-0.00035599805414676666,0.9985300302505493,0.0,0.0,0.0,0.18825139105319977,5.720656871795654,0.6812796592712402,-34.07387924194336,0
1789.4370000000017,-2.1690637368010357e-05,-9.337386291008443e-05,-0.00010185556311625987,0.0,0.0,0.0,0.0,-0.004743156488984823,-0.0022348740603774786,0.0005757127655670047,0.9996312260627747,0.0,0.0,0.0,0.1978316605091095,5.72298002243042,0.6980274319648743,-35.80792236328125,0
1799.313,-4.170267129666172e-05,-8.952193456934765e-05,-0.00011285689106443897,0.0,0.0,0.0,0.0,0.003552720881998539,0.0050184899009764194,0.0012848261976614594,0.9992936253547668,0.0,0.0,0.0,0.19211363792419434,5.72415828704834,0.6933573484420776,-34.772953033447266,0
1809.201000000001,1.0896087587752845e-05,-7.642101991223171e-05,-0.0001304390316363424,0.0,0.0,0.0,0.0,0.0021965056657791138,0.0018719462677836418,-0.0025831132661551237,1.0018761157989502,0.0,0.0,0.0,0.19224871695041656,5.704104900360107,0.6659473180770874,-34.797401428222656,0
1819.0860000000011,-8.783234079601243e-05,-5.180214793654159e-05,-0.0001771215902408585,0.0,0.0,0.0,0.0,0.0009866133332252502,-0.0017955685034394264,9.566739754518494e-05,1.001257061958313,0.0,0.0,0.0,0.18441468477249146,5.709340572357178,0.6475458145141602,-33.379425048828125,0
1828.973,-7.870983245084062e-05,-9.070341184269637e-05,-0.00019475653243716806,0.0,0.0,0.0,0.0,-0.0011569972848519683,-0.004773075692355633,0.00255138473585248,1.00034761428833,0.0,0.0,0.0,0.17754299938678741,5.7084808349609375,0.65289306640625,-32.13563537597656,0
1838.8590000000004,-0.00013587890134658664,-0.00012327410513535142,-0.00021391440532170236,0.0,0.0,0.0,0.0,-0.001367303542792797,-0.0025870625395327806,0.0018324283882975578,1.0010724067687988,0.0,0.0,0.0,0.17172089219093323,5.70324182510376,0.6522117853164673,-31.081823348999023,0
1848.746000000001,-0.00010812752589117736,-0.00010383045446360484,-0.0002178096037823707,0.0,0.0,0.0,0.0,-0.00028952088905498385,0.003748050658032298,-0.0028120737988501787,0.9996852278709412,0.0,0.0,0.0,0.17155349254608154,5.699574947357178,0.6481452584266663,-31.051523208618164,0
1858.634,-0.00014472559269052,-8.866219286574051e-05,-0.0002300786873092875,0.0,0.0,0.0,0.0,-0.000993143767118454,-0.0010241405107080936,0.0013963012024760246,0.9982114434242249,0.0,0.0,0.0,0.1642339825630188,5.702978134155273,0.6406823992729187,-29.72667694091797,0
1868.5190000000002,-0.00010877671593334526,-6.518547161249444e-05,-0.00022332806838676333,0.0,0.0,0.0,0.0,0.003621746087446809,-0.001053100568242371,0.0010823830962181091,0.9979327321052551,0.0,0.0,0.0,0.15608002245426178,5.714020729064941,0.6526942253112793,-28.250795364379883,0
1878.4100000000017,-9.054996917257085e-05,-9.368566679768264e-05,-0.00019645129214040935,0.0,0.0,0.0,0.0,5.62958957743831e-05,-0.001409071614034474,0.002364625222980976,1.0009669065475464,0.0,0.0,0.0,0.14643962681293488,5.708584308624268,0.6586796045303345,-26.5058650970459,0
1888.2930000000015,-0.00011872898176079616,-0.00012544234050437808,-0.00014642062888015062,0.0,0.0,0.0,0.0,0.001263427664525807,-0.0005057411035522819,0.0007914117304608226,1.0008046627044678,0.0,0.0,0.0,0.15978193283081055,5.7047200202941895,0.6636096835136414,-28.920848846435547,0
1898.1820000000007,-9.841868450166658e-05,-0.0001939937938004732,-0.00014473317423835397,0.0,0.0,0.0,0.0,-0.0015647606924176216,-0.0006767744198441505,-0.003293469315394759,0.9984474778175354,0.0,0.0,0.0,0.15333254635334015,5.690104961395264,0.6659706234931946,-27.753496170043945,0
1908.0640000000003,-0.00010435689910082147,-0.0002056972443824634,-0.00010047716205008328,0.0,0.0,0.0,0.0,-0.0004121623933315277,-0.0030878824181854725,0.004653627052903175,1.0003483295440674,0.0,0.0,0.0,0.1623583883047104,5.692121982574463,0.668573260307312,-29.387189865112305,0
1917.9490000000005,-0.00010759543511085212,-0.0002590784279163927,-9.838023834163323e-05,0.0,0.0,0.0,0.0,0.0009498494327999651,-0.0014329471159726381,-0.0019337577978149056,1.0028314590454102,0.0,0.0,0.0,0.15754002332687378,5.684485912322998,0.6743400692939758,-28.515056610107422,0
1927.8380000000016,-3.6059489502804354e-05,-0.00017936388030648232,-9.09299633349292e-05,0.0,0.0,0.0,0.0,-0.0009071971289813519,-0.004046986810863018,0.0016111719887703657,1.0025455951690674,0.0,0.0,0.0,0.1651661992073059,5.706488132476807,0.6974882483482361,-29.89541244506836,0
1937.728000000001,-5.810554284835234e-05,-0.00023100308317225426,-9.341508848592639e-05,0.0,0.0,0.0,0.0,0.001399728236719966,-0.00033420490217395127,0.00019884893845301121,1.0017374753952026,0.0,0.0,0.0,0.15967831015586853,5.706253528594971,0.7041110992431641,-28.90209197998047,0
1947.6130000000012,-9.372515705763362e-06,-0.0001901940704556182,-8.043755224207416e-05,0.0,0.0,0.0,0.0,0.0011674854904413223,0.0005789772258140147,-0.0013795193517580628,0.999274730682373,0.0,0.0,0.0,0.16014252603054047,5.696671009063721,0.6968309283256531,-28.986116409301758,0
1957.4980000000014,-0.00011235049169044942,-0.0001952315797097981,-9.753686026670039e-05,0.0,0.0,0.0,0.0,0.0013593884650617838,0.000465536693809554,-0.0015158035093918443,0.9999366402626038,0.0,0.0,0.0,0.15861886739730835,5.688328266143799,0.6901042461395264,-28.710330963134766,0
1967.3830000000016,-5.1230425015091896e-05,-0.00014358325279317796,-0.0001082104499801062,0.0,0.0,0.0,0.0,-0.003872138215228915,0.003879171796143055,-0.00029190978966653347,0.9976322054862976,0.0,0.0,0.0,0.15865492820739746,5.682300567626953,0.6916950941085815,-28.716856002807617,0
1977.268,-8.078666724031791e-05,-0.0001540299563203007,-8.903591515263543e-05,0.0,0.0,0.0,0.0,0.001545264502055943,-0.003729195101186633,0.0010712443618103862,1.0007615089416504,0.0,0.0,0.0,0.15139801800251007,5.692051887512207,0.6887783408164978,-27.403343200683594,0
1987.1550000000007,-2.6316518415114842e-05,-9.759220120031387e-05,-8.498412353219464e-05,0.0,0.0,0.0,0.0,-0.00023450888693332672,-0.004263096023350954,0.0020995019003748894,1.0022376775741577,0.0,0.0,0.0,0.1618943065404892,5.699284553527832,0.706483006477356,-29.303192138671875,0
1997.0400000000009,-0.00010809814557433128,-0.00012459153367672116,-0.0001232690701726824,0.0,0.0,0.0,0.0,0.0011582501465454698,0.004517191089689732,2.3204460376291536e-05,1.0014554262161255,0.0,0.0,0.0,0.16271169483661652,5.692236423492432,0.6960869431495667,-29.451141357421875,0
2006.9280000000017,-7.00952805345878e-05,-9.999632311519235e-05,-0.00012601411435753107,0.0,0.0,0.0,0.0,-0.001820238190703094,0.004199804272502661,0.002830800134688616,1.0020288228988647,0.0,0.0,0.0,0.16289222240447998,5.682981491088867,0.6788656711578369,-29.483816146850586,0
2016.8140000000003,-0.00013136137567926198,-0.00012087598588550463,-0.0001450993586331606,0.0,0.0,0.0,0.0,0.0012059042928740382,0.005060088820755482,0.0010544117540121078,1.0017504692077637,0.0,0.0,0.0,0.15602189302444458,5.6803412437438965,0.6563864946365356,-28.240272521972656,0
2026.710000000001,-7.925393583718687e-05,-5.680872709490359e-05,-0.0001349691883660853,0.0,0.0,0.0,0.0,0.000568319926969707,0.006506182253360748,-0.0008826287230476737,0.9996110796928406,0.0,0.0,0.0,0.16541051864624023,5.690735816955566,0.6530154347419739,-29.93963050842285,0
2036.5880000000016,-0.00014738117170054466,-3.285289494669996e-05,-0.0001187220768770203,0.0,0.0,0.0,0.0,0.0011363093508407474,-0.001414392958395183,-0.000474307598778978,0.997214674949646,0.0,0.0,0.0,0.15377084910869598,5.69191837310791,0.6346473693847656,-27.832828521728516,0
2046.478000000001,-0.00011719896428985521,4.310044459998608e-06,-0.00010352169192628935,0.0,0.0,0.0,0.0,-0.00027565029449760914,-0.004008520394563675,-0.002948619658127427,1.0020966529846191,0.0,0.0,0.0,0.1606963574886322,5.698980808258057,0.6385355591773987,-29.086360931396484,0
2056.358,-0.00013067887630313635,-5.995373794576153e-05,-0.00012284076365176588,0.0,0.0,0.0,0.0,0.00044850428821519017,0.001622481388039887,-0.00038575517828576267,1.000799298286438,0.0,0.0,0.0,0.15361325442790985,5.687995433807373,0.6468223929405212,-27.804304122924805,0
2066.245000000001,-7.752965757390484e-05,2.4127170036081225e-05,-0.00012461078586056828,0.0,0.0,0.0,0.0,0.0015346016734838486,-2.5288189135608263e-05,0.00011971560888923705,0.9973982572555542,0.0,0.0,0.0,0.15361325442790985,5.687995433807373,0.6468223929405212,-27.804304122924805,0
2076.1320000000014,-0.00014965349691919982,-8.049069947446696e-06,-0.00011766728130169213,0.0,0.0,0.0,0.0,0.0020861926022917032,0.004251080099493265,0.002725898753851652,1.0009424686431885,0.0,0.0,0.0,0.14607365429401398,5.686459064483643,0.6326456665992737,-26.43962287902832,0
2086.0190000000002,-0.00013461144408211112,-1.2495036571635865e-05,-0.00011916850053239614,0.0,0.0,0.0,0.0,-0.0042936126701533794,0.005138804204761982,0.0007456067251041532,1.0004855394363403,0.0,0.0,0.0,0.14595460891723633,5.677788734436035,0.6147526502609253,-26.418073654174805,0
2095.9050000000007,-0.00015259443898685277,-7.75064982008189e-05,-0.00014140996790956706,0.0,0.0,0.0,0.0,0.0019011939875781536,0.002884006593376398,0.0036603244952857494,1.0008312463760376,0.0,0.0,0.0,0.145666241645813,5.672086238861084,0.6170424222946167,-26.36587905883789,0
