timestamp,stateEstimate.x,stateEstimate.y,stateEstimate.z,controller.cmd_thrust,controller.cmd_roll,controller.cmd_pitch,controller.cmd_yaw,controller.r_roll,controller.r_pitch,controller.r_yaw,controller.accelz,controller.actuatorThrust,controller.roll,controller.pitch,controller.yaw,controller.rollRate,controller.pitchRate,controller.yawRate,controller.ctr_yaw
0.0,-0.022707810625433922,0.023216646164655685,-0.0003670779406093061,0.0,0.0,0.0,0.0,0.002148035680875182,0.0016633197665214539,0.0011012491304427385,0.99959796667099,0.0,0.0,0.0,24.31059455871582,2.9335458278656006,6.169791221618652,-4400.2666015625,0
9.913000000000466,-0.02273467741906643,0.02317003346979618,-0.0003577032475732267,0.0,0.0,0.0,0.0,-0.0028159264475107193,0.0047055259346961975,0.002514587715268135,0.9996996521949768,0.0,0.0,0.0,24.28688621520996,2.9312686920166016,6.16649866104126,-4395.97412109375,0
19.81500000000051,-0.02276190184056759,0.023121844977140427,-0.0003485664492473006,0.0,0.0,0.0,0.0,-0.002811610233038664,0.0013174968771636486,0.0012559575261548162,0.9994509220123291,0.0,0.0,0.0,24.26291847229004,2.937382698059082,6.157427787780762,-4391.63671875,0
29.73700000000099,-0.022788958624005318,0.02307301014661789,-0.000339805381372571,0.0,0.0,0.0,0.0,-0.00039234128780663013,0.004802559968084097,-0.0007927825208753347,0.999523401260376,0.0,0.0,0.0,24.23924446105957,2.9388113021850586,6.141881942749023,-4387.3515625,0
39.63900000000103,-0.022815633565187454,0.023023460060358047,-0.0003312100889161229,0.0,0.0,0.0,0.0,0.0005058391252532601,-0.0018998271552845836,0.004173938184976578,1.0003539323806763,0.0,0.0,0.0,24.21476936340332,2.9320263862609863,6.1335530281066895,-4382.92138671875,0
49.56600000000071,-0.022842375561594963,0.022973325103521347,-0.00032254273537546396,0.0,0.0,0.0,0.0,0.001281943405047059,0.0012865853495895863,0.0018136653816327453,1.0005078315734863,0.0,0.0,0.0,24.19125747680664,2.9266364574432373,6.117033004760742,-4378.66552734375,0
59.46299999999974,-0.0228703785687685,0.022923041135072708,-0.0003132849233224988,0.0,0.0,0.0,0.0,-0.002236749976873398,0.0005776770994998515,0.0031865069177001715,1.002373456954956,0.0,0.0,0.0,24.167795181274414,2.9244492053985596,6.109947681427002,-4374.41943359375,0
69.38299999999981,-0.02290007285773754,0.022872356697916985,-0.0003027808270417154,0.0,0.0,0.0,0.0,0.0009108335361815989,0.002275284146890044,0.0008648268412798643,1.00124990940094,0.0,0.0,0.0,24.144182205200195,2.9217028617858887,6.104076385498047,-4370.1455078125,0
79.28700000000026,-0.022931253537535667,0.022821465507149696,-0.00029059970984235406,0.0,0.0,0.0,0.0,0.0004135049239266664,-0.002694325987249613,-0.002253631129860878,1.000964641571045,0.0,0.0,0.0,24.11995506286621,2.9152424335479736,6.098381519317627,-4365.759765625,0
89.20499999999993,-0.022963741794228554,0.022769834846258163,-0.0002767388941720128,0.0,0.0,0.0,0.0,0.004365856759250164,0.0037639776710420847,0.0009181688074022532,0.9984559416770935,0.0,0.0,0.0,24.095638275146484,2.9095962047576904,6.087117671966553,-4361.3583984375,0
99.11100000000079,-0.022997330874204636,0.022716257721185684,-0.00026229850482195616,0.0,0.0,0.0,0.0,0.001196003402583301,-0.0008895957726053894,-0.001690792734734714,1.0000923871994019,0.0,0.0,0.0,24.0723934173584,2.9012227058410645,6.076598644256592,-4357.1513671875,0
109.03000000000065,-0.023032238706946373,0.02266155183315277,-0.0002482942654751241,0.0,0.0,0.0,0.0,0.000529455253854394,-0.0007064621895551682,8.683805208420381e-05,1.0000531673431396,0.0,0.0,0.0,24.047386169433594,2.8983287811279297,6.06886625289917,-4352.62451171875,0
118.94200000000092,-0.023068320006132126,0.02260569855570793,-0.00023415073519572616,0.0,0.0,0.0,0.0,-0.0024022222496569157,-0.0027151310350745916,0.0011614980176091194,0.9993005990982056,0.0,0.0,0.0,24.02396011352539,2.897975444793701,6.059527397155762,-4348.38427734375,0
128.85100000000057,-0.02310476265847683,0.022546792402863503,-0.0002196654095314443,0.0,0.0,0.0,0.0,0.00211427197791636,-0.001738803694024682,0.001384667819365859,1.0002551078796387,0.0,0.0,0.0,23.999492645263672,2.896876573562622,6.050111293792725,-4343.9560546875,0
138.75900000000001,-0.022599928081035614,0.023500554263591766,-0.0010561870876699686,0.0,0.0,0.0,0.0,0.001888755476102233,-0.0026751633267849684,0.0018183238571509719,0.9994017481803894,0.0,0.0,0.0,24.087688446044922,3.030158281326294,6.21392822265625,-4359.91943359375,0
148.67699999999968,-0.022617585957050323,0.02348160743713379,-0.0010673090582713485,0.0,0.0,0.0,0.0,-0.002184279728680849,0.00017996598035097122,-0.00013807999494019896,0.9998109936714172,0.0,0.0,0.0,24.06443977355957,3.027139186859131,6.205926418304443,-4355.7119140625,0
158.58599999999933,-0.02264021337032318,0.023562468588352203,-0.000966496067121625,0.0,0.0,0.0,0.0,-0.0015362435951828957,0.00011776346946135163,0.00011275977158220485,1.0008167028427124,0.0,0.0,0.0,24.14636993408203,3.0446245670318604,6.2090253829956055,-4370.54150390625,0
168.5079999999998,-0.02266095019876957,0.02355067990720272,-0.0009716126369312406,0.0,0.0,0.0,0.0,0.00037131167482584715,-0.0032234678510576487,0.0002868135052267462,1.0017591714859009,0.0,0.0,0.0,24.122007369995117,3.0471229553222656,6.204241752624512,-4366.13134765625,0
178.40999999999985,-0.02267230488359928,0.023571155965328217,-0.0009387896279804409,0.0,0.0,0.0,0.0,-0.0006119079771451652,0.00012315613275859505,0.0012114839628338814,1.0012471675872803,0.0,0.0,0.0,24.196657180786133,3.042032480239868,6.205484867095947,-4379.64306640625,0
188.32899999999972,-0.022694682702422142,0.02355700172483921,-0.0009395121596753597,0.0,0.0,0.0,0.0,-0.000641640683170408,0.0005608342471532524,-0.0010096553014591336,1.0010234117507935,0.0,0.0,0.0,24.173500061035156,3.0385727882385254,6.204586505889893,-4375.45166015625,0
198.23899999999958,-0.022717690095305443,0.023541662842035294,-0.0009388600592501462,0.0,0.0,0.0,0.0,-0.0012894459068775177,-0.0024117634166032076,-0.0008042128756642342,0.9999364614486694,0.0,0.0,0.0,24.148958206176758,3.040292501449585,6.19673490524292,-4371.00927734375,0
208.15200000000004,-0.022741438820958138,0.02352498471736908,-0.0009374720975756645,0.0,0.0,0.0,0.0,0.004404876381158829,0.004865145310759544,0.002350284019485116,1.000977635383606,0.0,0.0,0.0,24.124303817749023,3.041057586669922,6.191949844360352,-4366.546875,0
218.0590000000011,-0.022765832021832466,0.023506280034780502,-0.0009353433270007372,0.0,0.0,0.0,0.0,0.0039005842991173267,0.0009280170779675245,0.0020022366661578417,1.0012521743774414,0.0,0.0,0.0,24.100976943969727,3.033097505569458,6.175432205200195,-4362.3251953125,0
227.97500000000036,-0.022791944444179535,0.023486196994781494,-0.0009319967939518392,0.0,0.0,0.0,0.0,0.0005052993656136096,0.0016236476367339492,0.0019470141269266605,0.9989848136901855,0.0,0.0,0.0,24.077220916748047,3.017805337905884,6.1624016761779785,-4358.025390625,0
237.88000000000102,-0.02281106822192669,0.023509858176112175,-0.0008731690468266606,0.0,0.0,0.0,0.0,0.004075066186487675,-0.0018324061529710889,0.00059537123888731,0.9988042116165161,0.0,0.0,0.0,24.158811569213867,3.018782138824463,6.1662373542785645,-4372.79296875,0
247.8060000000005,-0.022841405123472214,0.023489784449338913,-0.0008666118374094367,0.0,0.0,0.0,0.0,0.0017940836260095239,-0.0014701003674417734,-0.0006927199428901076,1.001165509223938,0.0,0.0,0.0,24.135459899902344,3.0114827156066895,6.156449794769287,-4368.56640625,0
257.7029999999995,-0.022873103618621826,0.02346738614141941,-0.000860476226080209,0.0,0.0,0.0,0.0,-0.0037150210700929165,-0.001773000112734735,0.00022017887386027724,1.0008316040039062,0.0,0.0,0.0,24.11039161682129,3.003587007522583,6.146999359130859,-4364.02880859375,0
267.630000000001,-0.02290603145956993,0.023443473502993584,-0.0008536353125236928,0.0,0.0,0.0,0.0,0.003765460103750229,0.001035209046676755,0.0026443523820489645,0.9997280836105347,0.0,0.0,0.0,24.08665657043457,3.0074198246002197,6.141868591308594,-4359.73291015625,0
277.52700000000004,-0.02294035628437996,0.023418700322508812,-0.0008458849042654037,0.0,0.0,0.0,0.0,-0.004199971444904804,0.0033881731797009706,0.00106482591945678,1.000362753868103,0.0,0.0,0.0,24.063247680664062,3.006093740463257,6.1304521560668945,-4355.49560546875,0
287.4529999999995,-0.022976506501436234,0.0233918484300375,-0.0008375404868274927,0.0,0.0,0.0,0.0,0.0008917763479985297,-0.0031416648998856544,0.002464430406689644,0.9979288578033447,0.0,0.0,0.0,24.038585662841797,3.007826089859009,6.1139726638793945,-4351.03125,0
297.35100000000057,-0.023014558479189873,0.02336241863667965,-0.0008294231374748051,0.0,0.0,0.0,0.0,-0.0011260347673669457,-0.005702572409063578,0.004633172415196896,0.9998090267181396,0.0,0.0,0.0,24.014408111572266,3.009160280227661,6.1136369705200195,-4346.6552734375,0
307.27100000000064,-0.022701891139149666,0.023413032293319702,-0.0003411398793105036,0.0,0.0,0.0,0.0,4.4562711991602555e-05,0.0031344243325293064,4.627891757991165e-05,0.9991515874862671,0.0,0.0,0.0,24.063018798828125,3.0177481174468994,6.1842041015625,-4355.4541015625,0
317.1750000000011,-0.022726494818925858,0.023387042805552483,-0.0003160634369123727,0.0,0.0,0.0,0.0,0.0003629484854172915,-0.0009030774235725403,0.0008253492414951324,0.9998457431793213,0.0,0.0,0.0,24.038747787475586,3.006132125854492,6.165077209472656,-4351.060546875,0
327.09900000000016,-0.02270820364356041,0.023385653272271156,-0.00022757999249733984,0.0,0.0,0.0,0.0,-0.0012836738023906946,-0.0011727585224434733,-0.0013649455504491925,0.9982650279998779,0.0,0.0,0.0,24.085678100585938,3.0010225772857666,6.16079568862915,-4359.55615234375,0
337.005000000001,-0.022731857374310493,0.023359082639217377,-0.00020063607371412218,0.0,0.0,0.0,0.0,-0.0009513066615909338,0.00271538645029068,0.004635456949472427,0.9969809055328369,0.0,0.0,0.0,24.06184196472168,3.004000186920166,6.154327869415283,-4355.24169921875,0
346.91699999999946,-0.022679204121232033,0.023352762684226036,-0.00012746058928314596,0.0,0.0,0.0,0.0,0.004154005087912083,-0.0008171622175723314,0.006044792477041483,1.000212550163269,0.0,0.0,0.0,24.096696853637695,2.995232105255127,6.154063701629639,-4361.5498046875,0
356.8230000000003,-0.022701160982251167,0.023323504254221916,-0.00010080951324198395,0.0,0.0,0.0,0.0,-0.0021973918192088604,0.004111761227250099,-0.001794810057617724,0.9979748129844666,0.0,0.0,0.0,24.075300216674805,2.9922006130218506,6.14812707901001,-4357.67724609375,0
366.7440000000006,-0.022725699469447136,0.023309065029025078,-5.8621248172130436e-05,0.0,0.0,0.0,0.0,0.0014909472083672881,-0.002534161088988185,0.00016527206753380597,1.0001906156539917,0.0,0.0,0.0,24.121070861816406,2.9914894104003906,6.13694429397583,-4365.9619140625,0
376.64700000000084,-0.022528421133756638,0.023552944883704185,-0.0004806504584848881,0.0,0.0,0.0,0.0,0.0006409041816368699,0.0054752458818256855,0.00022081969655118883,1.0003119707107544,0.0,0.0,0.0,24.195903778076172,3.0172812938690186,6.203153610229492,-4379.50634765625,0
386.5660000000007,-0.02254585176706314,0.02353370375931263,-0.0004761655000038445,0.0,0.0,0.0,0.0,-0.0016783805331215262,0.005190500058233738,0.0050557758659124374,1.0015813112258911,0.0,0.0,0.0,24.17168617248535,3.0118603706359863,6.188959121704102,-4375.12353515625,0
396.47600000000057,-0.02256413735449314,0.023513363674283028,-0.0004704206367023289,0.0,0.0,0.0,0.0,-0.0009338291711173952,-0.00408356636762619,0.0046214936301112175,1.0005590915679932,0.0,0.0,0.0,24.148038864135742,3.0137946605682373,6.171565055847168,-4370.8427734375,0
406.39400000000023,-0.022560779005289078,0.023521803319454193,-0.00041595357470214367,0.0,0.0,0.0,0.0,0.0009115520515479147,0.0032932504545897245,0.0014061919646337628,0.9998006224632263,0.0,0.0,0.0,24.186466217041016,3.0090599060058594,6.177674293518066,-4377.79833984375,0
416.3050000000003,-0.022582195699214935,0.02349906601011753,-0.0004053572192788124,0.0,0.0,0.0,0.0,0.0039199721068143845,0.004830855876207352,0.00443338742479682,0.9986831545829773,0.0,0.0,0.0,24.161943435668945,3.002312183380127,6.169792652130127,-4373.35986328125,0
426.23099999999977,-0.022619009017944336,0.023470643907785416,-0.00040119088953360915,0.0,0.0,0.0,0.0,0.0006487032514996827,-0.00043955814908258617,-0.0001605449797352776,1.0000722408294678,0.0,0.0,0.0,24.189865112304688,2.9944355487823486,6.157088756561279,-4378.41357421875,0
436.1190000000006,-0.022642524912953377,0.023445360362529755,-0.00039191299583762884,0.0,0.0,0.0,0.0,0.00022347140475176275,0.0021157669834792614,-0.0014862134121358395,1.0008198022842407,0.0,0.0,0.0,24.164945602416992,2.9945316314697266,6.149440288543701,-4373.9033203125,0
446.03800000000047,-0.02259308472275734,0.02342059276998043,-0.00035884272074326873,0.0,0.0,0.0,0.0,0.002957499586045742,0.00042710526031441987,0.0023117626551538706,0.9985068440437317,0.0,0.0,0.0,24.198688507080078,2.9829351902008057,6.154333114624023,-4380.01025390625,0
455.9459999999999,-0.022613804787397385,0.02339259348809719,-0.0003472351818345487,0.0,0.0,0.0,0.0,-0.0002468052553012967,0.0047505139373242855,0.0016951888101175427,0.9981474280357361,0.0,0.0,0.0,24.17479705810547,2.975865602493286,6.144446849822998,-4375.6865234375,0
465.871000000001,-0.022655757144093513,0.023384273052215576,-0.0003205907123629004,0.0,0.0,0.0,0.0,0.0006629275740124285,-0.0037346461322158575,-9.864186722552404e-06,0.9973698258399963,0.0,0.0,0.0,24.203807830810547,2.981564998626709,6.1328043937683105,-4380.93701171875,0
495.59900000000016,-0.022557077929377556,0.023541124537587166,-0.0006224025855772197,0.0,0.0,0.0,0.0,-0.0006285092094913125,0.003977987449616194,-0.0004729260690510273,1.00173020362854,0.0,0.0,0.0,24.277694702148438,3.007216215133667,6.173837184906006,-4394.310546875,0
505.51900000000023,-0.022577358409762383,0.023531123995780945,-0.000617105804849416,0.0,0.0,0.0,0.0,-0.002264545066282153,0.0037631457671523094,-0.0003560902550816536,1.0020614862442017,0.0,0.0,0.0,24.293428421020508,3.0036606788635254,6.154988765716553,-4397.1591796875,0
515.4179999999997,-0.022604715079069138,0.023506151512265205,-0.000618847378063947,0.0,0.0,0.0,0.0,2.9894328690716065e-05,-0.00379179953597486,0.0007116462220437825,1.0004738569259644,0.0,0.0,0.0,24.2685489654541,3.0052287578582764,6.133889675140381,-4392.6552734375,0
525.3340000000007,-0.02260403521358967,0.023509738966822624,-0.0005943067371845245,0.0,0.0,0.0,0.0,-0.001380725298076868,0.0028092064894735813,-0.0010982134845107794,0.9993513226509094,0.0,0.0,0.0,24.290605545043945,3.0038468837738037,6.138471603393555,-4396.6474609375,0
535.2450000000008,-0.02260730415582657,0.02354779653251171,-0.0006017432897351682,0.0,0.0,0.0,0.0,0.0015780568355694413,-0.0019155346089974046,-0.002332868054509163,1.0002182722091675,0.0,0.0,0.0,24.34058380126953,3.001408576965332,6.135007858276367,-4405.69384765625,0
545.1620000000003,-0.022622201591730118,0.023595113307237625,-0.0005525011802092195,0.0,0.0,0.0,0.0,-0.001119789551012218,0.0013773379614576697,0.002015751088038087,0.999616801738739,0.0,0.0,0.0,24.357343673706055,3.003025770187378,6.14421272277832,-4408.7275390625,0
555.0689999999995,-0.02265078015625477,0.023570677265524864,-0.0005472181946970522,0.0,0.0,0.0,0.0,0.0020809774287045,-0.0009256492485292256,-0.00045783090172335505,0.9995023608207703,0.0,0.0,0.0,24.332597732543945,3.00639271736145,6.131035804748535,-4404.24853515625,0
564.9830000000002,-0.02264053374528885,0.02358289808034897,-0.0005152166704647243,0.0,0.0,0.0,0.0,-0.0003877002454828471,-0.003493096912279725,-0.0009931655367836356,0.998538613319397,0.0,0.0,0.0,24.348983764648438,3.0034615993499756,6.131577491760254,-4407.21435546875,0
574.8870000000006,-0.022667260840535164,0.023555215448141098,-0.000509123841766268,0.0,0.0,0.0,0.0,-0.0007360728341154754,-0.0015004578744992614,0.004969963803887367,0.9985839128494263,0.0,0.0,0.0,24.324941635131836,3.0024912357330322,6.134299278259277,-4402.86328125,0
584.8099999999995,-0.0226353220641613,0.02353278174996376,-0.0004906044341623783,0.0,0.0,0.0,0.0,0.0006278353976085782,0.0028783315792679787,-0.004866792820394039,0.9996062517166138,0.0,0.0,0.0,24.34600830078125,2.9935216903686523,6.142577171325684,-4406.67626953125,0
594.7119999999995,-0.02263329178094864,0.02352694794535637,-0.0005197985447011888,0.0,0.0,0.0,0.0,0.002274562371894717,0.00035210023634135723,0.0027711084112524986,0.9990201592445374,0.0,0.0,0.0,24.388486862182617,2.9793102741241455,6.13088846206665,-4414.36474609375,0
604.630000000001,-0.022612974047660828,0.02349364571273327,-0.0005020867101848125,0.0,0.0,0.0,0.0,0.0007005393272265792,-0.0009848043555393815,-0.002800270449370146,1.0010825395584106,0.0,0.0,0.0,24.396556854248047,2.9670536518096924,6.131757736206055,-4415.82568359375,0
614.5400000000009,-0.022566137835383415,0.02352028526365757,-0.0005896245129406452,0.0,0.0,0.0,0.0,-0.0016702056163921952,0.00141264742705971,-0.0013009646208956838,1.0000813007354736,0.0,0.0,0.0,24.43528175354004,2.964719772338867,6.1419219970703125,-4422.8349609375,0
624.4619999999995,-0.022540008649230003,0.023552147671580315,-0.0005381996743381023,0.0,0.0,0.0,0.0,-0.00040560445631854236,0.004701019264757633,-0.002786039374768734,0.9979887008666992,0.0,0.0,0.0,24.447002410888672,2.965101718902588,6.132964611053467,-4424.9560546875,0
634.3649999999998,-0.022562693804502487,0.023519642651081085,-0.000535946455784142,0.0,0.0,0.0,0.0,0.0013019158504903316,-0.0008822309318929911,0.0008014596533030272,0.9987324476242065,0.0,0.0,0.0,24.422252655029297,2.961996555328369,6.110128879547119,-4420.4765625,0
644.2780000000002,-0.022621218115091324,0.023551933467388153,-0.0005130798672325909,0.0,0.0,0.0,0.0,9.06436616787687e-05,-0.0007580123492516577,-0.000862011278513819,0.9991891980171204,0.0,0.0,0.0,24.430992126464844,2.971717357635498,6.104682445526123,-4422.05810546875,0
654.1959999999999,-0.02258298546075821,0.023586533963680267,-0.0005865700077265501,0.0,0.0,0.0,0.0,0.00023098169185686857,0.0007261584978550673,0.0014189783250913024,0.9992108345031738,0.0,0.0,0.0,24.466402053833008,2.9662582874298096,6.107460021972656,-4428.46728515625,0
664.1100000000006,-0.02260185033082962,0.023595478385686874,-0.000569029594771564,0.0,0.0,0.0,0.0,0.00029212949448265135,0.004865763243287802,-0.0023304352071136236,0.9970317482948303,0.0,0.0,0.0,24.471778869628906,2.965726375579834,6.109318256378174,-4429.4404296875,0
674.0210000000006,-0.02256046235561371,0.023640263825654984,-0.0006376305245794356,0.0,0.0,0.0,0.0,-0.0024227844551205635,-0.005147251766175032,0.0017763563664630055,0.9978398680686951,0.0,0.0,0.0,24.501802444458008,2.9623498916625977,6.11015510559082,-4434.87451171875,0
683.9250000000011,-0.022624976933002472,0.023629067465662956,-0.000654401897918433,0.0,0.0,0.0,0.0,0.0014620298752561212,-0.0005989997298456728,-0.00047766018542461097,0.998823344707489,0.0,0.0,0.0,24.506288528442383,2.967742443084717,6.112384796142578,-4435.6865234375,0
693.8400000000001,-0.022649845108389854,0.02359110116958618,-0.0006666267290711403,0.0,0.0,0.0,0.0,0.0048422133550047874,0.0019451979314908385,-0.0013993007596582174,0.9992390871047974,0.0,0.0,0.0,24.48118019104004,2.9688355922698975,6.104556083679199,-4431.142578125,0
703.7530000000006,-0.022608064115047455,0.02361266501247883,-0.0006405080202966928,0.0,0.0,0.0,0.0,0.002591000171378255,-0.0017664723563939333,-0.0006974905845709145,0.9999397993087769,0.0,0.0,0.0,24.484968185424805,2.9635727405548096,6.107895851135254,-4431.82763671875,0
713.6610000000001,-0.02262851782143116,0.02357044257223606,-0.0006505403434857726,0.0,0.0,0.0,0.0,0.0023194891400635242,-0.005752436351031065,0.002505088457837701,0.9975312948226929,0.0,0.0,0.0,24.46105194091797,2.9571714401245117,6.1053080558776855,-4427.49853515625,0
723.5740000000005,-0.022606173530220985,0.023578504100441933,-0.000633366173133254,0.0,0.0,0.0,0.0,0.0008561669383198023,-0.0036330120638012886,0.0003981958725489676,0.999143123626709,0.0,0.0,0.0,24.466787338256836,2.954082489013672,6.120329856872559,-4428.537109375,0
733.4899999999998,-0.022628525272011757,0.023537850007414818,-0.000632310810033232,0.0,0.0,0.0,0.0,0.00033063144655898213,0.002402198500931263,0.0025224664714187384,0.9988180994987488,0.0,0.0,0.0,24.502012252807617,2.945666790008545,6.114320755004883,-4434.9130859375,0
743.4110000000001,-0.02262604609131813,0.023561809211969376,-0.0005983829614706337,0.0,0.0,0.0,0.0,-0.0021213360596448183,0.0014862763928249478,-0.0011500576511025429,0.999748170375824,0.0,0.0,0.0,24.503780364990234,2.945669651031494,6.110730171203613,-4435.232421875,0
753.3099999999995,-0.022648116573691368,0.023517770692706108,-0.0006056802230887115,0.0,0.0,0.0,0.0,-0.004807256627827883,0.0026798255275934935,-0.0017302263295277953,0.9988961815834045,0.0,0.0,0.0,24.479326248168945,2.9497385025024414,6.105280876159668,-4430.806640625,0
763.2209999999995,-0.022593103349208832,0.02348393388092518,-0.0005923858843743801,0.0,0.0,0.0,0.0,0.002614815253764391,0.002179414965212345,-0.0002517104730941355,0.9977195262908936,0.0,0.0,0.0,24.479387283325195,2.946959972381592,6.110494613647461,-4430.81787109375,0
773.1350000000002,-0.022613009437918663,0.02343609556555748,-0.0005996949039399624,0.0,0.0,0.0,0.0,0.0017155715031549335,5.449538366519846e-05,-0.0005724739166907966,0.9999635815620422,0.0,0.0,0.0,24.454477310180664,2.9414265155792236,6.097769260406494,-4426.30908203125,0
783.0450000000001,-0.02262834459543228,0.023468581959605217,-0.0005670980317518115,0.0,0.0,0.0,0.0,0.0023963251151144505,0.0014177022967487574,-0.0020485585555434227,0.9974642992019653,0.0,0.0,0.0,24.457548141479492,2.9543962478637695,6.096307754516602,-4426.86474609375,0
792.9619999999995,-0.02264777012169361,0.02342180535197258,-0.0005733014550060034,0.0,0.0,0.0,0.0,-0.001168378395959735,0.0036002828273922205,-0.003010672749951482,0.9991138577461243,0.0,0.0,0.0,24.43303108215332,2.947500228881836,6.0871195793151855,-4422.42724609375,0
802.8690000000006,-0.022631913423538208,0.023428045213222504,-0.000545412243809551,0.0,0.0,0.0,0.0,-0.0012587369419634342,-0.007979467511177063,0.0007608554442413151,0.9984498620033264,0.0,0.0,0.0,24.445789337158203,2.9522147178649902,6.0922160148620605,-4424.73681640625,0
812.7880000000005,-0.022652260959148407,0.023377753794193268,-0.000552043376956135,0.0,0.0,0.0,0.0,-0.001442978042177856,-0.0014456033241003752,-0.0006680723745375872,0.9992268681526184,0.0,0.0,0.0,24.422054290771484,2.95084547996521,6.098781108856201,-4420.4404296875,0
822.6949999999997,-0.02267189510166645,0.023330144584178925,-0.0005588682834059,0.0,0.0,0.0,0.0,0.00030229281401261687,-0.0019465504446998239,0.0022420473396778107,0.9971452951431274,0.0,0.0,0.0,24.398618698120117,2.955665349960327,6.097636699676514,-4416.1982421875,0
832.621000000001,-0.022618800401687622,0.02340073324739933,-0.0006861008005216718,0.0,0.0,0.0,0.0,-0.00011888441076735035,-0.0024646299425512552,-0.0022740585263818502,0.9990564584732056,0.0,0.0,0.0,24.441970825195312,2.9746832847595215,6.126433849334717,-4424.044921875,0
842.5259999999998,-0.02257131226360798,0.023451659828424454,-0.000593664706684649,0.0,0.0,0.0,0.0,0.0021391890477389097,-0.0020731701515614986,-0.0026005092076957226,1.0003057718276978,0.0,0.0,0.0,24.456039428710938,2.9868252277374268,6.156181335449219,-4426.591796875,0
852.4330000000009,-0.02258569933474064,0.02340855449438095,-0.0006023715832270682,0.0,0.0,0.0,0.0,-0.0008253112901002169,-0.0035814994480460882,0.0010894180741161108,1.00055730342865,0.0,0.0,0.0,24.431161880493164,2.9800593852996826,6.151703834533691,-4422.0888671875,0
862.335000000001,-0.022601015865802765,0.023432716727256775,-0.0005659289890900254,0.0,0.0,0.0,0.0,0.0024438188411295414,0.0011013175826519728,0.0039873006753623486,0.9982877969741821,0.0,0.0,0.0,24.446151733398438,2.9879612922668457,6.15969705581665,-4424.8017578125,0
872.2600000000002,-0.0226164348423481,0.023388696834445,-0.0005709202378056943,0.0,0.0,0.0,0.0,0.002726070350036025,0.0018603760981932282,0.0007558501092717052,0.99782794713974,0.0,0.0,0.0,24.422496795654297,2.979215621948242,6.148275852203369,-4420.5205078125,0
882.1630000000005,-0.02264673076570034,0.023429017513990402,-0.0005253689596429467,0.0,0.0,0.0,0.0,-0.00025469076354056597,0.0037881690077483654,-0.0017109120963141322,0.9986903667449951,0.0,0.0,0.0,24.430335998535156,2.996513843536377,6.14451265335083,-4421.939453125,0
892.0799999999999,-0.022666167467832565,0.023386076092720032,-0.000529670447576791,0.0,0.0,0.0,0.0,0.0006798253743909299,-0.003075279528275132,0.0009530268143862486,0.9996818900108337,0.0,0.0,0.0,24.405685424804688,2.9953486919403076,6.132863521575928,-4417.4775390625,0
901.9840000000004,-0.022674258798360825,0.02341434732079506,-0.00048357160994783044,0.0,0.0,0.0,0.0,0.0036559011787176132,0.0028562755323946476,-0.0009689938160590827,0.9999909996986389,0.0,0.0,0.0,24.41370964050293,3.008391857147217,6.148493766784668,-4418.93017578125,0
911.902,-0.022694988176226616,0.02337314933538437,-0.0004849514807574451,0.0,0.0,0.0,0.0,-0.004601513501256704,-0.00089118757750839,-0.003326693782582879,0.9996693134307861,0.0,0.0,0.0,24.388731002807617,2.997528553009033,6.136671543121338,-4414.4091796875,0
921.8209999999999,-0.022673269733786583,0.023358549922704697,-0.000454751803772524,0.0,0.0,0.0,0.0,-0.00036633474519476295,-0.0021797986701130867,0.0006717357900924981,0.9977290630340576,0.0,0.0,0.0,24.394189834594727,3.011134386062622,6.145081520080566,-4415.39697265625,0
931.7379999999994,-0.022694049403071404,0.023316334933042526,-0.00045422595576383173,0.0,0.0,0.0,0.0,0.00447528762742877,0.006054002325981855,-0.00028678859234787524,0.9981645941734314,0.0,0.0,0.0,24.371559143066406,3.011406183242798,6.148746013641357,-4411.30078125,0
941.630000000001,-0.022643396630883217,0.023312602192163467,-0.0004050024726893753,0.0,0.0,0.0,0.0,0.0010808076476678252,-0.0014990655472502112,-0.0019007539376616478,0.9984033107757568,0.0,0.0,0.0,24.3756046295166,3.006941080093384,6.159804821014404,-4412.03271484375,0
951.5490000000009,-0.022661302238702774,0.02327047660946846,-0.00040402761078439653,0.0,0.0,0.0,0.0,-0.0017595329554751515,-0.0013981208903715014,0.0020059067755937576,1.0003879070281982,0.0,0.0,0.0,24.350866317749023,3.004819631576538,6.149168491363525,-4407.55517578125,0
961.4619999999995,-0.022618727758526802,0.02326916716992855,-0.00034977152245119214,0.0,0.0,0.0,0.0,0.003382360562682152,-0.0005887739243917167,-0.0010944358073174953,0.9995120763778687,0.0,0.0,0.0,24.364940643310547,3.0084035396575928,6.166720390319824,-4410.1025390625,0
971.3770000000004,-0.022634491324424744,0.023227505385875702,-0.00034472293918952346,0.0,0.0,0.0,0.0,0.0003768657916225493,-0.0030469310004264116,0.002310365904122591,0.9994390606880188,0.0,0.0,0.0,24.339624404907227,2.997673511505127,6.158880710601807,-4405.5205078125,0
981.277,-0.02261355333030224,0.023230379447340965,-0.00029004403040744364,0.0,0.0,0.0,0.0,-0.0030551988165825605,0.0012949550291523337,0.0013700482668355107,0.997400164604187,0.0,0.0,0.0,24.35410499572754,3.0025622844696045,6.174148082733154,-4408.1416015625,0
991.1970000000001,-0.02244209498167038,0.02344142273068428,-0.0006863904418423772,0.0,0.0,0.0,0.0,-0.0010790199739858508,0.003170223906636238,-0.0018837156239897013,0.9966883659362793,0.0,0.0,0.0,24.39900779724121,3.0309367179870605,6.2128801345825195,-4416.26904296875,0
1001.1010000000006,-0.022528469562530518,0.023507723584771156,-0.0006742780096828938,0.0,0.0,0.0,0.0,0.004543759860098362,0.003645467571914196,0.0017810305580496788,0.9988246560096741,0.0,0.0,0.0,24.416793823242188,3.0466737747192383,6.2044172286987305,-4419.48828125,0
1011.0210000000006,-0.022542035207152367,0.02347722463309765,-0.0006874880054965615,0.0,0.0,0.0,0.0,0.0015486131887882948,1.3002400578443485e-07,-0.0019796157721430063,0.9997409582138062,0.0,0.0,0.0,24.393028259277344,3.033780574798584,6.192477703094482,-4415.18701171875,0
1020.9250000000011,-0.022580433636903763,0.023531461134552956,-0.0006563343922607601,0.0,0.0,0.0,0.0,8.356196485692635e-05,0.0032607349567115307,-0.0025286448653787374,0.9980837106704712,0.0,0.0,0.0,24.405132293701172,3.0389914512634277,6.191830635070801,-4417.37744140625,0
1030.8379999999997,-0.02260337397456169,0.0235043503344059,-0.000650027533993125,0.0,0.0,0.0,0.0,-0.0013102757511660457,0.0004030918062198907,-0.0021639845799654722,0.9992812871932983,0.0,0.0,0.0,24.44347381591797,3.030855178833008,6.1783246994018555,-4424.31689453125,0
1040.7510000000002,-0.02260405756533146,0.023553742095828056,-0.0006062305765226483,0.0,0.0,0.0,0.0,0.0007748965290375054,0.00027906219474971294,0.0010573358740657568,1.0009546279907227,0.0,0.0,0.0,24.45206069946289,3.034557580947876,6.178576469421387,-4425.87158203125,0
1050.6669999999995,-0.022627612575888634,0.023520372807979584,-0.0006104630883783102,0.0,0.0,0.0,0.0,-0.0009755440405569971,0.0026014738250523806,-0.005019997246563435,1.0006206035614014,0.0,0.0,0.0,24.487504959106445,3.029132127761841,6.172325611114502,-4432.28662109375,0
1060.5730000000003,-0.022620944306254387,0.023563412949442863,-0.0005671617109328508,0.0,0.0,0.0,0.0,0.0005926766898483038,0.0013700154377147555,0.0027994620613753796,1.0001248121261597,0.0,0.0,0.0,24.490596771240234,3.0350003242492676,6.165711879730225,-4432.84619140625,0
1070.4850000000006,-0.0226450078189373,0.023524774238467216,-0.0005714730359613895,0.0,0.0,0.0,0.0,-0.0007031237473711371,0.004258484113961458,0.003912248648703098,1.0011895895004272,0.0,0.0,0.0,24.52547836303711,3.0265731811523438,6.160067081451416,-4439.16015625,0
1080.3970000000008,-0.022638972848653793,0.023551180958747864,-0.0005330141866579652,0.0,0.0,0.0,0.0,0.0017470219172537327,-0.0003848464402835816,0.0015617234166711569,1.0016995668411255,0.0,0.0,0.0,24.528982162475586,3.02825665473938,6.155109405517578,-4439.7939453125,0
1090.313,-0.022665902972221375,0.023513810709118843,-0.0005310816341079772,0.0,0.0,0.0,0.0,8.477745723212138e-05,-0.0032317384611815214,0.002281017368659377,0.9992044568061829,0.0,0.0,0.0,24.505268096923828,3.0294108390808105,6.145479679107666,-4435.50244140625,0
1100.228000000001,-0.02265801467001438,0.02355857752263546,-0.0004885217640548944,0.0,0.0,0.0,0.0,-0.0016523440135642886,0.0029416955076158047,-0.001978418556973338,0.9991905689239502,0.0,0.0,0.0,24.50997543334961,3.032773494720459,6.1519856452941895,-4436.3544921875,0
1110.1329999999998,-0.022687114775180817,0.02352232299745083,-0.0004834188730455935,0.0,0.0,0.0,0.0,-0.003222348168492317,0.00217903358861804,0.0006153834401629865,0.9982907176017761,0.0,0.0,0.0,24.4852294921875,3.0330629348754883,6.14381217956543,-4431.875,0
1120.0470000000005,-0.022472722455859184,0.02365311235189438,-0.0006203562370501459,0.0,0.0,0.0,0.0,0.0009500316227786243,0.002825822914019227,-0.0007861249032430351,0.9983499050140381,0.0,0.0,0.0,24.552196502685547,3.0320305824279785,6.179097652435303,-4443.99658203125,0
1129.9609999999993,-0.02249401994049549,0.023620299994945526,-0.0006276454078033566,0.0,0.0,0.0,0.0,-0.0009908790234476328,0.004183524288237095,0.00017437325732316822,0.998192310333252,0.0,0.0,0.0,24.527835845947266,3.0257678031921387,6.17229700088501,-4439.5869140625,0
1139.8690000000006,-0.022368716076016426,0.02365189418196678,-0.0006820956477895379,0.0,0.0,0.0,0.0,0.0005874295602552593,0.0005560978315770626,0.00021830889454577118,1.0000754594802856,0.0,0.0,0.0,24.585676193237305,3.011007308959961,6.183018684387207,-4450.056640625,0
1149.782000000001,-0.022385891526937485,0.023617513477802277,-0.0006951548275537789,0.0,0.0,0.0,0.0,-0.002169475657865405,-9.278568177251145e-05,-0.0012215597089380026,1.0013232231140137,0.0,0.0,0.0,24.561216354370117,3.010281801223755,6.168060302734375,-4445.62890625,0
1159.696,-0.022376997396349907,0.02369025908410549,-0.0007247780449688435,0.0,0.0,0.0,0.0,0.003188198432326317,-1.3226528608356602e-05,-0.00021585695503745228,0.9986117482185364,0.0,0.0,0.0,24.608549118041992,3.0145907402038574,6.1699371337890625,-4454.19677734375,0
1169.6059999999998,-0.02239411137998104,0.02365444228053093,-0.0007380797760561109,0.0,0.0,0.0,0.0,0.0005125981406308711,-0.0008400666993111372,-0.004214100539684296,0.9983636140823364,0.0,0.0,0.0,24.58443832397461,3.009472370147705,6.1556243896484375,-4449.83251953125,0
1179.5200000000004,-0.022401293739676476,0.023609574884176254,-0.0007189529133029282,0.0,0.0,0.0,0.0,0.0012347985757514834,0.0015748139703646302,0.0010912586003541946,0.9955472946166992,0.0,0.0,0.0,24.6345157623291,2.992372751235962,6.159353256225586,-4458.896484375,0
1189.429,-0.022418120875954628,0.023572543635964394,-0.0007327409693971276,0.0,0.0,0.0,0.0,0.0021861549466848373,0.0004496511537581682,0.0011826682602986693,0.9974352121353149,0.0,0.0,0.0,24.609832763671875,2.9885454177856445,6.157088279724121,-4454.42919921875,0
1199.344000000001,-0.022451143711805344,0.023549798876047134,-0.0007524239481426775,0.0,0.0,0.0,0.0,-0.004947386682033539,-0.00201813830062747,-1.9056335077038966e-05,1.0001024007797241,0.0,0.0,0.0,24.6096248626709,2.983161211013794,6.14609956741333,-4454.39111328125,0
1209.2569999999996,-0.022470910102128983,0.023508179932832718,-0.0007711504586040974,0.0,0.0,0.0,0.0,0.0033251019194722176,0.00048651767428964376,-0.005106158088892698,1.0000478029251099,0.0,0.0,0.0,24.58530044555664,2.9858875274658203,6.137063980102539,-4449.98828125,0
1219.1650000000009,-0.0225069597363472,0.02349681966006756,-0.0006896376726217568,0.0,0.0,0.0,0.0,0.0025380481965839863,0.0019729244522750378,-0.0003382560098543763,0.9973714351654053,0.0,0.0,0.0,24.62980842590332,2.982314109802246,6.131583213806152,-4458.04443359375,0
1229.0769999999993,-0.02252967096865177,0.023451462388038635,-0.000700560980476439,0.0,0.0,0.0,0.0,-0.003520116675645113,-0.0018563081976026297,-0.0010066754184663296,0.9973112344741821,0.0,0.0,0.0,24.604684829711914,2.976510524749756,6.122364044189453,-4453.49658203125,0
1238.9920000000002,-0.022614464163780212,0.023519862443208694,-0.0006488924846053123,0.0,0.0,0.0,0.0,0.0015685348771512508,0.0016474537551403046,-3.2858840768312803e-06,1.0002542734146118,0.0,0.0,0.0,24.651880264282227,2.9934628009796143,6.1156086921691895,-4462.0390625,0
1248.902,-0.022604133933782578,0.023566031828522682,-0.0006036187405698001,0.0,0.0,0.0,0.0,0.0032648060005158186,0.0009481996530666947,0.0012263697572052479,1.003098726272583,0.0,0.0,0.0,24.647573471069336,2.9912071228027344,6.1235270500183105,-4461.259765625,0
1258.8140000000003,-0.022631341591477394,0.02353299967944622,-0.0006017382256686687,0.0,0.0,0.0,0.0,-0.0010822531767189503,-0.0040610795840620995,-0.0010306441690772772,1.001147747039795,0.0,0.0,0.0,24.669832229614258,2.980264186859131,6.116186141967773,-4465.2890625,0
1268.7270000000008,-0.022657720372080803,0.02361713908612728,-0.0005402285605669022,0.0,0.0,0.0,0.0,0.0006697169737890363,-0.002345671644434333,0.002612879266962409,0.9974241852760315,0.0,0.0,0.0,24.665555953979492,2.9877407550811768,6.125294208526611,-4464.5146484375,0
1278.6409999999996,-0.022670073434710503,0.023579590022563934,-0.0005529247573576868,0.0,0.0,0.0,0.0,0.0003811040078289807,-0.00081499113002792,0.0017914575291797519,0.9964221119880676,0.0,0.0,0.0,24.687744140625,2.977067708969116,6.132862567901611,-4468.53076171875,0
1288.550000000001,-0.022632699459791183,0.023579616099596024,-0.0005077010137028992,0.0,0.0,0.0,0.0,-0.0017780105117708445,6.929992650839267e-06,0.0024389801546931267,0.9976668953895569,0.0,0.0,0.0,24.681236267089844,2.9791743755340576,6.13596773147583,-4467.3525390625,0
1298.4629999999997,-0.022662121802568436,0.02352653071284294,-0.0005056390655227005,0.0,0.0,0.0,0.0,0.0010239307302981615,0.0004596986691467464,-0.0006594591541215777,0.9998486042022705,0.0,0.0,0.0,24.6566219329834,2.9847049713134766,6.126655578613281,-4462.89794921875,0
1308.380000000001,-0.022634832188487053,0.023538634181022644,-0.0004700827703345567,0.0,0.0,0.0,0.0,-0.0030748734716326,0.0006104553467594087,0.0010218934621661901,0.9997111558914185,0.0,0.0,0.0,24.651521682739258,2.995023012161255,6.134316444396973,-4461.974609375,0
1318.2870000000003,-0.022567013278603554,0.023601440712809563,-0.000563465990126133,0.0,0.0,0.0,0.0,0.001062441966496408,-0.0009118809830397367,-0.0021059750579297543,1.0018031597137451,0.0,0.0,0.0,24.66696548461914,3.0091187953948975,6.157773494720459,-4464.77001953125,0
1328.2080000000005,-0.022583812475204468,0.023614687845110893,-0.0005376896006055176,0.0,0.0,0.0,0.0,-0.0017969177570194006,0.003761888016015291,-0.0020892878528684378,1.0015974044799805,0.0,0.0,0.0,24.66167640686035,3.0156192779541016,6.157223224639893,-4463.8125,0
1338.1110000000008,-0.02255573682487011,0.023628737777471542,-0.0005873630871064961,0.0,0.0,0.0,0.0,0.002106809988617897,0.0004863234353251755,0.00046124699292704463,1.0010795593261719,0.0,0.0,0.0,24.680805206298828,3.013831615447998,6.158775806427002,-4467.27490234375,0
1348.0210000000006,-0.022566884756088257,0.02361210063099861,-0.0005735112936235964,0.0,0.0,0.0,0.0,5.594166577793658e-05,0.000392119720345363,-0.0008367864065803587,0.9997197985649109,0.0,0.0,0.0,24.671571731567383,3.0122034549713135,6.154659748077393,-4465.603515625,0
1357.938,-0.022542651742696762,0.023616963997483253,-0.0006164103397168219,0.0,0.0,0.0,0.0,-0.00044302057358436286,-0.004282659385353327,0.003390291705727577,0.9976797699928284,0.0,0.0,0.0,24.688091278076172,3.009816884994507,6.160914897918701,-4468.59326171875,0
1367.8449999999993,-0.022545840591192245,0.02359331026673317,-0.0006047144415788352,0.0,0.0,0.0,0.0,0.005663769785314798,-0.0023102802224457264,-0.00038247022894211113,1.0002022981643677,0.0,0.0,0.0,24.687013626098633,3.007899045944214,6.166255950927734,-4468.3984375,0
1377.759,-0.022541694343090057,0.023560335859656334,-0.0006384870503097773,0.0,0.0,0.0,0.0,0.0031655628699809313,-0.0005823969258926809,-0.0012460367288440466,0.9992132186889648,0.0,0.0,0.0,24.70377540588379,2.993744373321533,6.172049522399902,-4471.43212890625,0
1387.6720000000005,-0.02249680459499359,0.02358230948448181,-0.0005881480756215751,0.0,0.0,0.0,0.0,0.0011706475634127855,-0.00276442663744092,0.000961105979513377,0.9997739195823669,0.0,0.0,0.0,24.69786834716797,2.9862380027770996,6.181478977203369,-4470.36279296875,0
1397.5820000000003,-0.022477412596344948,0.023596834391355515,-0.0006161740748211741,0.0,0.0,0.0,0.0,0.0005841588135808706,0.0018468365306034684,-0.0012378757819533348,0.9985405206680298,0.0,0.0,0.0,24.711654663085938,2.9802980422973633,6.181020736694336,-4472.85888671875,0
1407.5,-0.022542452439665794,0.023620717227458954,-0.0006066850037313998,0.0,0.0,0.0,0.0,-0.0005158127751201391,-0.0011991026112809777,0.000413495086831972,0.99747234582901,0.0,0.0,0.0,24.701765060424805,2.988649845123291,6.164214134216309,-4471.068359375,0
1417.4040000000005,-0.02252841554582119,0.023613838478922844,-0.0006428975611925125,0.0,0.0,0.0,0.0,0.0031766656320542097,0.0009778914973139763,0.0008463507401756942,1.0007405281066895,0.0,0.0,0.0,24.721323013305664,2.9828763008117676,6.173035144805908,-4474.60888671875,0
1427.3160000000007,-0.022551903501152992,0.023636141791939735,-0.0006219120696187019,0.0,0.0,0.0,0.0,-0.0018359633395448327,0.0018059874419122934,-0.001205955632030964,0.9988971948623657,0.0,0.0,0.0,24.71319007873535,2.9819741249084473,6.164709568023682,-4473.13671875,0
1437.228000000001,-0.02258710004389286,0.023572947829961777,-0.0006229614955373108,0.0,0.0,0.0,0.0,0.0002315355814062059,-0.0011842757230624557,-0.0015911228256300092,0.9996698498725891,0.0,0.0,0.0,24.731172561645508,2.973999261856079,6.14710807800293,-4476.3916015625,0
1447.1399999999994,-0.022584741935133934,0.02359301969408989,-0.0005903383134864271,0.0,0.0,0.0,0.0,6.639157072640955e-05,-0.0002486929588485509,0.0016235411167144775,0.9990797638893127,0.0,0.0,0.0,24.722379684448242,2.982219934463501,6.154573440551758,-4474.7998046875,0
1457.0519999999997,-0.02261202409863472,0.023544540628790855,-0.0005939225666224957,0.0,0.0,0.0,0.0,-0.00260534742847085,-0.0024877095129340887,0.0002868081792257726,0.9965455532073975,0.0,0.0,0.0,24.698287963867188,2.976685047149658,6.1501665115356445,-4470.439453125,0
1466.9709999999995,-0.02260635793209076,0.023570485413074493,-0.0005640664603561163,0.0,0.0,0.0,0.0,6.1200546042528e-05,-0.001419786480255425,-0.0009934096597135067,0.9968433380126953,0.0,0.0,0.0,24.691864013671875,2.9927759170532227,6.168838977813721,-4469.27685546875,0
1476.8819999999996,-0.022632086649537086,0.023521974682807922,-0.0005686882068403065,0.0,0.0,0.0,0.0,-0.0024880273267626762,0.0014200144214555621,0.0018837478710338473,1.0001192092895508,0.0,0.0,0.0,24.667789459228516,2.99221134185791,6.160658359527588,-4464.9189453125,0
1486.7890000000007,-0.022625170648097992,0.023546725511550903,-0.0005417424254119396,0.0,0.0,0.0,0.0,0.001674831728450954,0.0014942814595997334,-0.0021416821982711554,0.9998894333839417,0.0,0.0,0.0,24.6649227142334,3.0067195892333984,6.166759967803955,-4464.400390625,0
1496.7109999999993,-0.022653087973594666,0.023499375209212303,-0.0005450400058180094,0.0,0.0,0.0,0.0,-0.0014957963721826673,0.001680506393313408,-3.7293457921805384e-07,1.0002135038375854,0.0,0.0,0.0,24.640274047851562,3.0034468173980713,6.15818977355957,-4459.93896484375,0
1506.6149999999998,-0.022642312571406364,0.023522712290287018,-0.0005122826551087201,0.0,0.0,0.0,0.0,0.0022042228374630213,-0.00017019110964611173,0.0010608913144096732,0.997718334197998,0.0,0.0,0.0,24.63866424560547,3.0217676162719727,6.172048091888428,-4459.64697265625,0
1516.5249999999996,-0.02267405018210411,0.023477347567677498,-0.000511760066729039,0.0,0.0,0.0,0.0,-2.885176036215853e-05,3.1662993933423422e-06,0.0017643393948674202,1.001034140586853,0.0,0.0,0.0,24.614748001098633,3.0148675441741943,6.156580924987793,-4455.318359375,0
1526.4430000000011,-0.022662464529275894,0.023496869951486588,-0.00047442258801311255,0.0,0.0,0.0,0.0,-0.001904959324747324,-0.0024076374247670174,0.0001396722364006564,1.000497579574585,0.0,0.0,0.0,24.612192153930664,3.0330636501312256,6.166547775268555,-4454.85595703125,0
1536.3520000000008,-0.022693678736686707,0.02345460280776024,-0.0004704961902461946,0.0,0.0,0.0,0.0,-0.0019155057379975915,0.0002469625324010849,0.0022562863305211067,0.9982175827026367,0.0,0.0,0.0,24.587459564208984,3.0334622859954834,6.162404537200928,-4450.37939453125,0
1546.2620000000006,-0.022677171975374222,0.023476500064134598,-0.00042533728992566466,0.0,0.0,0.0,0.0,-0.0005604410544037819,-0.002580147935077548,0.006736814975738525,0.9981216788291931,0.0,0.0,0.0,24.588916778564453,3.0483806133270264,6.185835838317871,-4450.64306640625,0
1556.1810000000005,-0.02270740084350109,0.02343611605465412,-0.00041841540951281786,0.0,0.0,0.0,0.0,-0.002091262023895979,0.005412566475570202,0.0015080089215189219,1.0005398988723755,0.0,0.0,0.0,24.565404891967773,3.0532994270324707,6.184738636016846,-4446.3876953125,0
1566.0920000000006,-0.022701604291796684,0.02345481887459755,-0.0003714347549248487,0.0,0.0,0.0,0.0,0.00034244119888171554,-0.003148288931697607,-0.0024185525253415108,1.0009404420852661,0.0,0.0,0.0,24.567323684692383,3.0734965801239014,6.199917793273926,-4446.734375,0
1575.9989999999998,-0.022734260186553,0.023415885865688324,-0.00036078822449781,0.0,0.0,0.0,0.0,-0.0020176786929368973,0.0036588101647794247,-0.0015574441058561206,0.9997358322143555,0.0,0.0,0.0,24.542709350585938,3.073340654373169,6.186878204345703,-4442.27978515625,0
1585.9099999999999,-0.022653020918369293,0.02338733710348606,-0.0003059517766814679,0.0,0.0,0.0,0.0,-0.00039033530629239976,0.0018207471584901214,-0.0008816694607958198,1.0006932020187378,0.0,0.0,0.0,24.548831939697266,3.0518336296081543,6.216166973114014,-4443.3876953125,0
1595.8199999999997,-0.022676732391119003,0.023347236216068268,-0.00029013052699156106,0.0,0.0,0.0,0.0,0.001798055018298328,0.0006338910316117108,-1.92804272955982e-05,1.000937581062317,0.0,0.0,0.0,24.52492332458496,3.05134654045105,6.206358432769775,-4439.0595703125,0
1605.732,-0.022642677649855614,0.02332931198179722,-0.00023656472330912948,0.0,0.0,0.0,0.0,0.002226796932518482,0.0033320742659270763,0.0008507303427904844,0.9983299970626831,0.0,0.0,0.0,24.53133773803711,3.0431137084960938,6.226351737976074,-4440.220703125,0
1615.6450000000004,-0.0226612389087677,0.023291045799851418,-0.00021671922877430916,0.0,0.0,0.0,0.0,-0.00033083290327340364,0.00015364614955615252,-0.00486723380163312,0.9980787634849548,0.0,0.0,0.0,24.507755279541016,3.037907838821411,6.228682518005371,-4435.9521484375,0
1625.5599999999995,-0.022686505690217018,0.023282097652554512,-0.00018552699475549161,0.0,0.0,0.0,0.0,0.0022831710521131754,0.0013166997814550996,0.0005425766576081514,1.000951886177063,0.0,0.0,0.0,24.50678825378418,3.0492217540740967,6.217192649841309,-4435.77685546875,0
1635.469000000001,-0.022708406671881676,0.02324659377336502,-0.00016687464085407555,0.0,0.0,0.0,0.0,0.004498031921684742,0.005664296448230743,-0.000400112709030509,1.0026711225509644,0.0,0.0,0.0,24.48377227783203,3.045332908630371,6.218698978424072,-4431.61181640625,0
1645.3809999999994,-0.022726841270923615,0.023243671283125877,-0.00012845266610383987,0.0,0.0,0.0,0.0,0.0021166407968848944,-0.001900790724903345,-0.002873731777071953,1.0013854503631592,0.0,0.0,0.0,24.485198974609375,3.0516555309295654,6.2149786949157715,-4431.86962890625,0
1655.2929999999997,-0.022750791162252426,0.023211058229207993,-0.00010440259939059615,0.0,0.0,0.0,0.0,-0.0012637916952371597,0.0008825129480101168,-0.00022881486802361906,1.0012691020965576,0.0,0.0,0.0,24.4602108001709,3.047447919845581,6.200578212738037,-4427.3466796875,0
1665.2039999999997,-0.02273537404835224,0.023228483274579048,-3.508376539684832e-05,0.0,0.0,0.0,0.0,0.0024380178656429052,0.00030740120564587414,-0.0020864889957010746,1.0009492635726929,0.0,0.0,0.0,24.464548110961914,3.053831100463867,6.221754550933838,-4428.13134765625,0
1675.1170000000002,-0.022757690399885178,0.023196592926979065,-3.860710421577096e-06,0.0,0.0,0.0,0.0,0.0013297112891450524,0.00043153789010830224,-0.00018712594464886934,0.9987392425537109,0.0,0.0,0.0,24.44060707092285,3.0504207611083984,6.213451385498047,-4423.79833984375,0
1685.0280000000002,-0.02278950810432434,0.023223496973514557,4.9649937864160165e-05,0.0,0.0,0.0,0.0,-0.0018621794879436493,-0.001065111719071865,0.0008517556125298142,0.9991609454154968,0.0,0.0,0.0,24.447721481323242,3.067145824432373,6.213183879852295,-4425.08642578125,0
1694.9400000000005,-0.022816672921180725,0.02319304086267948,8.361213258467615e-05,0.0,0.0,0.0,0.0,0.005303067620843649,0.0019893513526767492,0.0004612552293110639,0.999696671962738,0.0,0.0,0.0,24.4238224029541,3.0692710876464844,6.205316543579102,-4420.76025390625,0
1704.8520000000008,-0.02282310277223587,0.02319594845175743,0.0001382285263389349,0.0,0.0,0.0,0.0,0.0015706823905929923,0.0017493288032710552,-0.004366741981357336,0.9994688630104065,0.0,0.0,0.0,24.43401527404785,3.063615560531616,6.2040557861328125,-4422.60498046875,0
1714.7700000000004,-0.02285134606063366,0.023164082318544388,0.0001736546983011067,0.0,0.0,0.0,0.0,0.0006576974410563707,0.00041266734478995204,-0.003272878471761942,0.9999202489852905,0.0,0.0,0.0,24.408790588378906,3.060654640197754,6.197357177734375,-4418.03955078125,0
1724.6769999999997,-0.022866614162921906,0.023180266842246056,0.00023256719578057528,0.0,0.0,0.0,0.0,0.004192030522972345,0.0012182823847979307,0.0018296531634405255,0.998467743396759,0.0,0.0,0.0,24.416349411010742,3.0735957622528076,6.193054676055908,-4419.40771484375,0
1734.5969999999998,-0.022596437484025955,0.023532811552286148,-0.0005145703908056021,0.0,0.0,0.0,0.0,0.001181546482257545,0.0033034670632332563,0.002241928828880191,0.9987311363220215,0.0,0.0,0.0,24.45524787902832,3.091789484024048,6.243532657623291,-4426.4482421875,0
1744.5,-0.022611981257796288,0.023568125441670418,-0.0004707181651610881,0.0,0.0,0.0,0.0,0.0006415226962417364,0.001632486004382372,0.0008283174247480929,0.9991822242736816,0.0,0.0,0.0,24.460155487060547,3.09649395942688,6.232319355010986,-4427.33642578125,0
1754.4259999999995,-0.022630685940384865,0.023548442870378494,-0.00045988228521309793,0.0,0.0,0.0,0.0,-0.00039549192297272384,0.0047259205020964146,0.0009523866465315223,0.9982107281684875,0.0,0.0,0.0,24.4357852935791,3.094158172607422,6.220526695251465,-4422.92578125,0
1764.3269999999993,-0.02262875810265541,0.023555714637041092,-0.00042995635885745287,0.0,0.0,0.0,0.0,-0.004090949427336454,0.0026241291780024767,-0.0020416737534105778,0.9998608231544495,0.0,0.0,0.0,24.441883087158203,3.0859215259552,6.212374210357666,-4424.02978515625,0
1774.246000000001,-0.022649120539426804,0.023536566644906998,-0.0004195588990114629,0.0,0.0,0.0,0.0,0.0005955416127108037,-0.00411430187523365,0.0005064026918262243,1.0000276565551758,0.0,0.0,0.0,24.416889190673828,3.0855977535247803,6.204202651977539,-4419.505859375,0
1784.148000000001,-0.022633016109466553,0.023520084097981453,-0.00040013561374507844,0.0,0.0,0.0,0.0,0.0009638757328502834,0.0010406251531094313,-0.00013748009223490953,0.9971004724502563,0.0,0.0,0.0,24.43208122253418,3.0808866024017334,6.2122297286987305,-4422.2548828125,0
1794.0689999999995,-0.022519996389746666,0.023661870509386063,-0.0006175136077217758,0.0,0.0,0.0,0.0,-0.00022966873075347394,-0.004406292922794819,0.004519904963672161,0.9973193407058716,0.0,0.0,0.0,24.4674072265625,3.08880615234375,6.22496223449707,-4428.6494140625,0
1803.978000000001,-0.022468384355306625,0.023631582036614418,-0.0006002945592626929,0.0,0.0,0.0,0.0,-0.0015357641968876123,-0.0011647249339148402,-7.841656770324335e-05,0.9993983507156372,0.0,0.0,0.0,24.466049194335938,3.0824735164642334,6.219513893127441,-4428.40380859375,0
1813.8950000000004,-0.02247130498290062,0.023643555119633675,-0.0006169960834085941,0.0,0.0,0.0,0.0,0.002025538356974721,-0.003374688560143113,4.143531623412855e-05,0.999645471572876,0.0,0.0,0.0,24.5047664642334,3.075916290283203,6.228341579437256,-4435.41162109375,0
1823.800000000001,-0.02247750200331211,0.02359628491103649,-0.0006353076314553618,0.0,0.0,0.0,0.0,0.0011061378754675388,0.004914731252938509,-0.002054517390206456,0.9996992349624634,0.0,0.0,0.0,24.511240005493164,3.0720653533935547,6.235679626464844,-4436.5830078125,0
1833.7180000000008,-0.02249995991587639,0.023575617000460625,-0.0006413819501176476,0.0,0.0,0.0,0.0,0.002683691680431366,0.0016849719686433673,0.0024828403256833553,0.9976828694343567,0.0,0.0,0.0,24.485788345336914,3.0658271312713623,6.219428062438965,-4431.97607421875,0
1843.6260000000002,-0.02246571145951748,0.023585960268974304,-0.0006232429295778275,0.0,0.0,0.0,0.0,0.0026466534473001957,-2.8764494345523417e-05,-0.0015985470963642001,0.998936116695404,0.0,0.0,0.0,24.4866886138916,3.055974006652832,6.207499027252197,-4432.13916015625,0
1853.5390000000007,-0.02248746156692505,0.023561593145132065,-0.0006287523428909481,0.0,0.0,0.0,0.0,0.0006218139315024018,-0.00016161387611646205,0.00042816202039830387,1.0031797885894775,0.0,0.0,0.0,24.461889266967773,3.046038866043091,6.192791938781738,-4427.65087890625,0
1863.4529999999995,-0.022528989240527153,0.023581689223647118,-0.0006159934564493597,0.0,0.0,0.0,0.0,0.00039518479024991393,-0.000503811112139374,0.0012588220415636897,1.0003657341003418,0.0,0.0,0.0,24.47446060180664,3.0487401485443115,6.201644420623779,-4429.92578125,0
1873.3629999999994,-0.022552959620952606,0.02355630323290825,-0.0006176362512633204,0.0,0.0,0.0,0.0,-0.0017552917124703526,0.00034052698174491525,-0.0008392268791794777,0.998481810092926,0.0,0.0,0.0,24.45047950744629,3.0462732315063477,6.19791316986084,-4425.5849609375,0
1883.277,-0.022580377757549286,0.023577485233545303,-0.0005918857641518116,0.0,0.0,0.0,0.0,0.0031465264037251472,0.00013261660933494568,-0.0006886421469971538,0.9994757175445557,0.0,0.0,0.0,24.457509994506836,3.0584557056427,6.1940813064575195,-4426.85791015625,0
1893.1890000000003,-0.02260919101536274,0.023551834747195244,-0.0005916933296248317,0.0,0.0,0.0,0.0,-0.00020996402599848807,-0.004995695315301418,-0.0024096807464957237,0.9983114004135132,0.0,0.0,0.0,24.433012008666992,3.059051513671875,6.189662456512451,-4422.423828125,0
1903.107,-0.022615522146224976,0.023569287732243538,-0.0005553940427489579,0.0,0.0,0.0,0.0,-0.0023382275830954313,-0.00293534598313272,-0.0015780061949044466,0.9991980791091919,0.0,0.0,0.0,24.440893173217773,3.065005302429199,6.201018810272217,-4423.8505859375,0
1913.0130000000008,-0.02254309691488743,0.023668549954891205,-0.0007342874305322766,0.0,0.0,0.0,0.0,0.00023197564587462693,0.0008640434825792909,-0.0027413894422352314,0.999742329120636,0.0,0.0,0.0,24.479618072509766,3.0778021812438965,6.216365337371826,-4430.85986328125,0
1922.9300000000003,-0.022556470707058907,0.0237091314047575,-0.0006974784191697836,0.0,0.0,0.0,0.0,-0.00353115051984787,-0.003260945435613394,0.0012148636160418391,1.000234603881836,0.0,0.0,0.0,24.490564346313477,3.083993434906006,6.217113971710205,-4432.84033203125,0
1932.848,-0.022574331611394882,0.023683471605181694,-0.0007190097821876407,0.0,0.0,0.0,0.0,-0.0024508065544068813,-0.0014979552943259478,3.4247219446115196e-05,0.9998956918716431,0.0,0.0,0.0,24.525367736816406,3.0835275650024414,6.21820068359375,-4439.14013671875,0
1942.7450000000008,-0.022551974281668663,0.023692751303315163,-0.0006857076077722013,0.0,0.0,0.0,0.0,0.00035925416159443557,-0.0004958858480677009,-0.0022331944201141596,0.9985321760177612,0.0,0.0,0.0,24.528114318847656,3.0830187797546387,6.221896648406982,-4439.63720703125,0
1952.6599999999999,-0.022567590698599815,0.023672811686992645,-0.0007049464038573205,0.0,0.0,0.0,0.0,0.0007987130084075034,-0.0002451594627927989,-0.00021223511430434883,0.9970974326133728,0.0,0.0,0.0,24.560245513916016,3.0816354751586914,6.215638160705566,-4445.453125,0
1962.571,-0.022595921531319618,0.023646872490644455,-0.0007117987843230367,0.0,0.0,0.0,0.0,-0.0023619781713932753,0.0007486258982680738,-0.0022463116329163313,0.9980131983757019,0.0,0.0,0.0,24.53645133972168,3.0748043060302734,6.212836742401123,-4441.146484375,0
1972.4850000000006,-0.02260832116007805,0.0236489437520504,-0.0007397413719445467,0.0,0.0,0.0,0.0,-0.0024902888108044863,0.002603103406727314,-0.0028702025301754475,0.999445378780365,0.0,0.0,0.0,24.563234329223633,3.0681169033050537,6.2236456871032715,-4445.994140625,0
1982.3940000000002,-0.022573625668883324,0.023673199117183685,-0.000683552585542202,0.0,0.0,0.0,0.0,-0.005288663320243359,-0.00547909177839756,0.00015004462329670787,0.9996562600135803,0.0,0.0,0.0,24.563007354736328,3.0740177631378174,6.237443447113037,-4445.953125,0
1992.3099999999995,-0.02258118987083435,0.023665601387619972,-0.0007096175104379654,0.0,0.0,0.0,0.0,0.0026508362498134375,-0.002638891339302063,-0.00029400523635558784,0.9981216192245483,0.0,0.0,0.0,24.588890075683594,3.0714211463928223,6.248535633087158,-4450.63818359375,0
2002.2240000000002,-0.022562609985470772,0.023678911849856377,-0.0006821379065513611,0.0,0.0,0.0,0.0,-0.0014715066645294428,0.0015677991323173046,0.004954687785357237,1.0013593435287476,0.0,0.0,0.0,24.587881088256836,3.0639841556549072,6.249889850616455,-4450.45556640625,0
2012.134,-0.02258855663239956,0.023623254150152206,-0.0007018684409558773,0.0,0.0,0.0,0.0,0.0007440163171850145,0.002762972377240658,-0.0011169498320668936,1.0013856887817383,0.0,0.0,0.0,24.61281967163086,3.0515334606170654,6.238325119018555,-4454.96923828125,0
2022.0460000000003,-0.022582825273275375,0.02367374300956726,-0.0006596078746952116,0.0,0.0,0.0,0.0,0.0025723050348460674,0.0003470834926702082,0.0013316278345882893,0.9981316328048706,0.0,0.0,0.0,24.613513946533203,3.0532588958740234,6.240495681762695,-4455.09521484375,0
2031.955,-0.02258956991136074,0.02365504391491413,-0.0006853870581835508,0.0,0.0,0.0,0.0,0.0008920818218030035,-0.0007059461786411703,-0.003163466928526759,0.9987837672233582,0.0,0.0,0.0,24.639841079711914,3.0417118072509766,6.233956336975098,-4459.85986328125,0
2041.8760000000002,-0.022540977224707603,0.023631051182746887,-0.0006630305433645844,0.0,0.0,0.0,0.0,-0.0005118912667967379,0.0006774459616281092,0.003014845075085759,0.9995426535606384,0.0,0.0,0.0,24.637666702270508,3.0354621410369873,6.238246440887451,-4459.466796875,0
2051.7790000000005,-0.02256852388381958,0.023597639054059982,-0.0006665412802249193,0.0,0.0,0.0,0.0,0.0016227330779656768,0.005234941840171814,-0.002693084767088294,0.999308705329895,0.0,0.0,0.0,24.614486694335938,3.0369207859039307,6.233027458190918,-4455.271484375,0
2061.688,-0.022572848945856094,0.02362741529941559,-0.000642310653347522,0.0,0.0,0.0,0.0,0.002790583996102214,0.008214556612074375,0.0014185591135174036,1.0009195804595947,0.0,0.0,0.0,24.61313819885254,3.0379960536956787,6.222934246063232,-4455.02685546875,0
2071.6059999999998,-0.022601263597607613,0.02359260804951191,-0.0006439549033530056,0.0,0.0,0.0,0.0,0.003390329657122493,0.0013356885174289346,0.002612679498270154,1.000138759613037,0.0,0.0,0.0,24.590295791625977,3.0316264629364014,6.204087257385254,-4450.89306640625,0
2081.5190000000002,-0.02256583981215954,0.023591723293066025,-0.0006222525844350457,0.0,0.0,0.0,0.0,0.0017799033084884286,-0.002719539450481534,0.0007308375206775963,0.9987049102783203,0.0,0.0,0.0,24.59658432006836,3.0225765705108643,6.211784362792969,-4452.03125,0
2091.4269999999997,-0.0226034764200449,0.023549078032374382,-0.0006039589061401784,0.0,0.0,0.0,0.0,0.0019471574341878295,0.001409748219884932,0.004902612883597612,0.9992294907569885,0.0,0.0,0.0,24.623268127441406,3.007930278778076,6.2035722732543945,-4456.86083984375,0
2101.3320000000003,-0.02250034362077713,0.023510223254561424,-0.0005517518147826195,0.0,0.0,0.0,0.0,-8.164790051523596e-05,-0.003796075936406851,-0.0012541812611743808,0.9998040199279785,0.0,0.0,0.0,24.62588119506836,2.990859031677246,6.217501640319824,-4457.333984375,0
2111.263000000001,-0.0225302055478096,0.02346864342689514,-0.0005460304673761129,0.0,0.0,0.0,0.0,-0.0034469962120056152,-0.0006654419121332467,0.0006818152614869177,0.9987247586250305,0.0,0.0,0.0,24.600631713867188,2.990018606185913,6.213655948638916,-4452.763671875,0
2121.1679999999997,-0.022585595026612282,0.023491432890295982,-0.0005162040470167994,0.0,0.0,0.0,0.0,0.0007772237877361476,-0.004036422353237867,0.0037899669259786606,0.998482346534729,0.0,0.0,0.0,24.601280212402344,3.0047965049743652,6.203393936157227,-4452.880859375,0
2131.0840000000007,-0.022617017850279808,0.02345212548971176,-0.0005100553971715271,0.0,0.0,0.0,0.0,0.00011429559526732191,0.0014455009950324893,-0.0011989267077296972,0.9997406601905823,0.0,0.0,0.0,24.57674217224121,3.0075149536132812,6.20623254776001,-4448.439453125,0
2140.992,-0.0225992389023304,0.023457299917936325,-0.0004714416863862425,0.0,0.0,0.0,0.0,0.0016062166541814804,0.0011266428045928478,6.675641634501517e-05,0.9992194771766663,0.0,0.0,0.0,24.583518981933594,3.015707015991211,6.213263511657715,-4449.666015625,0
2150.9120000000003,-0.022628702223300934,0.023419717326760292,-0.0004632676427718252,0.0,0.0,0.0,0.0,-0.0005235821008682251,0.0007956525078043342,0.0007265342283062637,0.9971804618835449,0.0,0.0,0.0,24.55847930908203,3.010587215423584,6.198816776275635,-4445.13427734375,0
2160.822,-0.022634273394942284,0.02340981364250183,-0.0004368385998532176,0.0,0.0,0.0,0.0,-0.001973496051505208,0.00018290180014446378,0.003072788706049323,0.9999105930328369,0.0,0.0,0.0,24.55670738220215,3.016568660736084,6.20095157623291,-4444.8134765625,0
2170.7309999999998,-0.02266332134604454,0.02337433211505413,-0.00042963214218616486,0.0,0.0,0.0,0.0,-0.0018947301432490349,-0.0017755853477865458,0.0013678966788575053,0.9984305500984192,0.0,0.0,0.0,24.533061981201172,3.017651081085205,6.1932597160339355,-4440.53271484375,0
2180.6409999999996,-0.02265319786965847,0.02339119464159012,-0.0003826967440545559,0.0,0.0,0.0,0.0,-0.002640334190800786,-0.0024820694234222174,0.003255815478041768,0.9982317686080933,0.0,0.0,0.0,24.542665481567383,3.0325417518615723,6.21239709854126,-4442.271484375,0
2190.559000000001,-0.022681474685668945,0.023359527811408043,-0.0003737693768925965,0.0,0.0,0.0,0.0,0.0012337981024757028,0.004403434693813324,0.0009491599630564451,0.9981484413146973,0.0,0.0,0.0,24.519351959228516,3.035130739212036,6.213657379150391,-4438.05126953125,0
