timestamp,stateEstimate.x,stateEstimate.y,stateEstimate.z,controller.cmd_thrust,controller.cmd_roll,controller.cmd_pitch,controller.cmd_yaw,controller.r_roll,controller.r_pitch,controller.r_yaw,controller.accelz,controller.actuatorThrust,controller.roll,controller.pitch,controller.yaw,controller.rollRate,controller.pitchRate,controller.yawRate,controller.ctr_yaw
0.0,-0.0002816691412590444,-0.00011401956726331264,-0.0002390446898061782,0.0,0.0,0.0,0.0,0.0010684673907235265,-0.0032411469146609306,-0.0003536415460985154,0.9985606670379639,0.0,0.0,0.0,0.20884963870048523,3.020108222961426,3.6707847118377686,-37.80219650268555,0
9.899999999999636,-0.00032834953162819147,-0.0001529425207991153,-0.0002536257088650018,0.0,0.0,0.0,0.0,-0.0038461440708488226,-0.000713361194357276,-0.0008071064366959035,0.9984967112541199,0.0,0.0,0.0,0.20936249196529388,3.0149760246276855,3.666698694229126,-37.8950309753418,0
19.81999999999971,-0.0003082649491261691,-2.987997686432209e-05,-0.0003183663066010922,0.0,0.0,0.0,0.0,-0.0035644317977130413,-0.0005422027315944433,0.001188076799735427,0.9987820982933044,0.0,0.0,0.0,0.2136906087398529,3.071406841278076,3.694892406463623,-38.67842483520508,0
29.72400000000016,-9.132759441854432e-05,-0.0001352972467429936,-0.00018834450747817755,0.0,0.0,0.0,0.0,-0.00311768869869411,0.0003098979650530964,-0.0017236826242879033,0.9996094703674316,0.0,0.0,0.0,0.2102576345205307,3.0506715774536133,3.7605087757110596,-38.05705261230469,0
39.65300000000025,-9.381729614688084e-05,-0.00015249630087055266,-0.00022805978369433433,0.0,0.0,0.0,0.0,0.0038451957516372204,-0.003087276127189398,-0.0005130279459990561,0.9991000294685364,0.0,0.0,0.0,0.21062932908535004,3.049673557281494,3.757296562194824,-38.124324798583984,0
49.54900000000089,-2.465858415234834e-06,-0.00018038070993497968,-0.00018411701603326946,0.0,0.0,0.0,0.0,-0.0014600394060835242,0.0038050170987844467,0.001908143749460578,0.9972479343414307,0.0,0.0,0.0,0.20970307290554047,3.0373616218566895,3.766864776611328,-37.95667266845703,0
59.47400000000016,-2.9086359063512646e-05,-0.00022016966249793768,-0.00019666161097120494,0.0,0.0,0.0,0.0,-0.004111079499125481,0.003135401988402009,-0.0019603711552917957,0.9978194236755371,0.0,0.0,0.0,0.2099858671426773,3.035661220550537,3.762113094329834,-38.00785827636719,0
69.3739999999998,-4.272333171684295e-06,-0.00021067095804028213,-0.00017783907242119312,0.0,0.0,0.0,0.0,-0.000917911296710372,-0.0015926073538139462,-0.0014264655765146017,0.9980016946792603,0.0,0.0,0.0,0.20914126932621002,3.033782958984375,3.7557737827301025,-37.85498809814453,0
79.30299999999988,-8.263041308964603e-06,-0.00019135781622026116,-0.00020620075520128012,0.0,0.0,0.0,0.0,-0.00011094419460278004,0.003158378414809704,0.0018125686328858137,0.9997928142547607,0.0,0.0,0.0,0.20827718079090118,3.028533697128296,3.7566733360290527,-37.698585510253906,0
89.19599999999991,5.8785153669305146e-06,-0.00019690420594997704,-0.00018968044605571777,0.0,0.0,0.0,0.0,0.00030887810862623155,-0.0032897840719670057,-0.0003280433302279562,0.9994080066680908,0.0,0.0,0.0,0.20811347663402557,3.0321807861328125,3.741748809814453,-37.66895294189453,0
99.121000000001,-2.4982757167890668e-05,-0.00019605156558100134,-0.00018481841834727675,0.0,0.0,0.0,0.0,0.00085811986355111,0.004034270532429218,0.003966545220464468,0.9992530941963196,0.0,0.0,0.0,0.20786777138710022,3.030064105987549,3.736933946609497,-37.624481201171875,0
109.02100000000064,-7.734145037829876e-05,-0.00017406849656254053,-0.00017702154582366347,0.0,0.0,0.0,0.0,0.0013370286906138062,0.0004279344866517931,-0.0003513758711051196,0.9994964599609375,0.0,0.0,0.0,0.20870232582092285,3.019653558731079,3.7343335151672363,-37.77553176879883,0
118.94700000000012,-0.00012071333185303956,-0.00018475584511179477,-0.00016782755847088993,0.0,0.0,0.0,0.0,-0.0015122571494430304,-0.0034734902437776327,0.00197612214833498,0.9995028972625732,0.0,0.0,0.0,0.20762069523334503,3.0122196674346924,3.7313215732574463,-37.57975769042969,0
128.84400000000096,-0.0001589198800502345,-0.0002259131579194218,-0.0001777192810550332,0.0,0.0,0.0,0.0,-0.0014130895724520087,-0.0031393927056342363,0.0009350042673759162,1.0001806020736694,0.0,0.0,0.0,0.20754490792751312,3.0138115882873535,3.7367892265319824,-37.5660400390625,0
138.77100000000064,-0.00015745952259749174,-0.00017315297736786306,-0.00021181756164878607,0.0,0.0,0.0,0.0,-0.00033386077848263085,-0.0008668145164847374,1.7131515051005408e-05,0.9983895421028137,0.0,0.0,0.0,0.20836913585662842,3.0123391151428223,3.7322235107421875,-37.71522521972656,0
148.66899999999987,-0.00012505362974479795,-0.00014863480464555323,-0.000149008454172872,0.0,0.0,0.0,0.0,0.0014360271161422133,-0.002831509802490473,-0.0007269522757269442,1.0004284381866455,0.0,0.0,0.0,0.2087472379207611,3.009517192840576,3.7407612800598145,-37.783660888671875,0
158.59499999999935,-0.00016129558207467198,-0.0001865855447249487,-0.00015611109847668558,0.0,0.0,0.0,0.0,-0.0012604681542143226,-0.005199860781431198,0.004226256627589464,1.0005218982696533,0.0,0.0,0.0,0.2079821527004242,3.009387254714966,3.7355663776397705,-37.64518356323242,0
168.4940000000006,-0.0001994511258089915,-0.00022706144955009222,-0.00016227281594183296,0.0,0.0,0.0,0.0,0.0008839453803375363,-1.2188480468466878e-05,-0.00012260481889825314,1.0017741918563843,0.0,0.0,0.0,0.20850351452827454,3.0137217044830322,3.74216365814209,-37.73955154418945,0
178.41400000000067,-0.00023985533334780484,-0.00026905315462499857,-0.00016781299200374633,0.0,0.0,0.0,0.0,0.0007072901935316622,-0.0004196310765109956,0.0020668983925133944,0.9973472356796265,0.0,0.0,0.0,0.20620505511760712,3.004436731338501,3.738856792449951,-37.323524475097656,0
188.3179999999993,-0.00028184038819745183,-0.00031146506080403924,-0.00017471470346208662,0.0,0.0,0.0,0.0,-0.0012897924752905965,-0.002822964219376445,-0.005323223769664764,0.9968312978744507,0.0,0.0,0.0,0.2069190889596939,3.0012423992156982,3.7383930683135986,-37.45276641845703,0
198.2430000000004,-0.00026801778585650027,-0.0002300190390087664,-0.0002169980143662542,0.0,0.0,0.0,0.0,0.001052140723913908,0.0038073642645031214,-0.0014477930963039398,0.9981335997581482,0.0,0.0,0.0,0.21056708693504333,3.0333948135375977,3.7481343746185303,-38.113059997558594,0
208.14099999999962,-8.540519775124267e-05,-0.00018533349793870002,-7.352692045969889e-05,0.0,0.0,0.0,0.0,0.0011379019124433398,-0.003642920171841979,0.00391335878521204,0.9989001750946045,0.0,0.0,0.0,0.21266040205955505,3.0428831577301025,3.7958154678344727,-38.4919548034668,0
218.0660000000007,-0.00014922414266038686,-0.00025766502949409187,-8.144211460603401e-05,0.0,0.0,0.0,0.0,-0.0005835441406816244,0.0006304866983555257,-0.0008896355866454542,1.0000615119934082,0.0,0.0,0.0,0.21351931989192963,3.036369562149048,3.7876651287078857,-38.647422790527344,0
227.96700000000055,-7.028684922261164e-05,-0.00018222283688373864,-1.777714533091057e-05,0.0,0.0,0.0,0.0,0.0003259405493736267,-0.003367651253938675,-0.0048638880252838135,1.000779628753662,0.0,0.0,0.0,0.21351931989192963,3.036369562149048,3.7876651287078857,-38.647422790527344,0
237.89500000000044,-0.00013416094589047134,-0.00025376779376529157,-1.539505501568783e-05,0.0,0.0,0.0,0.0,0.001572450972162187,0.0005265712970867753,-6.956255674595013e-05,1.00010085105896,0.0,0.0,0.0,0.211838498711586,3.029952049255371,3.7873849868774414,-38.34318923950195,0
247.79199999999946,-5.106918251840398e-05,-0.00023920531384646893,7.3612363848951645e-06,0.0,0.0,0.0,0.0,-0.0007469294359907508,0.0002632671094033867,-4.247615652275272e-05,0.9992362856864929,0.0,0.0,0.0,0.211838498711586,3.029952049255371,3.7873849868774414,-38.34318923950195,0
257.71399999999994,1.3384475096245296e-05,-0.000128437954117544,-0.000119959564472083,0.0,0.0,0.0,0.0,0.003127401228994131,0.0025929880794137716,0.0002769973361864686,1.0005388259887695,0.0,0.0,0.0,0.20800405740737915,3.068542957305908,3.796525478363037,-37.649147033691406,0
267.621000000001,-5.144452734384686e-05,-0.0001164214700111188,-0.00011869610170833766,0.0,0.0,0.0,0.0,-0.00023889665317256004,-5.072435305919498e-05,-0.0017462311079725623,0.9999077916145325,0.0,0.0,0.0,0.20740443468093872,3.057551622390747,3.7803521156311035,-37.54061508178711,0
277.53800000000047,-4.280084613128565e-05,-8.957138925325125e-05,-0.00016562797827646136,0.0,0.0,0.0,0.0,-0.0002548722841311246,-0.0015587093075737357,-4.3044568883487955e-05,0.9987873435020447,0.0,0.0,0.0,0.20610100030899048,3.0463974475860596,3.7721762657165527,-37.304691314697266,0
287.4420000000009,-4.1425751987844706e-05,-9.250961011275649e-05,-0.0001464350934838876,0.0,0.0,0.0,0.0,-0.0009465717012062669,-0.004831854719668627,-0.0008166423649527133,0.9985645413398743,0.0,0.0,0.0,0.20540927350521088,3.049097776412964,3.7724764347076416,-37.17948913574219,0
297.3639999999996,-7.484850357286632e-05,-9.379671246279031e-05,-0.0001417530729668215,0.0,0.0,0.0,0.0,-0.003953495994210243,0.001231544534675777,-0.003105783136561513,1.0001981258392334,0.0,0.0,0.0,0.21027003228664398,3.0500614643096924,3.769812822341919,-38.05929183959961,0
307.26800000000003,-0.00010942124208668247,-0.00012414462980814278,-0.00014782683865632862,0.0,0.0,0.0,0.0,-0.001439776737242937,0.0012387981405481696,-0.003459424013271928,1.0001287460327148,0.0,0.0,0.0,0.21063204109668732,3.048135757446289,3.773249626159668,-38.124820709228516,0
317.1859999999997,-0.00014470212045125663,-0.00015501549933105707,-0.0001538066571811214,0.0,0.0,0.0,0.0,-0.0006384465959854424,-0.001324322889558971,-0.003442871617153287,0.9998410940170288,0.0,0.0,0.0,0.21064206957817078,3.0491394996643066,3.7765328884124756,-38.12662887573242,0
327.08699999999953,-8.1118821981363e-05,-0.0001666340685915202,-0.00010207365266978741,0.0,0.0,0.0,0.0,0.0022950235288590193,0.00015227503899950534,-0.0011692724656313658,0.9970332384109497,0.0,0.0,0.0,0.20997056365013123,3.046858072280884,3.770979881286621,-38.005088806152344,0
337.0069999999996,-0.00011445993732195348,-0.00019887220696546137,-0.0001040661009028554,0.0,0.0,0.0,0.0,-0.0006762705743312836,-0.0022044379729777575,-0.0002750021230895072,0.9987549185752869,0.0,0.0,0.0,0.2088180035352707,3.04677677154541,3.756490707397461,-37.796470642089844,0
346.91200000000026,-3.720487075042911e-05,-0.00020510685862973332,-6.961116741877049e-05,0.0,0.0,0.0,0.0,-0.0001679921697359532,0.004539700224995613,-0.0005237421137280762,1.0012938976287842,0.0,0.0,0.0,0.20837697386741638,3.0456926822662354,3.748589277267456,-37.71664810180664,0
356.83100000000013,-1.9228196833864786e-05,-0.0001818165765143931,-0.0001391137484461069,0.0,0.0,0.0,0.0,-0.004039590246975422,0.0008501964039169252,-0.002704591490328312,1.0009777545928955,0.0,0.0,0.0,0.2132071852684021,3.0517826080322266,3.7538464069366455,-38.59092330932617,0
366.7350000000006,-3.0488698030239902e-05,-0.00013864690845366567,-0.00010080249194288626,0.0,0.0,0.0,0.0,0.0022043241187930107,0.005200049374252558,-0.0021287184208631516,0.9976893067359924,0.0,0.0,0.0,0.21284623444080353,3.047126293182373,3.747541666030884,-38.52559280395508,0
376.65799999999945,-2.099908670061268e-05,-0.00010325253242626786,-0.00013428277452476323,0.0,0.0,0.0,0.0,0.0008086836314760149,0.0052991099655628204,0.001014880952425301,1.000237226486206,0.0,0.0,0.0,0.21279215812683105,3.0539350509643555,3.7412095069885254,-38.515804290771484,0
386.5599999999995,-3.828956323559396e-05,-0.00010404234490124509,-0.00012136189616285264,0.0,0.0,0.0,0.0,0.0020373123697936535,-0.00020688945369329304,0.002644089749082923,1.000127911567688,0.0,0.0,0.0,0.2118919938802719,3.0531980991363525,3.7264890670776367,-38.35287094116211,0
396.487000000001,-6.886842311359942e-05,-0.000136076589114964,-0.00012509248335845768,0.0,0.0,0.0,0.0,0.00032594724325463176,-0.0015424864832311869,0.0012371480697765946,0.9986191391944885,0.0,0.0,0.0,0.21172307431697845,3.0455634593963623,3.7171075344085693,-38.32229995727539,0
406.38800000000083,-4.9626447435002774e-05,-0.0001474693272029981,-0.00010890382691286504,0.0,0.0,0.0,0.0,0.004433087073266506,0.0008965496672317386,-0.0016907285898923874,1.0000771284103394,0.0,0.0,0.0,0.20606304705142975,3.0476980209350586,3.7104744911193848,-37.297821044921875,0
416.3080000000009,-8.264939970104024e-05,-0.00018209064728580415,-0.00011194479884579778,0.0,0.0,0.0,0.0,0.0012620254419744015,-0.0008229269878938794,-0.002631843788549304,0.9976553320884705,0.0,0.0,0.0,0.2056874930858612,3.0413568019866943,3.695054292678833,-37.22984313964844,0
426.21099999999933,-9.02086976566352e-05,-0.00017797757755033672,-9.52730915741995e-05,0.0,0.0,0.0,0.0,0.0006153451395221055,0.0039150710217654705,0.0007859589532017708,0.9992725253105164,0.0,0.0,0.0,0.2042054533958435,3.031977415084839,3.694343090057373,-36.96158981323242,0
436.1350000000002,-0.0001010092964861542,-0.00015514245023950934,-0.0001297460839850828,0.0,0.0,0.0,0.0,-0.0008406601846218109,-0.00030463802977465093,-0.0027099086437374353,0.9983610510826111,0.0,0.0,0.0,0.21157300472259521,3.0410730838775635,3.6911773681640625,-38.295135498046875,0
446.03399999999965,-0.00011194077524123713,-0.00011321021156618372,-8.428710862062871e-05,0.0,0.0,0.0,0.0,0.0011302718194201589,-0.002035517944023013,-0.0012120850151404738,0.9994360208511353,0.0,0.0,0.0,0.2117231786251068,3.041360855102539,3.6950323581695557,-38.32231903076172,0
455.9549999999999,-0.0001483926607761532,-0.00015580491162836552,-0.00010449692490510643,0.0,0.0,0.0,0.0,0.0017285995418205857,0.0020482512190937996,-0.0027042056899517775,1.0001676082611084,0.0,0.0,0.0,0.21127204596996307,3.0438737869262695,3.684736490249634,-38.24066162109375,0
465.85699999999997,-0.0001934905885718763,-0.00019092806905973703,-0.00010912079596891999,0.0,0.0,0.0,0.0,0.0015499016735702753,-0.0006233638850972056,-0.0021907512564212084,0.9998024702072144,0.0,0.0,0.0,0.2101556360721588,3.0400638580322266,3.671617269515991,-38.0385856628418,0
475.77800000000025,-0.0002051059273071587,-0.00016165828856173903,-0.00014172674855217338,0.0,0.0,0.0,0.0,0.00020881918317172676,0.0022173908073455095,-0.00027908841730095446,0.998942494392395,0.0,0.0,0.0,0.20905108749866486,3.0362601280212402,3.6720924377441406,-37.83866500854492,0
485.6859999999997,-0.00025226789875887334,-0.00019757258996833116,-0.00014859874499961734,0.0,0.0,0.0,0.0,-6.58628550809226e-06,-0.001939913141541183,-0.0019155105110257864,0.9991298913955688,0.0,0.0,0.0,0.20757918059825897,3.032118082046509,3.6645538806915283,-37.57224655151367,0
495.60699999999997,-0.00030120453448034823,-0.00023502070689573884,-0.00015623989747837186,0.0,0.0,0.0,0.0,-0.0016650656471028924,-0.0018984541529789567,-0.0005037537775933743,0.9991323947906494,0.0,0.0,0.0,0.2075357735157013,3.028627395629883,3.67026424407959,-37.56439208984375,0
505.5100000000002,-0.0001272211957257241,-0.00022972274746280164,1.0201125405728817e-05,0.0,0.0,0.0,0.0,-0.00216475292108953,-0.0015041778096929193,0.0015992334811016917,0.9988431930541992,0.0,0.0,0.0,0.2076801061630249,3.04461407661438,3.7291386127471924,-37.59051513671875,0
515.4279999999999,-0.00014565917081199586,-0.00022006176004651934,-3.598798139137216e-05,0.0,0.0,0.0,0.0,-2.0436786144273356e-05,0.0004282804438844323,-0.00030425612931139767,0.997414231300354,0.0,0.0,0.0,0.20776192843914032,3.037660598754883,3.7276713848114014,-37.60531997680664,0
525.3359999999993,-0.00011363642261130735,-0.00019523037190083414,-1.1313742106722202e-05,0.0,0.0,0.0,0.0,0.0019023788627237082,0.0009548040106892586,0.003793819108977914,0.9986464977264404,0.0,0.0,0.0,0.20776192843914032,3.037660598754883,3.7276713848114014,-37.60531997680664,0
535.25,-0.00011045762221328914,-0.00019134565081913024,-9.492495155427605e-05,0.0,0.0,0.0,0.0,-0.0006261942908167839,-0.0006446295301429927,-0.002722969278693199,0.9998131990432739,0.0,0.0,0.0,0.21349187195301056,3.0481419563293457,3.728821277618408,-38.6424560546875,0
545.1610000000001,-8.080033148871735e-05,-0.0001649686455493793,-7.20159659977071e-05,0.0,0.0,0.0,0.0,-0.003483798587694764,0.0023792856372892857,-0.000327460904372856,0.9990355372428894,0.0,0.0,0.0,0.21349187195301056,3.0481419563293457,3.728821277618408,-38.6424560546875,0
555.0820000000003,-8.155712566804141e-05,-0.0001257069961866364,-0.0001381518814014271,0.0,0.0,0.0,0.0,7.584990726172691e-06,-0.0014442091342061758,-1.091960825760907e-06,0.9994766712188721,0.0,0.0,0.0,0.21254856884479523,3.0444295406341553,3.7266571521759033,-38.471710205078125,0
564.978000000001,1.7853617464425042e-05,-0.0001576612121425569,-0.00011994079250143841,0.0,0.0,0.0,0.0,0.001611168379895389,0.0030572875402867794,-0.0017949237953871489,0.9988589882850647,0.0,0.0,0.0,0.21254856884479523,3.0444295406341553,3.7266571521759033,-38.471710205078125,0
574.8970000000008,2.446604412398301e-05,-0.00010058370389742777,-0.00019274205260444432,0.0,0.0,0.0,0.0,-0.0019590454176068306,-0.0020657842978835106,0.003974192775785923,1.000057578086853,0.0,0.0,0.0,0.2110232561826706,3.026414155960083,3.699242115020752,-38.19562911987305,0
584.8019999999997,-1.0738574019342195e-05,-7.479656778741628e-05,-0.00019571854500100017,0.0,0.0,0.0,0.0,0.0042648776434361935,-0.0037945122458040714,-0.00031213488546200097,0.999153196811676,0.0,0.0,0.0,0.2110232561826706,3.026414155960083,3.699242115020752,-38.19562911987305,0
594.7199999999993,-1.430622251064051e-05,-8.116931712720543e-05,-0.0002503181167412549,0.0,0.0,0.0,0.0,-0.0022085169330239296,-0.0025139565113931894,-0.0017931858310475945,0.9990953803062439,0.0,0.0,0.0,0.21082763373851776,3.025559425354004,3.7043933868408203,-38.160221099853516,0
604.6290000000008,-1.906079523905646e-05,-8.920385153032839e-05,-0.00024423637660220265,0.0,0.0,0.0,0.0,0.0010454632574692369,-0.0007512176525779068,-0.0013152837054803967,0.9996410608291626,0.0,0.0,0.0,0.21067078411579132,3.021591901779175,3.7138986587524414,-38.13182830810547,0
614.5400000000009,-5.877571675227955e-05,-0.00012549682287499309,-0.00026134331710636616,0.0,0.0,0.0,0.0,0.0017883904511108994,-0.0002447455481160432,-0.0019038429018110037,0.996982991695404,0.0,0.0,0.0,0.20948204398155212,3.016521453857422,3.712329149246216,-37.91666793823242,0
624.4539999999997,-0.00012032792437821627,-9.98920586425811e-05,-0.00025855592684820294,0.0,0.0,0.0,0.0,0.00039105265750549734,-0.001993337878957391,-0.001648859353736043,0.997870683670044,0.0,0.0,0.0,0.20919561386108398,3.0166516304016113,3.713489055633545,-37.86482238769531,0
634.371000000001,-0.00016572282765991986,-0.00013460824266076088,-0.00027692329604178667,0.0,0.0,0.0,0.0,2.6935569621855393e-05,-0.0001252297661267221,0.0016826136270537972,1.0016840696334839,0.0,0.0,0.0,0.20762579143047333,3.0119242668151855,3.7214016914367676,-37.58068084716797,0
644.2819999999992,-9.85743899946101e-05,-8.650361996842548e-05,-0.00024778887745924294,0.0,0.0,0.0,0.0,0.003860123921185732,-0.00014618368004448712,0.00030561262974515557,1.00048828125,0.0,0.0,0.0,0.2084176242351532,3.009716510772705,3.7181193828582764,-37.72400665283203,0
654.1869999999999,-0.00012240007345099002,-9.449281060369685e-05,-0.0002949089976027608,0.0,0.0,0.0,0.0,-0.0019718657713383436,-0.00395167013630271,0.004132076632231474,0.9983340501785278,0.0,0.0,0.0,0.21379944682121277,3.014230728149414,3.72652530670166,-38.698123931884766,0
664.0990000000002,-0.00016863705241121352,-0.00012917105050291866,-0.0003111495461780578,0.0,0.0,0.0,0.0,-0.001625920063816011,0.0020234843250364065,-0.0037342433352023363,0.9992753267288208,0.0,0.0,0.0,0.21273623406887054,3.0179600715637207,3.7272298336029053,-38.50568389892578,0
674.0120000000006,-0.00019851329852826893,-0.00012627671821974218,-0.000345071341143921,0.0,0.0,0.0,0.0,-0.00034645223058760166,0.0019288662588223815,-0.002230854006484151,1.0001007318496704,0.0,0.0,0.0,0.21857304871082306,3.0278475284576416,3.7275946140289307,-39.56216049194336,0
683.9249999999993,-0.0002499129041098058,-0.00016343430615961552,-0.0003639643546193838,0.0,0.0,0.0,0.0,0.002942852908745408,-0.0006783572607673705,-0.0032546294387429953,1.0002115964889526,0.0,0.0,0.0,0.2170800417661667,3.028458595275879,3.726461410522461,-39.29191970825195,0
693.8420000000006,-0.00029874269966967404,-0.00014378938067238778,-0.00037407592753879726,0.0,0.0,0.0,0.0,0.0005684388452209532,0.0003522939805407077,0.0025804955512285233,1.0009007453918457,0.0,0.0,0.0,0.2159118503332138,3.032895565032959,3.723789930343628,-39.08047103881836,0
703.7479999999996,-0.00011650560918496922,-0.00018606170488055795,-0.00022456367150880396,0.0,0.0,0.0,0.0,0.0014524052385240793,-0.006792566739022732,0.0014124017907306552,1.0012942552566528,0.0,0.0,0.0,0.21080775558948517,3.026799440383911,3.7843682765960693,-38.15662384033203,0
713.6599999999999,-0.0001528434077044949,-0.00017100108379963785,-0.00021532502432819456,0.0,0.0,0.0,0.0,0.002012836979702115,0.0011219412554055452,-0.0012012054212391376,0.9988570809364319,0.0,0.0,0.0,0.21779471635818481,3.0292837619781494,3.78615665435791,-39.4212760925293,0
723.5720000000001,-5.697636879631318e-05,-0.0001514870673418045,-0.0001294726534979418,0.0,0.0,0.0,0.0,0.0022535838652402163,-0.0015156964072957635,-0.001262204023078084,0.9983993172645569,0.0,0.0,0.0,0.21816228330135345,3.0217204093933105,3.78637433052063,-39.48780822753906,0
733.4850000000006,-9.477466664975509e-05,-0.00016390638484153897,-0.0001216131349792704,0.0,0.0,0.0,0.0,0.002477034693583846,0.00164613570086658,-0.0005193948745727539,1.00057852268219,0.0,0.0,0.0,0.21781662106513977,3.015172004699707,3.785231828689575,-39.42523956298828,0
743.3960000000006,-8.389796857954934e-05,-0.00018112115503754467,-9.13088078959845e-05,0.0,0.0,0.0,0.0,0.0021491891238838434,0.003620983799919486,0.0004705499450210482,0.9987295269966125,0.0,0.0,0.0,0.21772193908691406,3.0053842067718506,3.7713351249694824,-39.408103942871094,0
753.3089999999993,-9.637269249651581e-05,-0.00016897769819479436,-0.00010601522080833092,0.0,0.0,0.0,0.0,0.0007478745537810028,-0.0025664709974080324,0.0023823834490031004,0.9977959394454956,0.0,0.0,0.0,0.21760152280330658,2.9965710639953613,3.761713981628418,-39.38631057739258,0
763.2199999999993,-2.9780068871332332e-05,-0.0002031936019193381,-6.508422666229308e-05,0.0,0.0,0.0,0.0,-0.0006960193277336657,-0.001219201018102467,0.0002855349739547819,1.0009618997573853,0.0,0.0,0.0,0.21832072734832764,2.994575262069702,3.7548577785491943,-39.51648712158203,0
773.1409999999996,-1.7071904949261807e-05,-0.0001799155434127897,-0.00010874947474803776,0.0,0.0,0.0,0.0,-6.8753033701796085e-06,-0.005844264291226864,-0.000402970181312412,1.0001437664031982,0.0,0.0,0.0,0.21755346655845642,2.9906256198883057,3.746870994567871,-39.37760925292969,0
783.0460000000003,-2.5862354959826916e-05,-0.00016186498396564275,-7.067959813866764e-05,0.0,0.0,0.0,0.0,-0.003976078703999519,0.00493268296122551,-3.591591303120367e-05,0.9990576505661011,0.0,0.0,0.0,0.21665965020656586,2.984006881713867,3.753203868865967,-39.21582794189453,0
792.9560000000001,-2.345518623769749e-05,-0.00015192780119832605,-0.00010614749044179916,0.0,0.0,0.0,0.0,0.0008274189895018935,0.0014285926008597016,0.0012816033558920026,0.9984738230705261,0.0,0.0,0.0,0.22308366000652313,2.9923269748687744,3.7605478763580322,-40.37858581542969,0
802.880000000001,-6.604725058423355e-05,-0.0001901971991173923,-0.00010569492587819695,0.0,0.0,0.0,0.0,0.002854307647794485,-0.00071993243182078,-0.0005738764884881675,0.9975232481956482,0.0,0.0,0.0,0.22240091860294342,2.9913504123687744,3.755816698074341,-40.255008697509766,0
812.7810000000009,-4.738254574476741e-05,-0.00014448227011598647,-0.00016207399312406778,0.0,0.0,0.0,0.0,-0.0024403652641922235,-9.493307152297348e-05,0.0019765596371144056,0.9981849193572998,0.0,0.0,0.0,0.2224748730659485,2.9899096488952637,3.7542545795440674,-40.26839828491211,0
822.6929999999993,-5.419799708761275e-05,-0.00014942014240659773,-0.00013399191084317863,0.0,0.0,0.0,0.0,-0.005407227203249931,0.0021935312543064356,-0.0014723178464919329,1.0005347728729248,0.0,0.0,0.0,0.22415120899677277,2.9869909286499023,3.756868839263916,-40.571815490722656,0
832.6049999999996,-5.563657759921625e-05,-0.0001422939676558599,-0.00017677995492704213,0.0,0.0,0.0,0.0,-0.0007315503316931427,-0.0028576941695064306,-0.000766695593483746,1.000805139541626,0.0,0.0,0.0,0.2237456887960434,2.985029935836792,3.7507400512695312,-40.498416900634766,0
842.5169999999998,-6.0132249927846715e-05,-0.00013530677824746817,-0.0001504541141912341,0.0,0.0,0.0,0.0,-6.764281806681538e-06,1.864884870883543e-05,0.0013722345465794206,0.9982207417488098,0.0,0.0,0.0,0.22271710634231567,2.9828128814697266,3.742936372756958,-40.31224060058594,0
852.4330000000009,-0.00015010965580586344,-0.00020828288688790053,-0.00016133752069436014,0.0,0.0,0.0,0.0,0.0009739511879161,-0.004062826279550791,-0.0003576257440727204,1.0001437664031982,0.0,0.0,0.0,0.22182327508926392,2.9852545261383057,3.742676258087158,-40.15045166015625,0
862.3449999999993,-8.489524043397978e-05,-0.00015007406182121485,-0.00012634063023142517,0.0,0.0,0.0,0.0,-0.001607774174772203,-0.0037283371202647686,0.0033336791675537825,1.0004842281341553,0.0,0.0,0.0,0.22182327508926392,2.9852545261383057,3.742676258087158,-40.15045166015625,0
872.255000000001,-0.00017511493933852762,-0.0001946117845363915,-0.00013031701382715255,0.0,0.0,0.0,0.0,0.000756263907533139,0.0003600982017815113,-0.0025373101234436035,0.9993026256561279,0.0,0.0,0.0,0.2216118574142456,2.986701250076294,3.755408763885498,-40.112186431884766,0
882.1669999999995,-9.958509326679632e-05,-0.00017944832507055253,-9.780477557796985e-05,0.0,0.0,0.0,0.0,2.7211267479287926e-06,-0.0005758162005804479,0.0008626249618828297,0.9997113943099976,0.0,0.0,0.0,0.2216118574142456,2.986701250076294,3.755408763885498,-40.112186431884766,0
892.085000000001,-0.00015921497833915055,-0.00016938244516495615,-0.00012213009176775813,0.0,0.0,0.0,0.0,-0.002096530282869935,0.002471704501658678,0.0021761346142739058,0.9990162253379822,0.0,0.0,0.0,0.2209164798259735,2.9791815280914307,3.73579478263855,-39.986324310302734,0
902.0010000000002,-7.739852298982441e-05,-0.00015132728731259704,-8.489471656503156e-05,0.0,0.0,0.0,0.0,-0.0024336199276149273,-0.00028346540057100356,0.0020921218674629927,0.9974046349525452,0.0,0.0,0.0,0.2209164798259735,2.9791815280914307,3.73579478263855,-39.986324310302734,0
911.9120000000003,-0.00010598041262710467,-0.0001522107922937721,-0.0001047402256517671,0.0,0.0,0.0,0.0,0.00018613849533721805,-0.0031000906601548195,-0.0005217373836785555,0.9998137950897217,0.0,0.0,0.0,0.22237136960029602,2.977213144302368,3.7311646938323975,-40.24966049194336,0
921.8230000000003,-8.182359306374565e-05,-0.00017299773753620684,-7.448536052834243e-05,0.0,0.0,0.0,0.0,0.0014252428663894534,-0.00530499080196023,0.0012345022987574339,0.9993367195129395,0.0,0.0,0.0,0.22304731607437134,2.9793405532836914,3.7332727909088135,-40.372005462646484,0
931.7430000000004,-0.00013015215517953038,-0.00020924634009134024,-7.521691441070288e-05,0.0,0.0,0.0,0.0,0.0010862628696486354,0.002717752940952778,0.0012261690571904182,0.9974616169929504,0.0,0.0,0.0,0.22223062813282013,2.9754796028137207,3.7357614040374756,-40.22418975830078,0
941.648000000001,-0.0001167178779724054,-0.00021362326515372843,-5.1547718612710014e-05,0.0,0.0,0.0,0.0,-8.29072087071836e-05,0.0016869001556187868,0.002274544443935156,0.9985219836235046,0.0,0.0,0.0,0.22373372316360474,2.969179391860962,3.7386014461517334,-40.49625015258789,0
951.5599999999995,-0.00010416984150651842,-0.00015868300397414714,-0.00010987840505549684,0.0,0.0,0.0,0.0,0.001873972825706005,0.003349722595885396,-0.0022602458484470844,0.9994539022445679,0.0,0.0,0.0,0.2240871787071228,2.961686611175537,3.7346975803375244,-40.56022644042969,0
961.4750000000004,-9.986761870095506e-05,-0.00015332405746448785,-7.92071150499396e-05,0.0,0.0,0.0,0.0,0.002979289274662733,-0.0013608451699838042,-0.0003852059890050441,0.9997424483299255,0.0,0.0,0.0,0.22252659499645233,2.959752082824707,3.729358673095703,-40.27775573730469,0
971.3919999999998,-0.0001278707495657727,-0.00014242711768019944,-9.688257705420256e-05,0.0,0.0,0.0,0.0,0.0037265790160745382,0.004662754945456982,-0.0006064967019483447,0.999204158782959,0.0,0.0,0.0,0.2230825424194336,2.9484329223632812,3.713024616241455,-40.37838363647461,0
981.2999999999993,-0.0001774422125890851,-0.00017594743985682726,-0.00010217149974778295,0.0,0.0,0.0,0.0,0.00437935208901763,0.0003045490593649447,-0.00023511832114309072,0.9999454617500305,0.0,0.0,0.0,0.22276107966899872,2.9368298053741455,3.7116565704345703,-40.32019805908203,0
991.2299999999996,-0.00017612033116165549,-0.0001473288721172139,-0.00015920173609629273,0.0,0.0,0.0,0.0,-0.00021050372743047774,-0.0008372137090191245,0.00039678122266195714,1.0006135702133179,0.0,0.0,0.0,0.22225770354270935,2.9385459423065186,3.7048070430755615,-40.229087829589844,0
1001.1239999999998,-0.00010432836279505864,-0.00017253165424335748,-0.00010035071318270639,0.0,0.0,0.0,0.0,0.0033041879069060087,0.001530683133751154,0.00026249035727232695,1.0004554986953735,0.0,0.0,0.0,0.22152096033096313,2.9327492713928223,3.7034177780151367,-40.095733642578125,0
1011.0439999999999,-9.792657510843128e-05,-0.00014724266657140106,-0.00014906380965840071,0.0,0.0,0.0,0.0,0.001743940869346261,0.004362617619335651,-0.0034986736718565226,1.001567006111145,0.0,0.0,0.0,0.22124247252941132,2.9304616451263428,3.69079852104187,-40.045326232910156,0
1020.9470000000001,-7.372252730419859e-05,-0.0001561167446197942,-0.00011795749014709145,0.0,0.0,0.0,0.0,-0.002759544411674142,0.004133725538849831,-0.000645525986328721,1.000332236289978,0.0,0.0,0.0,0.22102434933185577,2.9197936058044434,3.680622100830078,-40.0058479309082,0
1030.871000000001,-7.335977716138586e-05,-0.00014278294111136347,-0.00016156358469743282,0.0,0.0,0.0,0.0,-9.937577124219388e-05,0.0017897008219733834,-0.0022237845696508884,0.9997066259384155,0.0,0.0,0.0,0.22743645310401917,2.9235591888427734,3.677107334136963,-41.16645050048828,0
1040.7700000000004,-8.354586316272616e-05,-0.000136124188429676,-0.00013794067490380257,0.0,0.0,0.0,0.0,-0.001096378662623465,0.0007716144900768995,0.0034985358361154795,0.9984828233718872,0.0,0.0,0.0,0.22728589177131653,2.9200186729431152,3.6683413982391357,-41.139198303222656,0
1050.687,-8.736164454603568e-05,-0.0001283564924960956,-0.00017892371397465467,0.0,0.0,0.0,0.0,-0.00018866539176087826,0.00035356503212824464,-0.0031413284596055746,0.9972155094146729,0.0,0.0,0.0,0.22640642523765564,2.916536569595337,3.669650077819824,-40.98001480102539,0
1060.5910000000003,-6.711119931424037e-05,-0.00015080359298735857,-0.000158562688739039,0.0,0.0,0.0,0.0,-0.000517201900947839,0.004081241320818663,0.00013347723870538175,0.9981153607368469,0.0,0.0,0.0,0.22576594352722168,2.9171791076660156,3.6645514965057373,-40.86408233642578,0
1070.5210000000006,-0.0001088413773686625,-0.00016106729162856936,-0.00015986445941962302,0.0,0.0,0.0,0.0,-0.0015946789644658566,-0.00399550748988986,0.0015182271599769592,1.0000196695327759,0.0,0.0,0.0,0.2258644998073578,2.9150280952453613,3.6548385620117188,-40.881919860839844,0
1080.4189999999999,-9.085824422072619e-05,-0.00015296743367798626,-0.00012424176384229213,0.0,0.0,0.0,0.0,-0.0012266120174899697,-1.3775210391031578e-05,-0.0025452079717069864,1.0002926588058472,0.0,0.0,0.0,0.22461268305778503,2.915722370147705,3.6412432193756104,-40.65534210205078,0
1090.3340000000007,-0.00011203265603398904,-0.0001359767629764974,-0.00014022609684616327,0.0,0.0,0.0,0.0,-0.0007787046488374472,0.0009700447553768754,-5.516589590115473e-05,1.0012818574905396,0.0,0.0,0.0,0.22302748262882233,2.912871837615967,3.6444764137268066,-40.36841583251953,0
1100.2389999999996,-8.230710227508098e-05,-0.00015107217768672854,-0.00010816270514624193,0.0,0.0,0.0,0.0,-0.0006010477081872523,-0.0018868901534006,-0.0014308090321719646,0.9993389248847961,0.0,0.0,0.0,0.2220488041639328,2.9074225425720215,3.633882999420166,-40.19127655029297,0
1110.1630000000005,-0.00013075541937723756,-0.00018769803864415735,-0.00011024758714484051,0.0,0.0,0.0,0.0,0.004668544977903366,-0.004695958457887173,-0.0010347834322601557,1.0006146430969238,0.0,0.0,0.0,0.22037248313426971,2.9077019691467285,3.6340904235839844,-39.88785934448242,0
1120.063,-0.00011200386506970972,-0.00017252932593692094,-7.999820809345692e-05,0.0,0.0,0.0,0.0,-0.0036266958341002464,-0.001783075975254178,0.000673334754537791,0.9992161989212036,0.0,0.0,0.0,0.22003458440303802,2.9095869064331055,3.630431652069092,-39.82669448852539,0
1129.9789999999994,-9.005724859889597e-05,-0.0001387128868373111,-0.00016163468535523862,0.0,0.0,0.0,0.0,0.0004776694404426962,-0.0007309196516871452,-0.0004210530605632812,1.000739336013794,0.0,0.0,0.0,0.21903905272483826,2.907024621963501,3.635627269744873,-39.646507263183594,0
1139.8819999999996,-7.256769458763301e-05,-0.00015196333697531372,-0.00013463736104313284,0.0,0.0,0.0,0.0,0.0036528403870761395,0.005767496768385172,0.0018959962762892246,1.0003458261489868,0.0,0.0,0.0,0.21960802376270294,2.9121694564819336,3.644101858139038,-39.74949264526367,0
1149.8070000000007,-0.00012252532178536057,-0.00018852026551030576,-0.00013676269736606628,0.0,0.0,0.0,0.0,-0.0015404081204906106,-0.0027856884989887476,-0.0005272852722555399,0.9997442364692688,0.0,0.0,0.0,0.21837282180786133,2.9073355197906494,3.636033773422241,-39.525917053222656,0
1159.7219999999998,-6.209220009623095e-05,-0.00015343460836447775,-8.888584125088528e-05,0.0,0.0,0.0,0.0,0.004739823285490274,0.0019163142424076796,0.0011457925429567695,1.0016229152679443,0.0,0.0,0.0,0.2187277227640152,2.8968605995178223,3.623837947845459,-39.590152740478516,0
1169.6260000000002,-9.165936353383586e-05,-0.00014942495909053832,-0.00010878606553887948,0.0,0.0,0.0,0.0,-0.0009943051263689995,0.0016220816178247333,-0.0007194807985797524,0.9994785785675049,0.0,0.0,0.0,0.2175532579421997,2.888671875,3.6203136444091797,-39.3775749206543,0
1179.5310000000009,-5.4311632993631065e-05,-0.0001387450029142201,-5.2338011300889775e-05,0.0,0.0,0.0,0.0,-0.00028885446954518557,0.0006495527341030538,0.0010267026955261827,0.9986909627914429,0.0,0.0,0.0,0.21771681308746338,2.8830881118774414,3.621809959411621,-39.40717315673828,0
1189.4580000000005,-0.00010680840932764113,-0.00017489022866357118,-4.527724740910344e-05,0.0,0.0,0.0,0.0,-0.00036362322862260044,-0.003285004524514079,-0.001717631472274661,0.9984446167945862,0.0,0.0,0.0,0.21721641719341278,2.879413366317749,3.6084952354431152,-39.31660461425781,0
1199.3610000000008,-0.000127865350805223,-0.00017700147873256356,-1.8444217857904732e-05,0.0,0.0,0.0,0.0,0.00010187041334575042,-0.00012041345325997099,-0.004702024627476931,0.9961831569671631,0.0,0.0,0.0,0.2174883335828781,2.8807575702667236,3.611259937286377,-39.365821838378906,0
1209.2739999999994,-9.398360998602584e-05,-0.00010970505536533892,-0.00012042829621350393,0.0,0.0,0.0,0.0,0.00424888264387846,-0.003264972008764744,0.00011402071686461568,0.9984148144721985,0.0,0.0,0.0,0.2171342819929123,2.878159999847412,3.609166145324707,-39.30173873901367,0
1219.1800000000003,-0.00010266848403261974,-8.907359006116167e-05,-8.03581642685458e-05,0.0,0.0,0.0,0.0,8.952718781074509e-05,-0.0014895872445777059,0.0005935510853305459,0.9992740750312805,0.0,0.0,0.0,0.21464678645133972,2.8693580627441406,3.6052489280700684,-38.851497650146484,0
1229.1100000000006,-0.00016030081314966083,-0.00012275307381059974,-8.3095786976628e-05,0.0,0.0,0.0,0.0,0.0027518714778125286,-0.0006926560308784246,0.0009049420477822423,0.9987533688545227,0.0,0.0,0.0,0.21365180611610413,2.85801100730896,3.6142005920410156,-38.67140197753906,0
1239.0159999999996,-8.143422019202262e-05,-0.00012244013487361372,-4.449174230103381e-05,0.0,0.0,0.0,0.0,-0.0003649258578661829,0.0006404639570973814,0.002136416267603636,1.0000510215759277,0.0,0.0,0.0,0.2144099622964859,2.862656354904175,3.6041815280914307,-38.808631896972656,0
1248.9310000000005,-0.00014171667862683535,-0.00016353461251128465,-4.5502634748118e-05,0.0,0.0,0.0,0.0,0.00197175657376647,-0.002845879876986146,0.0038710525259375572,0.9979953765869141,0.0,0.0,0.0,0.21424487233161926,2.8553414344787598,3.6077773571014404,-38.77874755859375,0
1258.8369999999995,-0.0002303372893948108,-0.00017489340098109096,-3.73650218534749e-05,0.0,0.0,0.0,0.0,-0.002370076486840844,0.0032301489263772964,-0.0011281190672889352,0.9989534616470337,0.0,0.0,0.0,0.21466423571109772,2.855592727661133,3.6078765392303467,-38.85465621948242,0
1268.7520000000004,-0.00028931626002304256,-0.00021672841103281826,-3.94603812310379e-05,0.0,0.0,0.0,0.0,-0.0034347688779234886,-0.004244096577167511,0.001938421162776649,0.9994097352027893,0.0,0.0,0.0,0.2151082158088684,2.853407382965088,3.6076767444610596,-38.93501663208008,0
1278.6689999999999,-0.00023639928258489817,-0.00023532392515335232,-1.5745317796245217e-05,0.0,0.0,0.0,0.0,-0.0022376428823918104,-0.003111607860773802,-0.0014308500103652477,0.9996848106384277,0.0,0.0,0.0,0.2141801416873932,2.851635694503784,3.613582134246826,-38.76702880859375,0
1288.5730000000003,-0.00020719345775432885,-0.0001664019946474582,-0.00016397263971157372,0.0,0.0,0.0,0.0,-8.644597983220592e-06,0.003928500227630138,-0.006666793022304773,1.0024410486221313,0.0,0.0,0.0,0.2148234248161316,2.8515071868896484,3.6137070655822754,-38.88346862792969,0
1298.4930000000004,-0.00011222915054531768,-0.00017491975449956954,-8.854037150740623e-05,0.0,0.0,0.0,0.0,-0.0030772194731980562,-0.0023017108906060457,0.002375748474150896,0.9999273419380188,0.0,0.0,0.0,0.2145778089761734,2.854011297225952,3.617526054382324,-38.83901596069336,0
1308.3940000000002,-0.0001033408916555345,-0.00015395238006021827,-0.00016727359616197646,0.0,0.0,0.0,0.0,0.0032063547987490892,0.0017272057011723518,0.0001003485667752102,0.9995585680007935,0.0,0.0,0.0,0.21444174647331238,2.852076768875122,3.611393928527832,-38.81438446044922,0
1318.3189999999995,-0.0001180840190500021,-0.0001429852854926139,-0.00012925066403113306,0.0,0.0,0.0,0.0,0.0003507982473820448,0.0005821962840855122,-0.0014323405921459198,0.9979599118232727,0.0,0.0,0.0,0.21412067115306854,2.852686643600464,3.6077606678009033,-38.75626754760742,0
1328.223,-0.0001504465617472306,-0.0001496307522756979,-0.00014720736362505704,0.0,0.0,0.0,0.0,0.004455647896975279,0.004067214671522379,-0.0004924669046886265,1.001110315322876,0.0,0.0,0.0,0.21452543139457703,2.8501389026641846,3.593827247619629,-38.829524993896484,0
1338.1309999999994,-0.00013849965762346983,-0.00017259790911339223,-0.00011834401084342971,0.0,0.0,0.0,0.0,-9.799083636607975e-05,-0.0023734052665531635,0.0006549007375724614,1.0027278661727905,0.0,0.0,0.0,0.21265561878681183,2.8414578437805176,3.5885486602783203,-38.491085052490234,0
1348.0480000000007,-0.00016870549006853253,-0.00016476538439746946,-0.0001295090769417584,0.0,0.0,0.0,0.0,-0.002489769831299782,-0.0005624981131404638,0.00408984674140811,0.9985333681106567,0.0,0.0,0.0,0.21364693343639374,2.834726333618164,3.585864305496216,-38.6705207824707,0
1357.960000000001,-0.00015516902203671634,-0.00019703307771123946,-0.00010077991464640945,0.0,0.0,0.0,0.0,0.002392219379544258,0.0005642230389639735,0.0014737554593011737,0.9982744455337524,0.0,0.0,0.0,0.2137543112039566,2.835911989212036,3.581670045852661,-38.6899528503418,0
1367.875,-0.0002110475761583075,-0.00024483154993504286,-0.00010076763282995671,0.0,0.0,0.0,0.0,0.0051653324626386166,-5.0851667765527964e-05,6.969061359995976e-05,0.9991786479949951,0.0,0.0,0.0,0.21333102881908417,2.830883502960205,3.5784664154052734,-38.61334228515625,0
1377.7790000000005,-0.0001741409214446321,-0.00023969585890881717,-5.820425212732516e-05,0.0,0.0,0.0,0.0,0.0009991757106035948,0.0017457661451771855,-0.0013188738375902176,0.9984484910964966,0.0,0.0,0.0,0.21351736783981323,2.8184618949890137,3.5754330158233643,-38.647071838378906,0
1387.701000000001,-0.00019591109594330192,-0.00023487393627874553,-9.657503687776625e-05,0.0,0.0,0.0,0.0,-0.00015072945097927004,0.00040716512012295425,-0.0009581238264217973,0.9999600648880005,0.0,0.0,0.0,0.2132359743118286,2.811697244644165,3.5698893070220947,-38.596134185791016,0
1397.6149999999998,-0.00013389239029493183,-0.00022926671954337507,-2.657287404872477e-05,0.0,0.0,0.0,0.0,0.0048128231428563595,-0.003850418608635664,-0.0015091554960235953,1.0012946128845215,0.0,0.0,0.0,0.2132287621498108,2.812628984451294,3.5665886402130127,-38.59482955932617,0
1407.5210000000006,-0.00016038742614910007,-0.0002305389934917912,-4.95557178510353e-05,0.0,0.0,0.0,0.0,0.002489787759259343,0.001500711776316166,-0.0005699523026123643,0.998912513256073,0.0,0.0,0.0,0.21281997859477997,2.8045690059661865,3.5665183067321777,-38.52083969116211,0
1417.4349999999995,-0.00022262729180511087,-0.0002827808784786612,-4.759994044434279e-05,0.0,0.0,0.0,0.0,-0.0010868593817576766,-0.004589878022670746,0.0016337151173502207,1.0005707740783691,0.0,0.0,0.0,0.21316178143024445,2.79931378364563,3.566411018371582,-38.58271026611328,0
1427.3359999999993,-0.00028816741541959345,-0.0003367367316968739,-4.5851091272197664e-05,0.0,0.0,0.0,0.0,-0.0017511211335659027,0.0013079530326649547,0.0018594472203403711,1.0037544965744019,0.0,0.0,0.0,0.21322683990001678,2.7954962253570557,3.5753724575042725,-38.594486236572266,0
1437.2579999999998,-0.00020155811216682196,-0.0003156701859552413,6.751278124283999e-05,0.0,0.0,0.0,0.0,-0.0010470529086887836,-0.0013152464525774121,0.002617917023599148,1.001265048980713,0.0,0.0,0.0,0.21478253602981567,2.8153223991394043,3.600876569747925,-38.876068115234375,0
1447.1599999999999,-0.00011778950283769518,-0.00019939635240007192,-7.604716665809974e-05,0.0,0.0,0.0,0.0,-0.0017793778097257018,0.0010725707979872823,0.0021283708047121763,1.00045645236969,0.0,0.0,0.0,0.21467947959899902,2.846363067626953,3.6286447048187256,-38.857418060302734,0
1457.0810000000001,-0.00017289187235292047,-0.00024543789913877845,-7.194521458586678e-05,0.0,0.0,0.0,0.0,-0.0007718476699665189,0.0012068047653883696,-0.00293173105455935,0.9995985627174377,0.0,0.0,0.0,0.21457503736019135,2.850862503051758,3.626458168029785,-38.838504791259766,0
1466.9809999999998,-0.00016413183766417205,-0.00021474057575687766,-0.00013396792928688228,0.0,0.0,0.0,0.0,0.003087257267907262,-0.0015606223605573177,0.0004312404489610344,0.9995625019073486,0.0,0.0,0.0,0.2137521654367447,2.8544483184814453,3.6214957237243652,-38.68956756591797,0
1476.9050000000007,-0.00015641181380487978,-0.0002281114720972255,-7.903958612587303e-05,0.0,0.0,0.0,0.0,0.0009025683393701911,-0.0034172185696661472,-0.001508717774413526,0.9976997971534729,0.0,0.0,0.0,0.21269914507865906,2.847750186920166,3.617544174194336,-38.49897384643555,0
1486.8050000000003,-0.0001324883778579533,-0.00016606187273282558,-0.00013895762094762176,0.0,0.0,0.0,0.0,-0.002840528730303049,-0.0003833282389678061,0.0015924617182463408,1.0002833604812622,0.0,0.0,0.0,0.21251502633094788,2.843782424926758,3.6279988288879395,-38.465641021728516,0
1496.7270000000008,-0.00012677631457336247,-0.00017660466255620122,-0.00010030547855421901,0.0,0.0,0.0,0.0,0.0003054841363336891,-0.006331152748316526,0.00032641904545016587,1.000184178352356,0.0,0.0,0.0,0.212631955742836,2.8452439308166504,3.626878499984741,-38.4868049621582,0
1506.6290000000008,-0.00017875427147373557,-0.0002230991085525602,-9.999627945944667e-05,0.0,0.0,0.0,0.0,0.0036148247309029102,0.0024735289625823498,0.0019366935594007373,0.9992437958717346,0.0,0.0,0.0,0.2140330672264099,2.840886354446411,3.6366748809814453,-38.74040985107422,0
1516.554,-0.0001739884028211236,-0.00022165295376908034,-6.648369890172035e-05,0.0,0.0,0.0,0.0,-0.002695859642699361,-0.0046678869985044,-0.0012796622468158603,1.0007535219192505,0.0,0.0,0.0,0.21385778486728668,2.8363242149353027,3.627394437789917,-38.708683013916016,0
1526.4539999999997,-0.00015226035611703992,-0.00019228359451517463,-0.0001530988229205832,0.0,0.0,0.0,0.0,-0.000699234486091882,-0.0016836662543937564,-0.0009513580007478595,1.0009510517120361,0.0,0.0,0.0,0.21217374503612518,2.8386683464050293,3.626521348953247,-38.403865814208984,0
1536.3760000000002,-0.00015295253251679242,-0.00020005412807222456,-0.00011977566464338452,0.0,0.0,0.0,0.0,-0.001285398961044848,-0.00024843780556693673,-0.0009505537454970181,0.998600423336029,0.0,0.0,0.0,0.21243372559547424,2.83976674079895,3.638089656829834,-38.450923919677734,0
1546.2810000000009,-0.00014733300486113876,-0.0001857420866144821,-0.0001760960731189698,0.0,0.0,0.0,0.0,0.002551666460931301,0.000992590095847845,-0.0005277952877804637,0.9993756413459778,0.0,0.0,0.0,0.21212400496006012,2.835146427154541,3.6393277645111084,-38.39486312866211,0
1556.205,-0.0001130471209762618,-0.00021035541431047022,-0.00013771523663308471,0.0,0.0,0.0,0.0,-0.002991459332406521,0.004699805751442909,-0.0005279951728880405,0.9996368288993835,0.0,0.0,0.0,0.2120017260313034,2.829373359680176,3.6350672245025635,-38.37273406982422,0
1566.1010000000006,-0.0001122504472732544,-0.0001976878847926855,-0.00018336162611376494,0.0,0.0,0.0,0.0,-0.0007058330229483545,0.00042172614485025406,-0.0012090777745470405,0.9990799427032471,0.0,0.0,0.0,0.21181398630142212,2.828477382659912,3.6273717880249023,-38.3387565612793,0
1576.0239999999994,-0.00012061568850185722,-0.00018203622312285006,-0.00014264602214097977,0.0,0.0,0.0,0.0,-0.0009012396913021803,0.00455257436260581,-0.002253460930660367,0.9989467859268188,0.0,0.0,0.0,0.21211586892604828,2.828516960144043,3.6178181171417236,-38.39339065551758,0
1585.9300000000003,-0.0001721977605484426,-0.0002291116106789559,-0.00014514187932945788,0.0,0.0,0.0,0.0,-0.002509166020900011,0.005344801116734743,0.0006929089431650937,0.9997707009315491,0.0,0.0,0.0,0.20984569191932678,2.829970359802246,3.6074929237365723,-37.98249053955078,0
1595.8539999999994,-0.0001430372940376401,-0.0002342266234336421,-0.00011289212852716446,0.0,0.0,0.0,0.0,-0.0021592648699879646,-0.0010431538103148341,0.002306915121152997,0.9985318183898926,0.0,0.0,0.0,0.21002112329006195,2.8334085941314697,3.594957113265991,-38.014244079589844,0
1605.7520000000004,-0.00012909701035823673,-0.00020486577705014497,-0.00019717159739229828,0.0,0.0,0.0,0.0,0.0005181466694921255,-0.0018671794096007943,0.0014700026949867606,1.0007092952728271,0.0,0.0,0.0,0.2099335938692093,2.8290398120880127,3.5888772010803223,-37.99839782714844,0
1615.6759999999995,-0.0001359423331450671,-0.00017570756608620286,-0.00014661872410215437,0.0,0.0,0.0,0.0,7.186960374383489e-06,0.0015613035066053271,-7.467620162060484e-05,1.0006765127182007,0.0,0.0,0.0,0.20984628796577454,2.8322739601135254,3.595536708831787,-37.98259735107422,0
1625.5750000000007,-0.0001355296844849363,-0.00013263260188978165,-0.00019591031013987958,0.0,0.0,0.0,0.0,-0.0003176758182235062,-0.0042775943875312805,0.004460092633962631,1.0007530450820923,0.0,0.0,0.0,0.2099437415599823,2.8250415325164795,3.590233564376831,-38.0002326965332,0
1635.4989999999998,-7.804734923411161e-05,-0.00013993700849823654,-0.000137503317091614,0.0,0.0,0.0,0.0,-0.0019137243507429957,-0.002385158557444811,0.0023646641056984663,0.9982748627662659,0.0,0.0,0.0,0.2108086794614792,2.8212826251983643,3.5941708087921143,-38.15679168701172,0
1645.3989999999994,-0.0001334124244749546,-0.00018779226229526103,-0.00013659585965797305,0.0,0.0,0.0,0.0,0.0023009709548205137,0.0020833343733102083,-6.506740646727849e-06,0.9988636374473572,0.0,0.0,0.0,0.20986539125442505,2.821661949157715,3.598193883895874,-37.986053466796875,0
1655.3250000000007,-0.00019024574430659413,-0.00023892842000350356,-0.00013658683747053146,0.0,0.0,0.0,0.0,0.00033381031244061887,-0.0006215831381268799,-2.492884232196957e-05,1.0001240968704224,0.0,0.0,0.0,0.21009254455566406,2.812560796737671,3.586651563644409,-38.02716827392578,0
1665.2250000000004,-0.00010555375774856657,-0.00019343377789482474,-9.275435877498239e-05,0.0,0.0,0.0,0.0,-0.0014257400762289762,0.0003903557371813804,0.0025891291443258524,0.9991849660873413,0.0,0.0,0.0,0.20919589698314667,2.8105406761169434,3.586409568786621,-37.86487579345703,0
1675.148000000001,-0.00015649336273781955,-0.0002443391131237149,-8.953337965067476e-05,0.0,0.0,0.0,0.0,0.0014887746656313539,0.001280053285881877,-0.002927204128354788,0.9987314343452454,0.0,0.0,0.0,0.2086237370967865,2.8114821910858154,3.577256441116333,-37.76131057739258,0
1685.0570000000007,-0.00011353931040503085,-0.00019951749709434807,-5.9954320022370666e-05,0.0,0.0,0.0,0.0,-0.001988146686926484,-0.000990224303677678,0.0005778771010227501,0.9985411167144775,0.0,0.0,0.0,0.21584923565387726,2.8208489418029785,3.5731539726257324,-39.06914138793945,0
1694.9670000000006,-0.0001671420322963968,-0.0002501423587091267,-5.611756205325946e-05,0.0,0.0,0.0,0.0,0.003355430206283927,0.004940899088978767,-0.0025839954614639282,1.0020945072174072,0.0,0.0,0.0,0.21626873314380646,2.821591377258301,3.5647730827331543,-39.14506912231445,0
1704.8729999999996,-6.875344843138009e-05,-0.00018173294665757567,-3.222940722480416e-05,0.0,0.0,0.0,0.0,-0.004134663846343756,-0.0035750940442085266,-0.0004954688483849168,1.0002399682998657,0.0,0.0,0.0,0.2227514088153839,2.830230712890625,3.5660409927368164,-40.318450927734375,0
1714.795,-0.00012077715655323118,-0.00023062709078658372,-2.5684712454676628e-05,0.0,0.0,0.0,0.0,-0.005050032399594784,-0.0009263342944905162,-0.002833880251273513,1.0000137090682983,0.0,0.0,0.0,0.22116155922412872,2.8276116847991943,3.5616369247436523,-40.03068161010742,0
1724.701000000001,-6.826563912909478e-05,-0.0001752297393977642,6.8514636950567365e-06,0.0,0.0,0.0,0.0,0.0007777328719384968,-0.002187591977417469,-0.0013591075548902154,0.9997410178184509,0.0,0.0,0.0,0.21970725059509277,2.833045482635498,3.5638506412506104,-39.767452239990234,0
1734.6149999999998,-0.00012172278366051614,-0.00022501443163491786,1.649117621127516e-05,0.0,0.0,0.0,0.0,-0.003490716451779008,-0.00242762453854084,-0.00405470933765173,0.999367356300354,0.0,0.0,0.0,0.2197357565164566,2.8325860500335693,3.571901559829712,-39.772605895996094,0
1744.527,-6.469280924648046e-05,-0.0001692551450105384,2.92832719424041e-05,0.0,0.0,0.0,0.0,0.0009508445509709418,-0.0032085904385894537,-0.000350442249327898,1.0001853704452515,0.0,0.0,0.0,0.21828362345695496,2.830287218093872,3.5692930221557617,-39.509765625,0
1754.4429999999993,-0.00011788714618887752,-0.0002213998232036829,3.8512793253175914e-05,0.0,0.0,0.0,0.0,-0.0001619956165086478,0.0007252221694216132,-0.0004747822240460664,0.9984378218650818,0.0,0.0,0.0,0.21770045161247253,2.8215396404266357,3.5662522315979004,-39.404212951660156,0
1764.353000000001,-7.669816113775596e-05,-0.00016756445984356105,-1.4703956367156934e-05,0.0,0.0,0.0,0.0,-7.24494966561906e-05,-0.0003571093548089266,0.0011323662474751472,0.997763454914093,0.0,0.0,0.0,0.2164551466703415,2.8218369483947754,3.5734102725982666,-39.17881393432617,0
1774.264000000001,-0.00013319139543455094,-0.0002206258213846013,-1.1435887245170306e-05,0.0,0.0,0.0,0.0,-2.3949882233864628e-05,0.007703385315835476,-0.005440574139356613,1.0015119314193726,0.0,0.0,0.0,0.21728628873825073,2.820528030395508,3.572460889816284,-39.329254150390625,0
1784.1679999999997,-8.870453166309744e-05,-0.0001493979070801288,-4.829002864426002e-05,0.0,0.0,0.0,0.0,0.00036890755291096866,0.0009816758101806045,0.0014582739677280188,1.000460147857666,0.0,0.0,0.0,0.21542267501354218,2.816586494445801,3.5561141967773438,-38.99193572998047,0
1794.0910000000003,-0.00014784079394303262,-0.00020129868062213063,-4.748897481476888e-05,0.0,0.0,0.0,0.0,-0.001627997262403369,-0.0017264550551772118,0.002769672079011798,0.9984346032142639,0.0,0.0,0.0,0.21514253318309784,2.8169827461242676,3.551967144012451,-38.941226959228516,0
1803.9920000000002,-0.00014726686640642583,-0.00018813126371242106,-0.0001006063976092264,0.0,0.0,0.0,0.0,0.0015804814174771309,0.0007048801053315401,0.00027343767578713596,0.9993675947189331,0.0,0.0,0.0,0.21478216350078583,2.815765857696533,3.5488152503967285,-38.875999450683594,0
1813.9120000000003,-0.00020773778669536114,-0.00024213151482399553,-0.00010412505071144551,0.0,0.0,0.0,0.0,0.0028410491067916155,-0.0011682967888191342,0.00012909788347315043,0.9983858466148376,0.0,0.0,0.0,0.2138596922159195,2.812556505203247,3.5509121417999268,-38.70902633666992,0
1823.8220000000001,-0.0001467231340939179,-0.00024287617998197675,-2.7673373551806435e-05,0.0,0.0,0.0,0.0,-0.002006484428420663,-0.005330847576260567,0.004738123621791601,0.9995052218437195,0.0,0.0,0.0,0.21379077434539795,2.807126522064209,3.5497965812683105,-38.696556091308594,0
1833.7399999999998,-0.00020271670655347407,-0.0002966863103210926,-2.7021913410862908e-05,0.0,0.0,0.0,0.0,0.0007726737530902028,0.0003378961991984397,-0.003918470349162817,0.9992110729217529,0.0,0.0,0.0,0.21492888033390045,2.8065545558929443,3.5619685649871826,-38.90255355834961,0
1843.6409999999996,-0.0001752497919369489,-0.00022874760907143354,-0.0001042047661030665,0.0,0.0,0.0,0.0,-0.000992911634966731,0.0017646139021962881,-0.0011907859006896615,1.0010318756103516,0.0,0.0,0.0,0.21384765207767487,2.8082468509674072,3.5647659301757812,-38.70684814453125,0
1853.5609999999997,-0.00023205987235996872,-0.0002807935234159231,-0.00010951976582873613,0.0,0.0,0.0,0.0,-0.0044317347928881645,-0.004288489930331707,0.0018749716691672802,1.000810146331787,0.0,0.0,0.0,0.21321506798267365,2.804699420928955,3.5600545406341553,-38.592350006103516,0
1863.4719999999998,-0.00024427176686003804,-0.00027698586927726865,-0.00015923641331028193,0.0,0.0,0.0,0.0,-0.0016591681633144617,-0.0007424663053825498,0.0006181471981108189,1.0008317232131958,0.0,0.0,0.0,0.2136688381433487,2.80715274810791,3.571871042251587,-38.67448425292969,0
1873.3880000000008,-0.0003020052972715348,-0.00033145007910206914,-0.00016629321908112615,0.0,0.0,0.0,0.0,-0.004502527881413698,-0.004781312309205532,0.004098828416317701,0.9993194937705994,0.0,0.0,0.0,0.21299751102924347,2.8091070652008057,3.5618362426757812,-38.552974700927734,0
1883.2900000000009,-0.00014470040332525969,-0.00028281359118409455,2.217793371528387e-05,0.0,0.0,0.0,0.0,0.0018386442679911852,0.0022303604055196047,0.0005228224326856434,0.9984295964241028,0.0,0.0,0.0,0.22482286393642426,2.836717367172241,3.6295857429504395,-40.693389892578125,0
1893.2090000000007,-0.00019443061319179833,-0.0003354815999045968,2.863287227228284e-05,0.0,0.0,0.0,0.0,0.0013218459207564592,-0.0025812701787799597,0.0008483935380354524,0.9988125562667847,0.0,0.0,0.0,0.22531172633171082,2.8289289474487305,3.6237869262695312,-40.7818717956543,0
1903.1139999999996,-0.0001293986279051751,-0.0002077761455439031,1.2481996236601844e-05,0.0,0.0,0.0,0.0,0.0008992724469862878,-0.002221186412498355,0.002356313169002533,0.9987112879753113,0.0,0.0,0.0,0.23129180073738098,2.8567559719085693,3.6405258178710938,-41.86427688598633,0
1913.0380000000005,-0.00017794070299714804,-0.00025664226268418133,1.546164639876224e-05,0.0,0.0,0.0,0.0,-0.0014811665751039982,-0.0026718759909272194,0.001118834363296628,0.9999215006828308,0.0,0.0,0.0,0.2310248166322708,2.8536183834075928,3.642723321914673,-41.81595230102539,0
1922.9400000000005,-8.491347398376092e-05,-0.0001921525690704584,-3.243378523620777e-05,0.0,0.0,0.0,0.0,-0.0009905468905344605,-0.0015466760378330946,0.0016795896226540208,1.0014123916625977,0.0,0.0,0.0,0.23080462217330933,2.8517796993255615,3.6449718475341797,-41.77609634399414,0
1932.8610000000008,-0.0001340226735919714,-0.00024049954663496464,-3.3209984394488856e-05,0.0,0.0,0.0,0.0,-0.0013911346904933453,-0.0022188453003764153,-0.0003340922121424228,0.9984483122825623,0.0,0.0,0.0,0.23030321300029755,2.8471546173095703,3.6489274501800537,-41.68534469604492,0
1942.7649999999994,-2.9350378099479713e-05,-0.0001347065408481285,-5.625310950563289e-05,0.0,0.0,0.0,0.0,0.0006273178732953966,0.00664471136406064,0.0036028160247951746,1.001467227935791,0.0,0.0,0.0,0.23039866983890533,2.851304769515991,3.6475415229797363,-41.70262145996094,0
1952.6859999999997,-7.678367546759546e-05,-0.0001813636627048254,-5.795876859338023e-05,0.0,0.0,0.0,0.0,-0.003295554779469967,0.002087817993015051,-0.0028925950173288584,1.0007888078689575,0.0,0.0,0.0,0.23005156219005585,2.846616744995117,3.638622760772705,-41.63978958129883,0
1962.5869999999995,-0.0001065341493813321,-0.00018245716637466103,-3.743470006156713e-05,0.0,0.0,0.0,0.0,0.00053624645806849,0.0023934952914714813,-0.0025160107761621475,1.0000773668289185,0.0,0.0,0.0,0.23094864189624786,2.839768171310425,3.6177263259887695,-41.802162170410156,0
1972.5069999999996,-0.00015583925414830446,-0.00023227056954056025,-3.616111644078046e-05,0.0,0.0,0.0,0.0,0.001560734468512237,0.004293556325137615,0.0019383678445592523,0.9983212947845459,0.0,0.0,0.0,0.22865204513072968,2.84440541267395,3.6071832180023193,-41.386478424072266,0
1982.4120000000003,-0.00012548551603686064,-0.00023092857736628503,-2.8266508707019966e-06,0.0,0.0,0.0,0.0,-0.0012053560931235552,-0.0013940955977886915,-0.002941571408882737,1.0004162788391113,0.0,0.0,0.0,0.22275251150131226,2.8551764488220215,3.615190267562866,-40.31864547729492,0
1992.3330000000005,-0.0001750954397721216,-0.0002821485686581582,1.5102023098734207e-07,0.0,0.0,0.0,0.0,0.0002220971800852567,-0.0023231806699186563,-0.0017065928550437093,1.002182126045227,0.0,0.0,0.0,0.22226779162883759,2.85162615776062,3.614776611328125,-40.23091506958008,0
2002.2350000000006,-0.00016154399781953543,-0.0002736854075919837,3.7895821151323617e-05,0.0,0.0,0.0,0.0,0.0015946215717121959,0.001625332864932716,0.003849523141980171,1.000174641609192,0.0,0.0,0.0,0.22186022996902466,2.8490278720855713,3.618500232696533,-40.157142639160156,0
2012.161,-0.00021097558783367276,-0.00032412834116257727,4.611497570294887e-05,0.0,0.0,0.0,0.0,0.004189646802842617,0.006203077267855406,0.00021292192104738206,0.9983443021774292,0.0,0.0,0.0,0.22109729051589966,2.8525195121765137,3.6086313724517822,-40.01905059814453,0
2022.0599999999995,-0.0002619355800561607,-0.00037673357292078435,5.451143078971654e-05,0.0,0.0,0.0,0.0,-0.0020610899664461613,0.00873019453138113,-0.003153880126774311,0.9988486170768738,0.0,0.0,0.0,0.22069051861763,2.841202974319458,3.5991060733795166,-39.9454231262207,0
2031.9850000000006,-0.00031419089646078646,-0.0004309630021452904,6.167807441670448e-05,0.0,0.0,0.0,0.0,-0.0017054544296115637,-0.005713419523090124,0.0010138562647625804,0.9985290169715881,0.0,0.0,0.0,0.22118738293647766,2.8346526622772217,3.581268787384033,-40.03535842895508,0
2041.893,-0.00036791752791032195,-0.00048643030459061265,6.753411435056478e-05,0.0,0.0,0.0,0.0,-0.0007314708782359958,0.0013001837069168687,-0.0018550126114860177,0.9996788501739502,0.0,0.0,0.0,0.21962416172027588,2.8388450145721436,3.5798511505126953,-39.75240707397461,0
2051.8050000000003,-0.0004239566915202886,-0.0005437245708890259,7.228834147099406e-05,0.0,0.0,0.0,0.0,0.0008216702844947577,-0.0019987099803984165,-0.000968619657214731,0.9995231032371521,0.0,0.0,0.0,0.21931058168411255,2.830439329147339,3.578603982925415,-39.69565200805664,0
2061.7090000000007,-0.00028828231734223664,-0.0004663459840230644,0.00020620245777536184,0.0,0.0,0.0,0.0,-0.001564160455018282,0.0005441445973701775,-0.0008550842176191509,0.9997033476829529,0.0,0.0,0.0,0.2162902057170868,2.8794214725494385,3.6530051231384277,-39.148956298828125,0
2071.6280000000006,-0.00033494210219942033,-0.0005169431678950787,0.00022045378864277154,0.0,0.0,0.0,0.0,-0.0016252212226390839,-0.0018710203003138304,-0.000142698670970276,0.9997044801712036,0.0,0.0,0.0,0.21582640707492828,2.8776774406433105,3.650359869003296,-39.06501007080078,0
2081.5319999999992,-0.00031412302632816136,-0.00048037886153906584,0.0003101716283708811,0.0,0.0,0.0,0.0,0.0010855559958145022,-0.00043727594311349094,0.0015864172019064426,0.9989045858383179,0.0,0.0,0.0,0.2164226621389389,2.877840995788574,3.6496946811676025,-39.17292785644531,0
2091.4590000000007,-0.0003598518669605255,-0.0005262798513285816,0.00032975681824609637,0.0,0.0,0.0,0.0,-0.0015669794520363212,-0.002469324506819248,-0.0018953183898702264,0.9999588131904602,0.0,0.0,0.0,0.21772608160972595,2.8784186840057373,3.6353507041931152,-39.408851623535156,0
2101.3559999999998,-0.00034475026768632233,-0.0005127577460370958,0.00041179926483891904,0.0,0.0,0.0,0.0,-0.0014216485433280468,0.0005102237919345498,-0.0029083106201142073,0.9985459446907043,0.0,0.0,0.0,0.2179774045944214,2.880836248397827,3.6410303115844727,-39.454345703125,0
