timestamp,stateEstimate.x,stateEstimate.y,stateEstimate.z,controller.cmd_thrust,controller.cmd_roll,controller.cmd_pitch,controller.cmd_yaw,controller.r_roll,controller.r_pitch,controller.r_yaw,controller.accelz,controller.actuatorThrust,controller.roll,controller.pitch,controller.yaw,controller.rollRate,controller.pitchRate,controller.yawRate,controller.ctr_yaw
0.0,0.020928677171468735,0.014485558494925499,0.007017592433840036,0.0,0.0,0.0,0.0,-0.0002076907840091735,-0.000897938443813473,0.00010476237366674468,0.9997704029083252,0.0,0.0,0.0,41.67206954956055,0.6904706358909607,5.438470840454102,-7542.72705078125,0
9.924999999999272,0.021311400458216667,0.014401775784790516,0.007299408316612244,0.0,0.0,0.0,0.0,-0.001776159624569118,0.0017171968938782811,0.0003171582648064941,1.0000243186950684,0.0,0.0,0.0,41.7093620300293,0.6937071084976196,5.461151123046875,-7549.4775390625,0
19.82499999999891,0.021628431975841522,0.014283578842878342,0.007544782944023609,0.0,0.0,0.0,0.0,-0.0005410619778558612,-0.003634571796283126,0.0011660369345918298,1.000779390335083,0.0,0.0,0.0,41.66781997680664,0.6931519508361816,5.457727909088135,-7541.9580078125,0
29.75,0.022051071748137474,0.014259450137615204,0.007850917987525463,0.0,0.0,0.0,0.0,0.002121344208717346,0.0034497275482863188,3.8286092603811994e-05,1.001396656036377,0.0,0.0,0.0,41.71059036254883,0.6995415091514587,5.49739933013916,-7549.7001953125,0
39.64799999999923,0.022376496344804764,0.014145033434033394,0.00809798389673233,0.0,0.0,0.0,0.0,0.0028946097008883953,0.0023499950766563416,0.0004665452870540321,1.002327799797058,0.0,0.0,0.0,41.669429779052734,0.700817346572876,5.492347717285156,-7542.25,0
49.57499999999891,0.023006459698081017,0.01394400279968977,0.008632300421595573,0.0,0.0,0.0,0.0,-0.0011268132366240025,-0.0007907485123723745,0.000702225195709616,1.0012495517730713,0.0,0.0,0.0,41.666500091552734,0.6988509297370911,5.475974082946777,-7541.7197265625,0
59.47199999999975,0.023006459698081017,0.01394400279968977,0.008632300421595573,0.0,0.0,0.0,0.0,-0.0003871418011840433,-0.0011588658671826124,0.0020748022943735123,0.999861478805542,0.0,0.0,0.0,41.666500091552734,0.6988509297370911,5.475974082946777,-7541.7197265625,0
69.39399999999841,0.023643890395760536,0.013742038048803806,0.009173326194286346,0.0,0.0,0.0,0.0,0.0005386155098676682,0.004288952331990004,0.0005462807603180408,1.000686764717102,0.0,0.0,0.0,41.6715202331543,0.7141256928443909,5.462719440460205,-7542.62841796875,0
79.29699999999866,0.023643890395760536,0.013742038048803806,0.009173326194286346,0.0,0.0,0.0,0.0,0.0034148998092859983,-0.0004687504260800779,0.00034852157114073634,0.9985867142677307,0.0,0.0,0.0,41.6715202331543,0.7141256928443909,5.462719440460205,-7542.62841796875,0
89.20999999999913,0.024284018203616142,0.013543539680540562,0.00972472969442606,0.0,0.0,0.0,0.0,-0.0017345767701044679,0.0005658825393766165,-0.004403865430504084,0.9987298846244812,0.0,0.0,0.0,41.675193786621094,0.721865713596344,5.453413963317871,-7543.29296875,0
99.12599999999838,0.024284018203616142,0.013543539680540562,0.00972472969442606,0.0,0.0,0.0,0.0,0.003595692338421941,-0.002129203639924526,-0.0008439624798484147,0.9986397624015808,0.0,0.0,0.0,41.675193786621094,0.721865713596344,5.453413963317871,-7543.29296875,0
109.04099999999926,0.024797428399324417,0.013377618975937366,0.01025581918656826,0.0,0.0,0.0,0.0,0.0012863809242844582,0.003146136412397027,-0.0010368224466219544,1.0001587867736816,0.0,0.0,0.0,41.66835403442383,0.7442942261695862,5.440927982330322,-7542.05517578125,0
118.94499999999971,0.024797428399324417,0.013377618975937366,0.01025581918656826,0.0,0.0,0.0,0.0,0.0009825226152315736,0.0011165454052388668,-0.0018296776106581092,0.9987116456031799,0.0,0.0,0.0,41.66835403442383,0.7442942261695862,5.440927982330322,-7542.05517578125,0
128.8729999999996,0.025131745263934135,0.013293055817484856,0.010568234138190746,0.0,0.0,0.0,0.0,7.40441755624488e-05,-0.001830402878113091,-5.4541884310310706e-05,1.000150203704834,0.0,0.0,0.0,41.7103271484375,0.7532220482826233,5.431572914123535,-7549.65185546875,0
138.76999999999862,0.025459706783294678,0.013171643950045109,0.010834033600986004,0.0,0.0,0.0,0.0,-0.0020089384634047747,-0.00037155902828089893,0.0016835302812978625,1.001692533493042,0.0,0.0,0.0,41.67030334472656,0.7524609565734863,5.422442436218262,-7542.408203125,0
148.6929999999993,0.025789519771933556,0.013088253326714039,0.011138117872178555,0.0,0.0,0.0,0.0,0.0003541563346516341,-0.0016497594770044088,-0.0007023999351076782,1.001251459121704,0.0,0.0,0.0,41.70920181274414,0.7578299045562744,5.426943778991699,-7549.44873046875,0
158.59399999999914,0.02611902542412281,0.012966169975697994,0.011407834477722645,0.0,0.0,0.0,0.0,0.0024353726767003536,-0.0019881175830960274,-0.0029329247772693634,0.9992581009864807,0.0,0.0,0.0,41.66885757446289,0.7613934278488159,5.435089588165283,-7542.146484375,0
168.5079999999998,0.02629818581044674,0.012924307025969028,0.011672643013298512,0.0,0.0,0.0,0.0,-0.0030292498413473368,0.0023236789274960756,0.0021389510948210955,1.0004254579544067,0.0,0.0,0.0,41.70028305053711,0.7824277877807617,5.419060230255127,-7547.83447265625,0
178.41599999999926,0.026623908430337906,0.012801319360733032,0.011948875151574612,0.0,0.0,0.0,0.0,-0.0012338940287008882,-0.0018514359835535288,0.002015619771555066,1.00166654586792,0.0,0.0,0.0,41.65874099731445,0.7824719548225403,5.421470642089844,-7540.3154296875,0
188.33899999999994,0.0269512627273798,0.012675945647060871,0.0122255589812994,0.0,0.0,0.0,0.0,-0.0011149897472932935,-0.000321691099088639,0.004020622931420803,1.0006978511810303,0.0,0.0,0.0,41.61958312988281,0.7878732085227966,5.421511173248291,-7533.22705078125,0
198.23899999999958,0.02728024683892727,0.01254764199256897,0.012503759935498238,0.0,0.0,0.0,0.0,-0.00038373464485630393,-0.000353307812474668,-0.0028406798373907804,1.0011035203933716,0.0,0.0,0.0,41.57876205444336,0.7981535196304321,5.4193525314331055,-7525.8388671875,0
208.15899999999965,0.027610277757048607,0.012416766956448555,0.012783274985849857,0.0,0.0,0.0,0.0,0.002226097509264946,0.005121138878166676,0.0017314000288024545,0.999708890914917,0.0,0.0,0.0,41.53884506225586,0.7991153001785278,5.414486408233643,-7518.61328125,0
218.0639999999985,0.02794063463807106,0.012284060940146446,0.013063568621873856,0.0,0.0,0.0,0.0,0.0012807510793209076,-0.002296833787113428,-0.004654340445995331,0.9999650716781616,0.0,0.0,0.0,41.49745559692383,0.7927402853965759,5.406286239624023,-7511.1220703125,0
227.98300000000017,0.028270674869418144,0.012149612419307232,0.013343962840735912,0.0,0.0,0.0,0.0,0.0026881173253059387,0.0024694951716810465,-0.007599160075187683,0.9995238780975342,0.0,0.0,0.0,41.45792007446289,0.7971407771110535,5.4024529457092285,-7503.96630859375,0
237.8889999999992,0.02860053814947605,0.012013750150799751,0.013624195009469986,0.0,0.0,0.0,0.0,0.0003401896683499217,0.002230587415397167,-0.003434248035773635,1.0007836818695068,0.0,0.0,0.0,41.41550827026367,0.7988499999046326,5.384885787963867,-7496.2900390625,0
247.8199999999997,0.028931915760040283,0.011876746080815792,0.013904498890042305,0.0,0.0,0.0,0.0,0.0003494528355076909,-0.002071583643555641,-0.000710388005245477,0.9989423155784607,0.0,0.0,0.0,41.37386703491211,0.7917481660842896,5.372743129730225,-7488.75146484375,0
257.71799999999894,0.029265517368912697,0.011738494038581848,0.014184857718646526,0.0,0.0,0.0,0.0,-0.0016754786483943462,0.002619808539748192,-0.0007999794324859977,0.999472439289093,0.0,0.0,0.0,41.333335876464844,0.7998121380805969,5.366730690002441,-7481.41552734375,0
267.6299999999992,0.029600635170936584,0.01159807201474905,0.01446496695280075,0.0,0.0,0.0,0.0,-0.0024426302406936884,0.0007977905916050076,-0.0036041957791894674,1.0013400316238403,0.0,0.0,0.0,41.29252624511719,0.8038904666900635,5.361469268798828,-7474.029296875,0
277.53499999999985,0.02993668243288994,0.011454572901129723,0.014744937419891357,0.0,0.0,0.0,0.0,4.767538484884426e-05,0.0007146709249354899,-0.002794251311570406,0.9998701810836792,0.0,0.0,0.0,41.2520866394043,0.8041524887084961,5.361584186553955,-7466.7099609375,0
287.4589999999989,0.030273452401161194,0.01130799949169159,0.015025628730654716,0.0,0.0,0.0,0.0,-0.0010221886914223433,-0.0019582845270633698,-0.00188053073361516,1.0000401735305786,0.0,0.0,0.0,41.21021270751953,0.8036608695983887,5.3432512283325195,-7459.13037109375,0
297.35899999999856,0.0306114312261343,0.011158626526594162,0.015306763350963593,0.0,0.0,0.0,0.0,0.001224808394908905,-0.005012360401451588,0.0020511001348495483,0.9992657899856567,0.0,0.0,0.0,41.170841217041016,0.7996174097061157,5.346236705780029,-7452.00439453125,0
307.28299999999945,0.03095090016722679,0.011006657034158707,0.0155877023935318,0.0,0.0,0.0,0.0,-0.0007430363330058753,0.0017308350652456284,-0.0017434835899621248,1.0004699230194092,0.0,0.0,0.0,41.13058853149414,0.8053776621818542,5.343001365661621,-7444.71826171875,0
317.1829999999991,0.03129143267869949,0.010852087289094925,0.015868598595261574,0.0,0.0,0.0,0.0,-0.0017320145852863789,-0.002966800704598427,0.0019075304735451937,1.0006457567214966,0.0,0.0,0.0,41.09068298339844,0.8025588989257812,5.337907314300537,-7437.49462890625,0
327.10299999999916,0.03163228556513786,0.010694456286728382,0.01614985428750515,0.0,0.0,0.0,0.0,0.0024961407762020826,-0.0006819386617280543,0.001531900023110211,1.0007169246673584,0.0,0.0,0.0,41.05131912231445,0.8046985268592834,5.331033706665039,-7430.37060546875,0
337.0099999999984,0.031972888857126236,0.010533923283219337,0.016431676223874092,0.0,0.0,0.0,0.0,0.0013820386957377195,-0.0035360404290258884,0.0027326056733727455,1.000144124031067,0.0,0.0,0.0,41.01155090332031,0.8057387471199036,5.329626560211182,-7423.1728515625,0
346.9319999999989,0.03231354430317879,0.010371447540819645,0.016714313998818398,0.0,0.0,0.0,0.0,-0.0006512159015983343,0.00027294293977320194,-0.0009632856817916036,1.0013771057128906,0.0,0.0,0.0,40.972023010253906,0.8042267560958862,5.324348449707031,-7416.017578125,0
356.83100000000013,0.032654304057359695,0.010207541286945343,0.01699773781001568,0.0,0.0,0.0,0.0,0.0017226465279236436,0.004186572507023811,-0.0012031361693516374,1.0006071329116821,0.0,0.0,0.0,40.931915283203125,0.8045063614845276,5.318544864654541,-7408.75830078125,0
366.7609999999986,0.03299548104405403,0.01004217192530632,0.017282061278820038,0.0,0.0,0.0,0.0,-0.0018675461178645492,-0.0011893665650859475,-0.00025825542979873717,1.001857876777649,0.0,0.0,0.0,40.89092254638672,0.8070839047431946,5.3125996589660645,-7401.33837890625,0
376.65599999999904,0.03333788737654686,0.009874852374196053,0.017567751929163933,0.0,0.0,0.0,0.0,-0.004078560974448919,0.0031745468731969595,0.003073115600273013,1.000751256942749,0.0,0.0,0.0,40.85041809082031,0.8104042410850525,5.300816535949707,-7394.00732421875,0
386.5779999999995,0.034025099128484726,0.009530896320939064,0.018143124878406525,0.0,0.0,0.0,0.0,0.0009360085823573172,-0.001816228381358087,-0.0016133468598127365,1.0024442672729492,0.0,0.0,0.0,40.77113723754883,0.8195120096206665,5.282388687133789,-7379.6572265625,0
396.47899999999936,0.034025099128484726,0.009530896320939064,0.018143124878406525,0.0,0.0,0.0,0.0,0.0032131685875356197,0.0005371612496674061,-0.004020323511213064,1.0015519857406616,0.0,0.0,0.0,40.77113723754883,0.8195120096206665,5.282388687133789,-7379.6572265625,0
406.40099999999984,0.03471407666802406,0.009175548329949379,0.018724936991930008,0.0,0.0,0.0,0.0,0.0004195030778646469,0.004299011547118425,0.0014788972912356257,0.9983597993850708,0.0,0.0,0.0,40.69119644165039,0.8208693265914917,5.26875638961792,-7365.1875,0
416.3040000000001,0.03471407666802406,0.009175548329949379,0.018724936991930008,0.0,0.0,0.0,0.0,-0.002210909267887473,-0.0021256254985928535,-0.0005711737321689725,0.9986143112182617,0.0,0.0,0.0,40.69119644165039,0.8208693265914917,5.26875638961792,-7365.1875,0
426.22499999999854,0.03501395508646965,0.010189062915742397,0.01916339620947838,0.0,0.0,0.0,0.0,0.0003774942015297711,0.001920882728882134,0.0052253929898142815,0.9995682239532471,0.0,0.0,0.0,40.801673889160156,0.9686967134475708,5.423794269561768,-7385.18408203125,0
436.1259999999984,0.03501395508646965,0.010189062915742397,0.01916339620947838,0.0,0.0,0.0,0.0,-0.0017451019957661629,-0.0032675908878445625,0.0033375497441738844,0.9998484253883362,0.0,0.0,0.0,40.801673889160156,0.9686967134475708,5.423794269561768,-7385.18408203125,0
446.0549999999985,0.035733677446842194,0.010071327909827232,0.019847610965371132,0.0,0.0,0.0,0.0,0.0008812994346953928,0.0006286856369115412,-0.0004352536634542048,0.9991153478622437,0.0,0.0,0.0,40.897789001464844,0.9829387068748474,5.44235897064209,-7402.5810546875,0
455.96099999999933,0.035733677446842194,0.010071327909827232,0.019847610965371132,0.0,0.0,0.0,0.0,0.000877113314345479,0.0014472202165052295,0.0010525464313104749,1.0004127025604248,0.0,0.0,0.0,40.897789001464844,0.9829387068748474,5.44235897064209,-7402.5810546875,0
465.8729999999996,0.036056190729141235,0.010025713592767715,0.020214971154928207,0.0,0.0,0.0,0.0,-0.0007853693678043783,0.0013370884116739035,-0.0027016401290893555,0.9975505471229553,0.0,0.0,0.0,41.02607727050781,0.9881569147109985,5.442044258117676,-7425.80126953125,0
495.6149999999998,0.03710010275244713,0.009702431969344616,0.021135982125997543,0.0,0.0,0.0,0.0,-0.0019964897073805332,0.0002729600528255105,-0.00026182172587141395,0.9996111989021301,0.0,0.0,0.0,41.064735412597656,0.9819808006286621,5.428717136383057,-7432.798828125,0
505.5209999999988,0.037549711763858795,0.00963537860661745,0.02154560759663582,0.0,0.0,0.0,0.0,0.0021877912804484367,-0.004816805012524128,-0.0008339844061993062,1.0006657838821411,0.0,0.0,0.0,41.16579055786133,0.9757568836212158,5.440812587738037,-7451.09033203125,0
515.4309999999987,0.03789971023797989,0.009513800963759422,0.021844998002052307,0.0,0.0,0.0,0.0,0.0017706528306007385,0.0012397054815664887,0.001716542523354292,1.00105619430542,0.0,0.0,0.0,41.124603271484375,0.985502302646637,5.438058853149414,-7443.634765625,0
525.3429999999989,0.03818646818399429,0.009438320063054562,0.022102847695350647,0.0,0.0,0.0,0.0,-0.00023443867394234985,-0.002215750515460968,0.0008949110633693635,1.0019441843032837,0.0,0.0,0.0,41.225711822509766,0.9800837635993958,5.4502105712890625,-7461.9365234375,0
535.253999999999,0.03853670135140419,0.009315794333815575,0.022404175251722336,0.0,0.0,0.0,0.0,-0.0008849338046275079,-0.0021545416675508022,-0.003777277423068881,0.9987282156944275,0.0,0.0,0.0,41.18492889404297,0.982072114944458,5.445103168487549,-7454.5537109375,0
545.1729999999989,0.03894622623920441,0.009238598868250847,0.022764582186937332,0.0,0.0,0.0,0.0,0.0006834600353613496,0.004683309700340033,-0.0007480816566385329,1.0004262924194336,0.0,0.0,0.0,41.28572082519531,0.9826817512512207,5.472208499908447,-7472.79736328125,0
555.0810000000001,0.03929918631911278,0.009118258953094482,0.023068714886903763,0.0,0.0,0.0,0.0,0.0037952899001538754,-0.0016212856862694025,-0.0033995620906352997,1.0015697479248047,0.0,0.0,0.0,41.24521255493164,0.9849135875701904,5.461195945739746,-7465.46533203125,0
564.9919999999984,0.03965955227613449,0.009058243595063686,0.023390639573335648,0.0,0.0,0.0,0.0,0.0016029231483116746,0.001347723533399403,-8.669098315294832e-05,1.0003414154052734,0.0,0.0,0.0,41.33310317993164,0.9810696244239807,5.472171783447266,-7481.37353515625,0
574.9029999999984,0.04001625254750252,0.008941744454205036,0.023696890100836754,0.0,0.0,0.0,0.0,0.003243173472583294,0.005302108824253082,-0.0025204222183674574,1.0007097721099854,0.0,0.0,0.0,41.29306411743164,0.9764311909675598,5.467972278594971,-7474.12646484375,0
584.8139999999985,0.040372755378484726,0.008824042044579983,0.02400398626923561,0.0,0.0,0.0,0.0,0.00037190524744801223,-0.003169411327689886,-0.00010225474397884682,1.002428412437439,0.0,0.0,0.0,41.25327682495117,0.9769636988639832,5.458274841308594,-7466.9248046875,0
594.7279999999992,0.04072900488972664,0.008705808781087399,0.02431229129433632,0.0,0.0,0.0,0.0,-0.00025029052630998194,0.001406450173817575,0.0007729950011707842,1.0010415315628052,0.0,0.0,0.0,41.211544036865234,0.9716854095458984,5.449894428253174,-7459.37158203125,0
604.6399999999994,0.041086066514253616,0.008586622774600983,0.024622123688459396,0.0,0.0,0.0,0.0,-0.0013651639455929399,-0.001513532130047679,0.004194320645183325,1.000040888786316,0.0,0.0,0.0,41.17204666137695,0.9746675491333008,5.441396236419678,-7452.22216796875,0
614.5509999999995,0.04144393280148506,0.008465469814836979,0.024933097884058952,0.0,0.0,0.0,0.0,0.002538844710215926,0.005318199284374714,-0.001458365935832262,1.001935601234436,0.0,0.0,0.0,41.13227844238281,0.971914529800415,5.436944961547852,-7445.02392578125,0
624.4609999999993,0.04180275648832321,0.008342275395989418,0.02524496242403984,0.0,0.0,0.0,0.0,0.0002710360276978463,0.0010029778350144625,0.0021773616317659616,1.00094735622406,0.0,0.0,0.0,41.091896057128906,0.9699736833572388,5.434848785400391,-7437.71484375,0
634.3739999999998,0.04216362535953522,0.008217399939894676,0.025558024644851685,0.0,0.0,0.0,0.0,0.00033962042653001845,-0.003269571578130126,-0.0021864352747797966,1.0002576112747192,0.0,0.0,0.0,41.05168914794922,0.96294105052948,5.413255214691162,-7430.4375,0
644.2829999999994,0.042526256293058395,0.008091142401099205,0.02587217651307583,0.0,0.0,0.0,0.0,0.002045099623501301,0.0008510736515745521,-0.005538524128496647,0.9998447895050049,0.0,0.0,0.0,41.01201629638672,0.9615957140922546,5.410242557525635,-7423.2568359375,0
654.1999999999989,0.04288911819458008,0.007963264361023903,0.026186564937233925,0.0,0.0,0.0,0.0,-0.0035246710758656263,-0.0027466092724353075,-0.004247773438692093,1.0006282329559326,0.0,0.0,0.0,40.97088623046875,0.9628329277038574,5.406078338623047,-7415.8115234375,0
664.1009999999987,0.04325168952345848,0.007833175361156464,0.026500791311264038,0.0,0.0,0.0,0.0,0.001202250481583178,0.004120834171772003,-0.0019980301149189472,1.0020948648452759,0.0,0.0,0.0,40.93079376220703,0.9604687690734863,5.397637367248535,-7408.5556640625,0
674.0209999999988,0.04361459240317345,0.007701026741415262,0.02681591361761093,0.0,0.0,0.0,0.0,0.0024088616482913494,0.0021228285040706396,-0.0005208007642067969,1.0010278224945068,0.0,0.0,0.0,40.88993453979492,0.96685391664505,5.389571666717529,-7401.15966796875,0
683.9279999999999,0.0439784936606884,0.007566947024315596,0.027132853865623474,0.0,0.0,0.0,0.0,-0.002914175856858492,0.006505302153527737,-0.0009217992192134261,1.0005899667739868,0.0,0.0,0.0,40.85019302368164,0.9665346145629883,5.380801677703857,-7393.9658203125,0
693.8499999999985,0.04434317350387573,0.007431144826114178,0.027450988069176674,0.0,0.0,0.0,0.0,0.0024319225922226906,0.0015359430108219385,0.0026691497769206762,1.001542568206787,0.0,0.0,0.0,40.8099479675293,0.9699583649635315,5.375374794006348,-7386.681640625,0
703.7509999999984,0.04470708593726158,0.007294946815818548,0.02777010388672352,0.0,0.0,0.0,0.0,0.00036559405270963907,0.00029136406374163926,0.0034335907548666,1.0013267993927002,0.0,0.0,0.0,40.77056121826172,0.9667282104492188,5.357272148132324,-7379.552734375,0
713.6689999999999,0.045069772750139236,0.007158469408750534,0.02809073030948639,0.0,0.0,0.0,0.0,-0.002537543885409832,-0.0021188994869589806,-0.0017456361092627048,0.9988532066345215,0.0,0.0,0.0,40.731693267822266,0.9564114212989807,5.351012229919434,-7372.517578125,0
723.5869999999995,0.045796237885951996,0.0068795038387179375,0.028733497485518456,0.0,0.0,0.0,0.0,-0.00023763120407238603,-0.00044641506974585354,-0.0015829409239813685,0.998720645904541,0.0,0.0,0.0,40.653072357177734,0.9620808959007263,5.346508502960205,-7358.287109375,0
733.4979999999996,0.045796237885951996,0.0068795038387179375,0.028733497485518456,0.0,0.0,0.0,0.0,-0.0011155433021485806,0.002254490740597248,0.000479922688100487,0.9996118545532227,0.0,0.0,0.0,40.653072357177734,0.9620808959007263,5.346508502960205,-7358.287109375,0
743.4069999999992,0.046525418758392334,0.006593333091586828,0.029374370351433754,0.0,0.0,0.0,0.0,-0.0006289697485044599,0.002020348096266389,-0.00172082067001611,1.0016072988510132,0.0,0.0,0.0,40.57514953613281,0.9608944058418274,5.333959102630615,-7344.1826171875,0
753.3169999999991,0.046525418758392334,0.006593333091586828,0.029374370351433754,0.0,0.0,0.0,0.0,0.002547938609495759,0.005106200929731131,0.0007251779898069799,0.9988143444061279,0.0,0.0,0.0,40.57514953613281,0.9608944058418274,5.333959102630615,-7344.1826171875,0
763.2209999999995,0.0472562275826931,0.006298288702964783,0.030017245560884476,0.0,0.0,0.0,0.0,-0.00042317440966144204,0.00011699090100592002,-0.0010997045319527388,0.9997231364250183,0.0,0.0,0.0,40.495384216308594,0.9574637413024902,5.299469470977783,-7329.7451171875,0
773.146999999999,0.0472562275826931,0.006298288702964783,0.030017245560884476,0.0,0.0,0.0,0.0,0.0017112760106101632,-0.0010957015911117196,0.0018794761272147298,1.0027517080307007,0.0,0.0,0.0,40.495384216308594,0.9574637413024902,5.299469470977783,-7329.7451171875,0
783.0459999999985,0.04765844717621803,0.006133129354566336,0.03037063032388687,0.0,0.0,0.0,0.0,-0.0010709896450862288,0.004141008481383324,0.0023022345267236233,0.9997518658638,0.0,0.0,0.0,40.45576477050781,0.9560137391090393,5.288153171539307,-7322.57373046875,0
792.9679999999989,0.048025112599134445,0.005981608293950558,0.03069324791431427,0.0,0.0,0.0,0.0,0.0014379790518432856,-0.001093657105229795,0.00012782197154592723,1.0004291534423828,0.0,0.0,0.0,40.41663360595703,0.9526675939559937,5.297438144683838,-7315.49169921875,0
802.869999999999,0.04839232191443443,0.005827884189784527,0.031016847118735313,0.0,0.0,0.0,0.0,0.0016235382063314319,-0.0009376980597153306,-0.00010738670243881643,0.9981667995452881,0.0,0.0,0.0,40.37736129760742,0.9528366327285767,5.291651725769043,-7308.38232421875,0
812.7909999999993,0.04875947907567024,0.005672484636306763,0.03134047985076904,0.0,0.0,0.0,0.0,-0.0017264708876609802,-0.001967524876818061,-0.0016254301881417632,0.9989293813705444,0.0,0.0,0.0,40.33833694458008,0.9520249366760254,5.291200160980225,-7301.31884765625,0
822.6939999999995,0.04912586510181427,0.005515691824257374,0.03166312351822853,0.0,0.0,0.0,0.0,0.0020222582388669252,0.002982227597385645,-0.002571603050455451,1.0013021230697632,0.0,0.0,0.0,40.29865646362305,0.9481129050254822,5.279133319854736,-7294.13720703125,0
832.625,0.04949181154370308,0.005356974899768829,0.0319850817322731,0.0,0.0,0.0,0.0,-0.00231027789413929,-0.001136773033067584,-0.006591199431568384,0.999270498752594,0.0,0.0,0.0,40.260398864746094,0.9501252174377441,5.26124382019043,-7287.212890625,0
842.5169999999998,0.04985800012946129,0.005195463541895151,0.03230747580528259,0.0,0.0,0.0,0.0,-0.0010975431650876999,-0.002453848021104932,-0.0005671143881045282,0.9993484616279602,0.0,0.0,0.0,40.21913528442383,0.9519534707069397,5.256526947021484,-7279.74365234375,0
852.4399999999987,0.05022357031702995,0.0050308494828641415,0.03262973204255104,0.0,0.0,0.0,0.0,0.0007550513255409896,0.0014756711898371577,-0.0015504980692639947,0.9993059039115906,0.0,0.0,0.0,40.18031692504883,0.9557090997695923,5.252330780029297,-7272.7177734375,0
862.3409999999985,0.050587866455316544,0.004862758331000805,0.03295145556330681,0.0,0.0,0.0,0.0,-0.001291968859732151,0.001399384462274611,0.000904748507309705,1.0000345706939697,0.0,0.0,0.0,40.13945388793945,0.9589939117431641,5.254786968231201,-7265.3212890625,0
872.2609999999986,0.05095138028264046,0.004690988454967737,0.03327291086316109,0.0,0.0,0.0,0.0,-0.0009034393588081002,0.0008516909438185394,0.002691327827051282,0.9981593489646912,0.0,0.0,0.0,40.099327087402344,0.962670087814331,5.241563320159912,-7258.05810546875,0
882.164999999999,0.05131388083100319,0.004516253713518381,0.033593952655792236,0.0,0.0,0.0,0.0,0.0006100049940869212,-0.0006683578249067068,0.0014636548003181815,0.9990376234054565,0.0,0.0,0.0,40.059532165527344,0.9599063396453857,5.2266058921813965,-7250.85546875,0
892.0849999999991,0.051675908267498016,0.0043393406085669994,0.03391420096158981,0.0,0.0,0.0,0.0,0.001093406113795936,-0.0021440833806991577,0.0009915422415360808,0.9990045428276062,0.0,0.0,0.0,40.02043533325195,0.9597270488739014,5.224393367767334,-7243.7783203125,0
901.9889999999996,0.05203808844089508,0.004160530865192413,0.03423352912068367,0.0,0.0,0.0,0.0,0.00012845787568949163,-0.0035675487015396357,-0.00289884558878839,1.000433325767517,0.0,0.0,0.0,39.98064041137695,0.9614436626434326,5.2158613204956055,-7236.5751953125,0
911.9119999999984,0.05239982530474663,0.00397958979010582,0.0345521941781044,0.0,0.0,0.0,0.0,0.0009638021583668888,-0.0029468873981386423,-0.0010623751441016793,1.0011919736862183,0.0,0.0,0.0,39.940765380859375,0.9629494547843933,5.220692157745361,-7229.35791015625,0
921.8220000000001,0.05276090279221535,0.0037961453199386597,0.034871067851781845,0.0,0.0,0.0,0.0,0.00017535763618070632,-0.00021977469441480935,0.002038387581706047,1.0023244619369507,0.0,0.0,0.0,39.90165328979492,0.9664775729179382,5.216409206390381,-7222.27880859375,0
931.7349999999988,0.053122393786907196,0.003609997220337391,0.03519146516919136,0.0,0.0,0.0,0.0,0.0018880111165344715,0.0024958879221230745,-0.0029594735242426395,0.999518096446991,0.0,0.0,0.0,39.862545013427734,0.9640207290649414,5.22829008102417,-7215.19970703125,0
941.637999999999,0.05348415672779083,0.003421889618039131,0.035513486713171005,0.0,0.0,0.0,0.0,0.0006406184984371066,-0.0007519344799220562,-0.0003649970458354801,0.9998534321784973,0.0,0.0,0.0,39.82283020019531,0.9657637476921082,5.21896505355835,-7208.01123046875,0
951.5619999999999,0.05384550243616104,0.003232544055208564,0.03583602234721184,0.0,0.0,0.0,0.0,0.0039017759263515472,0.00026088260347023606,-0.0014488176675513387,1.0013984441757202,0.0,0.0,0.0,39.78443145751953,0.9677783250808716,5.222894668579102,-7201.06103515625,0
961.4609999999993,0.054206956177949905,0.0030410410836338997,0.036158908158540726,0.0,0.0,0.0,0.0,-0.00052506203064695,0.0009690072620287538,0.0008000343805179,0.9996546506881714,0.0,0.0,0.0,39.74459457397461,0.9676209688186646,5.215595722198486,-7193.85107421875,0
971.3899999999994,0.05456903949379921,0.002846783259883523,0.03648270666599274,0.0,0.0,0.0,0.0,0.0014738328754901886,-0.0016133514000102878,-0.001129521639086306,0.9963951110839844,0.0,0.0,0.0,39.70516586303711,0.9684444069862366,5.198886394500732,-7186.71435546875,0
981.2849999999999,0.05493232607841492,0.002650346141308546,0.03680598735809326,0.0,0.0,0.0,0.0,0.003005667356774211,0.0009690820006653666,-0.0002537917753215879,0.998236894607544,0.0,0.0,0.0,39.666141510009766,0.96751868724823,5.197020530700684,-7179.65087890625,0
991.2099999999991,0.055296167731285095,0.0024517683777958155,0.03712711110711098,0.0,0.0,0.0,0.0,-0.002144592348486185,-0.00323986797593534,0.0007246191380545497,0.9991332292556763,0.0,0.0,0.0,39.62687683105469,0.9638196229934692,5.189698696136475,-7172.54345703125,0
1001.1149999999998,0.05513661727309227,0.004512121435254812,0.03692207112908363,0.0,0.0,0.0,0.0,0.0022744149900972843,-0.0011750005651265383,0.001582915079779923,1.000357747077942,0.0,0.0,0.0,39.94839859008789,1.0829600095748901,5.374516010284424,-7230.740234375,0
1011.0279999999984,0.05550580099225044,0.004372952971607447,0.0372391976416111,0.0,0.0,0.0,0.0,-0.0009122882620431483,0.0009606347884982824,0.003888703417032957,1.0020469427108765,0.0,0.0,0.0,39.90977096557617,1.0785253047943115,5.366947174072266,-7223.74755859375,0
1020.9329999999991,0.05550079047679901,0.004434013739228249,0.03728871047496796,0.0,0.0,0.0,0.0,0.0018286104314029217,-0.0038671360816806555,0.001907520811073482,1.001409649848938,0.0,0.0,0.0,40.1879768371582,1.0713375806808472,5.367979526519775,-7274.1044921875,0
1030.857,0.05586690455675125,0.004295480437576771,0.037606749683618546,0.0,0.0,0.0,0.0,0.0034501648042351007,0.002758811227977276,0.0023598468396812677,0.9991942644119263,0.0,0.0,0.0,40.14947509765625,1.07157564163208,5.368869781494141,-7267.134765625,0
1040.7559999999994,0.055719222873449326,0.004365030210465193,0.03756067529320717,0.0,0.0,0.0,0.0,-0.0014521408593282104,0.0013259060215204954,-0.0013131513260304928,0.998877763748169,0.0,0.0,0.0,40.385005950927734,1.0625771284103394,5.35837984085083,-7309.76611328125,0
1050.6759999999995,0.05608189105987549,0.0042260861955583096,0.03787867724895477,0.0,0.0,0.0,0.0,0.0011099288240075111,-0.002140793716534972,-0.002155155874788761,1.001018762588501,0.0,0.0,0.0,40.34476089477539,1.0596024990081787,5.334943771362305,-7302.4814453125,0
1060.5819999999985,0.055955518037080765,0.0041959998197853565,0.03783971443772316,0.0,0.0,0.0,0.0,0.0020359668415039778,-0.0014613349922001362,-0.0010463747894391418,0.9987409710884094,0.0,0.0,0.0,40.50430679321289,1.0574662685394287,5.323894500732422,-7331.3603515625,0
1070.5049999999992,0.055955518037080765,0.0041959998197853565,0.03783971443772316,0.0,0.0,0.0,0.0,-0.0018479389837011695,-0.0015899825375527143,-0.00225057452917099,0.9973793625831604,0.0,0.0,0.0,40.50430679321289,1.0574662685394287,5.323894500732422,-7331.3603515625,0
1080.4079999999994,0.05590410530567169,0.004132715053856373,0.037804700434207916,0.0,0.0,0.0,0.0,0.00041146622970700264,0.004975076299160719,-0.00397501140832901,0.9978551268577576,0.0,0.0,0.0,40.63115692138672,1.0553045272827148,5.304327487945557,-7354.3203125,0
1090.3269999999993,0.05590410530567169,0.004132715053856373,0.037804700434207916,0.0,0.0,0.0,0.0,-0.00023431223235093057,0.002058259444311261,7.392438419628888e-05,0.9986131191253662,0.0,0.0,0.0,40.63115692138672,1.0553045272827148,5.304327487945557,-7354.3203125,0
1100.2330000000002,0.055696114897727966,0.004143959376960993,0.03765171393752098,0.0,0.0,0.0,0.0,0.0035079086665064096,-0.0032594315707683563,-0.0013571580639109015,1.0012736320495605,0.0,0.0,0.0,40.73162078857422,1.059735655784607,5.281763076782227,-7372.50390625,0
1110.1629999999986,0.055696114897727966,0.004143959376960993,0.03765171393752098,0.0,0.0,0.0,0.0,-0.0018966388888657093,0.0020202691666781902,-0.0017822469817474484,1.0031542778015137,0.0,0.0,0.0,40.73162078857422,1.059735655784607,5.281763076782227,-7372.50390625,0
1120.054,0.05536780506372452,0.004227524157613516,0.03738519549369812,0.0,0.0,0.0,0.0,0.002492105821147561,0.000503946968819946,-0.0016536148032173514,0.9999336004257202,0.0,0.0,0.0,40.86147689819336,1.0596377849578857,5.28464412689209,-7396.0087890625,0
1129.9749999999985,0.055699948221445084,0.004091557115316391,0.03768137842416763,0.0,0.0,0.0,0.0,-0.0005032259505242109,0.0013257941463962197,-0.0017463910626247525,1.0018764734268188,0.0,0.0,0.0,40.82188415527344,1.065698266029358,5.276490211486816,-7388.84228515625,0
1139.878999999999,0.055534202605485916,0.004167899955064058,0.03756305202841759,0.0,0.0,0.0,0.0,-0.003780118655413389,-0.0015485748881474137,0.0008731685811653733,1.0009959936141968,0.0,0.0,0.0,40.96532440185547,1.0710631608963013,5.289273738861084,-7414.8056640625,0
1149.8029999999999,0.055864255875349045,0.00403493782505393,0.03785943239927292,0.0,0.0,0.0,0.0,-0.0025720575358718634,-0.005806600674986839,-0.0033547659404575825,0.9995265007019043,0.0,0.0,0.0,40.92512130737305,1.0716739892959595,5.281846523284912,-7407.52880859375,0
1159.7019999999993,0.05586946755647659,0.004073792137205601,0.03783071041107178,0.0,0.0,0.0,0.0,0.0006491279345937073,-0.001417300896719098,0.004634362645447254,0.9993999004364014,0.0,0.0,0.0,41.0482177734375,1.081255555152893,5.310217380523682,-7429.80859375,0
1169.6279999999988,0.056200988590717316,0.003944306634366512,0.03812378644943237,0.0,0.0,0.0,0.0,0.00035810834378935397,0.0033165845088660717,0.0031553341541439295,0.9999119639396667,0.0,0.0,0.0,41.00881576538086,1.0839769840240479,5.312686920166016,-7422.6767578125,0
1179.5259999999998,0.056440845131874084,0.003960989881306887,0.038200076669454575,0.0,0.0,0.0,0.0,0.0009249148424714804,-0.0007787500508129597,-0.003380332374945283,1.0004335641860962,0.0,0.0,0.0,41.125335693359375,1.086924433708191,5.368277549743652,-7443.76708984375,0
1189.4439999999995,0.05678107216954231,0.003835457842797041,0.03848543390631676,0.0,0.0,0.0,0.0,-0.0003466836060397327,0.00024022578145377338,-0.0040181903168559074,1.000535488128662,0.0,0.0,0.0,41.08537673950195,1.0845993757247925,5.351808071136475,-7436.53466796875,0
1199.348,0.05693880841135979,0.0038642999716103077,0.03851372003555298,0.0,0.0,0.0,0.0,-0.0013166876742616296,-0.0017235318664461374,0.005360619630664587,1.0002201795578003,0.0,0.0,0.0,41.19473648071289,1.086727261543274,5.393898010253906,-7456.32958984375,0
1209.2709999999988,0.05728694796562195,0.0037443581968545914,0.03879459947347641,0.0,0.0,0.0,0.0,0.00021798221860080957,0.005008644424378872,3.1948991818353534e-05,0.9975559711456299,0.0,0.0,0.0,41.155555725097656,1.0936040878295898,5.388114929199219,-7449.23779296875,0
1219.179,0.05715831369161606,0.003845008322969079,0.03861594572663307,0.0,0.0,0.0,0.0,0.003566732630133629,0.0027027353644371033,0.002580587984994054,0.9996374845504761,0.0,0.0,0.0,41.25519943237305,1.1030489206314087,5.415913105010986,-7467.2734375,0
1229.0939999999991,0.0575065016746521,0.0037293911445885897,0.038890521973371506,0.0,0.0,0.0,0.0,0.0018946401542052627,-0.000164927972946316,-0.0004930091672576964,0.9990445971488953,0.0,0.0,0.0,41.215667724609375,1.0979139804840088,5.406418323516846,-7460.11767578125,0
1238.9959999999992,0.05704694613814354,0.003901118179783225,0.03851895034313202,0.0,0.0,0.0,0.0,0.001928601530380547,-1.820240868255496e-06,-0.0033189100213348866,0.9995885491371155,0.0,0.0,0.0,41.305824279785156,1.1172640323638916,5.405570030212402,-7476.4365234375,0
1248.9209999999985,0.05739137902855873,0.0037887943908572197,0.03878990188241005,0.0,0.0,0.0,0.0,0.0014746845699846745,0.004627638030797243,-0.0011524170404300094,1.0003942251205444,0.0,0.0,0.0,41.26556396484375,1.1178245544433594,5.397005558013916,-7469.14892578125,0
1258.8239999999987,0.056532151997089386,0.0040344721637666225,0.03816692531108856,0.0,0.0,0.0,0.0,-0.0011819008504971862,-0.0003675711341202259,0.00016488329856656492,1.0007548332214355,0.0,0.0,0.0,41.345664978027344,1.142988920211792,5.358932971954346,-7483.64794921875,0
1268.7330000000002,0.05686068534851074,0.003922448959201574,0.038437217473983765,0.0,0.0,0.0,0.0,0.003117381827905774,0.005049016326665878,-0.000977176590822637,1.0006047487258911,0.0,0.0,0.0,41.30461120605469,1.1321187019348145,5.347772598266602,-7476.216796875,0
1278.646999999999,0.056258369237184525,0.004098173696547747,0.03802225738763809,0.0,0.0,0.0,0.0,-0.001186367473565042,0.0004269377386663109,-0.0029462273232638836,0.9989994168281555,0.0,0.0,0.0,41.380889892578125,1.1529605388641357,5.330896377563477,-7490.02294921875,0
1288.5589999999993,0.05657433718442917,0.0039902301505208015,0.03829354792833328,0.0,0.0,0.0,0.0,0.0004931465373374522,-0.000770446436945349,0.0008805843535810709,0.9989290237426758,0.0,0.0,0.0,41.340396881103516,1.1493713855743408,5.3209028244018555,-7482.69384765625,0
1298.467999999999,0.05593659356236458,0.004145058337599039,0.037797849625349045,0.0,0.0,0.0,0.0,-0.0010474935406818986,-0.0012383518042042851,0.0031427310314029455,0.9980781078338623,0.0,0.0,0.0,41.399532318115234,1.1621536016464233,5.293237686157227,-7493.39794921875,0
1308.3809999999994,0.056242506951093674,0.004036726430058479,0.038064081221818924,0.0,0.0,0.0,0.0,0.0010069346753880382,1.9479744878481142e-05,0.0016425724606961012,0.9992765188217163,0.0,0.0,0.0,41.35843276977539,1.1637194156646729,5.287459373474121,-7485.9580078125,0
1318.2919999999995,0.05579843372106552,0.004175960086286068,0.037731390446424484,0.0,0.0,0.0,0.0,0.0014532541390508413,0.0007049173000268638,-0.0032518121879547834,1.0013355016708374,0.0,0.0,0.0,41.43193054199219,1.1659584045410156,5.276090145111084,-7499.26220703125,0
1328.205,0.056096889078617096,0.004069475922733545,0.03799409419298172,0.0,0.0,0.0,0.0,-0.0007549040019512177,0.0009047311614267528,-0.000635799951851368,1.0007460117340088,0.0,0.0,0.0,41.39177703857422,1.1691443920135498,5.265687465667725,-7491.99365234375,0
1338.1219999999994,0.05582623556256294,0.004208740312606096,0.03775649890303612,0.0,0.0,0.0,0.0,0.0021793837659060955,-0.0010057191830128431,-0.0015545716742053628,1.0006980895996094,0.0,0.0,0.0,41.465702056884766,1.1785972118377686,5.286916255950928,-7505.37451171875,0
1348.0279999999984,0.05612078309059143,0.004105458967387676,0.038016900420188904,0.0,0.0,0.0,0.0,-0.0010339419823139906,-0.0006151713896542788,-0.0007740200380794704,1.0006166696548462,0.0,0.0,0.0,41.424991607666016,1.1831881999969482,5.282942771911621,-7498.005859375,0
1357.9399999999987,0.05580442026257515,0.004214027430862188,0.03773333877325058,0.0,0.0,0.0,0.0,0.004984762519598007,0.0006703634280711412,0.0004920006031170487,0.9991518259048462,0.0,0.0,0.0,41.49473190307617,1.1894117593765259,5.287275791168213,-7510.62890625,0
1367.851999999999,0.05609472095966339,0.004111690446734428,0.03799024596810341,0.0,0.0,0.0,0.0,-0.002036316553130746,0.0010434117866680026,0.0028541674837470055,1.000165581703186,0.0,0.0,0.0,41.45429611206055,1.1870359182357788,5.286171913146973,-7503.3095703125,0
1377.7669999999998,0.05573929473757744,0.004229275975376368,0.03762650862336159,0.0,0.0,0.0,0.0,-0.0001385643263347447,0.001338865840807557,0.0013462684582918882,0.9994156956672668,0.0,0.0,0.0,41.515281677246094,1.1837389469146729,5.281028747558594,-7514.34912109375,0
1387.6759999999995,0.05602831020951271,0.004130099900066853,0.03787572681903839,0.0,0.0,0.0,0.0,0.0011305041844025254,0.0007950092549435794,0.0005109029589220881,0.9975826740264893,0.0,0.0,0.0,41.47495651245117,1.1899889707565308,5.277042388916016,-7507.04931640625,0
1397.5879999999997,0.05599542334675789,0.004138094373047352,0.03783559054136276,0.0,0.0,0.0,0.0,-0.0018049663631245494,0.002430732361972332,-0.0022221924737095833,0.9994009137153625,0.0,0.0,0.0,41.49824142456055,1.1895966529846191,5.266109466552734,-7511.263671875,0
1407.4989999999998,0.05599542334675789,0.004138094373047352,0.03783559054136276,0.0,0.0,0.0,0.0,-0.0006053850520402193,-0.004572484642267227,-0.0001750554220052436,0.9988793134689331,0.0,0.0,0.0,41.49824142456055,1.1895966529846191,5.266109466552734,-7511.263671875,0
1417.411,0.055976662784814835,0.004127210006117821,0.03780457377433777,0.0,0.0,0.0,0.0,-0.0012942783068865538,0.004530406091362238,0.004727016668766737,0.9991441965103149,0.0,0.0,0.0,41.51710510253906,1.1942607164382935,5.262533187866211,-7514.67822265625,0
1427.324999999999,0.055976662784814835,0.004127210006117821,0.03780457377433777,0.0,0.0,0.0,0.0,-0.0009271249873563647,-0.002554516540840268,-0.0007478123879991472,0.9968262910842896,0.0,0.0,0.0,41.51710510253906,1.1942607164382935,5.262533187866211,-7514.67822265625,0
1437.2399999999998,0.0555768683552742,0.004206638317555189,0.03748916834592819,0.0,0.0,0.0,0.0,0.0016497039468958974,0.005981033202260733,-0.000788014498539269,0.9982866048812866,0.0,0.0,0.0,41.518741607666016,1.2052042484283447,5.239719867706299,-7514.974609375,0
1447.1479999999992,0.0555768683552742,0.004206638317555189,0.03748916834592819,0.0,0.0,0.0,0.0,-0.0015162230702117085,0.000709567335434258,0.005786883644759655,0.9983826875686646,0.0,0.0,0.0,41.518741607666016,1.2052042484283447,5.239719867706299,-7514.974609375,0
1457.0649999999987,0.05533773452043533,0.004294605925679207,0.037267088890075684,0.0,0.0,0.0,0.0,-0.0007610169122926891,-0.001589215244166553,-0.0008207593346014619,0.9993690252304077,0.0,0.0,0.0,41.581424713134766,1.2105929851531982,5.238000869750977,-7526.3203125,0
1466.9740000000002,0.055602073669433594,0.004194903187453747,0.03749013692140579,0.0,0.0,0.0,0.0,-0.0028657647781074047,0.000728114799130708,-0.002097992692142725,0.9998993277549744,0.0,0.0,0.0,41.540618896484375,1.2067668437957764,5.226126194000244,-7518.9345703125,0
1476.8849999999984,0.055272676050662994,0.004315272904932499,0.037210527807474136,0.0,0.0,0.0,0.0,0.0032971131149679422,-0.002224169671535492,0.00041069957660511136,0.9994724988937378,0.0,0.0,0.0,41.59185028076172,1.218752145767212,5.2419610023498535,-7528.20751953125,0
1486.798999999999,0.05553213879466057,0.004217097535729408,0.03742935135960579,0.0,0.0,0.0,0.0,-0.0013688207836821675,-0.005358017049729824,0.00022871806868351996,1.000203013420105,0.0,0.0,0.0,41.55168151855469,1.2221866846084595,5.238835334777832,-7520.93701171875,0
1496.708999999999,0.0551617294549942,0.0043450891971588135,0.03710881993174553,0.0,0.0,0.0,0.0,0.001407898380421102,0.004091188777238131,-0.002540877554565668,1.002051591873169,0.0,0.0,0.0,41.60322570800781,1.227834701538086,5.248566150665283,-7530.26611328125,0
1506.6189999999988,0.055414892733097076,0.004248345270752907,0.03732477128505707,0.0,0.0,0.0,0.0,0.0009010901558212936,-0.002695227274671197,-0.001693108817562461,0.9980812668800354,0.0,0.0,0.0,41.5622673034668,1.2302720546722412,5.244124889373779,-7522.85302734375,0
1516.530999999999,0.055095374584198,0.0044042873196303844,0.03701145946979523,0.0,0.0,0.0,0.0,-0.0006532675470225513,-0.0003257722419220954,-0.002676524920389056,0.9973640441894531,0.0,0.0,0.0,41.615203857421875,1.2358098030090332,5.263860702514648,-7532.43505859375,0
1526.4429999999993,0.055344387888908386,0.004310945980250835,0.037222590297460556,0.0,0.0,0.0,0.0,3.306991857243702e-05,0.0005217208527028561,-0.0035959421657025814,1.0004607439041138,0.0,0.0,0.0,41.57408905029297,1.2370848655700684,5.257732391357422,-7524.9921875,0
1536.3559999999998,0.055016908794641495,0.004465486388653517,0.03690272197127342,0.0,0.0,0.0,0.0,-0.003858222858980298,0.0005679376772604883,0.0003537751908879727,0.9994780421257019,0.0,0.0,0.0,41.630191802978516,1.2500206232070923,5.2772440910339355,-7535.14794921875,0
1546.268,0.05526314303278923,0.004376115743070841,0.03710681572556496,0.0,0.0,0.0,0.0,0.0009031514055095613,0.0009588563698343933,0.0018424721201881766,1.0001345872879028,0.0,0.0,0.0,41.58843231201172,1.2559300661087036,5.2755126953125,-7527.5888671875,0
1556.1809999999987,0.054881833493709564,0.0045372555032372475,0.03675967454910278,0.0,0.0,0.0,0.0,0.00018688115233089775,-0.0012139276368543506,0.001141399028711021,0.9991589784622192,0.0,0.0,0.0,41.641361236572266,1.2720180749893188,5.295938968658447,-7537.16943359375,0
1566.107,0.05512369051575661,0.004453446716070175,0.03695952892303467,0.0,0.0,0.0,0.0,-0.0013838912127539515,-0.0008746362291276455,0.0004599894455168396,1.0002630949020386,0.0,0.0,0.0,41.6014518737793,1.2726064920425415,5.292320251464844,-7529.9453125,0
1576.0049999999992,0.05462135374546051,0.004606605041772127,0.0365176647901535,0.0,0.0,0.0,0.0,-0.001849640510044992,0.0021101729944348335,0.000692034256644547,1.0003000497817993,0.0,0.0,0.0,41.657318115234375,1.2741730213165283,5.292235374450684,-7540.0576171875,0
1585.9249999999993,0.054855380207300186,0.0045263804495334625,0.0367131344974041,0.0,0.0,0.0,0.0,-0.0022343627642840147,0.000537914049346,0.0007706846809014678,0.9995138049125671,0.0,0.0,0.0,41.61560821533203,1.2711354494094849,5.290323734283447,-7532.5078125,0
1595.8269999999993,0.054255545139312744,0.004678314086049795,0.03625522553920746,0.0,0.0,0.0,0.0,-8.980585698736832e-05,0.0014053389895707369,-0.0010771608212962747,1.0000500679016113,0.0,0.0,0.0,41.65326690673828,1.2826950550079346,5.268094062805176,-7539.32421875,0
1605.7389999999996,0.054479025304317474,0.004597707651555538,0.03644924238324165,0.0,0.0,0.0,0.0,0.002264739014208317,-0.0018105707131326199,0.0003885334881488234,1.001541256904602,0.0,0.0,0.0,41.61308288574219,1.2813204526901245,5.262521266937256,-7532.05078125,0
1615.6509999999998,0.05405557155609131,0.004712912254035473,0.03614318370819092,0.0,0.0,0.0,0.0,-0.0021796724759042263,-0.0016556269256398082,0.001322863157838583,1.001918077468872,0.0,0.0,0.0,41.66931915283203,1.290802240371704,5.2481207847595215,-7542.22998046875,0
1625.563,0.05427001044154167,0.004633872304111719,0.03633799031376839,0.0,0.0,0.0,0.0,-0.0005378880305215716,-0.0010695201344788074,-0.0032680232543498278,0.9996758699417114,0.0,0.0,0.0,41.63011169433594,1.285156011581421,5.242705821990967,-7535.13330078125,0
1635.4749999999985,0.05448412522673607,0.00455424515530467,0.03653421252965927,0.0,0.0,0.0,0.0,-0.0028336651157587767,0.003989828750491142,-0.0009338064701296389,1.001118540763855,0.0,0.0,0.0,41.58919143676758,1.2842925786972046,5.241207122802734,-7527.7265625,0
1645.3869999999988,0.05469773709774017,0.004473971668630838,0.0367308109998703,0.0,0.0,0.0,0.0,0.0001231846836162731,-0.00048016526852734387,-0.0003680129593703896,1.0028650760650635,0.0,0.0,0.0,41.54920959472656,1.2856253385543823,5.238093376159668,-7520.48974609375,0
1655.3029999999999,0.05428454279899597,0.00460021710023284,0.0364261157810688,0.0,0.0,0.0,0.0,0.0012804069556295872,0.004590480122715235,0.00020054649212397635,1.0003407001495361,0.0,0.0,0.0,41.598331451416016,1.2934975624084473,5.231766223907471,-7529.38037109375,0
1665.2209999999995,0.0544898621737957,0.004522353410720825,0.03662416338920593,0.0,0.0,0.0,0.0,0.001253149937838316,0.0035692602396011353,0.0018216691678389907,1.0017096996307373,0.0,0.0,0.0,41.55752182006836,1.2996288537979126,5.218336582183838,-7521.994140625,0
1675.1279999999988,0.054693568497896194,0.004442794248461723,0.036823615431785583,0.0,0.0,0.0,0.0,0.00013863951608072966,0.008482607081532478,0.000659952056594193,0.9997612833976746,0.0,0.0,0.0,41.51701736450195,1.29586660861969,5.196203708648682,-7514.66259765625,0
1685.0349999999999,0.054895803332328796,0.004360777325928211,0.03702431544661522,0.0,0.0,0.0,0.0,-0.0005726690869778395,-0.00046914289123378694,-0.0021910248324275017,0.9997563362121582,0.0,0.0,0.0,41.47652053833008,1.295261263847351,5.1848015785217285,-7507.3330078125,0
1694.9470000000001,0.054313648492097855,0.004550418816506863,0.03652345389127731,0.0,0.0,0.0,0.0,-0.00025297197862528265,-0.006322361528873444,0.00036272694705985487,1.0015325546264648,0.0,0.0,0.0,41.521400451660156,1.3061168193817139,5.191184043884277,-7515.4560546875,0
1704.8639999999996,0.05450902134180069,0.004469416569918394,0.03671947494149208,0.0,0.0,0.0,0.0,-0.00038925043190829456,0.0014228365616872907,0.004353795200586319,0.9996623396873474,0.0,0.0,0.0,41.47953796386719,1.3095993995666504,5.185665130615234,-7507.87890625,0
1714.7699999999986,0.05418093502521515,0.004606624599546194,0.036463722586631775,0.0,0.0,0.0,0.0,-0.0019340504659339786,-0.00496344780549407,-0.00023139818222261965,1.0005793571472168,0.0,0.0,0.0,41.49867630004883,1.3281888961791992,5.213784694671631,-7511.34326171875,0
1724.691999999999,0.05418093502521515,0.004606624599546194,0.036463722586631775,0.0,0.0,0.0,0.0,0.001116779400035739,0.001127878436818719,0.0019217242952436209,0.9999253153800964,0.0,0.0,0.0,41.49867630004883,1.3281888961791992,5.213784694671631,-7511.34326171875,0
1734.5949999999993,0.05399290844798088,0.004685346968472004,0.036243900656700134,0.0,0.0,0.0,0.0,-0.00025377055862918496,-0.00369278434664011,0.0002561563451308757,0.9990072250366211,0.0,0.0,0.0,41.51482391357422,1.3300166130065918,5.241686820983887,-7514.26513671875,0
1744.5139999999992,0.05399290844798088,0.004685346968472004,0.036243900656700134,0.0,0.0,0.0,0.0,-0.0012172888964414597,0.001305712852627039,0.0036734272725880146,0.9994364976882935,0.0,0.0,0.0,41.51482391357422,1.3300166130065918,5.241686820983887,-7514.26513671875,0
1754.4179999999997,0.053888920694589615,0.004729477688670158,0.036062244325876236,0.0,0.0,0.0,0.0,0.0015611915150657296,-0.0014965130249038339,0.003260124009102583,1.0000348091125488,0.0,0.0,0.0,41.521793365478516,1.3272409439086914,5.268277645111084,-7515.52734375,0
1764.3439999999991,0.053888920694589615,0.004729477688670158,0.036062244325876236,0.0,0.0,0.0,0.0,0.0002081336424453184,2.8699641916318797e-05,-0.0013724961318075657,0.9996846318244934,0.0,0.0,0.0,41.521793365478516,1.3272409439086914,5.268277645111084,-7515.52734375,0
1774.2419999999984,0.05382613465189934,0.0048141987062990665,0.03589705750346184,0.0,0.0,0.0,0.0,0.0023042280226945877,-0.0004218891845084727,-0.0019428329542279243,1.0001088380813599,0.0,0.0,0.0,41.58576965332031,1.3188084363937378,5.306612491607666,-7527.107421875,0
1784.1629999999986,0.054013002663850784,0.004745209589600563,0.036064643412828445,0.0,0.0,0.0,0.0,-0.00014806778926867992,4.6465494961012155e-05,0.00014743959764018655,1.0001243352890015,0.0,0.0,0.0,41.545570373535156,1.3195407390594482,5.29978084564209,-7519.8310546875,0
1794.0699999999997,0.053726065903902054,0.004878625739365816,0.03581180050969124,0.0,0.0,0.0,0.0,-0.001851445296779275,-0.0022866500075906515,0.001802961458452046,0.9991295337677002,0.0,0.0,0.0,41.60321044921875,1.3278433084487915,5.313274383544922,-7530.26318359375,0
1803.9849999999988,0.05390918627381325,0.0048164683394134045,0.035976625978946686,0.0,0.0,0.0,0.0,0.0005231770919635892,0.00036646300577558577,-0.00255196332000196,0.9993334412574768,0.0,0.0,0.0,41.564205169677734,1.3271441459655762,5.3162736892700195,-7523.20361328125,0
1813.8919999999998,0.05359041318297386,0.004923094063997269,0.03567937761545181,0.0,0.0,0.0,0.0,-0.0036973580718040466,-0.0011320601915940642,0.0026215368416160345,1.0021005868911743,0.0,0.0,0.0,41.618858337402344,1.322098970413208,5.308765888214111,-7533.09619140625,0
1823.813,0.05377037450671196,0.004862878937274218,0.03583981841802597,0.0,0.0,0.0,0.0,-0.0019237835658714175,0.0030165412463247776,0.0025541731156408787,0.999556303024292,0.0,0.0,0.0,41.57761001586914,1.3263359069824219,5.30974006652832,-7525.63037109375,0
1833.7240000000002,0.05330055579543114,0.005006968509405851,0.03545603156089783,0.0,0.0,0.0,0.0,-0.00019891989359166473,-0.0005499669350683689,0.002310290699824691,0.9992795586585999,0.0,0.0,0.0,41.631229400634766,1.33389151096344,5.297481536865234,-7535.33544921875,0
1843.628999999999,0.053474556654691696,0.004948334768414497,0.03561515361070633,0.0,0.0,0.0,0.0,0.00026096825604327023,0.00018180346523877233,0.0011797400657087564,1.0007504224777222,0.0,0.0,0.0,41.59177017211914,1.338742971420288,5.2884392738342285,-7528.193359375,0
1853.5389999999989,0.0532277375459671,0.005063103977590799,0.03538760915398598,0.0,0.0,0.0,0.0,-0.0012583748903125525,0.002878583734855056,-0.0032354092691093683,1.0008800029754639,0.0,0.0,0.0,41.646385192871094,1.3422049283981323,5.301271915435791,-7538.07861328125,0
1863.458999999999,0.05339831858873367,0.005008694715797901,0.035543620586395264,0.0,0.0,0.0,0.0,-0.0012156926095485687,-0.0012192613212391734,0.0033817968796938658,1.0010251998901367,0.0,0.0,0.0,41.605655670166016,1.3441040515899658,5.290633678436279,-7530.7060546875,0
1873.3689999999988,0.053019799292087555,0.005114756524562836,0.0352344810962677,0.0,0.0,0.0,0.0,-0.003209242830052972,0.0005027462029829621,-0.00015784923743922263,0.9996984004974365,0.0,0.0,0.0,41.659759521484375,1.3457173109054565,5.267508506774902,-7540.49951171875,0
1883.286,0.05318591743707657,0.005060896743088961,0.03539005666971207,0.0,0.0,0.0,0.0,0.0017775382148101926,0.003592626191675663,0.0023207468912005424,0.9989407658576965,0.0,0.0,0.0,41.618038177490234,1.3458125591278076,5.2625555992126465,-7532.947265625,0
1893.188,0.052905451506376266,0.005144554190337658,0.03517373278737068,0.0,0.0,0.0,0.0,-0.001008647377602756,-0.0034757188986986876,-0.0017537855310365558,0.9977724552154541,0.0,0.0,0.0,41.66352844238281,1.3571910858154297,5.2507243156433105,-7541.181640625,0
1903.1059999999998,0.0530657023191452,0.005090419203042984,0.035326406359672546,0.0,0.0,0.0,0.0,0.0015060660662129521,-0.0036392423789948225,-0.0020418064668774605,0.9979696273803711,0.0,0.0,0.0,41.6224479675293,1.3534785509109497,5.2450175285339355,-7533.74560546875,0
1913.0099999999984,0.052755653858184814,0.005178364925086498,0.03506305813789368,0.0,0.0,0.0,0.0,0.0009608606924302876,0.001701407483778894,-0.0012088094372302294,0.9994393587112427,0.0,0.0,0.0,41.67298126220703,1.3525737524032593,5.2424821853637695,-7542.89306640625,0
1922.938,0.052911411970853806,0.0051216427236795425,0.03520945832133293,0.0,0.0,0.0,0.0,0.0015294791664928198,-0.0014232167741283774,-0.0010756277479231358,0.9994099140167236,0.0,0.0,0.0,41.63203811645508,1.3503414392471313,5.238335609436035,-7535.48193359375,0
1932.8359999999993,0.052492041140794754,0.005255823954939842,0.034824807196855545,0.0,0.0,0.0,0.0,-0.0012516786810010672,-0.0036257682368159294,0.001208609901368618,1.000709056854248,0.0,0.0,0.0,41.67268753051758,1.3503148555755615,5.237251281738281,-7542.83984375,0
1942.753999999999,0.0526437945663929,0.0052011143416166306,0.03496561944484711,0.0,0.0,0.0,0.0,0.000753925705794245,0.0012577628949657083,6.362717249430716e-05,1.0009459257125854,0.0,0.0,0.0,41.63298416137695,1.35212242603302,5.236326694488525,-7535.65283203125,0
1952.6689999999999,0.0522720143198967,0.005350152496248484,0.03465397283434868,0.0,0.0,0.0,0.0,0.0012970272218808532,0.0025246809236705303,-0.00016659972607158124,1.0005576610565186,0.0,0.0,0.0,41.685794830322266,1.3587281703948975,5.240905284881592,-7545.2119140625,0
1962.5859999999993,0.05241835489869118,0.005302048288285732,0.03479323908686638,0.0,0.0,0.0,0.0,-0.00028592548915185034,0.002472099382430315,0.00022282556165009737,0.9990124702453613,0.0,0.0,0.0,41.64491653442383,1.359000325202942,5.236938953399658,-7537.81298828125,0
1972.4830000000002,0.05256304517388344,0.005255007650703192,0.034933023154735565,0.0,0.0,0.0,0.0,-0.0012858916306868196,0.0018769924063235521,0.0008081671549007297,0.9975282549858093,0.0,0.0,0.0,41.60441207885742,1.3586719036102295,5.223743438720703,-7530.48095703125,0
1982.402,0.052706338465213776,0.005208072252571583,0.03507187217473984,0.0,0.0,0.0,0.0,-0.0005375327891670167,-0.0006535829743370414,7.953863678267226e-05,0.999243974685669,0.0,0.0,0.0,41.56364059448242,1.359230399131775,5.198167324066162,-7523.10107421875,0
1992.3059999999987,0.05218607932329178,0.005363167729228735,0.03464723005890846,0.0,0.0,0.0,0.0,0.0011862491955980659,-0.0007973008905537426,0.0017592082731425762,0.9994820356369019,0.0,0.0,0.0,41.61241149902344,1.3669265508651733,5.186144828796387,-7531.92919921875,0
2002.2349999999988,0.05232267826795578,0.005317355040460825,0.034780409187078476,0.0,0.0,0.0,0.0,-0.0003179011109750718,-0.004422586411237717,0.003357360837981105,1.0020140409469604,0.0,0.0,0.0,41.57106399536133,1.3653148412704468,5.181778430938721,-7524.4453125,0
2012.1299999999992,0.052001141011714935,0.005413811653852463,0.03446490690112114,0.0,0.0,0.0,0.0,0.0035636096727102995,-0.004522437695413828,-0.003129325108602643,1.0016857385635376,0.0,0.0,0.0,41.62557601928711,1.3538049459457397,5.1936354637146,-7534.31201171875,0
2022.0509999999995,0.05213400721549988,0.005370116792619228,0.03459460288286209,0.0,0.0,0.0,0.0,0.0032713867258280516,0.003937226720154285,0.0009773429483175278,1.001404047012329,0.0,0.0,0.0,41.584617614746094,1.356054425239563,5.194399356842041,-7526.89892578125,0
2031.9539999999997,0.05192412808537483,0.005478840786963701,0.03436869755387306,0.0,0.0,0.0,0.0,0.0010900876950472593,0.004431554116308689,-0.002608890412375331,1.0010086297988892,0.0,0.0,0.0,41.63606643676758,1.3554695844650269,5.2188520431518555,-7536.21142578125,0
2041.8739999999998,0.05205570161342621,0.005440391134470701,0.03449751064181328,0.0,0.0,0.0,0.0,-0.0021599717438220978,-0.0002330381830688566,-0.00016756652621552348,0.9982398152351379,0.0,0.0,0.0,41.59340286254883,1.349467396736145,5.2007622718811035,-7528.48876953125,0
2051.7779999999984,0.05190712586045265,0.005513063166290522,0.0343841053545475,0.0,0.0,0.0,0.0,0.0014665689086541533,-0.003216598415747285,0.004177373833954334,0.9995889067649841,0.0,0.0,0.0,41.609619140625,1.353947401046753,5.193329334259033,-7531.423828125,0
2061.7029999999995,0.05190712586045265,0.005513063166290522,0.0343841053545475,0.0,0.0,0.0,0.0,7.536415796494111e-05,0.001997691346332431,0.001866282313130796,0.998353123664856,0.0,0.0,0.0,41.609619140625,1.353947401046753,5.193329334259033,-7531.423828125,0
2071.602999999999,0.052155740559101105,0.005442717112600803,0.03463291749358177,0.0,0.0,0.0,0.0,0.003189403098076582,0.003723954549059272,-0.003566705621778965,0.999561607837677,0.0,0.0,0.0,41.52798843383789,1.3496441841125488,5.15933084487915,-7516.64892578125,0
2081.521999999999,0.052155740559101105,0.005442717112600803,0.03463291749358177,0.0,0.0,0.0,0.0,0.004264701157808304,0.004366002976894379,0.0009303751867264509,0.998746395111084,0.0,0.0,0.0,41.52798843383789,1.3496441841125488,5.15933084487915,-7516.64892578125,0
2091.4269999999997,0.05190358683466911,0.0054946583695709705,0.03440490737557411,0.0,0.0,0.0,0.0,-0.0013858963502570987,-0.0034019150771200657,0.00303792767226696,0.9965501427650452,0.0,0.0,0.0,41.584442138671875,1.3337960243225098,5.149072170257568,-7526.8671875,0
2101.3419999999987,0.05202392116189003,0.005454554688185453,0.03452358394861221,0.0,0.0,0.0,0.0,-0.0005819001235067844,0.0030102331656962633,-0.0005847940919920802,0.9994341731071472,0.0,0.0,0.0,41.544010162353516,1.331190824508667,5.139459609985352,-7519.54833984375,0
2111.252999999999,0.051513105630874634,0.005560389254242182,0.03408622369170189,0.0,0.0,0.0,0.0,0.001351751503534615,-0.0027049905620515347,-0.0004264744638931006,1.0009093284606934,0.0,0.0,0.0,41.58903121948242,1.3231748342514038,5.128937721252441,-7527.69677734375,0
2121.1749999999993,0.05162862688302994,0.005517531186342239,0.03419843316078186,0.0,0.0,0.0,0.0,-0.0006869802018627524,-0.0021850382909178734,0.0018132589757442474,1.0004979372024536,0.0,0.0,0.0,41.54811477661133,1.3226776123046875,5.122121334075928,-7520.29150390625,0
2131.075999999999,0.0513119176030159,0.005625269375741482,0.03387311100959778,0.0,0.0,0.0,0.0,0.0010615875944495201,0.0025756778195500374,-0.0017076936783269048,1.000149130821228,0.0,0.0,0.0,41.59178924560547,1.3215495347976685,5.1426801681518555,-7528.19677734375,0
2140.999,0.05142628774046898,0.005581673234701157,0.0339813157916069,0.0,0.0,0.0,0.0,0.0005110870697535574,0.000678646843880415,0.0014730050461366773,1.0013271570205688,0.0,0.0,0.0,41.550106048583984,1.321693778038025,5.133737564086914,-7520.65234375,0
2150.9039999999986,0.051229722797870636,0.005666697397828102,0.033759117126464844,0.0,0.0,0.0,0.0,-0.0027253113221377134,-0.0028750526253134012,0.0019782395102083683,0.9999233484268188,0.0,0.0,0.0,41.60054016113281,1.3183507919311523,5.149125099182129,-7529.7802734375,0
2160.815999999999,0.05134287849068642,0.005622809752821922,0.03386469557881355,0.0,0.0,0.0,0.0,0.001711142249405384,-3.0304552637971938e-05,7.852449198253453e-05,0.9983986616134644,0.0,0.0,0.0,41.559593200683594,1.3182562589645386,5.145005702972412,-7522.36865234375,0
2170.724,0.051129020750522614,0.005719744600355625,0.033629514276981354,0.0,0.0,0.0,0.0,0.0009665028192102909,-0.0037284393329173326,0.0027103102765977383,1.000104546546936,0.0,0.0,0.0,41.615875244140625,1.3182604312896729,5.16025972366333,-7532.55615234375,0
2180.638999999999,0.051242027431726456,0.005675614345818758,0.03373052924871445,0.0,0.0,0.0,0.0,0.002275081118568778,0.0008374819881282747,7.014701986918226e-05,1.0011438131332397,0.0,0.0,0.0,41.57605743408203,1.3186038732528687,5.1674652099609375,-7525.34912109375,0
2190.545,0.05098830908536911,0.005775976926088333,0.03347817808389664,0.0,0.0,0.0,0.0,-0.0003015706897713244,0.001440511317923665,0.0005035353824496269,1.0000704526901245,0.0,0.0,0.0,41.631221771240234,1.318147897720337,5.171228408813477,-7535.333984375,0
2200.4579999999987,0.05110067129135132,0.005731505807489157,0.033576611429452896,0.0,0.0,0.0,0.0,0.00033309392165392637,0.0006434292299672961,0.0010993387550115585,0.9998657703399658,0.0,0.0,0.0,41.59018325805664,1.3152047395706177,5.1591477394104,-7527.9052734375,0
2210.369999999999,0.05077021196484566,0.005810166243463755,0.03328699246048927,0.0,0.0,0.0,0.0,0.0011987043544650078,0.0027202265337109566,0.00186916661914438,1.0004526376724243,0.0,0.0,0.0,41.64492416381836,1.3111761808395386,5.151723861694336,-7537.814453125,0
2220.285,0.05087784677743912,0.005762601736932993,0.033383410423994064,0.0,0.0,0.0,0.0,0.0024730078876018524,0.0031181361991912127,0.0014769088011234999,0.998986005783081,0.0,0.0,0.0,41.604549407958984,1.3148326873779297,5.144476890563965,-7530.505859375,0
