timestamp,stateEstimate.x,stateEstimate.y,stateEstimate.z,controller.cmd_thrust,controller.cmd_roll,controller.cmd_pitch,controller.cmd_yaw,controller.r_roll,controller.r_pitch,controller.r_yaw,controller.accelz,controller.actuatorThrust,controller.roll,controller.pitch,controller.yaw,controller.rollRate,controller.pitchRate,controller.yawRate,controller.ctr_yaw
0.0,0.009191527962684631,-0.019061796367168427,-0.00033808546140789986,0.0,0.0,0.0,0.0,0.0019207127625122666,-0.003377060405910015,0.00046405885950662196,0.9997463226318359,0.0,0.0,0.0,-1.7106510400772095,3.112476348876953,5.540381908416748,309.6312561035156,0
9.918999999999869,0.009309829212725163,-0.019158780574798584,-0.0003235918702557683,0.0,0.0,0.0,0.0,-0.0036764454562216997,0.0008477647206746042,-0.0013970823492854834,1.0009764432907104,0.0,0.0,0.0,-1.7185568809509277,3.103593111038208,5.564981937408447,311.0622253417969,0
19.824000000000524,0.00923432782292366,-0.01912207156419754,-0.0002852196048479527,0.0,0.0,0.0,0.0,0.002618394559249282,0.00042377322097308934,-0.0007672518258914351,1.0008763074874878,0.0,0.0,0.0,-1.716302752494812,3.1022660732269287,5.558283805847168,310.6542053222656,0
29.73999999999978,0.009329806081950665,-0.019233902916312218,-0.00028272534837014973,0.0,0.0,0.0,0.0,0.0009971681283786893,-0.003841172903776169,0.00011677893780870363,0.9989885091781616,0.0,0.0,0.0,-1.7225085496902466,3.0976920127868652,5.569787979125977,311.7774658203125,0
39.65400000000045,0.009280592203140259,-0.019132185727357864,-0.00024516935809515417,0.0,0.0,0.0,0.0,-0.0026830872520804405,0.0018315238412469625,0.002505159005522728,0.999273955821991,0.0,0.0,0.0,-1.719979166984558,3.0911502838134766,5.569035530090332,311.3196716308594,0
49.559000000001106,0.00921608041971922,-0.0191604346036911,-0.00024368581944145262,0.0,0.0,0.0,0.0,0.0012061296729370952,-0.002282039262354374,-0.002365961903706193,1.0006155967712402,0.0,0.0,0.0,-1.7185977697372437,3.0914463996887207,5.560632705688477,311.0696105957031,0
59.470000000001164,0.009164081886410713,-0.01909276656806469,-0.00022584947873838246,0.0,0.0,0.0,0.0,-0.0047046649269759655,-0.002987346611917019,-0.0029634754173457623,1.0018961429595947,0.0,0.0,0.0,-1.7109489440917969,3.1197376251220703,5.552879810333252,309.6851501464844,0
69.375,0.00929494109004736,-0.019218528643250465,-0.00017720158211886883,0.0,0.0,0.0,0.0,-0.002000537235289812,0.0025821379385888577,-0.0011745743686333299,1.0011276006698608,0.0,0.0,0.0,-1.7151211500167847,3.0973825454711914,5.610397815704346,310.4403381347656,0
79.28600000000006,0.00926277693361044,-0.01914782077074051,-0.00015886983601376414,0.0,0.0,0.0,0.0,0.0013514136662706733,-0.0016453707357868552,0.0032302832696586847,0.9988033175468445,0.0,0.0,0.0,-1.7048635482788086,3.1213951110839844,5.611919403076172,308.5837097167969,0
89.20000000000073,0.009334688074886799,-0.019285330548882484,-0.0001657087414059788,0.0,0.0,0.0,0.0,-0.0019612472970038652,-0.0023573555517941713,0.0008436226635240018,0.9983736872673035,0.0,0.0,0.0,-1.7028937339782715,3.1190154552459717,5.608508110046387,308.2271728515625,0
99.10699999999997,0.009302699938416481,-0.019200215116143227,-0.0001398944150423631,0.0,0.0,0.0,0.0,-0.00032852706499397755,0.0017521167173981667,0.0028296164236962795,0.999434769153595,0.0,0.0,0.0,-1.701317310333252,3.122565269470215,5.609184265136719,307.94183349609375,0
109.02000000000044,0.009401769377291203,-0.01929694414138794,-0.00011508473107824102,0.0,0.0,0.0,0.0,0.006142647471278906,0.00526611041277647,-0.00249440036714077,0.9981572031974792,0.0,0.0,0.0,-1.706210732460022,3.1054978370666504,5.618222236633301,308.8275451660156,0
118.9390000000003,0.009375575929880142,-0.01917404495179653,-7.999554509297013e-05,0.0,0.0,0.0,0.0,0.001849219435825944,-0.0014031465398147702,-0.0011745651718229055,1.0001410245895386,0.0,0.0,0.0,-1.7051008939743042,3.0979692935943604,5.599685192108154,308.62664794921875,0
128.84500000000116,0.009356237947940826,-0.019284676760435104,-0.00010939277854049578,0.0,0.0,0.0,0.0,0.0024060828145593405,0.0027505066245794296,-0.00013401675096247345,1.0010604858398438,0.0,0.0,0.0,-1.702549695968628,3.0917322635650635,5.5900678634643555,308.1648864746094,0
138.7579999999998,0.0093230614438653,-0.019209185615181923,-8.869218436302617e-05,0.0,0.0,0.0,0.0,0.0025410412345081568,-0.0018582221819087863,-0.0003321673138998449,0.9994799494743347,0.0,0.0,0.0,-1.7002427577972412,3.0865042209625244,5.580555438995361,307.7472839355469,0
148.66600000000108,0.00934047345072031,-0.0193143580108881,-9.761033288668841e-05,0.0,0.0,0.0,0.0,0.0012293413747102022,0.0005388683639466763,-0.0005521562416106462,0.9992925524711609,0.0,0.0,0.0,-1.707754135131836,3.075990915298462,5.5763630867004395,309.1069030761719,0
158.57600000000093,0.009321640245616436,-0.019223637878894806,-8.90317969606258e-05,0.0,0.0,0.0,0.0,0.0011025775456801057,-0.0012617354514077306,-0.00462706433609128,1.0010462999343872,0.0,0.0,0.0,-1.7069436311721802,3.0660035610198975,5.575460910797119,308.960205078125,0
168.48400000000038,0.009267013520002365,-0.019253401085734367,-8.070757758105174e-05,0.0,0.0,0.0,0.0,-0.0023357186000794172,5.747735849581659e-05,0.0030282274819910526,0.9983699321746826,0.0,0.0,0.0,-1.70619797706604,3.066443681716919,5.57505989074707,308.8252258300781,0
178.40700000000106,0.009210708551108837,-0.019285209476947784,-7.193812780315056e-05,0.0,0.0,0.0,0.0,-0.0006458449643105268,0.003351157298311591,0.000822621863335371,0.9998784065246582,0.0,0.0,0.0,-1.7057664394378662,3.0697643756866455,5.567366123199463,308.7471008300781,0
188.3080000000009,0.00916964840143919,-0.019178323447704315,-3.053036198252812e-05,0.0,0.0,0.0,0.0,7.669650949537754e-05,-0.00851831678301096,0.0007596242357976735,1.0003647804260254,0.0,0.0,0.0,-1.7058223485946655,3.1110939979553223,5.563723564147949,308.7572326660156,0
198.22299999999996,0.009108731523156166,-0.019204098731279373,-1.9793551473412663e-05,0.0,0.0,0.0,0.0,-0.0026161568239331245,-5.350104038370773e-05,-0.003010697429999709,0.9985566139221191,0.0,0.0,0.0,-1.704192876815796,3.117279052734375,5.557480812072754,308.4623107910156,0
208.13700000000063,0.009103015065193176,-0.019106611609458923,-3.548868698999286e-05,0.0,0.0,0.0,0.0,0.002355663338676095,2.2241358237806708e-05,-0.0010996636701747775,0.9990233778953552,0.0,0.0,0.0,-1.6966402530670166,3.162768840789795,5.593398094177246,307.0952453613281,0
218.04299999999967,0.00904323160648346,-0.019125448539853096,-2.7490081265568733e-05,0.0,0.0,0.0,0.0,0.001979467459022999,-0.0013755075633525848,0.001370132784359157,0.9995702505111694,0.0,0.0,0.0,-1.696223497390747,3.1603610515594482,5.589867115020752,307.0198059082031,0
227.95399999999972,0.009008390828967094,-0.019043946638703346,-9.405483069713227e-06,0.0,0.0,0.0,0.0,-0.001879085786640644,0.00022126088151708245,0.0015597512247040868,0.9995332360267639,0.0,0.0,0.0,-1.7008951902389526,3.19807767868042,5.6015191078186035,307.86541748046875,0
237.86000000000058,0.008948885835707188,-0.019055454060435295,-1.74104752659332e-06,0.0,0.0,0.0,0.0,0.0015157881425693631,0.001590087777003646,0.0018191953422501683,0.9999822974205017,0.0,0.0,0.0,-1.6998326778411865,3.197476863861084,5.59921932220459,307.673095703125,0
247.77300000000105,0.008918854407966137,-0.019024625420570374,-1.0325249604647979e-05,0.0,0.0,0.0,0.0,0.0016819117590785027,0.0015066503547132015,-0.002867439528927207,1.0015325546264648,0.0,0.0,0.0,-1.6970970630645752,3.2002952098846436,5.583527088165283,307.17791748046875,0
257.6810000000005,0.00885837897658348,-0.019033391028642654,-3.938530426239595e-06,0.0,0.0,0.0,0.0,0.0008546662284061313,0.0036587268114089966,-0.0030760241206735373,1.0003032684326172,0.0,0.0,0.0,-1.6950336694717407,3.1943395137786865,5.574607849121094,306.804443359375,0
267.59300000000076,0.008881173096597195,-0.018974928185343742,-4.427059320732951e-05,0.0,0.0,0.0,0.0,0.0008356373873539269,0.0008730481495149434,-0.0027758032083511353,1.0004444122314453,0.0,0.0,0.0,-1.7013118267059326,3.223762035369873,5.597101211547852,307.9408264160156,0
277.5020000000004,0.008825933560729027,-0.018979256972670555,-4.053296288475394e-05,0.0,0.0,0.0,0.0,-0.002197674009948969,0.0011587337357923388,-0.0006332661141641438,0.9998738765716553,0.0,0.0,0.0,-1.700594425201416,3.217566967010498,5.581577301025391,307.8109436035156,0
287.41400000000067,0.008837946690618992,-0.018880369141697884,-8.619688742328435e-05,0.0,0.0,0.0,0.0,0.0030152215622365475,-0.0008377559133805335,-0.002125672297552228,1.0011119842529297,0.0,0.0,0.0,-1.7041490077972412,3.2685699462890625,5.62425422668457,308.454345703125,0
297.3240000000005,0.008837946690618992,-0.018880369141697884,-8.619688742328435e-05,0.0,0.0,0.0,0.0,-0.0006362436688505113,0.0020341798663139343,0.0011345495004206896,1.0002951622009277,0.0,0.0,0.0,-1.7041490077972412,3.2685699462890625,5.62425422668457,308.454345703125,0
307.2360000000008,0.008873087354004383,-0.01881084404885769,-0.0001614470238564536,0.0,0.0,0.0,0.0,0.0028177553322166204,0.002348360838368535,-0.006958507467061281,0.9992462396621704,0.0,0.0,0.0,-1.7000706195831299,3.2957468032836914,5.655575275421143,307.7161560058594,0
317.14999999999964,0.008873087354004383,-0.01881084404885769,-0.0001614470238564536,0.0,0.0,0.0,0.0,-0.0009594201110303402,0.002894446486607194,0.003814009018242359,0.9985116720199585,0.0,0.0,0.0,-1.7000706195831299,3.2957468032836914,5.655575275421143,307.7161560058594,0
327.0670000000009,0.008931412361562252,-0.01871918886899948,-0.0002463044656906277,0.0,0.0,0.0,0.0,-0.0009637588518671691,-0.0008165907929651439,-0.0025327892508357763,1.0013561248779297,0.0,0.0,0.0,-1.6953046321868896,3.325852155685425,5.690352439880371,306.8534851074219,0
336.97199999999975,0.008931412361562252,-0.01871918886899948,-0.0002463044656906277,0.0,0.0,0.0,0.0,-0.002702887635678053,-0.0022570441942662,-0.00014886053395457566,0.997454047203064,0.0,0.0,0.0,-1.6953046321868896,3.325852155685425,5.690352439880371,306.8534851074219,0
346.8790000000008,0.008987084031105042,-0.018696878105401993,-0.0003712662437465042,0.0,0.0,0.0,0.0,-0.002221778267994523,0.0034206213895231485,-0.0035809229593724012,0.9984281063079834,0.0,0.0,0.0,-1.6884363889694214,3.336113691329956,5.722579002380371,305.6103515625,0
356.8000000000011,0.008987084031105042,-0.018696878105401993,-0.0003712662437465042,0.0,0.0,0.0,0.0,-0.00030988577054813504,-0.004631439223885536,-0.000620166480075568,0.9991950392723083,0.0,0.0,0.0,-1.6884363889694214,3.336113691329956,5.722579002380371,305.6103515625,0
366.70800000000054,0.008992591872811317,-0.018672844395041466,-0.0004255632811691612,0.0,0.0,0.0,0.0,-0.0012786230072379112,-0.003419020911678672,-0.002550786826759577,0.9973559975624084,0.0,0.0,0.0,-1.6879737377166748,3.338667154312134,5.718519687652588,305.526611328125,0
376.616,0.008966408669948578,-0.01866019144654274,-0.0004541252856142819,0.0,0.0,0.0,0.0,0.0033096291590481997,0.0047822617925703526,0.0009784208377823234,0.9987586140632629,0.0,0.0,0.0,-1.686091661453247,3.339752674102783,5.723814010620117,305.1859130859375,0
386.52400000000125,0.008938442915678024,-0.018647056072950363,-0.00048430857714265585,0.0,0.0,0.0,0.0,0.0016465479275211692,-0.0043656122870743275,0.0009601713973097503,0.9987675547599792,0.0,0.0,0.0,-1.6845357418060303,3.3379321098327637,5.721096992492676,304.904296875,0
396.4400000000005,0.008907690644264221,-0.01863415353000164,-0.0005157495616003871,0.0,0.0,0.0,0.0,0.0010845937067642808,-0.0021057536359876394,-0.004920330364257097,0.9993634223937988,0.0,0.0,0.0,-1.682230830192566,3.33097243309021,5.706822872161865,304.48712158203125,0
406.34300000000076,0.008874556049704552,-0.01862225867807865,-0.0005479133687913418,0.0,0.0,0.0,0.0,0.001377296750433743,-0.003907528705894947,-0.004138067364692688,0.9987319707870483,0.0,0.0,0.0,-1.6807188987731934,3.330965757369995,5.70499849319458,304.2134704589844,0
416.2560000000012,0.008839642629027367,-0.018612049520015717,-0.000580849009566009,0.0,0.0,0.0,0.0,-0.0015141995390877128,0.0026761116459965706,0.0010781484888866544,0.998690128326416,0.0,0.0,0.0,-1.6794557571411133,3.322849988937378,5.698153018951416,303.9848327636719,0
426.16899999999987,0.008802827447652817,-0.018603820353746414,-0.000614657998085022,0.0,0.0,0.0,0.0,-0.0023736567236483097,0.0006711910828016698,-0.00024844208383001387,0.9981923699378967,0.0,0.0,0.0,-1.6777021884918213,3.3206233978271484,5.694637775421143,303.6674499511719,0
436.0779999999995,0.008763776160776615,-0.018596641719341278,-0.0006496747955679893,0.0,0.0,0.0,0.0,0.0005670198006555438,0.0032182589638978243,0.0001149329254985787,0.9990246891975403,0.0,0.0,0.0,-1.6748640537261963,3.3216381072998047,5.691829204559326,303.15374755859375,0
445.987000000001,0.008722525089979172,-0.01859012432396412,-0.0006859888089820743,0.0,0.0,0.0,0.0,-0.001070803264155984,-0.0008752561989240348,0.0027323507238179445,0.9984223246574402,0.0,0.0,0.0,-1.6736345291137695,3.3178114891052246,5.683760166168213,302.9311828613281,0
455.89900000000125,0.008679456077516079,-0.018584121018648148,-0.0007233437499962747,0.0,0.0,0.0,0.0,-0.0006990781403146684,0.002019785577431321,0.0007843004423193634,0.9978762269020081,0.0,0.0,0.0,-1.6716896295547485,3.3162624835968018,5.672961235046387,302.5791931152344,0
465.8140000000003,0.008634690195322037,-0.01857859641313553,-0.0007618938107043505,0.0,0.0,0.0,0.0,-0.002538908040151,0.0003350065089762211,0.0012570543913170695,0.997320830821991,0.0,0.0,0.0,-1.6690136194229126,3.314772844314575,5.667490005493164,302.0947570800781,0
475.72500000000036,0.008588602766394615,-0.018574191257357597,-0.0008022648398764431,0.0,0.0,0.0,0.0,0.0015200794441625476,0.005753071513026953,0.002229828853160143,0.9973108768463135,0.0,0.0,0.0,-1.6672618389129639,3.316030740737915,5.654870986938477,301.7776794433594,0
485.63900000000103,0.008541129529476166,-0.01857057958841324,-0.0008448512526229024,0.0,0.0,0.0,0.0,-0.0014853761531412601,0.005349503830075264,-0.0031133429147303104,0.9978324174880981,0.0,0.0,0.0,-1.6650753021240234,3.3053150177001953,5.651763439178467,301.3819274902344,0
495.5450000000001,0.008491849526762962,-0.018567131832242012,-0.0008896675426512957,0.0,0.0,0.0,0.0,-0.00179201434366405,0.0024379983078688383,-0.00010698952246457338,0.9986656904220581,0.0,0.0,0.0,-1.664276361465454,3.30377459526062,5.63343620300293,301.2373352050781,0
505.4539999999997,0.00844045914709568,-0.018563784658908844,-0.0009362496202811599,0.0,0.0,0.0,0.0,-0.00305662932805717,-0.0008801185758784413,0.002146727405488491,1.0004764795303345,0.0,0.0,0.0,-1.6622873544692993,3.294085741043091,5.614854335784912,300.8773193359375,0
515.3670000000002,0.008386586792767048,-0.018560899421572685,-0.0009837589459493756,0.0,0.0,0.0,0.0,-0.0018093291437253356,0.0019615613855421543,-7.65338700148277e-05,0.9979674816131592,0.0,0.0,0.0,-1.6602829694747925,3.3000240325927734,5.610233783721924,300.5145263671875,0
525.2740000000013,0.008331194519996643,-0.01855958253145218,-0.00103181810118258,0.0,0.0,0.0,0.0,-0.00038518139626830816,0.0009809298207983375,0.0008768126135692,1.0003108978271484,0.0,0.0,0.0,-1.6565006971359253,3.301549196243286,5.601703643798828,299.8299255371094,0
535.1859999999997,0.00827512051910162,-0.018559735268354416,-0.0010806052014231682,0.0,0.0,0.0,0.0,0.0016306976322084665,0.0009869156638160348,-0.0009107885416597128,0.9984983801841736,0.0,0.0,0.0,-1.6549960374832153,3.2941009998321533,5.5947651863098145,299.55755615234375,0
545.1059999999998,0.008217867463827133,-0.018560741096735,-0.0011299384059384465,0.0,0.0,0.0,0.0,0.000547505565918982,0.0031423454638570547,0.0011866530403494835,0.9999891519546509,0.0,0.0,0.0,-1.6540175676345825,3.292388677597046,5.583917140960693,299.3804626464844,0
555.0060000000012,0.008158992044627666,-0.018562858924269676,-0.0011797300539910793,0.0,0.0,0.0,0.0,0.0015988711966201663,-0.0011578622506931424,-0.0014017632929608226,0.9989385008811951,0.0,0.0,0.0,-1.651900053024292,3.2893497943878174,5.5797624588012695,298.9971923828125,0
564.9260000000013,0.008098703809082508,-0.01856633462011814,-0.0012298874789848924,0.0,0.0,0.0,0.0,-0.003812018083408475,-0.0006002570735290647,0.0003137691237498075,1.0023245811462402,0.0,0.0,0.0,-1.6508852243423462,3.292480707168579,5.574955463409424,298.8135070800781,0
574.8270000000011,0.008036930114030838,-0.018571507185697556,-0.0012800067197531462,0.0,0.0,0.0,0.0,0.0005621633026748896,0.001219947705976665,0.001320039271377027,1.0020359754562378,0.0,0.0,0.0,-1.6497867107391357,3.2939724922180176,5.566109657287598,298.6146545410156,0
584.7470000000012,0.00797343160957098,-0.01857808418571949,-0.0013288863701745868,0.0,0.0,0.0,0.0,-0.0005116764223203063,-0.003469235496595502,-0.0009060965385288,1.000195860862732,0.0,0.0,0.0,-1.6477365493774414,3.2984960079193115,5.562295436859131,298.24359130859375,0
594.6499999999996,0.007908028550446033,-0.018585195764899254,-0.0013757424894720316,0.0,0.0,0.0,0.0,0.00033807873842306435,0.0016314926324412227,0.001036783680319786,0.9991353750228882,0.0,0.0,0.0,-1.6465764045715332,3.2915828227996826,5.564819812774658,298.0335998535156,0
604.5699999999997,0.007840880192816257,-0.01859249360859394,-0.0014218994183465838,0.0,0.0,0.0,0.0,0.00043340923730283976,0.005696816369891167,-0.002515475731343031,1.000305414199829,0.0,0.0,0.0,-1.644639015197754,3.2958335876464844,5.567347526550293,297.68292236328125,0
614.4719999999998,0.007771611213684082,-0.01859986037015915,-0.001468089409172535,0.0,0.0,0.0,0.0,0.0017637116834521294,-0.0014836167683824897,-0.0001572344481246546,0.9991152882575989,0.0,0.0,0.0,-1.6437588930130005,3.288994550704956,5.557649612426758,297.52362060546875,0
624.3880000000008,0.007699816022068262,-0.01860705018043518,-0.0015142334159463644,0.0,0.0,0.0,0.0,0.0013162365648895502,-0.0002837089414242655,0.002474371111020446,0.9992659091949463,0.0,0.0,0.0,-1.641190767288208,3.286288261413574,5.541834831237793,297.0588073730469,0
634.2920000000013,0.007626041769981384,-0.01861480437219143,-0.0015607045497745275,0.0,0.0,0.0,0.0,-0.0020790891721844673,-0.004560499452054501,0.0015538431471213698,1.0006979703903198,0.0,0.0,0.0,-1.6398863792419434,3.2840120792388916,5.537598609924316,296.82269287109375,0
644.2049999999999,0.00747328344732523,-0.018635543063282967,-0.0016536086332052946,0.0,0.0,0.0,0.0,0.0016773733077570796,0.0002851363969966769,0.0013603068655356765,1.000674843788147,0.0,0.0,0.0,-1.6374309062957764,3.277829647064209,5.5462646484375,296.37823486328125,0
654.1139999999996,0.009275246411561966,-0.019281914457678795,-0.00039566264604218304,0.0,0.0,0.0,0.0,-0.00227030785754323,0.0036635352298617363,0.001574158319272101,0.9985795617103577,0.0,0.0,0.0,-1.6581003665924072,3.2351388931274414,5.709346771240234,300.1194763183594,0
664.0380000000005,0.0092152189463377,-0.019338851794600487,-0.00043456381536088884,0.0,0.0,0.0,0.0,0.0023596433456987143,0.000514989485964179,-2.944549487438053e-05,0.9989124536514282,0.0,0.0,0.0,-1.6538397073745728,3.2275495529174805,5.691895484924316,299.3482666015625,0
673.9400000000005,0.009296690113842487,-0.019346090033650398,-0.0003882305172737688,0.0,0.0,0.0,0.0,-0.00120543094817549,0.0009713714243844151,0.0005431939498521388,0.9989504814147949,0.0,0.0,0.0,-1.665989875793457,3.2273576259613037,5.711377143859863,301.5474548339844,0
683.8590000000004,0.009242754429578781,-0.01940741203725338,-0.0004269423661753535,0.0,0.0,0.0,0.0,-0.0006273484323173761,-0.0016472669085487723,0.0023863562382757664,0.9977875351905823,0.0,0.0,0.0,-1.6630414724349976,3.2316982746124268,5.701665878295898,301.0137939453125,0
693.7569999999996,0.009305913932621479,-0.019374575465917587,-0.00040412889211438596,0.0,0.0,0.0,0.0,-0.0037451358512043953,0.0041902437806129456,0.0002789553545881063,0.9998827576637268,0.0,0.0,0.0,-1.6741052865982056,3.23807430267334,5.725847244262695,303.01641845703125,0
703.6820000000007,0.009280456230044365,-0.01940804533660412,-0.0004248202021699399,0.0,0.0,0.0,0.0,-0.00029237952549010515,0.00467153312638402,0.0021836766973137856,1.0001311302185059,0.0,0.0,0.0,-1.671088457107544,3.240459442138672,5.724572658538818,302.4703369140625,0
713.5889999999999,0.00930818635970354,-0.019379496574401855,-0.00043661115341819823,0.0,0.0,0.0,0.0,0.0011255211429670453,0.0011002555256709456,-8.042507397476584e-05,1.0012445449829102,0.0,0.0,0.0,-1.6869343519210815,3.256035566329956,5.739080429077148,305.3385009765625,0
723.5030000000006,0.009288025088608265,-0.01940777711570263,-0.00045239366590976715,0.0,0.0,0.0,0.0,0.0010995083721354604,0.004271812736988068,-0.003971364349126816,1.0013271570205688,0.0,0.0,0.0,-1.6846669912338257,3.2539784908294678,5.724783420562744,304.9280700683594,0
733.4130000000005,0.00930237490683794,-0.019361060112714767,-0.00045458058593794703,0.0,0.0,0.0,0.0,-0.0009345767321065068,-0.0006913094548508525,0.00019992425222881138,0.9977084994316101,0.0,0.0,0.0,-1.695900321006775,3.2657504081726074,5.731168746948242,306.9613342285156,0
743.3180000000011,0.009281200356781483,-0.019387926906347275,-0.00046449858928099275,0.0,0.0,0.0,0.0,0.0009566806256771088,0.00347663345746696,0.003962229937314987,0.9982365369796753,0.0,0.0,0.0,-1.6946061849594116,3.2615370750427246,5.72140645980835,306.7270812988281,0
753.223,0.009307344444096088,-0.019371727481484413,-0.0004867170937359333,0.0,0.0,0.0,0.0,0.0017134202644228935,0.003359521273523569,-0.005447653587907553,0.9995237588882446,0.0,0.0,0.0,-1.706391453742981,3.2669146060943604,5.742831230163574,308.8602294921875,0
763.143,0.00928754173219204,-0.01939898170530796,-0.0004964713589288294,0.0,0.0,0.0,0.0,-0.002400608966127038,-0.0010188247542828321,-0.0016978895291686058,0.9996585249900818,0.0,0.0,0.0,-1.704586148262024,3.26598858833313,5.7194437980651855,308.5334777832031,0
773.0450000000001,0.009305060841143131,-0.019331758841872215,-0.0005006646970286965,0.0,0.0,0.0,0.0,0.0013894055737182498,0.0038939001969993114,-0.00224787974730134,0.9976508617401123,0.0,0.0,0.0,-1.720618486404419,3.2865092754364014,5.732606410980225,311.43536376953125,0
782.9660000000003,0.009286287240684032,-0.01935596950352192,-0.0005058551323600113,0.0,0.0,0.0,0.0,-0.0013901543570682406,-0.0018295357003808022,-0.0008934903889894485,0.9973916411399841,0.0,0.0,0.0,-1.7185795307159424,3.2897462844848633,5.73982572555542,311.0663146972656,0
792.866,0.009303045459091663,-0.019342780113220215,-0.0005096691893413663,0.0,0.0,0.0,0.0,0.0022936505265533924,0.002975258743390441,-0.004517302382737398,0.998526930809021,0.0,0.0,0.0,-1.7254881858825684,3.299015998840332,5.745267868041992,312.3168029785156,0
802.7890000000007,0.00928587932139635,-0.01936744898557663,-0.0005155466496944427,0.0,0.0,0.0,0.0,0.00362490420229733,-0.002369498834013939,0.0001117052961490117,1.0001790523529053,0.0,0.0,0.0,-1.7250237464904785,3.2911453247070312,5.733714580535889,312.23272705078125,0
812.6910000000007,0.009312748908996582,-0.019310500472784042,-0.0005277651362121105,0.0,0.0,0.0,0.0,-0.0016240569530054927,0.0010768994688987732,-0.00191895489115268,0.9982151389122009,0.0,0.0,0.0,-1.7322038412094116,3.31168794631958,5.747351169586182,313.5323486328125,0
822.6149999999998,0.009297313168644905,-0.019333962351083755,-0.0005299877375364304,0.0,0.0,0.0,0.0,0.0010634147329255939,-2.3406157197314315e-05,0.001415235223248601,0.9995630979537964,0.0,0.0,0.0,-1.7311434745788574,3.3060598373413086,5.739524841308594,313.3404235839844,0
832.5100000000002,0.00931137427687645,-0.019325479865074158,-0.0005244111525826156,0.0,0.0,0.0,0.0,0.0015955257695168257,-0.0006731098401360214,-0.0026954959612339735,1.0000150203704834,0.0,0.0,0.0,-1.7376989126205444,3.3117058277130127,5.744109153747559,314.5269775390625,0
842.4350000000013,0.00929681584239006,-0.01934785582125187,-0.0005256127915345132,0.0,0.0,0.0,0.0,-0.000987426727078855,0.0021496948320418596,0.0002949183981399983,0.9990411400794983,0.0,0.0,0.0,-1.7348390817642212,3.3129689693450928,5.745849609375,314.00933837890625,0
852.3310000000001,0.009311187081038952,-0.019329022616147995,-0.0005078621325083077,0.0,0.0,0.0,0.0,-0.0012180350022390485,-0.0015546478098258376,0.0002379655634285882,1.0000109672546387,0.0,0.0,0.0,-1.7429383993148804,3.3209073543548584,5.7459845542907715,315.475341796875,0
862.2600000000002,0.00923925917595625,-0.019359268248081207,-0.0002761546347755939,0.0,0.0,0.0,0.0,-0.005311449524015188,0.002459917450323701,1.9148945284541696e-05,0.9998266100883484,0.0,0.0,0.0,-1.7299219369888306,3.3501346111297607,5.720979690551758,313.1192932128906,0
872.1540000000005,0.009263568557798862,-0.01935267262160778,-0.00021650388953275979,0.0,0.0,0.0,0.0,-4.958817225997336e-05,0.0016040452755987644,0.0002183517353842035,1.0013854503631592,0.0,0.0,0.0,-1.7345654964447021,3.36621356010437,5.722500801086426,313.9598083496094,0
882.0720000000001,0.009245344437658787,-0.019277658313512802,-0.00015090727538336068,0.0,0.0,0.0,0.0,-0.0006972130504436791,0.004023433197289705,0.00043712882325053215,1.0011919736862183,0.0,0.0,0.0,-1.7324167490005493,3.3528902530670166,5.707572937011719,313.5708923339844,0
891.9790000000012,0.009274590760469437,-0.01929633319377899,-0.00011441766400821507,0.0,0.0,0.0,0.0,-0.000527381373103708,-0.000742800475563854,0.0002547522890381515,0.9985716938972473,0.0,0.0,0.0,-1.738111972808838,3.352372884750366,5.701115608215332,314.60174560546875,0
901.8990000000013,0.009249974973499775,-0.019219428300857544,-3.980277688242495e-05,0.0,0.0,0.0,0.0,-0.0007041596691124141,0.005955362226814032,-0.00045661506010219455,0.9988284707069397,0.0,0.0,0.0,-1.7218846082687378,3.3619544506073,5.681487083435059,311.6645202636719,0
911.7970000000005,0.009206841699779034,-0.01924791745841503,-3.3098469430115074e-05,0.0,0.0,0.0,0.0,0.0025807588826864958,0.005775228142738342,0.0013899232726544142,0.9998092651367188,0.0,0.0,0.0,-1.7303404808044434,3.3595130443573,5.65989875793457,313.195068359375,0
921.7180000000008,0.00924951396882534,-0.019092120230197906,-3.1752511858940125e-05,0.0,0.0,0.0,0.0,-6.477397255366668e-05,-0.0010358182480558753,-9.588944521965459e-05,1.001556634902954,0.0,0.0,0.0,-1.7275196313858032,3.355318784713745,5.643487453460693,312.6844787597656,0
931.6270000000004,0.009320474229753017,-0.019186221063137054,-2.0410634533618577e-05,0.0,0.0,0.0,0.0,-0.0017022829269990325,0.00015352277841884643,-0.0017327225068584085,1.0006687641143799,0.0,0.0,0.0,-1.735615611076355,3.342170476913452,5.639401912689209,314.1498718261719,0
941.5370000000003,0.009326198138296604,-0.01908992789685726,9.923061952576973e-06,0.0,0.0,0.0,0.0,-0.00017733449931256473,-0.0025762496516108513,0.0024275449104607105,0.9976446032524109,0.0,0.0,0.0,-1.733778715133667,3.334047794342041,5.628244400024414,313.8174133300781,0
951.4490000000005,0.009341252036392689,-0.019192609935998917,-8.184193802662776e-07,0.0,0.0,0.0,0.0,0.0011333992006257176,-0.0008136837277561426,0.0022250560577958822,0.9988486766815186,0.0,0.0,0.0,-1.7438735961914062,3.3219311237335205,5.620473384857178,315.64459228515625,0
961.3630000000012,0.009334738366305828,-0.01913156546652317,2.1430256310850382e-05,0.0,0.0,0.0,0.0,-0.001577912364155054,-0.0029654947575181723,0.0003803433501161635,0.9981528520584106,0.0,0.0,0.0,-1.741316795349121,3.315037250518799,5.61951208114624,315.18182373046875,0
971.2620000000006,0.009350588545203209,-0.01925223506987095,-4.973840987076983e-06,0.0,0.0,0.0,0.0,-0.0002307572722202167,-0.005145729053765535,0.00261603738181293,0.9985196590423584,0.0,0.0,0.0,-1.746018409729004,3.305314540863037,5.622395992279053,316.03277587890625,0
981.1810000000005,0.009326216764748096,-0.01918029598891735,1.2399765182635747e-05,0.0,0.0,0.0,0.0,-0.0006332045886665583,-0.0010060269851237535,-0.001879981835372746,1.0001194477081299,0.0,0.0,0.0,-1.7336848974227905,3.322087526321411,5.628415107727051,313.8004150390625,0
991.0860000000011,0.00934325810521841,-0.019241370260715485,-1.5202623217192013e-05,0.0,0.0,0.0,0.0,-0.002073245355859399,-0.0007857694290578365,0.0002679090539459139,1.0010079145431519,0.0,0.0,0.0,-1.740554690361023,3.316455841064453,5.629093647003174,315.0438537597656,0
1001.0069999999996,0.009318610653281212,-0.019174451008439064,-6.147589374450035e-06,0.0,0.0,0.0,0.0,-0.0014830227009952068,0.003026682883501053,-0.002326216781511903,1.001575231552124,0.0,0.0,0.0,-1.727518081665039,3.3336100578308105,5.633584499359131,312.6842041015625,0
1010.9099999999999,0.009362606331706047,-0.019273195415735245,-4.8158264689845964e-05,0.0,0.0,0.0,0.0,-0.0021153846755623817,0.0032218426931649446,-0.0026553738862276077,1.0001505613327026,0.0,0.0,0.0,-1.7333362102508545,3.322788953781128,5.636153221130371,313.7373352050781,0
1020.8230000000003,0.009337486699223518,-0.019168544560670853,-2.4684122763574123e-05,0.0,0.0,0.0,0.0,-0.0021691936999559402,0.002661352511495352,-0.0005963454605080187,1.0003221035003662,0.0,0.0,0.0,-1.7308140993118286,3.3265252113342285,5.624230861663818,313.28076171875,0
1030.7290000000012,0.009346451610326767,-0.01921938546001911,-4.934496246278286e-05,0.0,0.0,0.0,0.0,0.0020362853538244963,-0.0006871414952911437,0.003582356497645378,1.0009196996688843,0.0,0.0,0.0,-1.7387828826904297,3.3211569786071777,5.624448299407959,314.7231750488281,0
1040.652,0.009369345381855965,-0.019096598029136658,-6.544335337821394e-05,0.0,0.0,0.0,0.0,-6.108538946136832e-05,0.0035030096769332886,-0.001087674405425787,0.9999244213104248,0.0,0.0,0.0,-1.738291621208191,3.3165242671966553,5.60618257522583,314.6342468261719,0
1050.550000000001,0.009362610056996346,-0.01921885460615158,-0.00011569686466827989,0.0,0.0,0.0,0.0,-1.3549291907111183e-05,-0.0015840594423934817,-0.0011513116769492626,0.9997250437736511,0.0,0.0,0.0,-1.7427020072937012,3.2984604835510254,5.605048656463623,315.4325256347656,0
1060.4709999999995,0.009332304820418358,-0.019172009080648422,-9.233623131876811e-05,0.0,0.0,0.0,0.0,-0.0005737502942793071,0.004269271157681942,-0.005897084251046181,0.9998090863227844,0.0,0.0,0.0,-1.7417309284210205,3.291707754135132,5.584014415740967,315.2567443847656,0
1070.3729999999996,0.00933008547872305,-0.01923201233148575,-0.00010025019582826644,0.0,0.0,0.0,0.0,4.2232182750012726e-05,0.0006262249080464244,-0.0018715102924034,0.9991569519042969,0.0,0.0,0.0,-1.7471904754638672,3.28531551361084,5.574442386627197,316.2449951171875,0
1080.291000000001,0.00932906474918127,-0.01911085471510887,-8.879706001607701e-05,0.0,0.0,0.0,0.0,0.002577467355877161,0.0005644363118335605,-0.004277587868273258,0.999829888343811,0.0,0.0,0.0,-1.7462313175201416,3.278111457824707,5.559553623199463,316.0713195800781,0
1090.196,0.009351788088679314,-0.019185718148946762,-9.491342643741518e-05,0.0,0.0,0.0,0.0,0.0012947616633027792,0.0018150066025555134,-0.0023884670808911324,0.9997430443763733,0.0,0.0,0.0,-1.7553269863128662,3.2670891284942627,5.557373046875,317.7176513671875,0
1100.1149999999998,0.009327693842351437,-0.0191351268440485,-8.542913565179333e-05,0.0,0.0,0.0,0.0,-0.00015273300232365727,0.0004944427637383342,-0.0012341233668848872,0.9972454309463501,0.0,0.0,0.0,-1.7452774047851562,3.2721893787384033,5.560333251953125,315.898681640625,0
1110.0130000000008,0.009367581456899643,-0.019250204786658287,-0.0001079152207239531,0.0,0.0,0.0,0.0,0.001929965103045106,0.0032293496187776327,0.000752361083868891,0.9967474341392517,0.0,0.0,0.0,-1.7508769035339355,3.262176513671875,5.561176776885986,316.9122009277344,0
1119.933000000001,0.009377620182931423,-0.01915980502963066,-0.0001333229593001306,0.0,0.0,0.0,0.0,0.0005224172491580248,-0.0007611927576363087,0.0005279371980577707,0.9981129169464111,0.0,0.0,0.0,-1.741448998451233,3.2713100910186768,5.550925254821777,315.20574951171875,0
1129.835000000001,0.009376641362905502,-0.019241012632846832,-0.0001573318149894476,0.0,0.0,0.0,0.0,0.001282416400499642,0.002418218180537224,0.0008141598082147539,1.000165343284607,0.0,0.0,0.0,-1.7517743110656738,3.2621142864227295,5.538381099700928,317.07464599609375,0
1139.7579999999998,0.00937111210078001,-0.019160272553563118,-0.0001761076709954068,0.0,0.0,0.0,0.0,0.0009091206593438983,0.001235914183780551,-0.0007131847087293863,0.9979060888290405,0.0,0.0,0.0,-1.7396034002304077,3.2770049571990967,5.531058311462402,314.8716735839844,0
1149.6650000000009,0.009421269409358501,-0.019233891740441322,-0.00018077839922625571,0.0,0.0,0.0,0.0,0.00036558517604134977,2.56517632806208e-05,-0.002827324904501438,0.9985025525093079,0.0,0.0,0.0,-1.7478044033050537,3.2681074142456055,5.536010265350342,316.3560791015625,0
1159.5879999999997,0.009416165761649609,-0.01912583038210869,-0.00019042156054638326,0.0,0.0,0.0,0.0,-0.0016990277217701077,0.0006933652330189943,-0.003162521170452237,0.997883677482605,0.0,0.0,0.0,-1.7460620403289795,3.2625365257263184,5.527477264404297,316.04071044921875,0
1169.478000000001,0.00938404630869627,-0.01922111213207245,-0.00023891046294011176,0.0,0.0,0.0,0.0,-0.0017406048718839884,0.0012376921949908137,0.0007037821924313903,0.9982656836509705,0.0,0.0,0.0,-1.7441840171813965,3.260603427886963,5.520085334777832,315.7007751464844,0
1179.398000000001,0.009371776133775711,-0.019106224179267883,-0.0002504875010345131,0.0,0.0,0.0,0.0,-0.0042289686389267445,-0.0020433925092220306,-0.0035761967301368713,0.9981719255447388,0.0,0.0,0.0,-1.735977053642273,3.28348445892334,5.525813579559326,314.2153015136719,0
1189.300000000001,0.009311054833233356,-0.019167346879839897,-0.0002874942438211292,0.0,0.0,0.0,0.0,-0.0009240212384611368,-0.0024228165857493877,0.0013514793245121837,0.9986429214477539,0.0,0.0,0.0,-1.742799997329712,3.2813289165496826,5.522396564483643,315.45025634765625,0
1199.2209999999995,0.009303021244704723,-0.019040878862142563,-0.0003073364496231079,0.0,0.0,0.0,0.0,-0.0038323828484863043,-0.0014473868068307638,-0.003950333222746849,0.9984157681465149,0.0,0.0,0.0,-1.7323572635650635,3.3110079765319824,5.528857231140137,313.56011962890625,0
1209.1229999999996,0.009336818940937519,-0.019160032272338867,-0.00035601865965873003,0.0,0.0,0.0,0.0,0.00042393282637931406,0.0002689661050681025,0.0011914296774193645,0.996844470500946,0.0,0.0,0.0,-1.7308284044265747,3.311682939529419,5.521976470947266,313.28338623046875,0
1219.0429999999997,0.009259234182536602,-0.019086746498942375,-0.0003040015872102231,0.0,0.0,0.0,0.0,-0.00023449775471817702,-0.0001547377760289237,0.0006289604934863746,0.999843418598175,0.0,0.0,0.0,-1.7282520532608032,3.308593511581421,5.516477584838867,312.8170471191406,0
1228.946,0.009223200380802155,-0.019166920334100723,-0.00035270239459350705,0.0,0.0,0.0,0.0,-0.0002974636445287615,0.0008712630369700491,-0.0008385077817365527,0.9989145994186401,0.0,0.0,0.0,-1.7316391468048096,3.296199083328247,5.512691020965576,313.43011474609375,0
1238.8700000000008,0.009092384949326515,-0.019151266664266586,-0.0002944357111118734,0.0,0.0,0.0,0.0,0.002747469348832965,-0.002055531367659569,0.002091045491397381,0.9980384707450867,0.0,0.0,0.0,-1.730828881263733,3.292487859725952,5.503777503967285,313.2834777832031,0
1248.768,0.009181063622236252,-0.019177399575710297,-0.0002622869797050953,0.0,0.0,0.0,0.0,0.0009146810625679791,0.004018701612949371,0.0004464817466214299,0.9994189143180847,0.0,0.0,0.0,-1.7341737747192383,3.285020589828491,5.5242743492126465,313.888916015625,0
1258.6900000000005,0.009089509025216103,-0.01914137788116932,-0.00021753051260020584,0.0,0.0,0.0,0.0,-0.0006798415561206639,0.0026999979745596647,-0.002154876245185733,0.9990680813789368,0.0,0.0,0.0,-1.731685757637024,3.2781167030334473,5.5104827880859375,313.43853759765625,0
1268.5869999999995,0.009023196995258331,-0.019157638773322105,-0.00022798973077442497,0.0,0.0,0.0,0.0,-0.0023632203228771687,-0.004299052059650421,-0.0019288503099232912,1.000364065170288,0.0,0.0,0.0,-1.730346441268921,3.277170181274414,5.498012542724609,313.1961364746094,0
1278.505000000001,0.008981403894722462,-0.01906769350171089,-0.00022967628319747746,0.0,0.0,0.0,0.0,0.0021467264741659164,0.0010289042256772518,0.0006652597803622484,1.0010133981704712,0.0,0.0,0.0,-1.7286916971206665,3.279144287109375,5.504117965698242,312.8966369628906,0
1288.4080000000013,0.00922287255525589,-0.01921592839062214,-0.00015519979933742434,0.0,0.0,0.0,0.0,0.0002635421114973724,-0.00509731937199831,0.001543211517855525,1.000990867614746,0.0,0.0,0.0,-1.7334169149398804,3.255075454711914,5.566349983215332,313.751953125,0
1298.3310000000001,0.009192023426294327,-0.019144976511597633,-0.0001497460762038827,0.0,0.0,0.0,0.0,-0.003837065538391471,0.0005014634225517511,-0.0004381615435704589,0.999771773815155,0.0,0.0,0.0,-1.7228195667266846,3.270357370376587,5.577625274658203,311.8337707519531,0
1308.2350000000006,0.009215222671627998,-0.01924971677362919,-0.0001710291107883677,0.0,0.0,0.0,0.0,-0.0011889509623870254,-0.0021379238460212946,-0.0020967433229088783,0.9972736835479736,0.0,0.0,0.0,-1.7296018600463867,3.256854772567749,5.583073139190674,313.0613708496094,0
1318.1530000000002,0.009195618331432343,-0.019164342433214188,-0.0001772161922417581,0.0,0.0,0.0,0.0,0.0018596915761008859,0.0007313818205147982,0.0003052668762393296,0.9994524121284485,0.0,0.0,0.0,-1.7284802198410034,3.2613446712493896,5.582605361938477,312.85833740234375,0
1328.058000000001,0.009291855618357658,-0.019274963065981865,-0.00018170438124798238,0.0,0.0,0.0,0.0,0.0014822024386376143,0.001196519355289638,0.0004786920908372849,0.9983358979225159,0.0,0.0,0.0,-1.733927845954895,3.2424521446228027,5.589433193206787,313.8443908691406,0
1337.9709999999995,0.00925951823592186,-0.01918873004615307,-0.00016907222743611783,0.0,0.0,0.0,0.0,0.0006559925968758762,0.005547357257455587,-0.0019247728632763028,1.0003831386566162,0.0,0.0,0.0,-1.7222208976745605,3.257215976715088,5.5820183753967285,311.72540283203125,0
1347.884,0.009276690892875195,-0.019247520714998245,-0.00017351045971736312,0.0,0.0,0.0,0.0,0.0033581950701773167,0.0038459915667772293,-0.0031872964464128017,1.0005351305007935,0.0,0.0,0.0,-1.7279404401779175,3.249281644821167,5.572412967681885,312.7606506347656,0
1357.7900000000009,0.009239176288247108,-0.019164754077792168,-0.00015613077266607434,0.0,0.0,0.0,0.0,-0.0002633845142554492,-0.001660495181567967,-0.0018374234205111861,0.9990432858467102,0.0,0.0,0.0,-1.7182093858718872,3.257772445678711,5.558916091918945,310.9993591308594,0
1367.7039999999997,0.009274432435631752,-0.019226698204874992,-0.00015278501086868346,0.0,0.0,0.0,0.0,-0.0028046555817127228,-0.003298867493867874,0.00036588459624908864,1.000006079673767,0.0,0.0,0.0,-1.7283285856246948,3.2514584064483643,5.567159652709961,312.8309020996094,0
1377.6200000000008,0.009270697832107544,-0.01912739872932434,-0.00017750381084624678,0.0,0.0,0.0,0.0,0.001581631600856781,0.0036225367803126574,-0.004049921873956919,0.9985997080802917,0.0,0.0,0.0,-1.7183334827423096,3.276671886444092,5.570753574371338,311.02178955078125,0
1387.5290000000005,0.00932907871901989,-0.01923355832695961,-0.00019230955513194203,0.0,0.0,0.0,0.0,0.0010872985003516078,0.00021982882753945887,-0.0019171470776200294,0.9996905326843262,0.0,0.0,0.0,-1.7324631214141846,3.2563679218292236,5.562958240509033,313.57928466796875,0
1397.434000000001,0.009263679385185242,-0.01918025128543377,-0.00015324543346650898,0.0,0.0,0.0,0.0,-0.0013244498986750841,-0.0041382829658687115,0.0015704490942880511,1.0000413656234741,0.0,0.0,0.0,-1.7233343124389648,3.267181873321533,5.548858165740967,311.92694091796875,0
1407.348,0.009286121465265751,-0.019244065508246422,-0.00015351118054240942,0.0,0.0,0.0,0.0,0.0012269325088709593,0.0009785734582692385,-0.0007532655145041645,0.998059093952179,0.0,0.0,0.0,-1.7286347150802612,3.266383647918701,5.562223434448242,312.88629150390625,0
1417.2510000000002,0.00914377998560667,-0.019264396280050278,-3.611030842876062e-05,0.0,0.0,0.0,0.0,0.0020161056891083717,0.0037493009585887194,8.62141969264485e-05,0.9988337159156799,0.0,0.0,0.0,-1.7271984815597534,3.260850429534912,5.560427188873291,312.6263427734375,0
1427.1670000000013,0.0092484001070261,-0.019358135759830475,-1.1301859558443539e-05,0.0,0.0,0.0,0.0,-0.00025889635435305536,-0.003290189430117607,0.0005772573640570045,0.9988017678260803,0.0,0.0,0.0,-1.7336827516555786,3.244429349899292,5.576864242553711,313.8000183105469,0
1437.0810000000001,0.009148919954895973,-0.01932673156261444,7.726044714218006e-05,0.0,0.0,0.0,0.0,0.0020775366574525833,0.0011547089088708162,-0.002866270486265421,0.9991325736045837,0.0,0.0,0.0,-1.7322190999984741,3.2427566051483154,5.565304756164551,313.53509521484375,0
1447.0010000000002,0.009193171747028828,-0.019393986091017723,0.00010034612932940945,0.0,0.0,0.0,0.0,0.0025476713199168444,0.0020777080208063126,0.0015489003853872418,1.0026957988739014,0.0,0.0,0.0,-1.7372338771820068,3.2296500205993652,5.5624775886535645,314.4427795410156,0
1456.893,0.00918553490191698,-0.0192557480186224,0.0001092761303880252,0.0,0.0,0.0,0.0,-0.0001985862327273935,-0.00024819234386086464,0.0005381845985539258,1.0019283294677734,0.0,0.0,0.0,-1.7349075078964233,3.2234604358673096,5.543392658233643,314.021728515625,0
1466.8160000000007,0.00922608282417059,-0.019347913563251495,0.00012231322762090713,0.0,0.0,0.0,0.0,-0.0025166755076497793,0.0017480954993516207,-0.0026243675965815783,1.001136064529419,0.0,0.0,0.0,-1.7425519227981567,3.210797071456909,5.54856014251709,315.4053649902344,0
1476.7240000000002,0.009256084449589252,-0.019209133461117744,8.008368604350835e-05,0.0,0.0,0.0,0.0,-0.002141373697668314,0.0029817004688084126,0.0007722651935182512,1.0010018348693848,0.0,0.0,0.0,-1.7331541776657104,3.2442994117736816,5.555516242980957,313.704345703125,0
1486.6440000000002,0.009256504476070404,-0.01930427923798561,7.4243318522349e-05,0.0,0.0,0.0,0.0,-7.25537320249714e-05,-0.0011129421181976795,-0.001260186079889536,0.9990946650505066,0.0,0.0,0.0,-1.7406786680221558,3.2310523986816406,5.550995826721191,315.0662841796875,0
1496.5370000000003,0.009340282529592514,-0.019118361175060272,-2.6154488296015188e-05,0.0,0.0,0.0,0.0,0.0014138766564428806,0.005420145578682423,-0.004134735092520714,1.0015738010406494,0.0,0.0,0.0,-1.7388896942138672,3.2655746936798096,5.568800449371338,314.7425231933594,0
1506.460000000001,0.009303261525928974,-0.019219480454921722,-6.115977885201573e-05,0.0,0.0,0.0,0.0,-0.0010905965464189649,-0.004954826552420855,0.002842858200892806,1.0006103515625,0.0,0.0,0.0,-1.7378323078155518,3.257929563522339,5.561786651611328,314.5511169433594,0
1516.3580000000002,0.009388858452439308,-0.019051523879170418,-0.0001804653147701174,0.0,0.0,0.0,0.0,-0.00029466606792993844,-0.0010518792551010847,-0.0013241945998743176,0.9991708993911743,0.0,0.0,0.0,-1.7314774990081787,3.2937166690826416,5.5805439949035645,313.4008483886719,0
1526.2849999999999,0.00931186880916357,-0.0191095769405365,-0.0002202361501986161,0.0,0.0,0.0,0.0,-0.002188171027228236,0.0008240501047112048,-0.0024914974346756935,0.9984133243560791,0.0,0.0,0.0,-1.7375235557556152,3.2854065895080566,5.579466819763184,314.4952087402344,0
1536.1900000000005,0.009332193993031979,-0.01899569481611252,-0.00028365099569782615,0.0,0.0,0.0,0.0,-0.0014640045119449496,0.006590795703232288,-0.0010040075285360217,0.9989162683486938,0.0,0.0,0.0,-1.7364422082901,3.288179874420166,5.572445392608643,314.29949951171875,0
1546.1100000000006,0.009326225146651268,-0.01908380351960659,-0.0003227030683774501,0.0,0.0,0.0,0.0,-0.0013402795884758234,0.0005612280801869929,-0.0050237057730555534,0.9995740652084351,0.0,0.0,0.0,-1.7435780763626099,3.274287700653076,5.566184043884277,315.5910949707031,0
1556.0030000000006,0.009317736141383648,-0.01898740604519844,-0.0003581240016501397,0.0,0.0,0.0,0.0,0.002367174718528986,0.0007131707388907671,-0.0008700818871147931,0.9993772506713867,0.0,0.0,0.0,-1.7431752681732178,3.2712204456329346,5.550687313079834,315.5181884765625,0
1565.9300000000003,0.009329852648079395,-0.019071171060204506,-0.00039078303962014616,0.0,0.0,0.0,0.0,0.0017928435700014234,0.0016154468758031726,-0.00023213139502331614,0.9981908798217773,0.0,0.0,0.0,-1.747823715209961,3.253199338912964,5.558053016662598,316.3595886230469,0
1575.8230000000003,0.009299647063016891,-0.01895279623568058,-0.0003869884239975363,0.0,0.0,0.0,0.0,-0.002377481199800968,0.0022451444528996944,-0.002846719231456518,0.9978757500648499,0.0,0.0,0.0,-1.7460572719573975,3.2468650341033936,5.54911470413208,316.0398254394531,0
1585.746000000001,0.009364708326756954,-0.01909635215997696,-0.000438151037087664,0.0,0.0,0.0,0.0,-0.0005629229126498103,-0.0001722585002426058,1.97664849110879e-05,0.999406099319458,0.0,0.0,0.0,-1.7531673908233643,3.2260072231292725,5.559508800506592,317.3268127441406,0
1595.6499999999996,0.009323477745056152,-0.018996672704815865,-0.0004318913852330297,0.0,0.0,0.0,0.0,-0.0015322365798056126,0.0009429798810742795,0.0008038642699830234,0.9997020363807678,0.0,0.0,0.0,-1.7515347003936768,3.2229530811309814,5.552112579345703,317.0312805175781,0
1605.571,0.009333535097539425,-0.019070399925112724,-0.00046294910134747624,0.0,0.0,0.0,0.0,-0.0002052177005680278,-0.0018869764171540737,-0.0011004738043993711,1.0008931159973145,0.0,0.0,0.0,-1.7589432001113892,3.2121188640594482,5.5585198402404785,318.3721923828125,0
1615.4740000000002,0.009245998226106167,-0.01906559243798256,-0.00043572604772634804,0.0,0.0,0.0,0.0,0.0012515004491433501,-0.001519910991191864,0.0008250208338722587,1.0002648830413818,0.0,0.0,0.0,-1.7479727268218994,3.2211315631866455,5.545735836029053,316.38653564453125,0
1625.3880000000008,0.009311876259744167,-0.0191365834325552,-0.0004379969323053956,0.0,0.0,0.0,0.0,-0.0006713576731272042,-0.00024249973648693413,0.0004553495964501053,0.9974493384361267,0.0,0.0,0.0,-1.7545475959777832,3.206747531890869,5.550865650177002,317.57659912109375,0
1635.2880000000005,0.009167635813355446,-0.019140686839818954,-0.0003265870036557317,0.0,0.0,0.0,0.0,-0.0025831691455096006,-0.0061200205236673355,0.002558370353654027,0.997378945350647,0.0,0.0,0.0,-1.7437946796417236,3.20994234085083,5.535837650299072,315.6302795410156,0
1645.219000000001,0.009291158057749271,-0.01926293782889843,-0.0003284763661213219,0.0,0.0,0.0,0.0,-0.0027904885355383158,-0.004364637192338705,-0.0036773711908608675,0.9984843730926514,0.0,0.0,0.0,-1.7415493726730347,3.2065982818603516,5.534793376922607,315.2239074707031,0
1655.1110000000008,0.00917069986462593,-0.019232988357543945,-0.00022849497327115387,0.0,0.0,0.0,0.0,0.001133807236328721,0.002866272581741214,-0.003776085563004017,0.9987677335739136,0.0,0.0,0.0,-1.7337350845336914,3.221484899520874,5.526085376739502,313.80950927734375,0
1665.0310000000009,0.009240100160241127,-0.019283877685666084,-0.00019496020104270428,0.0,0.0,0.0,0.0,-0.001471984782256186,0.0032680206932127476,0.002971043111756444,0.9984216094017029,0.0,0.0,0.0,-1.7435537576675415,3.2195305824279785,5.540119647979736,315.5867004394531,0
1674.9320000000007,0.009155488573014736,-0.01922871731221676,-0.0001302175660384819,0.0,0.0,0.0,0.0,0.004786328878253698,0.004290162585675716,-0.0009881800506263971,0.997832179069519,0.0,0.0,0.0,-1.7411220073699951,3.2227234840393066,5.530973434448242,315.14654541015625,0
1684.853000000001,0.009160011075437069,-0.019320392981171608,-0.0001404910726705566,0.0,0.0,0.0,0.0,-0.0008722950587980449,-0.003282971912994981,0.0025865070056170225,0.9978602528572083,0.0,0.0,0.0,-1.7402658462524414,3.2146990299224854,5.513687610626221,314.9915771484375,0
1694.7540000000008,0.009112617932260036,-0.01922895573079586,-0.00011633158283075318,0.0,0.0,0.0,0.0,0.0012950159143656492,0.00351241254247725,0.0001692227815510705,0.999616801738739,0.0,0.0,0.0,-1.7389153242111206,3.2127881050109863,5.510481834411621,314.7471618652344,0
1704.6710000000003,0.009170858189463615,-0.01926654577255249,-7.531904702773318e-05,0.0,0.0,0.0,0.0,0.004046436864882708,-0.0018814635695889592,0.0014600084396079183,1.00021231174469,0.0,0.0,0.0,-1.7443513870239258,3.2038090229034424,5.511312007904053,315.7310485839844,0
1714.58,0.009110847488045692,-0.019196806475520134,-4.081114457221702e-05,0.0,0.0,0.0,0.0,-0.0002687310625333339,0.003789283102378249,0.0016492007998749614,1.0012537240982056,0.0,0.0,0.0,-1.732797384262085,3.218452215194702,5.5076117515563965,313.6397705078125,0
1724.4899999999998,0.009204499423503876,-0.019302837550640106,-2.341992876608856e-05,0.0,0.0,0.0,0.0,-0.004514049272984266,-0.004789342172443867,0.005452508572489023,1.00365149974823,0.0,0.0,0.0,-1.7313114404678345,3.213644027709961,5.494482040405273,313.3708190917969,0
1734.4040000000005,0.009281408973038197,-0.019209345802664757,-5.3418225434143096e-05,0.0,0.0,0.0,0.0,0.0043414440006017685,-0.001767098088748753,0.0021352095063775778,1.0027045011520386,0.0,0.0,0.0,-1.730290412902832,3.256242275238037,5.507073402404785,313.18597412109375,0
1744.3220000000001,0.00921674445271492,-0.019237015396356583,-4.251610516803339e-05,0.0,0.0,0.0,0.0,-0.0022157933562994003,-0.0018350555328652263,-0.0010442971251904964,0.9985780715942383,0.0,0.0,0.0,-1.7289705276489258,3.249194622039795,5.508739948272705,312.94708251953125,0
1754.2219999999998,0.009317071177065372,-0.019208479672670364,-4.536261985776946e-05,0.0,0.0,0.0,0.0,0.002618216909468174,0.00033921393333002925,0.0003793225041590631,0.9980465769767761,0.0,0.0,0.0,-1.73530912399292,3.227536201477051,5.5178985595703125,314.09442138671875,0
1764.1350000000002,0.00925111211836338,-0.019236555323004723,-3.456364356679842e-05,0.0,0.0,0.0,0.0,4.7655365051468834e-05,0.0024489632342010736,0.0009010004578158259,0.999869704246521,0.0,0.0,0.0,-1.7333558797836304,3.2264840602874756,5.5185418128967285,313.74090576171875,0
1774.0439999999999,0.009260325692594051,-0.01913645677268505,-8.406844426644966e-05,0.0,0.0,0.0,0.0,0.0034474071580916643,0.0014140931889414787,0.00269057578407228,1.0008010864257812,0.0,0.0,0.0,-1.72283136844635,3.2513108253479004,5.520931720733643,311.8359069824219,0
1783.9570000000003,0.00919167697429657,-0.019161775708198547,-7.844197534723207e-05,0.0,0.0,0.0,0.0,0.0011131581850349903,0.0005064822034910321,0.0009682071977294981,1.0013116598129272,0.0,0.0,0.0,-1.720869779586792,3.238213539123535,5.51209831237793,311.4808654785156,0
1793.8630000000012,0.00918080098927021,-0.019041456282138824,-9.427449549548328e-05,0.0,0.0,0.0,0.0,0.0016638702945783734,0.0012297102948650718,0.0010139195946976542,1.0018364191055298,0.0,0.0,0.0,-1.7225843667984009,3.269883155822754,5.517477989196777,311.79119873046875,0
1803.7780000000002,0.009266246110200882,-0.01918085478246212,-8.261652692453936e-05,0.0,0.0,0.0,0.0,-0.0015808844473212957,-0.0019872935954481363,-0.002768716076388955,0.9974332451820374,0.0,0.0,0.0,-1.7281991243362427,3.247572898864746,5.5445237159729,312.8074951171875,0
1813.692000000001,0.009373030625283718,-0.019179388880729675,-0.00012281614181119949,0.0,0.0,0.0,0.0,-0.0005643292097374797,0.001452792203053832,-0.0004067548143211752,0.9991365075111389,0.0,0.0,0.0,-1.7370091676712036,3.2220492362976074,5.559276103973389,314.402099609375,0
1823.6040000000012,0.00931617897003889,-0.019205594435334206,-0.00011999935668427497,0.0,0.0,0.0,0.0,-0.0036747523117810488,0.0027873285580426455,-0.0006250116275623441,0.9993711709976196,0.0,0.0,0.0,-1.7350900173187256,3.2198007106781006,5.551552772521973,314.0547790527344,0
1833.5069999999996,0.009381493553519249,-0.01918608509004116,-0.00017713486158754677,0.0,0.0,0.0,0.0,-0.0008022842812351882,0.00360862142406404,0.0025982644874602556,0.9994779229164124,0.0,0.0,0.0,-1.7363309860229492,3.237375497817993,5.5634684562683105,314.2793884277344,0
1843.4279999999999,0.009325746446847916,-0.019210876896977425,-0.0001806515356292948,0.0,0.0,0.0,0.0,0.000718777475412935,0.0017570795025676489,0.0009221105719916523,0.9993909001350403,0.0,0.0,0.0,-1.7338305711746216,3.2386817932128906,5.551970481872559,313.8267822265625,0
1853.3340000000007,0.009395292028784752,-0.019218172878026962,-0.0001439808402210474,0.0,0.0,0.0,0.0,-0.0023497387301176786,0.0035223811864852905,0.0010405866196379066,0.9976906180381775,0.0,0.0,0.0,-1.7312270402908325,3.234666109085083,5.559279441833496,313.35552978515625,0
1863.2510000000002,0.009338553994894028,-0.019243411719799042,-0.00014549412298947573,0.0,0.0,0.0,0.0,-0.0007733851089142263,0.0035456751938909292,-0.0003217593766748905,0.9967618584632874,0.0,0.0,0.0,-1.7295222282409668,3.2291975021362305,5.5498247146606445,313.04693603515625,0
1873.1530000000002,0.009396258741617203,-0.01920330710709095,-0.00019720938871614635,0.0,0.0,0.0,0.0,-0.00031693148775957525,-0.002107536420226097,-0.0004970840527676046,0.9996333718299866,0.0,0.0,0.0,-1.7319645881652832,3.244311571121216,5.555348873138428,313.4890441894531,0
1883.0650000000005,0.009338515810668468,-0.019229494035243988,-0.00020683402544818819,0.0,0.0,0.0,0.0,0.002565923146903515,0.007048227824270725,0.0009957714937627316,1.000200867652893,0.0,0.0,0.0,-1.7305896282196045,3.238028049468994,5.5511474609375,313.24017333984375,0
1892.9719999999998,0.009326592087745667,-0.019237229600548744,-0.00017106901213992387,0.0,0.0,0.0,0.0,-0.0022494145669043064,0.0006365891313180327,0.001945178140886128,0.9991182684898376,0.0,0.0,0.0,-1.736524224281311,3.2315587997436523,5.546854496002197,314.3143615722656,0
1902.8900000000012,0.009267298504710197,-0.01926654763519764,-0.00017701716569717973,0.0,0.0,0.0,0.0,-0.0025285440497100353,0.001171417417936027,-0.001878378912806511,0.999562680721283,0.0,0.0,0.0,-1.734585165977478,3.233297824859619,5.543481826782227,313.96337890625,0
1912.795,0.009291271679103374,-0.019233664497733116,-0.00016345083713531494,0.0,0.0,0.0,0.0,0.0007332098321057856,-0.00353167112916708,0.0015878811245784163,0.9982123970985413,0.0,0.0,0.0,-1.7398602962493896,3.221764087677002,5.545783519744873,314.91815185546875,0
1922.7129999999997,0.009230289608240128,-0.01926390826702118,-0.00016875306027941406,0.0,0.0,0.0,0.0,0.0008443166734650731,0.0002892047050409019,0.0012965851929038763,0.9978548288345337,0.0,0.0,0.0,-1.738720178604126,3.218564033508301,5.5426554679870605,314.7117919921875,0
1932.621000000001,0.009289049543440342,-0.019222354516386986,-0.00015593226999044418,0.0,0.0,0.0,0.0,-0.002171180211007595,-0.00016784828039817512,-0.0010941060027107596,0.9976386427879333,0.0,0.0,0.0,-1.743162751197815,3.2105634212493896,5.547392845153809,315.51593017578125,0
1942.5300000000007,0.00922591146081686,-0.01925218477845192,-0.00016256532398983836,0.0,0.0,0.0,0.0,0.0009153307182714343,0.0020025025587528944,-0.0018507286440581083,0.9985057711601257,0.0,0.0,0.0,-1.7420687675476074,3.2114391326904297,5.539853096008301,315.31793212890625,0
1952.437,0.009235487319529057,-0.0191502682864666,-0.0002029391034739092,0.0,0.0,0.0,0.0,-0.0009157704189419746,-0.0026037972420454025,0.0001327764184679836,0.9989729523658752,0.0,0.0,0.0,-1.7407609224319458,3.20505952835083,5.531370162963867,315.0812072753906,0
1962.3590000000004,0.00916662160307169,-0.019176265224814415,-0.0002148882340406999,0.0,0.0,0.0,0.0,0.003159003332257271,0.0052694762125611305,-0.00347863114438951,0.9993881583213806,0.0,0.0,0.0,-1.7392175197601318,3.1989190578460693,5.528414249420166,314.80181884765625,0
1972.2600000000002,0.009326876141130924,-0.019123801961541176,-0.0002406267449259758,0.0,0.0,0.0,0.0,0.0029693790711462498,0.00656201783567667,-0.0010027880780398846,0.9997917413711548,0.0,0.0,0.0,-1.7413294315338135,3.2142181396484375,5.549445152282715,315.18408203125,0
1982.1760000000013,0.009287374094128609,-0.019037825986742973,-0.00024522689636796713,0.0,0.0,0.0,0.0,-0.00014070799807086587,0.0009994875872507691,-0.001447875751182437,0.9989002346992493,0.0,0.0,0.0,-1.7407656908035278,3.2111806869506836,5.5130228996276855,315.08203125,0
1992.0820000000003,0.00926387868821621,-0.01910148188471794,-0.0002642285544425249,0.0,0.0,0.0,0.0,0.0001958107022801414,0.0009085044730454683,0.0012537798611447215,0.9974184036254883,0.0,0.0,0.0,-1.7469229698181152,3.199174165725708,5.509124279022217,316.1965026855469,0
2002.0030000000006,0.009188693948090076,-0.01907091587781906,-0.00024604209465906024,0.0,0.0,0.0,0.0,0.002922831801697612,0.0010963540989905596,-0.0006688044522888958,0.9983405470848083,0.0,0.0,0.0,-1.745615839958191,3.195263385772705,5.505557060241699,315.9599304199219,0
2011.902,0.00927939172834158,-0.019163204357028008,-0.000246666168095544,0.0,0.0,0.0,0.0,0.0009997521992772818,0.002690104069188237,-0.0015587048837915063,0.999921977519989,0.0,0.0,0.0,-1.7492256164550781,3.176745653152466,5.527047634124756,316.61334228515625,0
2021.8199999999997,0.009222608059644699,-0.019112473353743553,-0.00024278696218971163,0.0,0.0,0.0,0.0,-0.0023698867298662663,-6.994219438638538e-05,0.0038583334535360336,0.9968387484550476,0.0,0.0,0.0,-1.740191102027893,3.1913552284240723,5.51234769821167,314.97802734375,0
2031.7270000000008,0.009153662249445915,-0.01913796178996563,-0.00025577476480975747,0.0,0.0,0.0,0.0,0.00036923683364875615,-0.002566875657066703,0.001964958617463708,0.9980090260505676,0.0,0.0,0.0,-1.7380545139312744,3.18851900100708,5.502710342407227,314.59130859375,0
2041.6450000000004,0.009097018279135227,-0.019069720059633255,-0.000255496590398252,0.0,0.0,0.0,0.0,-0.0027675700839608908,-0.0033871238119900227,0.004758884198963642,0.9992104768753052,0.0,0.0,0.0,-1.7297645807266235,3.213956117630005,5.511408805847168,313.0908508300781,0
2051.554,0.009283991530537605,-0.019198888912796974,-0.00019644206622615457,0.0,0.0,0.0,0.0,-0.0010598197113722563,-0.0016941301291808486,-0.0009979763999581337,0.9982123970985413,0.0,0.0,0.0,-1.7352293729782104,3.1909704208374023,5.5727362632751465,314.0799560546875,0
2061.470000000001,0.009237073361873627,-0.019142160192131996,-0.00018636160530149937,0.0,0.0,0.0,0.0,0.0006571243284270167,0.0029510590247809887,-0.0001007934843073599,0.9971596002578735,0.0,0.0,0.0,-1.7343171834945679,3.188427448272705,5.575530529022217,313.9148864746094,0
2071.367,0.009348359890282154,-0.019242143258452415,-0.00017231084348168224,0.0,0.0,0.0,0.0,0.004405819345265627,-0.003457993734627962,0.002740256255492568,0.9987220764160156,0.0,0.0,0.0,-1.7463685274124146,3.17557692527771,5.587466239929199,316.0961608886719,0
2081.290000000001,0.009300577454268932,-0.01918293908238411,-0.0001572698529344052,0.0,0.0,0.0,0.0,-0.0005592392990365624,0.002340580802410841,-0.003150136675685644,1.000058889389038,0.0,0.0,0.0,-1.737744688987732,3.188056468963623,5.593316078186035,314.5352783203125,0
2091.192000000001,0.0093920873478055,-0.01925879716873169,-0.0001420208136551082,0.0,0.0,0.0,0.0,-0.0011904567945748568,0.002352707786485553,0.0009055295377038419,0.9993672966957092,0.0,0.0,0.0,-1.742774248123169,3.17917799949646,5.602114200592041,315.4455871582031,0
2101.112000000001,0.009346830658614635,-0.019190894439816475,-0.00012860141578130424,0.0,0.0,0.0,0.0,0.00019376046839170158,0.0014083001296967268,0.00268406979739666,0.9997550845146179,0.0,0.0,0.0,-1.7321041822433472,3.1923508644104004,5.59041166305542,313.51434326171875,0
2111.0159999999996,0.009381484240293503,-0.019254639744758606,-0.00012557191075757146,0.0,0.0,0.0,0.0,0.0002977227559313178,0.0019449462415650487,-0.001424957881681621,0.9971410036087036,0.0,0.0,0.0,-1.739859700202942,3.186861753463745,5.593777179718018,314.9180603027344,0
2120.9400000000005,0.009341935627162457,-0.01915138214826584,-0.0001056069231708534,0.0,0.0,0.0,0.0,-0.0006476804264821112,-0.0009599977056495845,0.0012430462520569563,0.9981015920639038,0.0,0.0,0.0,-1.737866759300232,3.1844019889831543,5.584184646606445,314.557373046875,0
2130.8340000000007,0.009367755614221096,-0.019258370622992516,-0.00012660633365157992,0.0,0.0,0.0,0.0,-0.0011251980904489756,0.0020073435734957457,-0.003252672031521797,1.0018712282180786,0.0,0.0,0.0,-1.7439206838607788,3.1666367053985596,5.595345497131348,315.6531066894531,0
2140.758,0.009322687052190304,-0.01919255219399929,-0.00011651237582555041,0.0,0.0,0.0,0.0,-0.0010436553275212646,-0.006428960245102644,0.00018199703481514007,0.999891459941864,0.0,0.0,0.0,-1.736790418624878,3.1863551139831543,5.580081462860107,314.3625183105469,0
2150.6530000000002,0.009338452480733395,-0.01925877295434475,-0.00011907867883564904,0.0,0.0,0.0,0.0,0.0035300028976053,-0.0034892065450549126,-0.00031769127235747874,0.9987480044364929,0.0,0.0,0.0,-1.7432574033737183,3.1778459548950195,5.595487117767334,315.5330505371094,0
