timestamp,stateEstimate.x,stateEstimate.y,stateEstimate.z,controller.cmd_thrust,controller.cmd_roll,controller.cmd_pitch,controller.cmd_yaw,controller.r_roll,controller.r_pitch,controller.r_yaw,controller.accelz,controller.actuatorThrust,controller.roll,controller.pitch,controller.yaw,controller.rollRate,controller.pitchRate,controller.yawRate,controller.ctr_yaw
0.0,-0.001721653388813138,-0.020652201026678085,-0.0007601270917803049,0.0,0.0,0.0,0.0,0.003942698240280151,-0.0017375813331454992,-0.00012214499292895198,0.9996899366378784,0.0,0.0,0.0,21.004243850708008,4.0607404708862305,7.028336524963379,-3801.809814453125,0
9.884000000000015,-0.0017255174461752176,-0.02075321599841118,-0.0008022496476769447,0.0,0.0,0.0,0.0,0.0010962855303660035,0.0005807492998428643,-0.0006256251945160329,0.9990361928939819,0.0,0.0,0.0,21.01291275024414,4.037424564361572,7.020798206329346,-3803.37890625,0
19.79699999999866,-0.0017091048648580909,-0.020657017827033997,-0.0008195124682970345,0.0,0.0,0.0,0.0,0.004567377734929323,0.00035059062065556645,0.0011840109946206212,1.0000584125518799,0.0,0.0,0.0,21.015727996826172,4.050988674163818,7.025275230407715,-3803.888671875,0
29.703999999999724,-0.0017459107330068946,-0.02068358100950718,-0.000816206622403115,0.0,0.0,0.0,0.0,-6.966336513869464e-05,-0.00895471777766943,0.004818830173462629,1.0002187490463257,0.0,0.0,0.0,20.994421005249023,4.044647693634033,7.013818740844727,-3800.031982421875,0
39.61899999999878,-0.0017531568882986903,-0.0205660592764616,-0.0007997076609171927,0.0,0.0,0.0,0.0,-0.0002415085764368996,0.0012786855222657323,0.0011996206594631076,0.9978410601615906,0.0,0.0,0.0,20.988853454589844,4.074374198913574,7.037100315093994,-3799.024169921875,0
49.527000000000044,-0.0017547765746712685,-0.020647166296839714,-0.0008439458906650543,0.0,0.0,0.0,0.0,8.245051867561415e-05,-0.0012887712800875306,0.0016964093083515763,1.0006858110427856,0.0,0.0,0.0,20.99761199951172,4.054628849029541,7.026005744934082,-3800.609619140625,0
59.4380000000001,-0.0018077022396028042,-0.020605353638529778,-0.0007944446988403797,0.0,0.0,0.0,0.0,0.0019215279025956988,0.0012666237307712436,0.0015514134429395199,1.0000046491622925,0.0,0.0,0.0,20.99492645263672,4.060243606567383,7.017918109893799,-3800.12353515625,0
69.35199999999895,-0.0018005454912781715,-0.02069493569433689,-0.0008307461976073682,0.0,0.0,0.0,0.0,-0.0008947048336267471,-0.0036690214183181524,0.00046998157631605864,0.9994579553604126,0.0,0.0,0.0,21.003963470458984,4.036558151245117,7.008472919464111,-3801.759033203125,0
79.2599999999984,-0.001829033368267119,-0.020626237615942955,-0.0008067958406172693,0.0,0.0,0.0,0.0,0.00048294058069586754,0.0009059833246283233,0.004050461575388908,1.0003501176834106,0.0,0.0,0.0,21.004697799682617,4.051105499267578,7.015160083770752,-3801.89208984375,0
89.17000000000007,-0.001869979314506054,-0.02065054140985012,-0.0008030411554500461,0.0,0.0,0.0,0.0,-1.753725518938154e-05,0.0002950876369141042,7.387172081507742e-05,1.0000635385513306,0.0,0.0,0.0,20.98429298400879,4.045126914978027,7.000290393829346,-3798.19873046875,0
99.08100000000013,-0.0018995170248672366,-0.02057918906211853,-0.0007781465537846088,0.0,0.0,0.0,0.0,-0.00021409113833215088,-0.00031606017728336155,0.00044860696652904153,1.0005742311477661,0.0,0.0,0.0,20.984336853027344,4.063156604766846,7.0094780921936035,-3798.206787109375,0
108.99599999999919,-0.0018053766107186675,-0.020692167803645134,-0.0007852187263779342,0.0,0.0,0.0,0.0,-0.0005074574146419764,-0.0005450470489449799,0.0010326552437618375,0.9979456067085266,0.0,0.0,0.0,20.993743896484375,4.034847736358643,7.012901306152344,-3799.9091796875,0
118.90899999999965,-0.0018140441970899701,-0.020574700087308884,-0.0007600351818837225,0.0,0.0,0.0,0.0,0.004715373739600182,-0.0022629713639616966,0.00019721154239960015,0.9989298582077026,0.0,0.0,0.0,20.987150192260742,4.057254314422607,7.021773815155029,-3798.7158203125,0
128.8169999999991,-0.0017815587343648076,-0.020686594769358635,-0.0007987574208527803,0.0,0.0,0.0,0.0,0.0023520411923527718,0.0013512002769857645,0.00211676605977118,1.0014007091522217,0.0,0.0,0.0,20.999797821044922,4.02737283706665,7.018006324768066,-3801.005126953125,0
138.72399999999834,-0.0017658418510109186,-0.020563295111060143,-0.0008174902759492397,0.0,0.0,0.0,0.0,0.0020163662265986204,-0.0013288573827594519,0.00020480371313169599,1.0012136697769165,0.0,0.0,0.0,21.00364112854004,4.042932510375977,7.0284743309021,-3801.70068359375,0
148.63400000000001,-0.001713149482384324,-0.020683903247117996,-0.0008569596102461219,0.0,0.0,0.0,0.0,0.0006378052057698369,0.0008873696788214147,0.0035261488519608974,0.9979763627052307,0.0,0.0,0.0,21.01485252380371,4.013986587524414,7.0274858474731445,-3803.72998046875,0
158.55599999999868,-0.0017560155829414725,-0.02059512957930565,-0.0008141433354467154,0.0,0.0,0.0,0.0,0.0014780483907088637,0.0032600550912320614,0.0024751327000558376,0.9989956617355347,0.0,0.0,0.0,21.00098991394043,4.028956890106201,7.029149055480957,-3801.220703125,0
168.46299999999974,-0.0017643560422584414,-0.020665813237428665,-0.0008426312706433237,0.0,0.0,0.0,0.0,-0.0004265177412889898,0.0048475563526153564,-0.002162056975066662,1.0024105310440063,0.0,0.0,0.0,21.006399154663086,4.0066728591918945,7.012381076812744,-3802.199951171875,0
178.36799999999857,-0.0017725590150803328,-0.020599365234375,-0.0008583704475313425,0.0,0.0,0.0,0.0,0.0013619987294077873,-0.004073892254382372,-0.002175866859033704,1.000382900238037,0.0,0.0,0.0,21.00755500793457,4.023633003234863,7.019392967224121,-3802.409423828125,0
188.27999999999884,-0.0018028928898274899,-0.020690787583589554,-0.0009063018369488418,0.0,0.0,0.0,0.0,-0.0005596239352598786,0.0003193100565113127,-0.00031429293449036777,0.9960182309150696,0.0,0.0,0.0,21.013599395751953,4.006143569946289,7.013209819793701,-3803.503173828125,0
198.1899999999987,-0.0018076018895953894,-0.020611213520169258,-0.0009245973196811974,0.0,0.0,0.0,0.0,-0.0009448438649997115,-0.0026709623634815216,-0.0005890244501642883,0.9979519248008728,0.0,0.0,0.0,21.013782501220703,4.023291110992432,7.022983551025391,-3803.536376953125,0
208.10299999999916,-0.001756354933604598,-0.020728129893541336,-0.0009638738119974732,0.0,0.0,0.0,0.0,0.0027169971726834774,-0.0016191255999729037,0.001978461630642414,0.9980201721191406,0.0,0.0,0.0,21.023601531982422,4.001256942749023,7.0208821296691895,-3805.3134765625,0
218.0119999999988,-0.0017974541988223791,-0.02063135802745819,-0.0009267184650525451,0.0,0.0,0.0,0.0,-0.0017129650805145502,-0.0029041352681815624,0.005452428013086319,1.0000876188278198,0.0,0.0,0.0,21.01543426513672,4.017789363861084,7.026742458343506,-3803.83544921875,0
227.92099999999846,-0.0017493003979325294,-0.020725559443235397,-0.0009559336467646062,0.0,0.0,0.0,0.0,0.0032743667252361774,0.0044382913038134575,0.002440431620925665,0.9996418356895447,0.0,0.0,0.0,21.02114486694336,3.996715784072876,7.029609203338623,-3804.869140625,0
237.83100000000013,-0.001789075555279851,-0.020632730796933174,-0.0009198175393976271,0.0,0.0,0.0,0.0,0.00119375332724303,0.0013367985375225544,0.0009983453201130033,0.9992045164108276,0.0,0.0,0.0,21.012542724609375,4.009675025939941,7.027742385864258,-3803.311767578125,0
247.74299999999857,-0.0017802430083975196,-0.020716920495033264,-0.0009529134258627892,0.0,0.0,0.0,0.0,-0.002832225523889065,0.0033951124642044306,0.0037977718748152256,0.9985953569412231,0.0,0.0,0.0,21.021177291870117,3.990591049194336,7.005281448364258,-3804.874755859375,0
257.65499999999884,-0.0018157026497647166,-0.02062823809683323,-0.0009219087660312653,0.0,0.0,0.0,0.0,-0.003127129515632987,0.0005726761883124709,-0.000691545894369483,1.0002880096435547,0.0,0.0,0.0,21.0123348236084,4.010537624359131,7.003801345825195,-3803.2744140625,0
267.5679999999993,-0.0017553467769175768,-0.020683739334344864,-0.0009219132480211556,0.0,0.0,0.0,0.0,0.0010927949333563447,0.0025176273193210363,0.0010991145391017199,1.0008397102355957,0.0,0.0,0.0,21.021324157714844,4.000917434692383,7.001136779785156,-3804.9013671875,0
277.47599999999875,-0.0017568469047546387,-0.02057672291994095,-0.000924551859498024,0.0,0.0,0.0,0.0,-0.0001295896654482931,0.006408919580280781,-0.0013493612641468644,0.9998677372932434,0.0,0.0,0.0,21.010787963867188,4.020253658294678,7.012814521789551,-3802.994384765625,0
287.3899999999994,-0.001752055250108242,-0.020661231130361557,-0.0009573876159265637,0.0,0.0,0.0,0.0,0.0026510129682719707,-0.0004421406192705035,0.0019926480017602444,0.9999338984489441,0.0,0.0,0.0,21.01836585998535,4.001950263977051,6.984859943389893,-3804.365966796875,0
297.3029999999999,-0.0017783910734578967,-0.02060498669743538,-0.0009525883942842484,0.0,0.0,0.0,0.0,-0.0030686073005199432,-0.004511618986725807,0.004058725666254759,0.9994060397148132,0.0,0.0,0.0,21.020191192626953,4.007879257202148,6.981230735778809,-3804.6962890625,0
307.2089999999989,-0.0017717420123517513,-0.02067108266055584,-0.0009749252931214869,0.0,0.0,0.0,0.0,0.002051879419013858,0.0035674264654517174,0.0014281922485679388,0.9983675479888916,0.0,0.0,0.0,21.027379989624023,4.000495910644531,6.985280513763428,-3805.99755859375,0
317.125,-0.0018313906621187925,-0.02063603699207306,-0.0009394140797667205,0.0,0.0,0.0,0.0,0.0006086240173317492,0.0015092353569343686,-0.004169833846390247,0.9987954497337341,0.0,0.0,0.0,21.01552963256836,4.010598659515381,6.975834369659424,-3803.852783203125,0
327.03499999999985,-0.0018802048871293664,-0.020670296624302864,-0.0009429635247215629,0.0,0.0,0.0,0.0,0.00205765082500875,-0.0023246021009981632,0.003683056915178895,1.0001869201660156,0.0,0.0,0.0,20.994171142578125,4.00654935836792,6.969028949737549,-3799.98681640625,0
336.9449999999997,-0.0019290139898657799,-0.020599333569407463,-0.0009084412595257163,0.0,0.0,0.0,0.0,0.0017919695237651467,-0.0018866949249058962,-0.0017226884374395013,1.0014315843582153,0.0,0.0,0.0,20.996431350708008,4.024641990661621,6.966187477111816,-3800.395751953125,0
346.85499999999956,-0.001818452961742878,-0.02070287987589836,-0.0008963531581684947,0.0,0.0,0.0,0.0,0.0023722935002297163,0.00396993150934577,0.0018514058319851756,1.0010058879852295,0.0,0.0,0.0,21.00614356994629,3.985727071762085,6.989213466644287,-3802.15380859375,0
356.76800000000003,-0.0018528768559917808,-0.02064603939652443,-0.0008698159945197403,0.0,0.0,0.0,0.0,-0.0005919209797866642,-0.0006964640342630446,-0.0004430123954080045,0.9988850355148315,0.0,0.0,0.0,20.996307373046875,3.998680353164673,6.982931137084961,-3800.373291015625,0
366.6829999999991,-0.0017661787569522858,-0.020719552412629128,-0.0008569535566493869,0.0,0.0,0.0,0.0,0.00015403427823912352,0.002533402992412448,-0.0007920343778096139,0.9985780119895935,0.0,0.0,0.0,21.008615493774414,3.9796316623687744,6.987969398498535,-3802.601318359375,0
376.59000000000015,-0.0018035167595371604,-0.020654158666729927,-0.000820472720079124,0.0,0.0,0.0,0.0,0.0017377439653500915,0.0010573500767350197,-0.0030226383823901415,0.9995771646499634,0.0,0.0,0.0,21.005218505859375,4.000510215759277,6.986335277557373,-3801.986083984375,0
386.5009999999984,-0.0018492339877411723,-0.020689720287919044,-0.0008136335527524352,0.0,0.0,0.0,0.0,0.0008029130403883755,-0.0031829760409891605,0.0008810118306428194,0.9989185929298401,0.0,0.0,0.0,20.983686447143555,3.995044469833374,6.9737348556518555,-3798.089111328125,0
396.41599999999926,-0.0018479335121810436,-0.020589662715792656,-0.0008206774946302176,0.0,0.0,0.0,0.0,0.0009401822462677956,0.004334619734436274,0.001666029216721654,1.0010627508163452,0.0,0.0,0.0,20.984848022460938,4.016015529632568,6.999534606933594,-3798.299560546875,0
406.3209999999999,-0.0017833143938332796,-0.020702924579381943,-0.000839310057926923,0.0,0.0,0.0,0.0,-0.0010809489758685231,-0.0023352354764938354,0.0010185422142967582,0.9987608790397644,0.0,0.0,0.0,20.99574089050293,3.978394031524658,6.984787940979004,-3800.270751953125,0
416.23599999999897,-0.0017661110032349825,-0.020572418347001076,-0.0008424404077231884,0.0,0.0,0.0,0.0,0.0019805196207016706,0.00340371229685843,-0.0028009202796965837,1.0008611679077148,0.0,0.0,0.0,20.98780632019043,4.0103607177734375,7.005714416503906,-3798.83447265625,0
426.14300000000003,-0.0016850793035700917,-0.020689379423856735,-0.0008659760933369398,0.0,0.0,0.0,0.0,0.0038401661440730095,0.0021064872853457928,-0.00034800037974491715,0.9995550513267517,0.0,0.0,0.0,20.99757194519043,3.9833343029022217,6.9972686767578125,-3800.60205078125,0
436.0569999999989,-0.0017006229609251022,-0.020626282319426537,-0.0008546542376279831,0.0,0.0,0.0,0.0,-0.0009858461562544107,0.006374150048941374,0.0006090660463087261,0.9995376467704773,0.0,0.0,0.0,20.998367309570312,3.991028070449829,6.987978458404541,-3800.746337890625,0
445.96399999999994,-0.0016736456891521811,-0.020725226029753685,-0.0008852609316818416,0.0,0.0,0.0,0.0,-0.0007186289876699448,-0.004732179455459118,-0.003087806049734354,1.0017250776290894,0.0,0.0,0.0,21.012279510498047,3.971141815185547,6.966355800628662,-3803.2646484375,0
455.875,-0.0017087263986468315,-0.020635245367884636,-0.0008412533788941801,0.0,0.0,0.0,0.0,0.0005940283881500363,-0.0023707489017397165,-0.0016542988596484065,1.0024733543395996,0.0,0.0,0.0,21.0031795501709,3.9950315952301025,6.972066402435303,-3801.6171875,0
465.77899999999863,-0.0017148362239822745,-0.02073591761291027,-0.0008783279918134212,0.0,0.0,0.0,0.0,-0.0007016364834271371,0.00020118270185776055,-0.0031373503152281046,1.0003756284713745,0.0,0.0,0.0,21.009870529174805,3.980152130126953,6.96483039855957,-3802.828369140625,0
475.7099999999991,-0.0017620316939428449,-0.02068670280277729,-0.0008347484981641173,0.0,0.0,0.0,0.0,0.002007117262110114,0.0022898472379893064,0.0016091229626908898,0.9981089234352112,0.0,0.0,0.0,21.0098934173584,3.9926390647888184,6.969205856323242,-3802.83251953125,0
485.60199999999895,-0.00171518640127033,-0.020772669464349747,-0.0008436213247478008,0.0,0.0,0.0,0.0,-0.0010193809866905212,-0.0012025584001094103,-0.002155379857867956,0.9976334571838379,0.0,0.0,0.0,21.018268585205078,3.971888303756714,6.960836887359619,-3804.348388671875,0
495.5199999999986,-0.0017494440544396639,-0.02071106992661953,-0.0008142102742567658,0.0,0.0,0.0,0.0,-0.0018868506886065006,0.000304380024317652,0.00010337723506381735,1.0007866621017456,0.0,0.0,0.0,21.007139205932617,3.9916419982910156,6.9626240730285645,-3802.333984375,0
505.4309999999987,-0.001713932491838932,-0.02080431953072548,-0.000829043157864362,0.0,0.0,0.0,0.0,0.003661045804619789,0.0006125862128101289,-0.003113207872956991,1.0033516883850098,0.0,0.0,0.0,21.01970672607422,3.973999500274658,6.950985431671143,-3804.6083984375,0
515.3459999999995,-0.001714471378363669,-0.020706884562969208,-0.0008306909585371614,0.0,0.0,0.0,0.0,0.0016620703972876072,-0.0011798703344538808,-6.123038474470377e-05,1.0001591444015503,0.0,0.0,0.0,21.01823616027832,3.9904773235321045,6.9570088386535645,-3804.34228515625,0
525.2549999999992,-0.0017753521678969264,-0.02076807990670204,-0.0008583214366808534,0.0,0.0,0.0,0.0,0.0003329385945107788,0.0030067788902670145,0.003349365433678031,1.0022870302200317,0.0,0.0,0.0,21.024795532226562,3.979926109313965,6.936883926391602,-3805.52978515625,0
535.164999999999,-0.0017114031361415982,-0.020571600645780563,-0.0009100630413740873,0.0,0.0,0.0,0.0,-0.0009737363434396684,-0.0033642714843153954,0.001027743797749281,1.0000687837600708,0.0,0.0,0.0,21.01897621154785,4.011361598968506,6.967014312744141,-3804.476318359375,0
545.0669999999991,-0.001763699110597372,-0.02064376324415207,-0.0009462128509767354,0.0,0.0,0.0,0.0,0.0025525090750306845,-0.0049546826630830765,0.0007044014055281878,1.000638484954834,0.0,0.0,0.0,21.026723861694336,4.001034259796143,6.957332611083984,-3805.87890625,0
554.9869999999992,-0.0017925739521160722,-0.020592913031578064,-0.000939475663471967,0.0,0.0,0.0,0.0,0.002213422441855073,0.003080926602706313,-0.0008050364558584988,1.002557635307312,0.0,0.0,0.0,21.026302337646484,4.0097432136535645,6.965825080871582,-3805.80224609375,0
564.887999999999,-0.0018100917804986238,-0.020625393837690353,-0.0009421166032552719,0.0,0.0,0.0,0.0,0.0020508263260126114,-3.276303323218599e-05,-0.0002757395850494504,1.0029423236846924,0.0,0.0,0.0,21.03397560119629,4.004201412200928,6.951427459716797,-3807.19140625,0
574.8079999999991,-0.0018198350444436073,-0.020522084087133408,-0.0009401849238201976,0.0,0.0,0.0,0.0,0.002850151853635907,0.0034638592042028904,-0.003919032867997885,0.9989820718765259,0.0,0.0,0.0,21.023916244506836,4.020845890045166,6.954493999481201,-3805.370849609375,0
584.7129999999997,-0.001872826600447297,-0.020551392808556557,-0.0009321565739810467,0.0,0.0,0.0,0.0,0.00024515949189662933,7.07174331182614e-05,-0.0006375338998623192,1.0003970861434937,0.0,0.0,0.0,21.001605987548828,4.0136942863464355,6.939412593841553,-3801.33251953125,0
594.6299999999992,-0.0019045905210077763,-0.020501593127846718,-0.0009236461482942104,0.0,0.0,0.0,0.0,0.0007949522696435452,0.00015038001583889127,-0.003033126937225461,1.00065279006958,0.0,0.0,0.0,21.0056095123291,4.023861885070801,6.9487175941467285,-3802.057373046875,0
604.539999999999,-0.0017611404182389379,-0.020621495321393013,-0.0008940339321270585,0.0,0.0,0.0,0.0,0.002687059110030532,0.0033590428065508604,0.0010240486590191722,0.997519850730896,0.0,0.0,0.0,21.015485763549805,3.972865343093872,6.956872463226318,-3803.8447265625,0
614.4529999999995,-0.0018045268952846527,-0.02055402658879757,-0.0008411220042034984,0.0,0.0,0.0,0.0,0.0002819702203851193,0.003963225055485964,-0.00036645247018896043,1.0000965595245361,0.0,0.0,0.0,21.008424758911133,3.9956135749816895,6.948657989501953,-3802.566650390625,0
624.357,-0.0018498743884265423,-0.020584067329764366,-0.000828147865831852,0.0,0.0,0.0,0.0,-0.00048382789827883244,-9.171306737698615e-05,-0.0008256132714450359,0.9997875094413757,0.0,0.0,0.0,20.988168716430664,3.985114097595215,6.9318060874938965,-3798.900390625,0
634.2699999999986,-0.0018926402553915977,-0.020545070990920067,-0.0007886330713517964,0.0,0.0,0.0,0.0,0.002963331528007984,0.0012054155813530087,-0.0035623253788799047,0.9976441860198975,0.0,0.0,0.0,20.98921012878418,3.995173215866089,6.932849407196045,-3799.0888671875,0
644.1819999999989,-0.001938828732818365,-0.020574714988470078,-0.0007740127039141953,0.0,0.0,0.0,0.0,-0.002620715880766511,0.0017887871945276856,-0.0012355423532426357,0.9994498491287231,0.0,0.0,0.0,20.96739387512207,3.986241102218628,6.925436973571777,-3795.14013671875,0
654.0959999999995,-0.001970096258446574,-0.020529065281152725,-0.0007549524307250977,0.0,0.0,0.0,0.0,0.0008159612771123648,-0.0003928998776245862,0.001713847741484642,1.003096103668213,0.0,0.0,0.0,20.955724716186523,4.003663539886475,6.927021026611328,-3793.028076171875,0
664.0069999999996,-0.0017642461461946368,-0.020730914548039436,-0.0007241462008096278,0.0,0.0,0.0,0.0,0.0014792497968301177,-0.001401657471433282,0.0011869509471580386,1.0013725757598877,0.0,0.0,0.0,20.967615127563477,3.931180953979492,6.959391117095947,-3795.179931640625,0
673.9179999999997,-0.0017683904152363539,-0.020659487694501877,-0.0006961525068618357,0.0,0.0,0.0,0.0,0.003010362619534135,0.0010011706035584211,-0.0009030569926835597,1.0007308721542358,0.0,0.0,0.0,20.956565856933594,3.9500396251678467,6.976254463195801,-3793.18017578125,0
683.8259999999991,-0.0017580933636054397,-0.020796606317162514,-0.000741500174626708,0.0,0.0,0.0,0.0,-0.0031579441856592894,-0.0023905367124825716,0.0026190245989710093,0.9985162615776062,0.0,0.0,0.0,20.966455459594727,3.9205188751220703,6.957401275634766,-3794.970458984375,0
693.7469999999994,-0.0017421575030311942,-0.02066667005419731,-0.0007231138879433274,0.0,0.0,0.0,0.0,0.0022047432139515877,0.00037553455331362784,2.7856412998517044e-06,0.9998300671577454,0.0,0.0,0.0,20.958518981933594,3.948835611343384,6.966370582580566,-3793.53369140625,0
703.6439999999984,-0.001712712342850864,-0.020787429064512253,-0.0007483449298888445,0.0,0.0,0.0,0.0,0.0007157938089221716,-0.002159299561753869,-0.0008999349665828049,0.9987742900848389,0.0,0.0,0.0,20.969236373901367,3.9264943599700928,6.9618916511535645,-3795.4736328125,0
713.5589999999993,-0.0016839206218719482,-0.020687228068709373,-0.0007688936893828213,0.0,0.0,0.0,0.0,0.003256907919421792,-0.00033563855686224997,-0.002637068275362253,0.9985643029212952,0.0,0.0,0.0,20.971420288085938,3.9409821033477783,6.975030899047852,-3795.869140625,0
723.4709999999995,-0.0017604160821065307,-0.020741378888487816,-0.0007988475845195353,0.0,0.0,0.0,0.0,-0.0022790301591157913,0.00392638985067606,0.0016797116259112954,1.0008646249771118,0.0,0.0,0.0,20.978517532348633,3.931750774383545,6.957601070404053,-3797.1533203125,0
733.3829999999998,-0.001761988503858447,-0.020639387890696526,-0.0007839190075173974,0.0,0.0,0.0,0.0,0.0018099702429026365,-0.0014436381170526147,0.0030558586586266756,1.0012539625167847,0.0,0.0,0.0,20.97182273864746,3.957771062850952,6.967923164367676,-3795.94189453125,0
743.2950000000001,-0.0017958745593205094,-0.02067684195935726,-0.0007761821034364402,0.0,0.0,0.0,0.0,0.0012691988376900554,-0.005389524158090353,0.00030335222254507244,1.0007269382476807,0.0,0.0,0.0,20.95220947265625,3.950174570083618,6.965007781982422,-3792.3916015625,0
753.2099999999991,-0.0018242609221488237,-0.020628683269023895,-0.0007429322577081621,0.0,0.0,0.0,0.0,0.0006867596530355513,-0.0008821362862363458,-0.002085284562781453,0.9991157054901123,0.0,0.0,0.0,20.955121994018555,3.9591612815856934,6.9696502685546875,-3792.9189453125,0
763.1279999999988,-0.0018604733049869537,-0.020664608106017113,-0.0007307956111617386,0.0,0.0,0.0,0.0,0.0017934890929609537,-0.0027963558677583933,-0.00113613810390234,1.000352144241333,0.0,0.0,0.0,20.93329620361328,3.952791452407837,6.95555305480957,-3788.96826171875,0
773.0319999999992,-0.0018759469967335463,-0.020554209128022194,-0.0007006732048466802,0.0,0.0,0.0,0.0,-0.003040074137970805,-0.0013741236180067062,0.0004274746752344072,1.0007085800170898,0.0,0.0,0.0,20.923715591430664,3.98226261138916,6.979306221008301,-3787.234130859375,0
782.9409999999989,-0.0017892918549478054,-0.02067609317600727,-0.0007011799607425928,0.0,0.0,0.0,0.0,-0.0006488965009339154,0.0025534294545650482,0.0006599956541322172,0.9999262094497681,0.0,0.0,0.0,20.939453125,3.9438016414642334,6.988019943237305,-3790.08251953125,0
792.8529999999992,-0.001801337581127882,-0.020624684169888496,-0.0006740617100149393,0.0,0.0,0.0,0.0,-0.0021586117800325155,-0.0013155355118215084,0.00033805472776293755,0.9983607530593872,0.0,0.0,0.0,20.942493438720703,3.9600656032562256,6.984038352966309,-3790.633056640625,0
802.7559999999994,-0.0018111501121893525,-0.020744815468788147,-0.0007237084791995585,0.0,0.0,0.0,0.0,0.002241363748908043,0.004888914991170168,0.0015459038550034165,0.9975283741950989,0.0,0.0,0.0,20.953672409057617,3.9403090476989746,6.9674530029296875,-3792.656494140625,0
812.6739999999991,-0.0018512520473450422,-0.02072530798614025,-0.00067798892268911,0.0,0.0,0.0,0.0,0.0018377600936219096,0.0008598243002779782,-0.002338492078706622,0.9992179274559021,0.0,0.0,0.0,20.95136260986328,3.946925640106201,6.96554708480835,-3792.238525390625,0
822.5799999999999,-0.0018855452071875334,-0.020765850320458412,-0.000667878077365458,0.0,0.0,0.0,0.0,0.0021214766893535852,0.0006695553893223405,0.0012009458150714636,0.9979016780853271,0.0,0.0,0.0,20.929872512817383,3.9397597312927246,6.94873046875,-3788.348388671875,0
832.4839999999986,-0.0018740794621407986,-0.02065299265086651,-0.000668099382892251,0.0,0.0,0.0,0.0,-0.00029236372211016715,-0.002036718185991049,0.0007584510603919625,0.9982081651687622,0.0,0.0,0.0,20.929800033569336,3.9660017490386963,6.965616703033447,-3788.33544921875,0
842.402,-0.0018128855153918266,-0.02077779732644558,-0.0006941398023627698,0.0,0.0,0.0,0.0,8.481147233396769e-05,0.004240697715431452,-0.0006227457197383046,0.9979864358901978,0.0,0.0,0.0,20.949886322021484,3.9368817806243896,6.973693370819092,-3791.970947265625,0
852.3149999999987,-0.001800536410883069,-0.020675407722592354,-0.0006924868212081492,0.0,0.0,0.0,0.0,-0.0005746373790316284,0.002019925508648157,0.005168805830180645,1.0023775100708008,0.0,0.0,0.0,20.95018768310547,3.9568591117858887,6.980489253997803,-3792.02587890625,0
862.2439999999988,-0.001825639046728611,-0.020709602162241936,-0.0007083391537889838,0.0,0.0,0.0,0.0,0.0008061575936153531,0.004551031161099672,-0.000255166640272364,1.0017316341400146,0.0,0.0,0.0,20.962663650512695,3.9496381282806396,6.975617408752441,-3794.28369140625,0
872.1279999999988,-0.001822980004362762,-0.020628567785024643,-0.00071239989483729,0.0,0.0,0.0,0.0,0.003199387341737747,-0.00025386488414369524,-0.002864506561309099,1.0025129318237305,0.0,0.0,0.0,20.95294952392578,3.958906650543213,6.9773759841918945,-3792.52587890625,0
882.0439999999999,-0.001859841519035399,-0.020660383626818657,-0.0007072841399349272,0.0,0.0,0.0,0.0,-0.0021915396209806204,-0.00038525680429302156,0.000219756766455248,0.9998809099197388,0.0,0.0,0.0,20.93121910095215,3.9549436569213867,6.9539103507995605,-3788.59228515625,0
891.9439999999995,-0.0018740660743787885,-0.0205881055444479,-0.0006933262338861823,0.0,0.0,0.0,0.0,0.0004882503126282245,-0.007512753829360008,-0.001674025785177946,1.0012109279632568,0.0,0.0,0.0,20.935359954833984,3.9747793674468994,6.963935852050781,-3789.341796875,0
901.866,-0.0017206806223839521,-0.020752647891640663,-0.0006968172965571284,0.0,0.0,0.0,0.0,0.0014139850391075015,0.003965051379054785,-0.0035476740449666977,1.0009626150131226,0.0,0.0,0.0,20.948286056518555,3.9272077083587646,6.977830410003662,-3791.681640625,0
911.7649999999994,-0.0017216423293575644,-0.02064511924982071,-0.0006667303969152272,0.0,0.0,0.0,0.0,-0.002189976628869772,0.0013845874927937984,-0.0036781083326786757,0.9997349977493286,0.0,0.0,0.0,20.945138931274414,3.9495885372161865,6.998637676239014,-3791.112060546875,0
921.6839999999993,-0.001688694697804749,-0.020778164267539978,-0.0007087530684657395,0.0,0.0,0.0,0.0,-0.0015507531352341175,-8.997337863547727e-05,-0.0011542693246155977,0.999488890171051,0.0,0.0,0.0,20.9603271484375,3.921584129333496,6.980042457580566,-3793.861083984375,0
931.5900000000001,-0.0016496536554768682,-0.020641831681132317,-0.0007300983415916562,0.0,0.0,0.0,0.0,0.0013390530366450548,-0.0008291061385534704,-0.00018511732923798263,1.0005772113800049,0.0,0.0,0.0,20.965478897094727,3.9474480152130127,6.988410472869873,-3794.793701171875,0
941.5069999999996,-0.0016820062883198261,-0.02067767269909382,-0.0007252137293107808,0.0,0.0,0.0,0.0,0.0005450857570394874,-0.0019736257381737232,0.003712516976520419,0.9988920092582703,0.0,0.0,0.0,20.94500732421875,3.943007707595825,6.986563682556152,-3791.087890625,0
951.4099999999999,-0.0016872549895197153,-0.020625902339816093,-0.0007261395221576095,0.0,0.0,0.0,0.0,0.0014426489360630512,0.0034028480295091867,0.0008886898285709321,0.9994413256645203,0.0,0.0,0.0,20.94976234436035,3.955512046813965,7.000814437866211,-3791.94873046875,0
961.3269999999993,-0.0017556914826855063,-0.020710427314043045,-0.0008047922747209668,0.0,0.0,0.0,0.0,-0.0017127974424511194,0.0016532676527276635,-0.0013635042123496532,0.998593270778656,0.0,0.0,0.0,20.9633846282959,3.9413695335388184,6.974707126617432,-3794.414306640625,0
971.2339999999986,-0.001734436838887632,-0.020596258342266083,-0.0008211316308006644,0.0,0.0,0.0,0.0,0.00045286567183211446,0.004666604567319155,-0.000877282815054059,0.9985106587409973,0.0,0.0,0.0,20.959054946899414,3.9602160453796387,6.98488712310791,-3793.630859375,0
981.1489999999994,-0.0017625662731006742,-0.020674262195825577,-0.0008654849953018129,0.0,0.0,0.0,0.0,0.001564216916449368,0.0015345698921009898,-0.002909202128648758,0.9984788298606873,0.0,0.0,0.0,20.968250274658203,3.947798728942871,6.9757981300354,-3795.295166015625,0
991.0540000000001,-0.0017628258792683482,-0.020578032359480858,-0.0008725913357920945,0.0,0.0,0.0,0.0,-0.0007890750421211123,0.0028976716566830873,-0.0018685293616726995,0.9998831152915955,0.0,0.0,0.0,20.961376190185547,3.963340997695923,6.969100475311279,-3794.05078125,0
1000.9719999999998,-0.0018385712755843997,-0.020621029660105705,-0.0009155164589174092,0.0,0.0,0.0,0.0,-0.00011959303810726851,0.003331881482154131,-0.0007144490955397487,0.9969760179519653,0.0,0.0,0.0,20.969093322753906,3.959031343460083,6.943535327911377,-3795.447509765625,0
1010.8829999999998,-0.0018369355238974094,-0.02051497995853424,-0.0009311208268627524,0.0,0.0,0.0,0.0,-0.0015958647709339857,-0.0027066210750490427,-0.002652490511536598,1.0003156661987305,0.0,0.0,0.0,20.97151756286621,3.9764578342437744,6.947200298309326,-3795.88623046875,0
1020.7939999999999,-0.0017733677523210645,-0.02062631957232952,-0.0009652664884924889,0.0,0.0,0.0,0.0,0.0015872815856710076,-0.00010802195902215317,-0.00444543594494462,1.000849723815918,0.0,0.0,0.0,20.979854583740234,3.9580390453338623,6.942956924438477,-3797.3955078125,0
1030.699999999999,-0.0018052252708002925,-0.020588774234056473,-0.0009673129534348845,0.0,0.0,0.0,0.0,0.0003317155933473259,-0.0004550361481960863,0.0003499551967252046,0.9996873736381531,0.0,0.0,0.0,20.978853225708008,3.961789608001709,6.946708679199219,-3797.214111328125,0
1040.6229999999996,-0.00175173906609416,-0.020657407119870186,-0.00097962177824229,0.0,0.0,0.0,0.0,-0.004543572664260864,0.0014529806794598699,-0.0019683402497321367,0.9977541565895081,0.0,0.0,0.0,20.99005126953125,3.9547030925750732,6.940133094787598,-3799.2412109375,0
1050.5299999999988,-0.001781679573468864,-0.02060825377702713,-0.0009756101062521338,0.0,0.0,0.0,0.0,0.003328668884932995,-0.0022537517361342907,0.00018490583170205355,1.0004445314407349,0.0,0.0,0.0,20.993335723876953,3.966693639755249,6.95413875579834,-3799.83544921875,0
1060.4449999999997,-0.0018245080718770623,-0.020650655031204224,-0.000988056999631226,0.0,0.0,0.0,0.0,0.0007609626045450568,0.0007149550947360694,0.0017489048186689615,1.0013654232025146,0.0,0.0,0.0,20.97268295288086,3.9656100273132324,6.9515700340271,-3796.097412109375,0
1070.3369999999995,-0.0018423061119392514,-0.020532630383968353,-0.0009739933302626014,0.0,0.0,0.0,0.0,0.0004808931262232363,-0.0011984158772975206,-0.003127276198938489,1.0013728141784668,0.0,0.0,0.0,20.973968505859375,3.9946446418762207,6.962187767028809,-3796.329833984375,0
1080.2549999999992,-0.0016941505018621683,-0.020678482949733734,-0.000974985130596906,0.0,0.0,0.0,0.0,0.0008623029571026564,0.0009775594808161259,-0.0041426001116633415,1.0007916688919067,0.0,0.0,0.0,20.98223114013672,3.9527857303619385,6.973836421966553,-3797.82568359375,0
1090.164999999999,-0.001758194761350751,-0.020650193095207214,-0.0009090884122997522,0.0,0.0,0.0,0.0,-0.0008380351937375963,-0.004395471420139074,0.00028110743733122945,0.9998277425765991,0.0,0.0,0.0,20.98346519470215,3.962360382080078,6.965571880340576,-3798.049072265625,0
1100.08,-0.0017467431025579572,-0.020710628479719162,-0.0009202227229252458,0.0,0.0,0.0,0.0,0.0009482489549554884,-0.0016875684959813952,-0.002292999532073736,1.000045895576477,0.0,0.0,0.0,20.99608612060547,3.9481284618377686,6.964500427246094,-3800.33349609375,0
1109.9799999999996,-0.0017802444053813815,-0.020633485168218613,-0.0008780962671153247,0.0,0.0,0.0,0.0,-0.0006294589256867766,-0.0011084270663559437,0.002427324652671814,0.9987735152244568,0.0,0.0,0.0,20.985618591308594,3.9717323780059814,6.97190523147583,-3798.438720703125,0
1119.896999999999,-0.0018214982701465487,-0.020675091072916985,-0.0008744923979975283,0.0,0.0,0.0,0.0,0.0041821361519396305,0.0014144532615318894,0.0012308283476158977,0.9993481636047363,0.0,0.0,0.0,20.964035034179688,3.9686553478240967,6.966008186340332,-3794.531982421875,0
1129.807999999999,-0.0018739929655566812,-0.02065715566277504,-0.0008331953431479633,0.0,0.0,0.0,0.0,-0.0007741089211776853,0.0014037424698472023,0.004381103441119194,0.9980702996253967,0.0,0.0,0.0,20.962617874145508,3.982952356338501,6.965438365936279,-3794.275634765625,0
1139.7209999999995,-0.0017976099625229836,-0.02075141668319702,-0.0008253893465735018,0.0,0.0,0.0,0.0,0.0017751021077856421,0.000764683005400002,0.0011881181271746755,0.9988209009170532,0.0,0.0,0.0,20.975994110107422,3.9465246200561523,6.964795112609863,-3796.696533203125,0
1149.6239999999998,-0.0018107038922607899,-0.02066897042095661,-0.0008024742710404098,0.0,0.0,0.0,0.0,-0.001032893662340939,-0.0025620709639042616,0.00023304365458898246,0.9999603033065796,0.0,0.0,0.0,20.975799560546875,3.961787223815918,6.971584320068359,-3796.661376953125,0
1159.539999999999,-0.0018499369034543633,-0.02070905826985836,-0.0007969469879753888,0.0,0.0,0.0,0.0,0.002191058127209544,0.003950413782149553,-0.0006288212025538087,0.99828040599823,0.0,0.0,0.0,20.954410552978516,3.9539992809295654,6.956954479217529,-3792.790283203125,0
1169.446,-0.0018705142429098487,-0.02062898688018322,-0.0007696222746744752,0.0,0.0,0.0,0.0,-6.18765625404194e-05,-0.00013365785707719624,0.004193832166492939,0.9990645051002502,0.0,0.0,0.0,20.959840774536133,3.9711296558380127,6.96229362487793,-3793.77294921875,0
1179.3709999999992,-0.0017924930434674025,-0.020751265808939934,-0.0007847478264011443,0.0,0.0,0.0,0.0,-0.0005359465721994638,0.005420345813035965,-0.0013342517195269465,0.9993471503257751,0.0,0.0,0.0,20.97566032409668,3.9382519721984863,6.97214412689209,-3796.636474609375,0
1189.2709999999988,-0.0018010862404480577,-0.020666196942329407,-0.0007604011916555464,0.0,0.0,0.0,0.0,0.00013461447088047862,-0.0051686642691493034,0.003516558324918151,0.999404788017273,0.0,0.0,0.0,20.97547721862793,3.959907293319702,6.980381011962891,-3796.60302734375,0
1199.1889999999985,-0.0017129314364865422,-0.020772630348801613,-0.0007685483433306217,0.0,0.0,0.0,0.0,0.0016642663395032287,0.0012976191937923431,-0.003022850723937154,0.999559223651886,0.0,0.0,0.0,20.98501205444336,3.9379184246063232,6.982145309448242,-3798.3291015625,0
1209.0949999999993,-0.001734014367684722,-0.020706525072455406,-0.0007393932901322842,0.0,0.0,0.0,0.0,-0.0013478606706485152,-0.000698740768712014,-0.000635251693893224,1.0010828971862793,0.0,0.0,0.0,20.98423957824707,3.952526569366455,6.9880523681640625,-3798.189208984375,0
1219.0149999999994,-0.0017690882086753845,-0.020742196589708328,-0.0007336480193771422,0.0,0.0,0.0,0.0,7.877564712543972e-06,-0.0014959435211494565,-0.006075784098356962,0.9981491565704346,0.0,0.0,0.0,20.962120056152344,3.9508519172668457,6.989850044250488,-3794.185546875,0
1228.9099999999999,-0.0017615343676880002,-0.020644813776016235,-0.0007374986889772117,0.0,0.0,0.0,0.0,0.00019734470697585493,0.000975585775449872,-0.00015590859402436763,0.9977055788040161,0.0,0.0,0.0,20.962533950805664,3.970980644226074,6.999405860900879,-3794.260498046875,0
1238.8319999999985,-0.001795350108295679,-0.0206757839769125,-0.0007330654771067202,0.0,0.0,0.0,0.0,-0.0008516988600604236,0.0011279662139713764,-0.0006537765730172396,1.000008225440979,0.0,0.0,0.0,20.94157600402832,3.969435691833496,6.99607515335083,-3790.466796875,0
1248.735999999999,-0.0018267687410116196,-0.02061486430466175,-0.0006979755708016455,0.0,0.0,0.0,0.0,-0.001993361860513687,-0.001808980363421142,8.228470687754452e-05,0.9984078407287598,0.0,0.0,0.0,20.93361473083496,3.988377571105957,6.999596118927002,-3789.025634765625,0
1258.652,-0.0017914925701916218,-0.02073575183749199,-0.000750725157558918,0.0,0.0,0.0,0.0,-0.0017344200750812888,-0.002585552865639329,-0.0023667854256927967,0.999578595161438,0.0,0.0,0.0,20.94878578186035,3.957007884979248,6.989462375640869,-3791.77197265625,0
1268.5529999999999,-0.0017823708476498723,-0.02061450481414795,-0.0007369971135631204,0.0,0.0,0.0,0.0,-0.0024039167910814285,0.002628244226798415,-0.0007046923856250942,1.0006026029586792,0.0,0.0,0.0,20.93906593322754,3.9850473403930664,7.009402751922607,-3790.0126953125,0
1278.4749999999985,-0.001815633149817586,-0.020643500611186028,-0.0007358090369962156,0.0,0.0,0.0,0.0,0.00023688332294113934,-0.0018294845940545201,0.006173323839902878,1.0008803606033325,0.0,0.0,0.0,20.917768478393555,3.9781301021575928,6.997103214263916,-3786.15771484375,0
1288.3739999999998,-0.0018286955310031772,-0.020548304542899132,-0.0007109165890142322,0.0,0.0,0.0,0.0,0.0005766068934462965,0.0010848682140931487,0.0008971825591288507,1.0009225606918335,0.0,0.0,0.0,20.915103912353516,4.007177352905273,7.008065700531006,-3785.675537109375,0
1298.2919999999995,-0.001864199759438634,-0.02057398483157158,-0.000705969927366823,0.0,0.0,0.0,0.0,0.0005854072514921427,0.0023186970502138138,0.002305730013176799,1.001866340637207,0.0,0.0,0.0,20.895179748535156,4.00928258895874,7.00399112701416,-3782.0693359375,0
1308.196,-0.001864503137767315,-0.020475076511502266,-0.0007104873657226562,0.0,0.0,0.0,0.0,0.0015617096796631813,0.0029535796493291855,-0.0003633708693087101,1.0001522302627563,0.0,0.0,0.0,20.891056060791016,4.036348342895508,7.027890205383301,-3781.32275390625,0
1318.1219999999994,-0.0017875722842290998,-0.02062932774424553,-0.0007657730020582676,0.0,0.0,0.0,0.0,-0.0013696973910555243,0.002426337217912078,0.0020997209940105677,1.0001542568206787,0.0,0.0,0.0,20.90871810913086,3.978264093399048,7.014982223510742,-3784.51953125,0
1328.0189999999984,-0.0017695582937449217,-0.02053011581301689,-0.0007716346881352365,0.0,0.0,0.0,0.0,-0.001729500712826848,0.0010299470741301775,-0.0023025544360280037,0.999016523361206,0.0,0.0,0.0,20.90534210205078,4.00100040435791,7.027472019195557,-3783.90869140625,0
1337.938,-0.0017972594359889627,-0.020556548610329628,-0.0007692502695135772,0.0,0.0,0.0,0.0,0.0018341678660362959,-0.0008942135027609766,0.003018539398908615,0.9999722242355347,0.0,0.0,0.0,20.884368896484375,3.995445966720581,7.014394760131836,-3780.112060546875,0
1347.842999999999,-0.0018007323378697038,-0.020509766414761543,-0.0007760124863125384,0.0,0.0,0.0,0.0,0.001841035671532154,-0.0016438941238448024,0.0015880687860772014,0.9996209740638733,0.0,0.0,0.0,20.893461227416992,4.00424337387085,7.040060520172119,-3781.75830078125,0
1357.7689999999984,-0.0018295081099495292,-0.02053537406027317,-0.0007744872127659619,0.0,0.0,0.0,0.0,-0.00044563174014911056,5.453931953525171e-05,0.004743837285786867,1.0010838508605957,0.0,0.0,0.0,20.87372398376465,4.002318859100342,7.0297627449035645,-3778.185546875,0
1367.6599999999999,-0.0018634350271895528,-0.020510505884885788,-0.0007390107493847609,0.0,0.0,0.0,0.0,-0.00020777135796379298,0.0010306233307346702,-0.002361225662752986,1.0007811784744263,0.0,0.0,0.0,20.883554458618164,4.013128280639648,7.025388240814209,-3779.964599609375,0
1377.5819999999985,-0.0017877600621432066,-0.020622150972485542,-0.0007579469820484519,0.0,0.0,0.0,0.0,0.0001285800099140033,0.000751060142647475,-0.0021194634027779102,0.9994953870773315,0.0,0.0,0.0,20.901378631591797,3.9776289463043213,7.026963233947754,-3783.19091796875,0
1387.4879999999994,-0.0018034579697996378,-0.020590443164110184,-0.0007396361324936152,0.0,0.0,0.0,0.0,0.003416656982153654,-0.001346323057077825,1.4109340554568917e-05,0.998833179473877,0.0,0.0,0.0,20.893625259399414,3.976243257522583,7.016491413116455,-3781.787841796875,0
1397.4079999999994,-0.0018461307045072317,-0.020658215507864952,-0.0007880851626396179,0.0,0.0,0.0,0.0,0.002020722022280097,-0.0007468225085176528,0.0022268868051469326,1.0014891624450684,0.0,0.0,0.0,20.910850524902344,3.9653730392456055,7.000351905822754,-3784.905517578125,0
1407.304,-0.0018541495082899928,-0.020609214901924133,-0.0007817513542249799,0.0,0.0,0.0,0.0,0.002464891644194722,0.0027661421336233616,0.0023796395398676395,0.9994542002677917,0.0,0.0,0.0,20.90557289123535,3.971895933151245,6.99626350402832,-3783.9501953125,0
1417.2289999999994,-0.0018375159706920385,-0.02065977081656456,-0.0007902720826677978,0.0,0.0,0.0,0.0,-0.0009113247506320477,-1.2645774404518306e-05,0.00375036196783185,0.9976593255996704,0.0,0.0,0.0,20.920169830322266,3.9628372192382812,6.994190216064453,-3786.592041015625,0
1427.125,-0.001800740952603519,-0.02053770050406456,-0.0008196955313906074,0.0,0.0,0.0,0.0,0.0016231660265475512,-0.0010980352526530623,-0.0004951473092660308,1.0005905628204346,0.0,0.0,0.0,20.91720962524414,3.975262403488159,6.997821807861328,-3786.056396484375,0
1437.0439999999999,-0.0018121046014130116,-0.020616548135876656,-0.0008570484933443367,0.0,0.0,0.0,0.0,-0.000249053118750453,0.004836288746446371,-0.00202542869374156,1.000226616859436,0.0,0.0,0.0,20.934886932373047,3.9601597785949707,6.983240127563477,-3789.25634765625,0
1446.9519999999993,-0.0018086092313751578,-0.020558685064315796,-0.0008745065424591303,0.0,0.0,0.0,0.0,0.0023179929703474045,0.0004178026574663818,-0.0016860434552654624,1.0005799531936646,0.0,0.0,0.0,20.93488121032715,3.969136953353882,6.982111930847168,-3789.255126953125,0
1456.8729999999996,-0.0017474271589890122,-0.02065625600516796,-0.0008954099612310529,0.0,0.0,0.0,0.0,-0.0014385129325091839,-0.004471579100936651,-0.0004989620647393167,1.0002644062042236,0.0,0.0,0.0,20.953081130981445,3.942387342453003,6.981368541717529,-3792.549560546875,0
1466.768,-0.0017921089893206954,-0.02064293622970581,-0.0008604458998888731,0.0,0.0,0.0,0.0,-0.0009696129127405584,0.0008232477121055126,-0.0017603904707357287,1.0002365112304688,0.0,0.0,0.0,20.94662857055664,3.9493155479431152,6.968189239501953,-3791.38134765625,0
1476.6939999999995,-0.0017813158920034766,-0.02072858437895775,-0.0008870306774042547,0.0,0.0,0.0,0.0,-0.00021691976871807128,0.00219104066491127,-0.0007210334297269583,0.9980219006538391,0.0,0.0,0.0,20.960235595703125,3.9407637119293213,6.961014747619629,-3793.844482421875,0
1486.5900000000001,-0.0018061527516692877,-0.02068503014743328,-0.0008646529167890549,0.0,0.0,0.0,0.0,-0.001190507085993886,0.004672553390264511,0.0011344878003001213,1.0009329319000244,0.0,0.0,0.0,20.95499610900879,3.953758478164673,6.954642295837402,-3792.89599609375,0
1496.5119999999988,-0.0017122833523899317,-0.02078760229051113,-0.0008686059154570103,0.0,0.0,0.0,0.0,0.0017189609352499247,0.0024478251580148935,-0.003917804919183254,1.0030102729797363,0.0,0.0,0.0,20.970211029052734,3.9287514686584473,6.941134452819824,-3795.650146484375,0
1506.4119999999984,-0.0017777204047888517,-0.020776968449354172,-0.0008019921951927245,0.0,0.0,0.0,0.0,-0.001691392040811479,-6.754411879228428e-05,0.0015884523745626211,0.9999527931213379,0.0,0.0,0.0,20.96538543701172,3.935356855392456,6.928325176239014,-3794.776611328125,0
1516.3319999999985,-0.0016704557929188013,-0.02083684131503105,-0.0007659017574042082,0.0,0.0,0.0,0.0,-0.0019447780214250088,0.0014683514600619674,-0.0008320699562318623,0.9971709251403809,0.0,0.0,0.0,20.979745864868164,3.9160964488983154,6.924466609954834,-3797.37548828125,0
1526.2389999999996,-0.0016825994243845344,-0.02076140232384205,-0.0007341002346947789,0.0,0.0,0.0,0.0,-0.000560300366487354,-0.00350405415520072,0.0027958755381405354,0.999918520450592,0.0,0.0,0.0,20.981908798217773,3.9388370513916016,6.935306072235107,-3797.767333984375,0
1536.1569999999992,-0.0017439948860555887,-0.0208450760692358,-0.0007663769065402448,0.0,0.0,0.0,0.0,-0.0007634658832103014,0.0003798239922616631,-0.0017502179834991693,1.0002027750015259,0.0,0.0,0.0,20.99172019958496,3.927037239074707,6.9221906661987305,-3799.54296875,0
1546.057999999999,-0.0017380882054567337,-0.020748667418956757,-0.0007579658995382488,0.0,0.0,0.0,0.0,0.0030475894454866648,-0.001412050798535347,0.004921827930957079,1.0004819631576538,0.0,0.0,0.0,20.980459213256836,3.9519245624542236,6.935770034790039,-3797.505126953125,0
1555.9779999999992,-0.001783528015948832,-0.02080266736447811,-0.0007708572084084153,0.0,0.0,0.0,0.0,0.0008519644616171718,0.004412813112139702,0.003874738933518529,1.0005742311477661,0.0,0.0,0.0,20.988815307617188,3.940711498260498,6.927847862243652,-3799.017333984375,0
1565.8799999999992,-0.0017324535874649882,-0.02064940519630909,-0.0008044416317716241,0.0,0.0,0.0,0.0,-0.004236490931361914,0.0015256161568686366,2.8681793992291205e-05,1.0003787279129028,0.0,0.0,0.0,20.980865478515625,3.968937873840332,6.954121112823486,-3797.57861328125,0
1575.7999999999993,-0.0017581229330971837,-0.02070784755051136,-0.0008185509359464049,0.0,0.0,0.0,0.0,0.0009022776503115892,0.0013924108352512121,-0.004954289644956589,0.9989206790924072,0.0,0.0,0.0,20.993412017822266,3.9606380462646484,6.93323278427124,-3799.84912109375,0
1585.6979999999985,-0.0017555676167830825,-0.02065267600119114,-0.0008305168012157083,0.0,0.0,0.0,0.0,-0.0022467314265668392,0.003426279639825225,-0.0005312769208103418,0.9992824792861938,0.0,0.0,0.0,20.99392318725586,3.9722986221313477,6.930110454559326,-3799.94189453125,0
1595.616,-0.001851971261203289,-0.02069264091551304,-0.0008630109950900078,0.0,0.0,0.0,0.0,0.00029900422669015825,0.002052714815363288,0.0021116684656590223,0.9991251230239868,0.0,0.0,0.0,20.997814178466797,3.9741923809051514,6.913271427154541,-3800.64599609375,0
1605.5199999999986,-0.001871835091151297,-0.0206326711922884,-0.0008489396423101425,0.0,0.0,0.0,0.0,0.001985064707696438,0.0009178115869872272,-0.003231626935303211,0.9985828399658203,0.0,0.0,0.0,20.998138427734375,3.991081953048706,6.9147725105285645,-3800.70458984375,0
1615.4389999999985,-0.0018450558418408036,-0.02070452831685543,-0.0008558639092370868,0.0,0.0,0.0,0.0,0.0049546463415026665,0.0013866940280422568,0.002861584536731243,0.9987059235572815,0.0,0.0,0.0,21.011911392211914,3.9678404331207275,6.9121270179748535,-3803.19775390625,0
1625.342999999999,-0.0018668723059818149,-0.02064637467265129,-0.0008409867878071964,0.0,0.0,0.0,0.0,0.001343065989203751,-0.004483384545892477,0.0004666888271458447,0.9992315769195557,0.0,0.0,0.0,21.01327133178711,3.9805409908294678,6.9140305519104,-3803.443603515625,0
1635.2599999999984,-0.0018986507784575224,-0.020713239908218384,-0.0008638823055662215,0.0,0.0,0.0,0.0,-0.003328490536659956,-0.003915719222277403,0.0016066457610577345,0.9993859529495239,0.0,0.0,0.0,21.018112182617188,3.9689416885375977,6.9036407470703125,-3804.320068359375,0
1645.17,-0.0019132993184030056,-0.020639585331082344,-0.0008578621782362461,0.0,0.0,0.0,0.0,0.001429928233847022,-0.0011420703958719969,-0.0007983919349499047,1.0008130073547363,0.0,0.0,0.0,21.017210006713867,3.985424757003784,6.919558048248291,-3804.15673828125,0
1655.0879999999997,-0.001791863702237606,-0.02073521912097931,-0.0008420401718467474,0.0,0.0,0.0,0.0,0.0020921872928738594,-0.00020820139616262168,0.00042887069866992533,1.0008150339126587,0.0,0.0,0.0,21.028432846069336,3.9655284881591797,6.9218292236328125,-3806.188232421875,0
1664.9879999999994,-0.0017649144865572453,-0.02061650902032852,-0.0008670366369187832,0.0,0.0,0.0,0.0,-0.001470394665375352,-0.00664338655769825,0.0035251060035079718,0.9999256134033203,0.0,0.0,0.0,21.01624298095703,3.9875006675720215,6.940465450286865,-3803.981689453125,0
1674.9039999999986,-0.0016254851361736655,-0.020738352090120316,-0.0008621634333394468,0.0,0.0,0.0,0.0,0.001899193273857236,0.0009488070500083268,0.00022800583974458277,0.9994398355484009,0.0,0.0,0.0,21.026126861572266,3.9557976722717285,6.955281734466553,-3805.7705078125,0
1684.8059999999987,-0.0016329253558069468,-0.020654255524277687,-0.000849147152621299,0.0,0.0,0.0,0.0,-0.004619224462658167,0.0017614439129829407,0.0018594387220218778,1.0006922483444214,0.0,0.0,0.0,21.020843505859375,3.975158929824829,6.973172187805176,-3804.814208984375,0
1694.7279999999992,-0.0016699563711881638,-0.02074919082224369,-0.00088875787332654,0.0,0.0,0.0,0.0,-0.00021992340043652803,-0.00040128969703800976,-0.0029737548902630806,0.9991975426673889,0.0,0.0,0.0,21.02859878540039,3.960561513900757,6.95197057723999,-3806.21826171875,0
1704.634,-0.0016833922127261758,-0.020690828561782837,-0.0008850392769090831,0.0,0.0,0.0,0.0,-0.0008208705694414675,0.0034513287246227264,-0.0008827735437080264,0.998822808265686,0.0,0.0,0.0,21.032955169677734,3.976863145828247,6.962040901184082,-3807.0068359375,0
1714.5499999999993,-0.001724878209643066,-0.02074236422777176,-0.0008857924840413034,0.0,0.0,0.0,0.0,1.9150202206219546e-05,0.002182259224355221,0.0014634712133556604,0.999435544013977,0.0,0.0,0.0,21.0108699798584,3.975379705429077,6.956124782562256,-3803.00927734375,0
1724.450999999999,-0.0017741050105541945,-0.020686376839876175,-0.0008368699345737696,0.0,0.0,0.0,0.0,-0.0007729503558948636,-0.0041301436722278595,0.00029226698097772896,1.0012915134429932,0.0,0.0,0.0,21.012617111206055,4.000146389007568,6.953148365020752,-3803.3251953125,0
1734.3759999999984,-0.0017319933976978064,-0.020772479474544525,-0.0008383509702980518,0.0,0.0,0.0,0.0,0.001082122791558504,-0.0010951770236715674,0.00040166848339140415,1.001379132270813,0.0,0.0,0.0,21.019752502441406,3.978475570678711,6.953824043273926,-3804.616943359375,0
1744.2739999999994,-0.0017608061898499727,-0.02070862054824829,-0.0008020243258215487,0.0,0.0,0.0,0.0,0.0002927590976469219,0.003913454711437225,0.00026954468921758235,1.000792145729065,0.0,0.0,0.0,21.01679229736328,4.000702857971191,6.97119665145874,-3804.081298828125,0
1754.1929999999993,-0.0018038083799183369,-0.020758142694830894,-0.0007936437614262104,0.0,0.0,0.0,0.0,-0.00039892748463898897,-0.002417950425297022,0.0007043924415484071,1.000564455986023,0.0,0.0,0.0,20.99593162536621,3.9960813522338867,6.96812105178833,-3800.30517578125,0
1764.0919999999987,-0.0018566722283139825,-0.020693862810730934,-0.000719563802704215,0.0,0.0,0.0,0.0,0.0015559719176962972,0.0007881909259594977,-0.00048168859211727977,0.9979286789894104,0.0,0.0,0.0,20.98602867126465,4.025309085845947,6.9678192138671875,-3798.512939453125,0
1774.021999999999,-0.0017664365004748106,-0.020835043862462044,-0.0007165974820964038,0.0,0.0,0.0,0.0,0.0005381785449571908,0.0015945727936923504,0.004927258472889662,0.9992537498474121,0.0,0.0,0.0,20.993974685668945,3.982896089553833,6.971437454223633,-3799.951416015625,0
1783.9159999999993,-0.0017547521274536848,-0.020733416080474854,-0.0007080112700350583,0.0,0.0,0.0,0.0,0.0018702128436416388,0.0007563004619441926,-0.0015982820186764002,1.0003026723861694,0.0,0.0,0.0,20.994054794311523,4.002327919006348,6.985467433929443,-3799.9658203125,0
1793.8369999999995,-0.001762684783898294,-0.02080824039876461,-0.0007180474349297583,0.0,0.0,0.0,0.0,-0.0009313233313150704,0.0043516927398741245,-0.00043583224760368466,0.9992007613182068,0.0,0.0,0.0,21.01019859313965,3.9861972332000732,6.975370407104492,-3802.8876953125,0
1803.744999999999,-0.001759692095220089,-0.020724207162857056,-0.0007124404073692858,0.0,0.0,0.0,0.0,-0.000648289977107197,-0.005180313251912594,-0.0017881699604913592,1.0015240907669067,0.0,0.0,0.0,20.997774124145508,4.004212856292725,6.981642246246338,-3800.638916015625,0
1813.6529999999984,-0.0018060649745166302,-0.020789694041013718,-0.0007323906756937504,0.0,0.0,0.0,0.0,0.0005124525632709265,-0.002302945824339986,0.0012241295771673322,0.9986057877540588,0.0,0.0,0.0,21.00495147705078,4.0049333572387695,6.976210594177246,-3801.938232421875,0
1823.5689999999995,-0.0017479368252679706,-0.020627055317163467,-0.0007780374144203961,0.0,0.0,0.0,0.0,0.0021810608450323343,0.0004031673597637564,-0.0006361242849379778,0.9975312352180481,0.0,0.0,0.0,21.00718879699707,4.031201362609863,6.999096870422363,-3802.343017578125,0
1833.4799999999996,-0.0017521159024909139,-0.020700078457593918,-0.0007943011587485671,0.0,0.0,0.0,0.0,-0.001294462475925684,-0.0003409695054870099,0.0006366420420818031,0.9975644946098328,0.0,0.0,0.0,21.01779556274414,4.016604900360107,6.998910427093506,-3804.2626953125,0
1843.387999999999,-0.0017289872048422694,-0.020579388365149498,-0.0008174078539013863,0.0,0.0,0.0,0.0,0.00025696339434944093,0.0019027572125196457,-0.0003378562396392226,1.0004112720489502,0.0,0.0,0.0,21.02122688293457,4.037020683288574,7.005866050720215,-3804.884033203125,0
1853.3029999999999,-0.001751918694935739,-0.020672600716352463,-0.0008591617806814611,0.0,0.0,0.0,0.0,-0.0017418104689568281,-0.0033034200314432383,0.003705570474267006,1.0029933452606201,0.0,0.0,0.0,21.028156280517578,4.026569843292236,6.989576816558838,-3806.13818359375,0
1863.2069999999985,-0.0017156568355858326,-0.020558325573801994,-0.000915581127628684,0.0,0.0,0.0,0.0,0.000951089954469353,0.0029275419656187296,0.003137800144031644,1.000925898551941,0.0,0.0,0.0,21.036680221557617,4.051817893981934,7.019516944885254,-3807.680908203125,0
1873.1189999999988,-0.0017576010432094336,-0.02059943787753582,-0.0009215730242431164,0.0,0.0,0.0,0.0,0.003922782838344574,0.002519548637792468,-0.0029118575621396303,0.9993579387664795,0.0,0.0,0.0,21.016780853271484,4.0521769523620605,7.016717910766602,-3804.078857421875,0
1883.0289999999986,-0.001787530374713242,-0.020515598356723785,-0.0008937675156630576,0.0,0.0,0.0,0.0,0.00025473287678323686,0.003823067294433713,0.0026451528538018465,0.9995488524436951,0.0,0.0,0.0,21.008258819580078,4.073254585266113,7.018924236297607,-3802.53662109375,0
1892.9439999999995,-0.0018323574913665652,-0.020554473623633385,-0.0008952579228207469,0.0,0.0,0.0,0.0,-0.0016688695177435875,-0.0010514190653339028,-0.003220659913495183,0.9996223449707031,0.0,0.0,0.0,20.98810386657715,4.0663299560546875,7.002277851104736,-3798.888671875,0
1902.8559999999998,-0.0018915290711447597,-0.020493458956480026,-0.0008386237313970923,0.0,0.0,0.0,0.0,-0.0004480191564653069,-0.0019241988193243742,-0.0025182953104376793,0.999430775642395,0.0,0.0,0.0,20.982872009277344,4.097072601318359,7.006241798400879,-3797.941650390625,0
1912.7649999999994,-0.001939989859238267,-0.020528042688965797,-0.0008352339500561357,0.0,0.0,0.0,0.0,-0.00010007689706981182,-0.0032230447977781296,0.0010128732537850738,1.001442551612854,0.0,0.0,0.0,20.961502075195312,4.094735145568848,7.002847671508789,-3794.07373046875,0
1922.6759999999995,-0.0019893196877092123,-0.02056373655796051,-0.0008315909071825445,0.0,0.0,0.0,0.0,-2.6511563191888854e-05,0.005268878303468227,-0.0001092419697670266,1.0002942085266113,0.0,0.0,0.0,20.941238403320312,4.091319561004639,6.999554634094238,-3790.406005859375,0
1932.5900000000001,-0.0020408472046256065,-0.02060038037598133,-0.0008267483208328485,0.0,0.0,0.0,0.0,0.00178484246134758,-0.0002622064494062215,0.0017720970790833235,0.9988427758216858,0.0,0.0,0.0,20.921939849853516,4.083745002746582,6.988931655883789,-3786.912841796875,0
1942.5,-0.0020632045343518257,-0.020570993423461914,-0.0008300491608679295,0.0,0.0,0.0,0.0,-0.0008717952878214419,-0.0049644592218101025,-0.0004072338342666626,0.9995787143707275,0.0,0.0,0.0,20.921550750732422,4.0933685302734375,6.999060153961182,-3786.842041015625,0
1952.411,-0.002111270558089018,-0.020604200661182404,-0.000825963041279465,0.0,0.0,0.0,0.0,0.0032537097577005625,-0.0022242215927690268,0.0020538822282105684,0.9988619089126587,0.0,0.0,0.0,20.90111541748047,4.091170787811279,6.990204334259033,-3783.1435546875,0
1962.3149999999987,-0.0021122596226632595,-0.020560789853334427,-0.0008377082413062453,0.0,0.0,0.0,0.0,0.0017773797735571861,0.002269583288580179,0.0013425949728116393,0.9995982646942139,0.0,0.0,0.0,20.91107177734375,4.1075029373168945,7.024667263031006,-3784.945556640625,0
1972.241,-0.0021564238704741,-0.020589662715792656,-0.0008355819154530764,0.0,0.0,0.0,0.0,0.0010107337730005383,0.0020468991715461016,-0.0006531890830956399,0.9995620846748352,0.0,0.0,0.0,20.890199661254883,4.10154390335083,7.009629249572754,-3781.16796875,0
1982.1419999999998,-0.0022022295743227005,-0.020619699731469154,-0.0008338411571457982,0.0,0.0,0.0,0.0,0.002154080430045724,-0.0017873338656499982,-0.0011605621548369527,0.9990208745002747,0.0,0.0,0.0,20.869882583618164,4.0955328941345215,7.000614643096924,-3777.489990234375,0
1992.0459999999985,-0.0022492508869618177,-0.020650340244174004,-0.0008322580833919346,0.0,0.0,0.0,0.0,0.002168690087273717,0.0027335043996572495,-0.0035900345537811518,0.9992567896842957,0.0,0.0,0.0,20.849258422851562,4.092715740203857,6.986388683319092,-3773.75732421875,0
2001.9609999999993,-0.00219869427382946,-0.020518122240900993,-0.0008395455661229789,0.0,0.0,0.0,0.0,0.0036464689765125513,0.002625415800139308,-0.003331874031573534,0.9987946152687073,0.0,0.0,0.0,20.847505569458008,4.138697624206543,7.035184383392334,-3773.43994140625,0
2011.8679999999986,-0.002239976776763797,-0.020535476505756378,-0.0008402886451222003,0.0,0.0,0.0,0.0,-0.0014111808268353343,-0.0031557846814393997,-0.001033826731145382,0.998698353767395,0.0,0.0,0.0,20.826763153076172,4.128836631774902,7.01770544052124,-3769.685791015625,0
2021.7799999999988,-0.002178806345909834,-0.020411113277077675,-0.0008612206438556314,0.0,0.0,0.0,0.0,0.003732840297743678,4.364170308690518e-05,0.00031823504832573235,0.9992069005966187,0.0,0.0,0.0,20.82600212097168,4.162627696990967,7.066327095031738,-3769.548095703125,0
2031.6889999999985,-0.0022148077841848135,-0.020417628809809685,-0.0008660239400342107,0.0,0.0,0.0,0.0,-0.0002341975923627615,0.0007659107795916498,-0.0013976378832012415,1.0006511211395264,0.0,0.0,0.0,20.804000854492188,4.160647869110107,7.065988540649414,-3765.5654296875,0
2041.6059999999998,-0.0021781297400593758,-0.02032119408249855,-0.0008827535202726722,0.0,0.0,0.0,0.0,0.000963583413977176,-0.001760749495588243,0.0016677851090207696,0.9992958903312683,0.0,0.0,0.0,20.8065242767334,4.1833343505859375,7.1056599617004395,-3766.022216796875,0
2051.504999999999,-0.00221247342415154,-0.020321888849139214,-0.0008894717320799828,0.0,0.0,0.0,0.0,-0.0006489562802016735,-0.0013162385439500213,0.002441958524286747,0.9993159770965576,0.0,0.0,0.0,20.785877227783203,4.186152458190918,7.10347843170166,-3762.28515625,0
2061.4259999999995,-0.002248886041343212,-0.02032475546002388,-0.0008961150888353586,0.0,0.0,0.0,0.0,-0.00013905817468184978,0.0005115860840305686,-0.0009772343328222632,1.0008571147918701,0.0,0.0,0.0,20.764657974243164,4.1867356300354,7.097467422485352,-3758.444091796875,0
2071.3269999999993,-0.0022865307983011007,-0.02032892033457756,-0.0009029468055814505,0.0,0.0,0.0,0.0,0.0003983952628914267,-0.003784933127462864,-0.001975489081814885,0.998305082321167,0.0,0.0,0.0,20.744245529174805,4.182671546936035,7.082433700561523,-3754.749755859375,0
2081.2509999999984,-0.0023250652011483908,-0.020334020256996155,-0.0009096218273043633,0.0,0.0,0.0,0.0,0.00014964159345254302,0.002582743763923645,0.0008813532767817378,0.9987843632698059,0.0,0.0,0.0,20.722827911376953,4.180441379547119,7.076048851013184,-3750.873046875,0
2091.1489999999994,-0.002364196116104722,-0.02033979259431362,-0.0009168793330900371,0.0,0.0,0.0,0.0,0.0036727709230035543,-7.72237908677198e-05,-0.0035469785798341036,0.9989814758300781,0.0,0.0,0.0,20.70180320739746,4.174599647521973,7.065747261047363,-3747.06787109375,0
2101.066999999999,-0.002404001308605075,-0.020347071811556816,-0.0009249671711586416,0.0,0.0,0.0,0.0,-0.001985169481486082,-0.0006272855098359287,0.0005560815916396677,0.9968966245651245,0.0,0.0,0.0,20.682231903076172,4.1710968017578125,7.0591559410095215,-3743.525146484375,0
2110.977999999999,-0.0017713385168462992,-0.020831327885389328,-0.0006496136193163693,0.0,0.0,0.0,0.0,0.0033368912991136312,0.001690393197350204,0.0005194148398004472,0.999096155166626,0.0,0.0,0.0,20.713672637939453,4.023533821105957,7.120246410369873,-3749.216064453125,0
2120.896999999999,-0.0017850834410637617,-0.020870119333267212,-0.0006549349054694176,0.0,0.0,0.0,0.0,0.0011789199197664857,-0.001002275268547237,-0.0030074624810367823,0.9983533620834351,0.0,0.0,0.0,20.693675994873047,4.019506454467773,7.105726718902588,-3745.596923828125,0
2130.7919999999995,-0.0018004897283390164,-0.02090981975197792,-0.0006612829165533185,0.0,0.0,0.0,0.0,0.0014805253595113754,0.002767104422673583,-0.00446461234241724,0.9988198280334473,0.0,0.0,0.0,20.67453384399414,4.016415596008301,7.101134777069092,-3742.131591796875,0
2140.7209999999995,-0.001816804287955165,-0.020949676632881165,-0.0006688256980851293,0.0,0.0,0.0,0.0,-0.00034882224281318486,-0.00018729333532974124,-0.0042093549855053425,0.9991658329963684,0.0,0.0,0.0,20.652606964111328,4.013648509979248,7.094429016113281,-3738.16259765625,0
2150.6139999999996,-0.001833511283621192,-0.020990146324038506,-0.0006772888591513038,0.0,0.0,0.0,0.0,-0.0022501060739159584,0.0013540982035920024,0.0007453291909769177,1.000917911529541,0.0,0.0,0.0,20.632183074951172,4.016273021697998,7.085571765899658,-3734.46630859375,0
