timestamp,stateEstimate.x,stateEstimate.y,stateEstimate.z,controller.cmd_thrust,controller.cmd_roll,controller.cmd_pitch,controller.cmd_yaw,controller.r_roll,controller.r_pitch,controller.r_yaw,controller.accelz,controller.actuatorThrust,controller.roll,controller.pitch,controller.yaw,controller.rollRate,controller.pitchRate,controller.yawRate,controller.ctr_yaw
0.0,-0.0002961718710139394,-0.0002510853810235858,6.923996261321008e-05,0.0,0.0,0.0,0.0,-0.0016354563413187861,-0.0020152581855654716,-0.003668854245916009,0.9996720552444458,0.0,0.0,0.0,0.3674650192260742,2.4581565856933594,4.853707313537598,-66.51189422607422,0
9.90899999999965,-0.00034730503102764487,-0.00018168322276324034,-3.2892221497604623e-06,0.0,0.0,0.0,0.0,-0.0008256774162873626,-0.0023371828719973564,0.001900003757327795,1.0002576112747192,0.0,0.0,0.0,0.3658303916454315,2.4556758403778076,4.855188369750977,-66.21603393554688,0
19.818999999999505,-0.0002629381779115647,-0.0002652271359693259,6.023875539540313e-05,0.0,0.0,0.0,0.0,0.0008057685918174684,-0.004671457689255476,-0.0003554409777279943,1.001837134361267,0.0,0.0,0.0,0.3666505515575409,2.4636428356170654,4.856969833374023,-66.3644790649414,0
29.737999999999374,-0.0003206563997082412,-0.00020916653738822788,-4.893485311185941e-06,0.0,0.0,0.0,0.0,0.0029572509229183197,0.0055767144076526165,-0.002634824486449361,1.0027846097946167,0.0,0.0,0.0,0.3661673665046692,2.4588608741760254,4.863430500030518,-66.27702331542969,0
39.64099999999962,-0.0002933786599896848,-0.000249427801463753,6.444933387683704e-05,0.0,0.0,0.0,0.0,-0.00011179690045537427,-0.0020462193060666323,-0.0039039175026118755,0.9990423321723938,0.0,0.0,0.0,0.3661198318004608,2.451005458831787,4.8443989753723145,-66.26841735839844,0
49.550999999999476,-0.0002929779002442956,-0.00010973036114592105,-4.638752943719737e-05,0.0,0.0,0.0,0.0,-0.0017048335867002606,-0.0003124685608781874,-0.0010089551797136664,1.000571370124817,0.0,0.0,0.0,0.3670644760131836,2.483074426651001,4.8673014640808105,-66.43939208984375,0
59.46099999999933,-0.00027294468600302935,-0.00015489158977288753,1.1847929272335023e-05,0.0,0.0,0.0,0.0,0.001298415125347674,-0.0030945150647312403,0.0003327366430312395,1.000184416770935,0.0,0.0,0.0,0.366820365190506,2.482372522354126,4.8697896003723145,-66.39521026611328,0
69.37299999999959,-0.0002719322219491005,-4.3826119508594275e-05,-0.00011827150592580438,0.0,0.0,0.0,0.0,0.0022953194566071033,-0.0042525650933384895,0.0006662053638137877,0.9977576732635498,0.0,0.0,0.0,0.36711356043815613,2.4841649532318115,4.869492530822754,-66.44828796386719,0
79.28499999999985,-0.00025422588805668056,-9.301104000769556e-05,-7.195794023573399e-05,0.0,0.0,0.0,0.0,0.00048266665544360876,-0.00034508894896134734,0.0007391758263111115,0.9986050724983215,0.0,0.0,0.0,0.3683047890663147,2.48041033744812,4.871524333953857,-66.66390991210938,0
89.19700000000012,-0.0003130303230136633,-5.5998272728174925e-05,-0.00015760640962980688,0.0,0.0,0.0,0.0,0.002329879207536578,-0.002183537231758237,0.0025360495783388615,0.999434769153595,0.0,0.0,0.0,0.36928680539131165,2.476233959197998,4.8713579177856445,-66.84164428710938,0
99.10800000000017,-0.00027129583759233356,-0.00010319175635231659,-0.00010717698751250282,0.0,0.0,0.0,0.0,-0.0027210635598748922,0.004250981844961643,0.0008550803759135306,0.9989053606987,0.0,0.0,0.0,0.36937466263771057,2.4689252376556396,4.863860130310059,-66.8575439453125,0
109.01800000000003,-0.000324412394547835,-2.7819674869533628e-05,-0.00018256738258060068,0.0,0.0,0.0,0.0,-0.0006596504244953394,0.0006636640755459666,0.004439867101609707,0.999701201915741,0.0,0.0,0.0,0.3694283664226532,2.470876693725586,4.845765113830566,-66.86726379394531,0
118.92299999999886,-0.00022968977282289416,-7.72176863392815e-05,-0.00011362676741555333,0.0,0.0,0.0,0.0,0.0011206279741600156,-0.001122622867114842,0.0035699985455721617,1.000714659690857,0.0,0.0,0.0,0.36848682165145874,2.471444845199585,4.871311664581299,-66.69685363769531,0
128.84900000000016,-0.000348354980815202,-0.00010237842798233032,-0.00014026876306161284,0.0,0.0,0.0,0.0,-0.0007064727833494544,-0.0025303559377789497,-0.0005830699810758233,1.0015761852264404,0.0,0.0,0.0,0.36837825179100037,2.466407299041748,4.869657516479492,-66.67719268798828,0
138.7510000000002,-0.00024862439022399485,-0.00018697918858379126,-7.658044341951609e-05,0.0,0.0,0.0,0.0,-0.0005612032255157828,-0.0005592542584054172,-0.001968278782442212,1.0006223917007446,0.0,0.0,0.0,0.3666914701461792,2.460937261581421,4.898373603820801,-66.37188720703125,0
148.66499999999905,-0.0003659093636088073,-0.00018827672465704381,-8.74128527357243e-05,0.0,0.0,0.0,0.0,-0.002197416266426444,0.0005288197426125407,-0.00011182891466887668,1.0004369020462036,0.0,0.0,0.0,0.36400699615478516,2.458824872970581,4.892429351806641,-65.885986328125,0
158.5659999999989,-0.0002531670324970037,-0.00027241292991675436,-1.87521491170628e-05,0.0,0.0,0.0,0.0,-0.0016942250076681376,-0.0016835069982334971,0.0038720795419067144,1.0001927614212036,0.0,0.0,0.0,0.3642597496509552,2.4548914432525635,4.924071788787842,-65.9317398071289,0
168.48599999999897,-0.00032024149550125003,-0.00021937862038612366,-7.096026820363477e-05,0.0,0.0,0.0,0.0,-0.0007863437058404088,0.0015368369640782475,-0.0026875517796725035,0.9994555711746216,0.0,0.0,0.0,0.36488327383995056,2.4536173343658447,4.920086860656738,-66.04460144042969,0
178.39799999999923,-0.0002416114293737337,-0.0002794471802189946,1.6873268577910494e-06,0.0,0.0,0.0,0.0,-9.412757208338007e-05,0.001973068108782172,0.0026525938883423805,0.9979893565177917,0.0,0.0,0.0,0.3642317056655884,2.4531965255737305,4.9123077392578125,-65.9266586303711,0
188.30799999999908,-0.0002741043863352388,-0.00019983536913059652,-8.96933997864835e-05,0.0,0.0,0.0,0.0,-0.000610682531259954,0.000908512796740979,-0.003505949629470706,0.9993754029273987,0.0,0.0,0.0,0.36531132459640503,2.451014280319214,4.9126296043396,-66.12207794189453,0
198.20899999999892,-0.000209160236408934,-0.00023974005307536572,-1.410226286679972e-05,0.0,0.0,0.0,0.0,-0.001302678370848298,0.0016203256091102958,0.00025595829356461763,0.9994287490844727,0.0,0.0,0.0,0.3647655248641968,2.4523816108703613,4.912765026092529,-66.02328491210938,0
208.1309999999994,-0.0002496634260751307,-0.00017503052367828786,-0.00010172694601351395,0.0,0.0,0.0,0.0,0.0008600535802543163,0.0021073766984045506,0.002957229735329747,0.9999876618385315,0.0,0.0,0.0,0.36500632762908936,2.4501190185546875,4.910347938537598,-66.06687927246094,0
218.03199999999924,-0.00019230693578720093,-0.0002175126865040511,-3.344122160342522e-05,0.0,0.0,0.0,0.0,-0.001977683510631323,-0.002816991414874792,0.002913788193836808,1.001335620880127,0.0,0.0,0.0,0.3656504452228546,2.4492712020874023,4.897279739379883,-66.18345642089844,0
227.96299999999974,-0.00022713051293976605,-0.00010773076064651832,-0.00011025549611076713,0.0,0.0,0.0,0.0,-0.0013221811968833208,0.0024673105217516422,-0.000685660052113235,0.9995805621147156,0.0,0.0,0.0,0.3656425178050995,2.4512274265289307,4.89669942855835,-66.18202209472656,0
237.85399999999936,-0.00015147478552535176,-0.00020131884957663715,-6.604591908399016e-05,0.0,0.0,0.0,0.0,0.0010873363353312016,0.003466386813670397,0.0020655642729252577,0.9985333681106567,0.0,0.0,0.0,0.3646770417690277,2.4554500579833984,4.886999130249023,-66.00727844238281,0
247.77899999999863,-0.000246985669946298,-0.00019670877372846007,-0.00010548694262979552,0.0,0.0,0.0,0.0,-0.0014496617950499058,-0.0004217556561343372,-0.001692295540124178,1.0004688501358032,0.0,0.0,0.0,0.3655261993408203,2.4500536918640137,4.876983642578125,-66.16097259521484,0
257.6769999999997,-0.00020539014076348394,-0.00021740539523307234,-2.9512106266338378e-05,0.0,0.0,0.0,0.0,0.00023264881747309119,-0.003111833706498146,-4.9046025196730625e-06,0.9989543557167053,0.0,0.0,0.0,0.36502450704574585,2.4499645233154297,4.870096683502197,-66.07015991210938,0
267.59900000000016,-0.0002624036860652268,-0.00012741416867356747,-8.295015140902251e-05,0.0,0.0,0.0,0.0,0.0003086242941208184,0.0009533775155432522,0.0005369653808884323,1.0014317035675049,0.0,0.0,0.0,0.3657032251358032,2.4480533599853516,4.86393928527832,-66.1930160522461,0
277.5029999999988,-0.00020776667224708945,-0.0001846733212005347,-2.2448975869338028e-05,0.0,0.0,0.0,0.0,-0.002921760082244873,-0.0028319074772298336,0.0018102792091667652,1.0004435777664185,0.0,0.0,0.0,0.36603492498397827,2.4403066635131836,4.860705852508545,-66.2530517578125,0
287.41499999999905,-0.0002879392122849822,-0.00016505525854881853,-7.520954386563972e-05,0.0,0.0,0.0,0.0,0.0034798693377524614,0.0010456038871780038,0.0013149045407772064,0.9999281167984009,0.0,0.0,0.0,0.3658387064933777,2.437973737716675,4.85850715637207,-66.217529296875,0
297.3239999999987,-0.00020527554443106055,-0.0002208457881351933,-7.088647180353291e-07,0.0,0.0,0.0,0.0,0.0015951062086969614,0.0004204933065921068,-0.0046789986081421375,0.9998941421508789,0.0,0.0,0.0,0.36596864461898804,2.4327778816223145,4.848758220672607,-66.24105072021484,0
307.2459999999992,-0.0003109625540673733,-0.00020786332606803626,-1.7170705177704804e-05,0.0,0.0,0.0,0.0,0.0003109106619376689,0.0013783525209873915,0.0026476227212697268,0.9991006255149841,0.0,0.0,0.0,0.36451834440231323,2.429178237915039,4.840357303619385,-65.97855377197266,0
317.1459999999988,-0.0002976864343509078,-0.00022832301328890026,5.212306496105157e-05,0.0,0.0,0.0,0.0,-0.00519573176279664,0.001238952623680234,0.0025170231238007545,0.9996429681777954,0.0,0.0,0.0,0.3645170331001282,2.4276680946350098,4.835717678070068,-65.97830963134766,0
327.0679999999993,-0.00034776137908920646,-0.00015726019046269357,-1.6373307516914792e-05,0.0,0.0,0.0,0.0,-0.0017534266225993633,0.0005925970035605133,-0.004435586743056774,1.000380039215088,0.0,0.0,0.0,0.36534905433654785,2.4311084747314453,4.83160924911499,-66.12890625,0
336.96500000000015,-0.00025444431230425835,-0.00024193023273255676,4.3334064685041085e-05,0.0,0.0,0.0,0.0,-0.00012591211998369545,-0.004535015672445297,-0.006574583239853382,0.9998440146446228,0.0,0.0,0.0,0.36450710892677307,2.4325668811798096,4.834165573120117,-65.97651672363281,0
346.89300000000003,-0.00028283422579988837,-0.00016180680540855974,-5.050001709605567e-05,0.0,0.0,0.0,0.0,-0.003082906361669302,-0.0020332462154328823,0.001268730266019702,1.0011626482009888,0.0,0.0,0.0,0.3636581003665924,2.4301347732543945,4.843406677246094,-65.82283782958984,0
356.78799999999865,-0.00019599395454861224,-0.0002219186135334894,2.1074227333883755e-05,0.0,0.0,0.0,0.0,-0.004393965005874634,-0.004580965731292963,0.002277189400047064,1.0008823871612549,0.0,0.0,0.0,0.3633137047290802,2.4292948246002197,4.835393905639648,-65.76050567626953,0
366.7029999999995,-0.0002487963065505028,-0.00013547819980885834,-3.401948561077006e-05,0.0,0.0,0.0,0.0,-0.0017418995266780257,0.0004202707496006042,-0.0025151267182081938,1.0009278059005737,0.0,0.0,0.0,0.3625205159187317,2.434378147125244,4.842890739440918,-65.61693572998047,0
376.61199999999917,-7.286810432560742e-05,-0.00011015704512828961,-3.1834482797421515e-05,0.0,0.0,0.0,0.0,-0.0002096020762110129,-0.001098648295737803,-0.002385276835411787,0.999399721622467,0.0,0.0,0.0,0.3574392795562744,2.4259209632873535,4.884252071380615,-64.69722747802734,0
386.52700000000004,-0.00020481919636949897,-0.00014831792213954031,-2.6911511668004096e-05,0.0,0.0,0.0,0.0,-0.0020243991166353226,0.004911786410957575,0.0005197965656407177,0.998763382434845,0.0,0.0,0.0,0.3559746742248535,2.42401385307312,4.869004726409912,-64.43212127685547,0
396.4319999999989,-8.742226782487705e-05,-5.2310642786324024e-05,-5.4125124734127894e-05,0.0,0.0,0.0,0.0,-7.614470086991787e-05,0.002014439320191741,-0.0012040520086884499,1.0013775825500488,0.0,0.0,0.0,0.3627464771270752,2.4511260986328125,4.8709001541137695,-65.65782928466797,0
406.34499999999935,-0.00022365167387761176,-8.709542453289032e-05,-5.235724165686406e-05,0.0,0.0,0.0,0.0,0.0016849953681230545,0.00133878318592906,0.00033506349427625537,0.9996474981307983,0.0,0.0,0.0,0.3613913059234619,2.443002223968506,4.8595685958862305,-65.41255187988281,0
416.262999999999,-5.882715049665421e-05,1.8447079810357536e-06,-9.831779607338831e-05,0.0,0.0,0.0,0.0,0.0011440713424235582,0.0019365150947123766,-0.0011640675365924835,0.9979428648948669,0.0,0.0,0.0,0.3612196445465088,2.4349942207336426,4.854455947875977,-65.38147735595703,0
426.17299999999886,-0.00019339073332957923,-2.8616574127227068e-05,-0.00010045489034382626,0.0,0.0,0.0,0.0,0.0016364603070542216,0.0019572121091187,0.0016686487942934036,1.0011228322982788,0.0,0.0,0.0,0.3602641224861145,2.4326276779174805,4.844303131103516,-65.2085189819336,0
436.0779999999995,-0.00013803932233713567,1.9719511328730732e-05,-0.00015883203013800085,0.0,0.0,0.0,0.0,0.0006066843052394688,-0.0007833692943677306,0.0001344484626315534,1.0010967254638672,0.0,0.0,0.0,0.3598666489124298,2.4346885681152344,4.8336381912231445,-65.13658142089844,0
445.991,-0.00027675123419612646,-1.215251540997997e-05,-0.00016573193715885282,0.0,0.0,0.0,0.0,-0.0008597466512583196,-0.0024405948352068663,0.004073757212609053,0.9985843300819397,0.0,0.0,0.0,0.35924914479255676,2.430211067199707,4.834076404571533,-65.02481079101562,0
455.90399999999863,-0.0001510344591224566,4.578165680868551e-05,-0.00021392895723693073,0.0,0.0,0.0,0.0,-0.0027643784414976835,0.005324925761669874,0.0047161877155303955,0.9996815323829651,0.0,0.0,0.0,0.35945484042167664,2.424888849258423,4.837625026702881,-65.06204223632812,0
465.8109999999997,-0.0002903238928411156,1.3183522241888568e-05,-0.0002243622438982129,0.0,0.0,0.0,0.0,0.0006870197830721736,0.0006544601055793464,0.003074242267757654,0.9983870387077332,0.0,0.0,0.0,0.35959944128990173,2.4306299686431885,4.826648235321045,-65.08821105957031,0
475.72099999999955,-0.00018925195035990328,4.9369900807505473e-05,-0.0002232216502306983,0.0,0.0,0.0,0.0,-0.000899669190403074,0.004649892449378967,-0.0019369054352864623,0.9999120831489563,0.0,0.0,0.0,0.35911205410957336,2.420823097229004,4.810796737670898,-64.99999237060547,0
485.6389999999992,-0.00032987428130581975,1.8884245946537703e-05,-0.00023447685816790909,0.0,0.0,0.0,0.0,0.001886960817500949,0.005577251315116882,0.0013608101289719343,1.0010112524032593,0.0,0.0,0.0,0.35914847254753113,2.4190609455108643,4.802410125732422,-65.006591796875,0
495.5450000000001,-0.00016983422392513603,1.641848575673066e-05,-0.00025416977587156,0.0,0.0,0.0,0.0,-0.001188748748973012,-0.004287540912628174,0.0013781439047306776,1.0033947229385376,0.0,0.0,0.0,0.35833480954170227,2.415804624557495,4.789827823638916,-64.85930633544922,0
505.4529999999995,-0.00031120312632992864,-1.1032787369913422e-05,-0.00026454610633663833,0.0,0.0,0.0,0.0,-0.0008473495254293084,0.0011176897678524256,0.004925011657178402,1.0002384185791016,0.0,0.0,0.0,0.3587976098060608,2.4230051040649414,4.785351753234863,-64.94308471679688,0
515.3649999999998,-0.0001903028169181198,-7.943151285871863e-05,-0.00022617947252001613,0.0,0.0,0.0,0.0,0.0005716379382647574,-0.002710278844460845,0.004756289068609476,1.000692367553711,0.0,0.0,0.0,0.36058107018470764,2.407583236694336,4.815384864807129,-65.2658920288086,0
525.2759999999998,-0.0003320223477203399,-0.00011103442375315353,-0.00022952484141569585,0.0,0.0,0.0,0.0,-0.0001475587923778221,-0.0037806539330631495,0.0020418327767401934,1.0002379417419434,0.0,0.0,0.0,0.36161670088768005,2.402454137802124,4.819786071777344,-65.45333862304688,0
535.1869999999999,-0.00018293870380148292,-0.00011710910621332005,-0.00015635853924322873,0.0,0.0,0.0,0.0,0.0008902395493350923,0.004441419616341591,-0.0011064871214330196,0.9996353983879089,0.0,0.0,0.0,0.35828062891960144,2.4029104709625244,4.860451698303223,-64.84950256347656,0
545.0990000000002,-0.0003225744003430009,-0.00015423080185428262,-0.00015333226474467665,0.0,0.0,0.0,0.0,0.0009466501651331782,-0.0007020914927124977,0.0010469325352460146,0.9990350008010864,0.0,0.0,0.0,0.3578126132488251,2.400167942047119,4.860112190246582,-64.7647933959961,0
555.009,-0.0002036139485426247,-0.00017695526184979826,-0.00010275490785716102,0.0,0.0,0.0,0.0,-0.002667878521606326,-5.1442781114019454e-05,0.0005910871550440788,0.9988490343093872,0.0,0.0,0.0,0.35738900303840637,2.397838830947876,4.859548091888428,-64.68812561035156,0
564.9249999999993,-0.00034428894286975265,-0.00021658322657458484,-9.683978714747354e-05,0.0,0.0,0.0,0.0,-0.0011893078917637467,-0.00029150143382139504,0.003141456749290228,1.0007001161575317,0.0,0.0,0.0,0.35699158906936646,2.3968706130981445,4.8542399406433105,-64.61619567871094,0
574.8319999999985,-0.00018832820933312178,-0.00016062878421507776,-7.838442252250388e-05,0.0,0.0,0.0,0.0,-0.006023097783327103,-0.00264037330634892,0.003899909323081374,1.0000814199447632,0.0,0.0,0.0,0.35694098472595215,2.3995556831359863,4.855562686920166,-64.6070327758789,0
584.7429999999986,-0.00032943085534498096,-0.00020052026957273483,-7.136591739254072e-05,0.0,0.0,0.0,0.0,0.0022940728813409805,0.002680996200069785,0.001551430905237794,1.0004010200500488,0.0,0.0,0.0,0.35726168751716614,2.407620429992676,4.863522529602051,-64.66507720947266,0
594.6619999999984,-0.00014585010649170727,-0.00013992044841870666,-9.58969903877005e-05,0.0,0.0,0.0,0.0,-0.0016389049123972654,-0.0014275801368057728,-0.004439897369593382,0.9994797110557556,0.0,0.0,0.0,0.35748645663261414,2.4040565490722656,4.859630584716797,-64.70576477050781,0
604.5739999999987,-0.0002852723700925708,-0.00018097832798957825,-9.125568612944335e-05,0.0,0.0,0.0,0.0,1.5305125998565927e-05,0.0004410842666402459,0.0029478163924068213,0.9984349012374878,0.0,0.0,0.0,0.35697466135025024,2.4054462909698486,4.858520984649658,-64.61312866210938,0
614.4809999999998,-0.00014531111810356379,-0.00010751227819127962,-9.671785664977506e-05,0.0,0.0,0.0,0.0,0.00037226310814730823,0.0004344629414845258,0.0032498312648385763,0.9999665021896362,0.0,0.0,0.0,0.35692086815834045,2.398655414581299,4.846429347991943,-64.6033935546875,0
624.3869999999988,-0.0002849684387911111,-0.00014715822180733085,-9.433792001800612e-05,0.0,0.0,0.0,0.0,-0.0007628106395713985,-0.002846464514732361,0.003653107210993767,1.0020276308059692,0.0,0.0,0.0,0.35706982016563416,2.3926708698272705,4.842413425445557,-64.6303482055664,0
634.2979999999989,-0.00019496234017424285,-5.0035992899211124e-05,-9.52254849835299e-05,0.0,0.0,0.0,0.0,-0.0016802212921902537,-0.0028971389401704073,-0.00010900908819166943,0.9996113777160645,0.0,0.0,0.0,0.35871759057044983,2.3894340991973877,4.842970371246338,-64.92859649658203,0
644.2109999999993,-0.0003380869165994227,-8.465735299978405e-05,-9.157510794466361e-05,0.0,0.0,0.0,0.0,-0.0015816037775948644,0.002561023458838463,-0.004683027043938637,1.0003924369812012,0.0,0.0,0.0,0.3573455214500427,2.3958606719970703,4.838874816894531,-64.68025207519531,0
654.1269999999986,-0.0001686683826847002,-4.81457645946648e-05,-7.905611710157245e-05,0.0,0.0,0.0,0.0,0.003170540789142251,-0.0036967159248888493,0.002038175007328391,1.0001792907714844,0.0,0.0,0.0,0.3563278615474701,2.3956685066223145,4.8697686195373535,-64.49604797363281,0
664.0339999999997,-0.0003119040047749877,-8.248905942309648e-05,-7.447971438523382e-05,0.0,0.0,0.0,0.0,0.0005907274316996336,0.0019181102979928255,0.0003729091549757868,1.0007448196411133,0.0,0.0,0.0,0.355838418006897,2.3964314460754395,4.871325969696045,-64.40746307373047,0
673.9439999999995,-0.00016089111159089953,-8.591383084421977e-05,-9.804563160287216e-05,0.0,0.0,0.0,0.0,0.000776946428231895,-0.0011683625634759665,0.0018958295695483685,1.0018213987350464,0.0,0.0,0.0,0.3555116653442383,2.4008450508117676,4.864224433898926,-64.34832000732422,0
683.8559999999998,-0.0003041123563889414,-0.00012403704749885947,-9.428279736312106e-05,0.0,0.0,0.0,0.0,-0.0012194798327982426,0.0016396335558965802,0.00023560259432997555,1.0010895729064941,0.0,0.0,0.0,0.35458502173423767,2.396230697631836,4.864969253540039,-64.18059539794922,0
693.7649999999994,-0.00017041918181348592,-0.00014841175288893282,-9.061696619028226e-05,0.0,0.0,0.0,0.0,-0.0005855567287653685,-0.001066552591510117,0.004624614957720041,0.9983422160148621,0.0,0.0,0.0,0.3551345467567444,2.393822193145752,4.855427265167236,-64.28005981445312,0
703.6749999999993,-0.00031226681312546134,-0.00018995093705598265,-8.50939322845079e-05,0.0,0.0,0.0,0.0,-0.003398986766114831,-0.0010167593136429787,-0.0015253121964633465,0.9995771646499634,0.0,0.0,0.0,0.3556394875049591,2.3964309692382812,4.8527960777282715,-64.37145233154297,0
713.5959999999995,-0.00014495913637802005,-0.00013943447265774012,-0.00011430087761254981,0.0,0.0,0.0,0.0,0.00021250724967103451,0.0005313227884471416,-0.007616695947945118,0.9995349645614624,0.0,0.0,0.0,0.35548895597457886,2.3974106311798096,4.853011608123779,-64.34420776367188,0
723.5010000000002,-0.0002843883412424475,-0.00017973119975067675,-0.00011309766705380753,0.0,0.0,0.0,0.0,-0.0023924962151795626,-0.0005185059271752834,0.002777395537123084,1.0001481771469116,0.0,0.0,0.0,0.35407504439353943,2.3926165103912354,4.844313144683838,-64.08828735351562,0
733.4099999999999,-0.00014353870938066393,-9.566813969286159e-05,-7.615490903845057e-05,0.0,0.0,0.0,0.0,-1.93749201571336e-05,-0.0001284679601667449,0.0024899786803871393,0.9992519021034241,0.0,0.0,0.0,0.3547680079936981,2.3910911083221436,4.841033935546875,-64.21371459960938,0
743.3259999999991,-0.00028046197257936,-0.00013209007738623768,-7.182216359069571e-05,0.0,0.0,0.0,0.0,0.0009383757715113461,0.004209255799651146,-0.001531044952571392,0.9991447329521179,0.0,0.0,0.0,0.3541402816772461,2.3889636993408203,4.847466468811035,-64.10009765625,0
753.2309999999998,-6.621527427341789e-05,-4.5272085117176175e-05,-8.061062544584274e-05,0.0,0.0,0.0,0.0,0.00036453784559853375,-0.0002579021384008229,0.0047430722042918205,0.9986500144004822,0.0,0.0,0.0,0.35349366068840027,2.378553867340088,4.862142562866211,-63.983055114746094,0
763.146999999999,-0.00020027860591653734,-7.962695963215083e-05,-7.86979217082262e-05,0.0,0.0,0.0,0.0,-0.002340025035664439,-0.003316010581329465,-0.002461171941831708,1.0017468929290771,0.0,0.0,0.0,0.3535957932472229,2.369352102279663,4.849926948547363,-64.00154113769531,0
773.0540000000001,-0.00010539888171479106,-0.0001413909049006179,-6.400248821591958e-05,0.0,0.0,0.0,0.0,-0.003080387134104967,-0.002766025485470891,0.0005272008129395545,1.002692699432373,0.0,0.0,0.0,0.3541839122772217,2.3713247776031494,4.858675956726074,-64.10799407958984,0
782.9639999999999,-0.00024085120821837336,-0.00017801159992814064,-5.992702062940225e-05,0.0,0.0,0.0,0.0,0.0009999880567193031,0.0013950701104477048,-0.004218047484755516,1.0009689331054688,0.0,0.0,0.0,0.35452979803085327,2.3790149688720703,4.85209321975708,-64.17060089111328,0
792.8799999999992,-0.00018044958414975554,-0.00017667229985818267,-4.705656829173677e-05,0.0,0.0,0.0,0.0,0.00043324517901055515,-0.004547348711639643,0.002984673250466585,1.0008026361465454,0.0,0.0,0.0,0.35404855012893677,2.3783011436462402,4.849098205566406,-64.08349609375,0
802.7879999999986,-0.0001227257598657161,-0.00022899050964042544,1.5919589714030735e-05,0.0,0.0,0.0,0.0,-0.00021203176584094763,0.006126933265477419,-0.0017132468055933714,0.9980775713920593,0.0,0.0,0.0,0.35466068983078003,2.375145673751831,4.849660396575928,-64.19429016113281,0
812.7099999999991,-0.00018742748943623155,-0.00016737537225708365,-2.7532438252819702e-05,0.0,0.0,0.0,0.0,0.0002592360251583159,0.0010783430188894272,0.0039247991517186165,0.998943567276001,0.0,0.0,0.0,0.3537808954715729,2.3676650524139404,4.837538242340088,-64.03504943847656,0
822.6119999999992,-0.00012141378101659939,-0.00018113390251528472,6.155303708510473e-05,0.0,0.0,0.0,0.0,-0.0034661858808249235,-0.00017918270896188915,-0.0005105708842165768,0.9999931454658508,0.0,0.0,0.0,0.3540601432323456,2.3625757694244385,4.823998928070068,-64.0855941772461,0
832.5319999999992,-0.0002320072817383334,-0.00018737054779194295,4.9973732529906556e-05,0.0,0.0,0.0,0.0,-0.005582231562584639,-0.0017479218076914549,-0.0006457320996560156,1.0003293752670288,0.0,0.0,0.0,0.354013055562973,2.359522819519043,4.826131343841553,-64.07706451416016,0
842.4409999999989,-0.00016061113274190575,-0.00022499600891023874,0.0001330238883383572,0.0,0.0,0.0,0.0,0.0008527422905899584,-0.0013799959560856223,-0.0023060685489326715,1.0007896423339844,0.0,0.0,0.0,0.3529973030090332,2.365609884262085,4.819843292236328,-63.89321517944336,0
852.3599999999988,-0.00019768129277508706,-0.00014039946836419404,6.700386438751593e-05,0.0,0.0,0.0,0.0,0.0005517228855751455,0.002137789037078619,0.0002031329058809206,0.9996693730354309,0.0,0.0,0.0,0.3531721830368042,2.3604118824005127,4.810810089111328,-63.924869537353516,0
862.2569999999996,-0.00016479217447340488,-0.00013912563736084849,0.0001583006524015218,0.0,0.0,0.0,0.0,0.0008286966476589441,0.000555997306946665,-0.00015738041838631034,0.999229371547699,0.0,0.0,0.0,0.353420615196228,2.362478494644165,4.80439567565918,-63.96983337402344,0
872.1729999999989,-0.00016004475764930248,-1.3447453966364264e-05,5.3287734772311524e-05,0.0,0.0,0.0,0.0,-0.002564937574788928,-0.00358886388130486,-0.0037438389845192432,0.9989297389984131,0.0,0.0,0.0,0.35209426283836365,2.3562707901000977,4.7976460456848145,-63.729759216308594,0
882.0839999999989,-0.00011103410361101851,-0.00011259251186857,8.720902405912057e-05,0.0,0.0,0.0,0.0,-0.00041539143421687186,0.000300170126138255,0.002276786370202899,1.0004559755325317,0.0,0.0,0.0,0.3511711657047272,2.3542392253875732,4.794605731964111,-63.56267547607422,0
891.9969999999994,-8.347055700141937e-05,4.736433402285911e-05,-4.182296834187582e-05,0.0,0.0,0.0,0.0,0.0027686983812600374,-0.0032356379088014364,0.0027091947849839926,1.0000934600830078,0.0,0.0,0.0,0.35255613923072815,2.388481616973877,4.815541744232178,-63.81336212158203,0
901.9029999999984,-4.765628546010703e-05,-6.974006100790575e-05,-3.145263690385036e-05,0.0,0.0,0.0,0.0,0.0026193237863481045,0.004617560189217329,-0.0032364814542233944,0.9991694092750549,0.0,0.0,0.0,0.3524070978164673,2.38710355758667,4.803371906280518,-63.78638458251953,0
911.8199999999997,-7.450805424014106e-05,9.325362952949945e-06,-0.00013354090333450586,0.0,0.0,0.0,0.0,0.0013250967022031546,0.0016440250910818577,0.0015618980396538973,0.9988287687301636,0.0,0.0,0.0,0.35200822353363037,2.382235527038574,4.792013168334961,-63.71419143676758,0
921.7219999999998,-1.2418020560289733e-05,-5.9701738791773096e-05,-9.465353650739416e-05,0.0,0.0,0.0,0.0,-0.00025743956211954355,0.0008206981583498418,0.0012933731777593493,1.0007004737854004,0.0,0.0,0.0,0.352098673582077,2.380162477493286,4.783698081970215,-63.730560302734375,0
931.6489999999994,-9.054170368472114e-05,-8.12385042081587e-06,-0.00014638213906437159,0.0,0.0,0.0,0.0,0.0007003708742558956,-0.0017913088668137789,0.0021990984678268433,1.0005171298980713,0.0,0.0,0.0,0.36182308197021484,2.3981330394744873,4.7833333015441895,-65.4906997680664,0
941.5459999999985,8.341457032656763e-06,-0.00010022549395216629,-0.00010584440315142274,0.0,0.0,0.0,0.0,-0.0008391981828026474,0.002388549968600273,0.0023449293803423643,1.0000866651535034,0.0,0.0,0.0,0.35886743664741516,2.381165027618408,4.813952922821045,-64.95571899414062,0
951.4619999999995,-9.638905612519011e-05,-7.24826822988689e-05,-0.00012762201367877424,0.0,0.0,0.0,0.0,-0.0012358486419543624,-0.0010599481174722314,-0.0027983696199953556,1.0010380744934082,0.0,0.0,0.0,0.3595134913921356,2.379027843475342,4.805504322052002,-65.0726547241211,0
961.3679999999986,-1.4127775102679152e-05,-0.00011894837371073663,-6.0861173551529646e-05,0.0,0.0,0.0,0.0,-0.002213684841990471,-0.006140171550214291,-0.00026341609191149473,0.9988701939582825,0.0,0.0,0.0,0.36020058393478394,2.379953145980835,4.8099894523620605,-65.197021484375,0
971.2939999999999,-7.483170338673517e-05,-4.9642734666122124e-05,-0.00011765347153414041,0.0,0.0,0.0,0.0,-0.00440478790551424,0.004134201444685459,-0.0038333984557539225,1.00062894821167,0.0,0.0,0.0,0.35821905732154846,2.3809683322906494,4.803083896636963,-64.83836364746094,0
981.1919999999991,-5.759218038292602e-05,-0.00012936479470226914,-9.067769860848784e-05,0.0,0.0,0.0,0.0,-0.0024980767630040646,0.0008528685430064797,0.0008322313078679144,1.0009713172912598,0.0,0.0,0.0,0.3578921854496002,2.3795487880706787,4.7976603507995605,-64.7791976928711,0
991.1129999999994,-0.00012942947796545923,-9.883737220661715e-05,-0.00015160744078457355,0.0,0.0,0.0,0.0,-0.001159890671260655,-0.003165577072650194,-0.001046090736053884,1.0017164945602417,0.0,0.0,0.0,0.3569205403327942,2.3862273693084717,4.785695552825928,-64.60333251953125,0
1001.0119999999988,-0.00010062828368972987,-0.0001482642110204324,-0.00010400476458016783,0.0,0.0,0.0,0.0,-0.001189046655781567,0.004055670462548733,-0.0010014685103669763,1.0005837678909302,0.0,0.0,0.0,0.3574199974536896,2.393062114715576,4.791388511657715,-64.69373321533203,0
1010.9349999999995,-0.00019524795061443,-0.00012611463898792863,-0.0001357519649900496,0.0,0.0,0.0,0.0,0.000263566238572821,-0.001985935727134347,-0.0026731486432254314,1.0000602006912231,0.0,0.0,0.0,0.3576117157936096,2.403071165084839,4.794307708740234,-64.72843170166016,0
1020.8319999999985,-0.00011335857561789453,-0.00019229180179536343,-7.350654050242156e-05,0.0,0.0,0.0,0.0,-0.0023472094908356667,0.0022752145305275917,-0.003769806120544672,1.0002129077911377,0.0,0.0,0.0,0.3569408059120178,2.401533842086792,4.784312725067139,-64.60700225830078,0
1030.7489999999998,-0.00020315111032687128,-0.00018811598420143127,-0.00011567321780603379,0.0,0.0,0.0,0.0,0.000940027937758714,0.0010492863366380334,0.0004866428207606077,1.0009851455688477,0.0,0.0,0.0,0.3541737198829651,2.403096914291382,4.777209758758545,-64.10614776611328,0
1040.655999999999,-0.00015735687338747084,-0.0002097273536492139,-3.943932460970245e-05,0.0,0.0,0.0,0.0,0.0005263209459371865,0.003517594188451767,-0.0010976713383570313,1.0012221336364746,0.0,0.0,0.0,0.35345423221588135,2.399603843688965,4.777728080749512,-63.97591781616211,0
1050.5849999999991,-0.0002717870520427823,-0.0002118701086146757,-5.142442023498006e-05,0.0,0.0,0.0,0.0,-0.001794918323867023,0.0005960445269010961,-0.0020863660611212254,1.0017575025558472,0.0,0.0,0.0,0.35313543677330017,2.3942973613739014,4.763902187347412,-63.918212890625,0
1060.476999999999,-0.00014740650658495724,-0.0002750498824752867,3.882921373588033e-05,0.0,0.0,0.0,0.0,0.0012175554875284433,-0.0011839295038953424,-0.0009770558681339025,1.000460147857666,0.0,0.0,0.0,0.35188162326812744,2.3962864875793457,4.796574115753174,-63.69126892089844,0
1070.3959999999988,-0.00019394373521208763,-0.00019536730542313308,-2.0200450308038853e-05,0.0,0.0,0.0,0.0,0.0012090192176401615,-0.0005467091104947031,6.140068580862135e-05,0.999700129032135,0.0,0.0,0.0,0.3511817753314972,2.387314558029175,4.77836799621582,-63.564598083496094,0
1080.2979999999989,-0.00012138199963374063,-0.0002625256893225014,4.9675469199428335e-05,0.0,0.0,0.0,0.0,-0.00035068043507635593,0.00209738384000957,-0.004509240388870239,1.0023586750030518,0.0,0.0,0.0,0.3518122732639313,2.3849496841430664,4.776473522186279,-63.67871856689453,0
1090.223,-0.0001700838329270482,-0.00018504264880903065,-3.95204506276059e-06,0.0,0.0,0.0,0.0,-0.0023880351800471544,0.0012072180397808552,-0.0022634954657405615,1.0022369623184204,0.0,0.0,0.0,0.3521876931190491,2.3825948238372803,4.7784953117370605,-63.746673583984375,0
1100.1219999999994,-0.00011982889554928988,-0.0002556348918005824,5.82584943913389e-05,0.0,0.0,0.0,0.0,-0.0008183900499716401,0.0026501300744712353,0.0025452361442148685,1.001457691192627,0.0,0.0,0.0,0.35158467292785645,2.3893256187438965,4.771733283996582,-63.63752365112305,0
1110.045,-0.00016711861826479435,-0.0001782272447599098,6.594392289116513e-06,0.0,0.0,0.0,0.0,-0.0005598843563348055,0.001987270312383771,-0.0001490552385803312,1.000657081604004,0.0,0.0,0.0,0.3513764441013336,2.3831191062927246,4.767398357391357,-63.59983444213867,0
1119.9470000000001,-0.00010068712435895577,-0.0002568003546912223,7.300661673070863e-05,0.0,0.0,0.0,0.0,-0.0004481397627387196,0.002704214071854949,0.003183774184435606,1.0003023147583008,0.0,0.0,0.0,0.3504527807235718,2.382866144180298,4.751187801361084,-63.43265151977539,0
1129.8629999999994,-0.00011496344086481258,-0.00017228673095814884,-1.70666171470657e-05,0.0,0.0,0.0,0.0,0.0028928639367222786,0.002331030322238803,-0.0034619697835296392,1.0006495714187622,0.0,0.0,0.0,0.35187169909477234,2.3776986598968506,4.730478763580322,-63.68947219848633,0
1139.7649999999994,-0.0001040845672832802,-0.00023553540813736618,3.480552550172433e-05,0.0,0.0,0.0,0.0,-0.002477920614182949,0.00249081919901073,-0.0007535179029218853,1.0007297992706299,0.0,0.0,0.0,0.351261705160141,2.3769028186798096,4.732875347137451,-63.57906723022461,0
1149.687,-0.00010856967128347605,-0.00010411326366011053,-5.2583436627173796e-05,0.0,0.0,0.0,0.0,-0.0038320934399962425,0.0021315482445061207,-0.0005955599481239915,1.000793695449829,0.0,0.0,0.0,0.35688596963882446,2.4115869998931885,4.746797561645508,-64.59707641601562,0
1159.5909999999985,-0.00010358416329836473,-0.0001596951187821105,-5.008082553104032e-06,0.0,0.0,0.0,0.0,0.0019602763932198286,-0.004948304500430822,-0.0011167792836204171,0.9990954399108887,0.0,0.0,0.0,0.35645896196365356,2.420872449874878,4.734559535980225,-64.51978302001953,0
1169.5099999999984,-0.0001321353774983436,-5.3037016186863184e-05,-7.773348625050858e-05,0.0,0.0,0.0,0.0,-0.0009981152834370732,0.0033639860339462757,-0.0025417988654226065,0.9992144703865051,0.0,0.0,0.0,0.3551504611968994,2.4156861305236816,4.737306118011475,-64.28294372558594,0
1179.4139999999989,-8.93669348442927e-05,-0.0001386187068419531,-3.496349381748587e-05,0.0,0.0,0.0,0.0,0.0018663029186427593,-0.0006574341678060591,-0.0010524479439482093,0.9996330738067627,0.0,0.0,0.0,0.3547341227531433,2.4148497581481934,4.733681678771973,-64.20758056640625,0
1189.3329999999987,-0.00012290636368561536,-5.933050488238223e-05,-0.00011664786870824173,0.0,0.0,0.0,0.0,-0.0013998756185173988,-0.0017590092029422522,0.0016807205975055695,0.9996041059494019,0.0,0.0,0.0,0.34742090106010437,2.440410614013672,4.7553300857543945,-62.88387680053711,0
1199.2330000000002,-5.320883428794332e-05,-0.00011910315515706316,-5.561323996516876e-05,0.0,0.0,0.0,0.0,0.00011651998647721484,-0.0004774880362674594,0.0012225741520524025,1.001367449760437,0.0,0.0,0.0,0.347947359085083,2.4341275691986084,4.748770236968994,-62.979164123535156,0
1209.1539999999986,-0.00010001490591093898,-2.7945716283284128e-05,-0.00011551546776900068,0.0,0.0,0.0,0.0,-0.0030079884454607964,0.0006180766504257917,4.951726441504434e-05,1.0031285285949707,0.0,0.0,0.0,0.354022741317749,2.456394672393799,4.7626800537109375,-64.07882690429688,0
1219.054,-4.39665382145904e-05,-9.560064791003242e-05,-6.385261804098263e-05,0.0,0.0,0.0,0.0,0.00044323602924123406,0.0010949689894914627,-0.0020484519191086292,1.0002684593200684,0.0,0.0,0.0,0.35507312417030334,2.4611072540283203,4.761533260345459,-64.2689437866211,0
1228.9650000000001,-9.313514601672068e-05,-4.252731378073804e-05,-0.0001370407990179956,0.0,0.0,0.0,0.0,0.002508842619135976,-0.0025312898214906454,0.0011311504058539867,0.99770188331604,0.0,0.0,0.0,0.34860026836395264,2.4745473861694336,4.763822555541992,-63.09734344482422,0
1238.8799999999992,-7.656226080143824e-05,-0.00010693162039387971,-9.909643995342776e-05,0.0,0.0,0.0,0.0,0.0026510923635214567,-0.003811721922829747,-0.0018995541613548994,0.9997456073760986,0.0,0.0,0.0,0.3480352461338043,2.4746930599212646,4.762109756469727,-62.99506759643555,0
1248.7959999999985,-0.00021544814808294177,-0.00014453253243118525,-9.4358685601037e-05,0.0,0.0,0.0,0.0,-0.0015818492975085974,-0.004122476559132338,-0.0017939674435183406,1.0021549463272095,0.0,0.0,0.0,0.34732070565223694,2.4685442447662354,4.764906883239746,-62.8657341003418,0
1258.699999999999,-0.00023037214123178273,-5.68989162275102e-06,-0.00020244214101694524,0.0,0.0,0.0,0.0,0.0002354584721615538,-0.0059266178868710995,-0.0006236995104700327,1.0013022422790527,0.0,0.0,0.0,0.3536314368247986,2.5104172229766846,4.789048671722412,-64.00799560546875,0
1268.6099999999988,-0.0003737777005881071,-3.236800694139674e-05,-0.00020512749324552715,0.0,0.0,0.0,0.0,-0.00028892012778669596,0.001852379646152258,0.00015572804841212928,0.9991773366928101,0.0,0.0,0.0,0.35337528586387634,2.5096116065979004,4.798355579376221,-63.96162796020508,0
1278.5239999999994,-0.0004986980347894132,1.4867273421259597e-05,-0.00023031570890452713,0.0,0.0,0.0,0.0,-0.00017506036965642124,-0.0036994428373873234,0.00195464794524014,1.0000079870224,0.0,0.0,0.0,0.35283297300338745,2.5116844177246094,4.800999641418457,-63.863468170166016,0
1288.438,-0.0006493786349892616,-1.0601333997328766e-05,-0.00023325222718995064,0.0,0.0,0.0,0.0,-0.0022205887362360954,-0.0016785541083663702,0.00036981410812586546,0.999501645565033,0.0,0.0,0.0,0.353145956993103,2.503416061401367,4.804793357849121,-63.92012023925781,0
1298.3439999999991,-0.0007269800407811999,7.456203456968069e-05,-0.0002995602844748646,0.0,0.0,0.0,0.0,-0.001700841123238206,-0.0007076258771121502,-0.0027722979430109262,1.0013415813446045,0.0,0.0,0.0,0.3499561548233032,2.5360641479492188,4.836233139038086,-63.34275817871094,0
1308.2569999999996,-0.0008782478398643434,5.3069074056111276e-05,-0.0003068663354497403,0.0,0.0,0.0,0.0,0.0028846138156950474,0.0012932360405102372,-0.0007784739718772471,1.000169038772583,0.0,0.0,0.0,0.35105058550834656,2.536710023880005,4.830685138702393,-63.540855407714844,0
1318.1819999999989,-0.000899382634088397,0.00017140658746939152,-0.0004164834099356085,0.0,0.0,0.0,0.0,-0.0008533423533663154,0.0015079510631039739,-0.0008755883318372071,0.998954713344574,0.0,0.0,0.0,0.3554447591304779,2.587681531906128,4.885910987854004,-64.3362045288086,0
1328.0869999999995,-0.001043498981744051,0.00015826549497433007,-0.0004305659094825387,0.0,0.0,0.0,0.0,0.0016671835910528898,0.005551591049879789,-0.004953673575073481,0.9999013543128967,0.0,0.0,0.0,0.3563198745250702,2.5871787071228027,4.878070831298828,-64.49459838867188,0
1338.0010000000002,-0.0010481029748916626,0.0002009307936532423,-0.0005694965366274118,0.0,0.0,0.0,0.0,0.001095167244784534,0.0027061915025115013,-0.0007518282509408891,1.0005943775177002,0.0,0.0,0.0,0.36094582080841064,2.609273672103882,4.932971954345703,-65.33191680908203,0
1347.905999999999,-0.0011861211387440562,0.00019097418407909572,-0.0005940678529441357,0.0,0.0,0.0,0.0,0.000505878240801394,0.00214482843875885,-0.0017551153432577848,0.9998969435691833,0.0,0.0,0.0,0.3600321412086487,2.603527784347534,4.916348457336426,-65.16653442382812,0
1357.813,-0.0011920463293790817,0.00027903635054826736,-0.0006911262171342969,0.0,0.0,0.0,0.0,-0.0011091908672824502,-0.00650754664093256,0.003641141578555107,1.0002542734146118,0.0,0.0,0.0,0.3590962290763855,2.6465978622436523,4.958907604217529,-64.99713134765625,0
1367.726999999999,-0.001326782745309174,0.0002742101496551186,-0.0007211646880023181,0.0,0.0,0.0,0.0,0.0004691288631875068,0.005620705895125866,-0.005715006031095982,0.9989036321640015,0.0,0.0,0.0,0.3587803244590759,2.647942304611206,4.953145980834961,-64.93994903564453,0
1377.643,-0.0013253561919555068,0.00034861479070968926,-0.0008209134684875607,0.0,0.0,0.0,0.0,-0.00039948453195393085,0.0012817481765523553,0.0011991213541477919,1.000626564025879,0.0,0.0,0.0,0.3524014949798584,2.68298602104187,4.993597984313965,-63.785377502441406,0
1387.548999999999,-0.0014530338812619448,0.00035025039687752724,-0.0008572369697503746,0.0,0.0,0.0,0.0,-8.782706572674215e-05,-0.004540494177490473,0.002175514353439212,1.0026358366012573,0.0,0.0,0.0,0.3509374260902405,2.6851425170898438,4.975554466247559,-63.5203742980957,0
1397.464,-0.0014510947512462735,0.00042533903615549207,-0.0009513415861874819,0.0,0.0,0.0,0.0,-0.0017783421790227294,0.003081515897065401,0.001575568108819425,0.997462272644043,0.0,0.0,0.0,0.35127124190330505,2.7128145694732666,5.020267009735107,-63.58079528808594,0
1407.3709999999992,-0.0015736136119812727,0.0004339418956078589,-0.0009908375795930624,0.0,0.0,0.0,0.0,-0.0013227892341092229,0.000729833438526839,0.002095696981996298,0.998514711856842,0.0,0.0,0.0,0.35129454731941223,2.7087650299072266,5.032590866088867,-63.58501052856445,0
1417.2829999999994,-0.001573730492964387,0.0005094673833809793,-0.0010836889268830419,0.0,0.0,0.0,0.0,0.0022596772760152817,0.002309593837708235,0.0017404260579496622,1.0005794763565063,0.0,0.0,0.0,0.34991806745529175,2.7408204078674316,5.077790260314941,-63.33586502075195,0
1427.196,-0.0016950571443885565,0.0005243534687906504,-0.0011299008037894964,0.0,0.0,0.0,0.0,8.227276703109965e-05,0.0006452113157138228,0.0003589675761759281,0.9984548687934875,0.0,0.0,0.0,0.3501044809818268,2.7355105876922607,5.060152530670166,-63.36960983276367,0
1437.1039999999994,-0.001686540199443698,0.0005835285410284996,-0.0012409902410581708,0.0,0.0,0.0,0.0,0.001004365854896605,0.0016225966392084956,-0.0019333952805027366,0.9990000128746033,0.0,0.0,0.0,0.3529040217399597,2.755983352661133,5.095165252685547,-63.87632751464844,0
1447.0109999999986,-0.001807573949918151,0.0006019422435201705,-0.001293783774599433,0.0,0.0,0.0,0.0,-0.002830463694408536,-0.002934894757345319,0.0007089183200150728,1.0003371238708496,0.0,0.0,0.0,0.35174381732940674,2.7497873306274414,5.0861496925354,-63.66632843017578,0
1456.9229999999989,-0.0019345663022249937,0.0006195328896865249,-0.0013470773119479418,0.0,0.0,0.0,0.0,-0.0008315610466524959,-0.000865488254930824,-0.0012724727857857943,0.998030960559845,0.0,0.0,0.0,0.3520353436470032,2.748892307281494,5.069894313812256,-63.71910095214844,0
1466.8329999999987,-0.00206696055829525,0.0006363227730616927,-0.0014004617696627975,0.0,0.0,0.0,0.0,-0.0007686959579586983,-0.0006358507089316845,0.0014574294909834862,1.0000284910202026,0.0,0.0,0.0,0.3516080975532532,2.747124195098877,5.070686340332031,-63.64176559448242,0
1476.7529999999988,-0.0022036186419427395,0.0006525504868477583,-0.0014547319151461124,0.0,0.0,0.0,0.0,0.0007718870765529573,-0.0017498828237876296,0.0037878933362662792,1.0005793571472168,0.0,0.0,0.0,0.3512629568576813,2.739184617996216,5.066735744476318,-63.57929229736328,0
1486.6659999999993,-0.002343888161703944,0.0006685394910164177,-0.0015091843670234084,0.0,0.0,0.0,0.0,-0.0012331655016168952,0.0056730760261416435,0.0013727103359997272,0.9988701343536377,0.0,0.0,0.0,0.3507697284221649,2.734008312225342,5.052631855010986,-63.490020751953125,0
1496.5689999999995,-0.002487374236807227,0.0006842357688583434,-0.0015633434522897005,0.0,0.0,0.0,0.0,-0.00158627366181463,-0.004805488977581263,-0.003698912216350436,0.9985473155975342,0.0,0.0,0.0,0.350818932056427,2.72485613822937,5.051534175872803,-63.498924255371094,0
1506.4789999999994,-0.0026342638302594423,0.000699809635989368,-0.0016182896215468645,0.0,0.0,0.0,0.0,-0.003000726690515876,0.0014681388856843114,-0.0030670699197798967,0.9994298815727234,0.0,0.0,0.0,0.3500775098800659,2.7211267948150635,5.031561374664307,-63.364723205566406,0
1516.3919999999998,-0.0027853099163621664,0.0007152755279093981,-0.0016742555890232325,0.0,0.0,0.0,0.0,-0.0026340363547205925,-0.00038627779576927423,-0.0008772017317824066,1.0019068717956543,0.0,0.0,0.0,0.34967806935310364,2.727813959121704,5.031681060791016,-63.292423248291016,0
1526.3049999999985,-0.002940757665783167,0.0007303569000214338,-0.001730307936668396,0.0,0.0,0.0,0.0,0.0011020665988326073,0.003889154177159071,0.0010183859849348664,1.0025018453598022,0.0,0.0,0.0,0.3491271436214447,2.734933614730835,5.032159328460693,-63.19270706176758,0
1536.214,-0.0031006084755063057,0.0007449596305377781,-0.0017850056756287813,0.0,0.0,0.0,0.0,0.0005176839185878634,0.001729107927531004,-0.0023311241529881954,1.0018006563186646,0.0,0.0,0.0,0.34860163927078247,2.7283835411071777,5.029937267303467,-63.097591400146484,0
1546.1219999999994,-0.0032647743355482817,0.0007588632288388908,-0.0018372719641774893,0.0,0.0,0.0,0.0,0.001793138450011611,0.002709269756451249,-0.00023041160602588207,0.9995126128196716,0.0,0.0,0.0,0.34799960255622864,2.7222375869750977,5.012071132659912,-62.988616943359375,0
1556.0329999999994,-0.00020721320470329374,-0.0004913017619401217,0.0005110020283609629,0.0,0.0,0.0,0.0,-0.0023100338876247406,-0.0035253060050308704,0.0009612844442017376,1.0012530088424683,0.0,0.0,0.0,0.3430761992931366,2.554011344909668,5.436671733856201,-62.09747314453125,0
1565.9439999999995,-0.0002574695972725749,-0.0005240464815869927,0.0005342207732610404,0.0,0.0,0.0,0.0,-0.0043918960727751255,-0.007537644822150469,-0.0025400968734174967,0.9997231960296631,0.0,0.0,0.0,0.34208643436431885,2.5489919185638428,5.431985378265381,-61.9183235168457,0
1575.8580000000002,-0.00031016150023788214,-0.0005572088994085789,0.0005582246812991798,0.0,0.0,0.0,0.0,-0.003232558025047183,0.0008154345559887588,6.343654968077317e-05,0.9973905682563782,0.0,0.0,0.0,0.34175992012023926,2.545311689376831,5.4371161460876465,-61.85922622680664,0
1585.7749999999996,-0.0003650267899502069,-0.0005910221370868385,0.000582062522880733,0.0,0.0,0.0,0.0,-0.0007368665537796915,0.0027622052002698183,-0.001244995859451592,0.9990372061729431,0.0,0.0,0.0,0.3415566682815552,2.5448899269104004,5.429831504821777,-61.82243347167969,0
1595.690999999999,-0.00042239855974912643,-0.0006263175746425986,0.0006042989552952349,0.0,0.0,0.0,0.0,-0.001958539942279458,-0.00019937506294809282,0.0013946001417934895,0.999353289604187,0.0,0.0,0.0,0.3411121964454651,2.5451414585113525,5.42534065246582,-61.74198532104492,0
1605.5900000000001,-0.0005439328961074352,-0.0007012258865870535,0.0006452897214330733,0.0,0.0,0.0,0.0,-0.00041808243258856237,0.0011365384561941028,-0.0007891262066550553,0.9992193579673767,0.0,0.0,0.0,0.34058061242103577,2.54187273979187,5.414870738983154,-61.64577102661133,0
1615.5079999999998,-0.0002778563357423991,-0.0006751581677235663,0.0007564194966107607,0.0,0.0,0.0,0.0,0.0004579348606057465,-0.0008318605832755566,0.0013370030792430043,1.000173807144165,0.0,0.0,0.0,0.34553346037864685,2.546745538711548,5.476369380950928,-62.54224395751953,0
1625.4169999999995,-0.00038368781679309905,-0.0007535569602623582,0.0008081340929493308,0.0,0.0,0.0,0.0,0.0007180824759416282,-0.00211333273909986,0.0024466535542160273,0.9999922513961792,0.0,0.0,0.0,0.3454057276248932,2.537621259689331,5.449990749359131,-62.51911926269531,0
1635.3319999999985,-0.0002647414803504944,-0.0007108441786840558,0.0008542834548279643,0.0,0.0,0.0,0.0,-0.003565586870536208,-0.0035921125672757626,0.0001357464789180085,1.0015493631362915,0.0,0.0,0.0,0.3454057276248932,2.537621259689331,5.449990749359131,-62.51911926269531,0
1645.2339999999986,-0.0003219647624064237,-0.0007547522545792162,0.0008869919111020863,0.0,0.0,0.0,0.0,-0.0013160282978788018,0.002810543868690729,-0.0003834350500255823,1.0018023252487183,0.0,0.0,0.0,0.34606337547302246,2.5412955284118652,5.450605869293213,-62.63815689086914,0
1655.152,-0.000284156936686486,-0.0007446694071404636,0.0009554675198160112,0.0,0.0,0.0,0.0,-0.0029762457124888897,-0.0009502152679488063,-0.00037940291804261506,1.0000500679016113,0.0,0.0,0.0,0.34624284505844116,2.5456581115722656,5.456474304199219,-62.67064666748047,0
1665.065999999999,-0.00033660588087514043,-0.0007825889042578638,0.0009912558598443866,0.0,0.0,0.0,0.0,0.004115735180675983,0.008133255876600742,0.00255166320130229,1.0011603832244873,0.0,0.0,0.0,0.3448256850242615,2.54695725440979,5.452134132385254,-62.41413879394531,0
1674.976999999999,-0.00027159485034644604,-0.0007998248329386115,0.0010298684937879443,0.0,0.0,0.0,0.0,0.002612523501738906,-0.0017843758687376976,0.003970076330006123,1.0003467798233032,0.0,0.0,0.0,0.34380796551704407,2.5449912548065186,5.446071147918701,-62.229923248291016,0
1684.884,-4.572038596961647e-05,-0.00011878812074428424,-0.0001780005550244823,0.0,0.0,0.0,0.0,0.0009829873451963067,0.00255485693924129,-0.0007949836435727775,0.9998780488967896,0.0,0.0,0.0,0.3439679741859436,2.6704204082489014,5.500641822814941,-62.258888244628906,0
1694.7969999999987,-1.0344469046685845e-05,-0.00012189398694317788,-0.00011874527262989432,0.0,0.0,0.0,0.0,0.00020043241966050118,-0.002731703221797943,-0.00042125448817387223,0.9987341165542603,0.0,0.0,0.0,0.3445640206336975,2.66499662399292,5.484424591064453,-62.36677169799805,0
1704.6989999999987,-3.2891595765249804e-05,-6.833083898527548e-05,-0.00015270221047103405,0.0,0.0,0.0,0.0,0.001870173029601574,-0.0014890172751620412,0.001343712443485856,0.9995940923690796,0.0,0.0,0.0,0.3454270362854004,2.6611485481262207,5.4740400314331055,-62.52298355102539,0
1714.616,-3.506794382701628e-05,-4.8065223381854594e-05,-0.00010861788177862763,0.0,0.0,0.0,0.0,-0.0018167482921853662,-0.0003809712070506066,0.002036499325186014,1.0009207725524902,0.0,0.0,0.0,0.34472981095314026,2.6497979164123535,5.466283798217773,-62.39678192138672,0
1724.5239999999994,-8.262402116088197e-05,-3.1113624572753906e-05,-0.00010991749149980024,0.0,0.0,0.0,0.0,0.0005304907681420445,-0.0013244178844615817,0.0036346563138067722,0.9998977780342102,0.0,0.0,0.0,0.3441610336303711,2.6480865478515625,5.459378719329834,-62.29383087158203,0
1734.4529999999995,-7.874405855545774e-05,-3.5932822356699035e-05,-8.539252303307876e-05,0.0,0.0,0.0,0.0,-0.0015946862986311316,0.003554381662979722,-0.0015806067967787385,0.9997870326042175,0.0,0.0,0.0,0.3442051112651825,2.6483590602874756,5.46061897277832,-62.30181121826172,0
1744.3509999999987,-0.00016175014025066048,-6.75374612910673e-05,-6.203392695169896e-05,0.0,0.0,0.0,0.0,-0.001256733201444149,-0.0032008890993893147,0.0003849233908113092,1.0032156705856323,0.0,0.0,0.0,0.3451671004295349,2.644263744354248,5.4487175941467285,-62.47593307495117,0
1754.2659999999996,-8.449131564702839e-05,-6.595924787689e-05,-1.9044153987124446e-06,0.0,0.0,0.0,0.0,-0.0007470485288649797,-0.0028103170916438103,0.0006515471031889319,1.0007866621017456,0.0,0.0,0.0,0.3445407450199127,2.6458518505096436,5.442963123321533,-62.36256408691406,0
1764.173999999999,-0.00011932894994970411,-5.25310097145848e-05,-2.454844616295304e-05,0.0,0.0,0.0,0.0,0.002110919915139675,0.0030784928239881992,-0.00023633899400010705,1.0009608268737793,0.0,0.0,0.0,0.34388503432273865,2.643547296524048,5.445267677307129,-62.24386978149414,0
1774.101999999999,-7.076793554006144e-05,-0.00010191030742134899,-8.46845807700447e-07,0.0,0.0,0.0,0.0,-0.0013676669914275408,0.0011146508622914553,0.0006691195885650814,1.0008955001831055,0.0,0.0,0.0,0.3434039056301117,2.6387531757354736,5.435466289520264,-62.15679168701172,0
1783.9959999999992,-0.00010399178427178413,-8.990630158223212e-05,-2.9167395041440614e-05,0.0,0.0,0.0,0.0,0.0018535304116085172,-0.004388216882944107,0.0016684175934642553,1.0009517669677734,0.0,0.0,0.0,0.34273555874824524,2.6346492767333984,5.424670696258545,-62.03581619262695,0
1793.914999999999,-3.6209519748808816e-05,-0.00011810736759798601,1.9368964785826392e-05,0.0,0.0,0.0,0.0,-0.0007827485096640885,0.0012923862086609006,-0.0012328310403972864,1.0022324323654175,0.0,0.0,0.0,0.3428339660167694,2.6400516033172607,5.420112609863281,-62.05363082885742,0
1803.816999999999,-8.465634164167568e-05,-0.0001040764109347947,1.626580342417583e-05,0.0,0.0,0.0,0.0,-0.0002564932801760733,0.0011718488531187177,0.0005376226617954671,1.0007551908493042,0.0,0.0,0.0,0.3430185616016388,2.6323490142822266,5.410899639129639,-62.0870475769043,0
1813.7379999999994,-8.549482299713418e-05,-0.00012728564615827054,4.839279790758155e-05,0.0,0.0,0.0,0.0,1.3167305041861255e-05,0.00014486427244264632,0.0037587485276162624,0.9994673132896423,0.0,0.0,0.0,0.3422790765762329,2.6370296478271484,5.410533905029297,-61.953189849853516,0
1823.634,-7.052686851238832e-05,-4.818939123651944e-05,-1.356030406896025e-05,0.0,0.0,0.0,0.0,-0.0013807443901896477,0.002984811784699559,0.0005937382811680436,0.9997546672821045,0.0,0.0,0.0,0.35058853030204773,2.64350962638855,5.416666030883789,-63.457218170166016,0
1833.5569999999989,-2.561225846875459e-05,-9.754106577020139e-05,2.1080879378132522e-05,0.0,0.0,0.0,0.0,-0.0004667262837756425,-0.0020458861254155636,-0.00030845488072372973,0.9999793767929077,0.0,0.0,0.0,0.3517415523529053,2.647956371307373,5.403047561645508,-63.665924072265625,0
1843.4560000000001,-4.1070921724895015e-05,-6.583290087291971e-05,-2.655747448443435e-05,0.0,0.0,0.0,0.0,-0.0017001942032948136,0.004303901456296444,-0.0018111708341166377,1.0001271963119507,0.0,0.0,0.0,0.3607364892959595,2.647674083709717,5.402812480926514,-65.29402923583984,0
1853.3849999999984,-4.666061431635171e-05,-0.00011679429007926956,-1.4209523214958608e-05,0.0,0.0,0.0,0.0,0.0024419573601335287,0.0005998396663926542,0.0015015911776572466,1.0009938478469849,0.0,0.0,0.0,0.3599959909915924,2.644435405731201,5.401788711547852,-65.15998840332031,0
1863.2759999999998,7.319960332097253e-06,1.2098952538508456e-05,-0.00012270832667127252,0.0,0.0,0.0,0.0,6.307216244749725e-05,-0.003918286878615618,0.0018057572888210416,1.0026596784591675,0.0,0.0,0.0,0.35114747285842896,2.6694729328155518,5.404029846191406,-63.55839157104492,0
1873.200999999999,1.1260380233579781e-05,-3.422697045607492e-05,-0.00010913718870142475,0.0,0.0,0.0,0.0,-0.0006905282498337328,0.0018582558259367943,0.004682347644120455,1.0017657279968262,0.0,0.0,0.0,0.3507204055786133,2.6638126373291016,5.406607627868652,-63.48109436035156,0
1883.0990000000002,2.575883081590291e-05,5.29656681464985e-05,-0.00018900864233728498,0.0,0.0,0.0,0.0,0.0002695226576179266,0.001463003340177238,0.0014492686605080962,1.0018517971038818,0.0,0.0,0.0,0.35117122530937195,2.6615283489227295,5.4042181968688965,-63.56269073486328,0
1893.0169999999998,-2.7034834602090996e-06,3.237423243263038e-06,-0.00019165808043908328,0.0,0.0,0.0,0.0,0.0008284896030090749,-0.001372016966342926,-0.00044511337182484567,1.0019887685775757,0.0,0.0,0.0,0.35094836354255676,2.663407564163208,5.399598598480225,-63.5223503112793,0
1902.9219999999987,-3.0397504815482534e-05,4.7406159865204245e-05,-0.00023940473329275846,0.0,0.0,0.0,0.0,0.0023801045026630163,0.0016053073341026902,-5.508782487595454e-05,0.999332845211029,0.0,0.0,0.0,0.350093275308609,2.663372278213501,5.391873836517334,-63.36758041381836,0
1912.842999999999,-1.6908130419324152e-05,-1.3596307326224633e-05,-0.00023480464005842805,0.0,0.0,0.0,0.0,0.002921736566349864,0.002697309711948037,0.003501943312585354,1.0014071464538574,0.0,0.0,0.0,0.3504548966884613,2.6586146354675293,5.382602214813232,-63.43303680419922,0
1922.7469999999994,-7.483179797418416e-05,2.218962436018046e-05,-0.0002479619288351387,0.0,0.0,0.0,0.0,-0.002778263296931982,-0.0007364628836512566,0.005859070457518101,1.0010857582092285,0.0,0.0,0.0,0.3504640758037567,2.6516289710998535,5.372991561889648,-63.4346923828125,0
1932.6679999999997,-3.667642886284739e-05,-2.9862127121305093e-05,-0.0002279073087265715,0.0,0.0,0.0,0.0,-0.00028814043616876006,-0.00013153129839338362,-0.0005915056681260467,0.9990699887275696,0.0,0.0,0.0,0.3515958786010742,2.6518635749816895,5.369420528411865,-63.639549255371094,0
1942.565999999999,-0.00020272497204132378,-3.703088441397995e-05,-0.00021922882297076285,0.0,0.0,0.0,0.0,-0.002255414379760623,-0.0022120983339846134,0.0013132941676303744,1.0015883445739746,0.0,0.0,0.0,0.35122764110565186,2.6465377807617188,5.356634616851807,-63.57290267944336,0
1952.4849999999988,-3.4764118026942015e-05,-5.479069659486413e-05,-0.00017190619837492704,0.0,0.0,0.0,0.0,-2.6390632683614967e-06,0.0006136461743153632,0.0032474237959831953,1.0016576051712036,0.0,0.0,0.0,0.35122764110565186,2.6465377807617188,5.356634616851807,-63.57290267944336,0
1962.3889999999992,-0.00022081920178607106,-0.00010852739069378003,-0.00015435530804097652,0.0,0.0,0.0,0.0,-0.0004977920325472951,0.003964998759329319,-0.0009177942993119359,0.9990381598472595,0.0,0.0,0.0,0.3509009778499603,2.645435094833374,5.3397955894470215,-63.51377868652344,0
1972.3149999999987,-3.376400491106324e-05,-0.0001309398649027571,-0.00010160432429984212,0.0,0.0,0.0,0.0,0.0019244396826252341,0.0038922519888728857,-0.0020446619018912315,1.00022554397583,0.0,0.0,0.0,0.3509009778499603,2.645435094833374,5.3397955894470215,-63.51377868652344,0
1982.2129999999997,-0.00011095284571638331,-0.00012954595149494708,-0.00010980903607560322,0.0,0.0,0.0,0.0,-0.002131784800440073,0.005810338072478771,0.0030493461526930332,1.0005407333374023,0.0,0.0,0.0,0.3503013253211975,2.64377498626709,5.318880558013916,-63.405235290527344,0
1992.1349999999984,-5.078404865344055e-05,-0.0001522745587863028,-4.4470521970652044e-05,0.0,0.0,0.0,0.0,-0.0009849771158769727,-0.0016494859009981155,0.0002824900730047375,1.000785231590271,0.0,0.0,0.0,0.3496900200843811,2.6424174308776855,5.303467750549316,-63.29458999633789,0
2002.0379999999986,-0.00011159665154991671,-0.00013255904195830226,-5.8395824453327805e-05,0.0,0.0,0.0,0.0,-0.0006694091134704649,0.0019042381318286061,0.0017583228182047606,1.0014259815216064,0.0,0.0,0.0,0.35020676255226135,2.647167921066284,5.3004560470581055,-63.388126373291016,0
2011.9609999999993,-8.180331496987492e-05,-0.00016650735051371157,-9.16116732696537e-06,0.0,0.0,0.0,0.0,-0.00047434575390070677,0.0008771774591878057,-0.0003268633154220879,1.0011839866638184,0.0,0.0,0.0,0.3485492467880249,2.649522304534912,5.28970193862915,-63.08810806274414,0
2021.8619999999992,-0.00015349748719017953,-0.0001477462355978787,-5.004340437153587e-06,0.0,0.0,0.0,0.0,-0.001799248275347054,-0.00510408403351903,-0.0008801853400655091,1.000064492225647,0.0,0.0,0.0,0.3493155241012573,2.647251605987549,5.283777236938477,-63.226806640625,0
2031.7869999999984,-5.483512723003514e-05,-0.00017785694217309356,7.285022729774937e-05,0.0,0.0,0.0,0.0,-0.0003479230508673936,0.0037378219421952963,0.0020912245381623507,0.9983060956001282,0.0,0.0,0.0,0.3493784964084625,2.6455447673797607,5.288031101226807,-63.23820114135742,0
2041.6799999999985,-0.00011905800784006715,-0.00016331694496329874,7.102427480276674e-05,0.0,0.0,0.0,0.0,-0.001880854251794517,0.0016020301263779402,-0.00521709444001317,0.9994760751724243,0.0,0.0,0.0,0.3495153784751892,2.642878770828247,5.282577991485596,-63.26297378540039,0
2051.602999999999,-0.00012944222544319928,-0.00017553211364429444,0.00012209672422613949,0.0,0.0,0.0,0.0,8.326570241479203e-05,-0.0031388376373797655,0.005291091278195381,0.9986690282821655,0.0,0.0,0.0,0.3492630422115326,2.6387360095977783,5.271461009979248,-63.21730422973633,0
2061.499,-0.00014768053370062262,-0.0001117610081564635,7.221026316983625e-05,0.0,0.0,0.0,0.0,-0.0010441569611430168,0.0002203346521127969,0.002279310254380107,0.9999804496765137,0.0,0.0,0.0,0.3482169508934021,2.6389544010162354,5.265164852142334,-63.0279655456543,0
2071.42,-9.713993495097384e-05,-0.0001767209469107911,0.0001097070417017676,0.0,0.0,0.0,0.0,0.0005356816691346467,0.003409111639484763,-0.00020816651522181928,1.0009230375289917,0.0,0.0,0.0,0.34838569164276123,2.63602876663208,5.257906913757324,-63.05850601196289,0
2081.3269999999993,-8.065879956120625e-05,-5.261905607767403e-05,3.1106897949939594e-05,0.0,0.0,0.0,0.0,0.0010817915899679065,0.0002002449764404446,0.0021580352913588285,0.9994727373123169,0.0,0.0,0.0,0.347825825214386,2.63014817237854,5.2427473068237305,-62.9571647644043,0
2091.243999999999,-2.9089369490975514e-05,-0.0001049945130944252,7.38294911570847e-05,0.0,0.0,0.0,0.0,-0.000507499324157834,-0.0021378512028604746,-0.001637522247619927,1.0005764961242676,0.0,0.0,0.0,0.347829669713974,2.6268067359924316,5.2353620529174805,-62.957862854003906,0
2101.143,-9.712592145660892e-05,-9.094446431845427e-05,5.634169792756438e-05,0.0,0.0,0.0,0.0,0.0006794414366595447,0.00131981261074543,-0.0021571959368884563,0.9990619421005249,0.0,0.0,0.0,0.3476090133190155,2.6290102005004883,5.23292875289917,-62.91792678833008,0
2111.0679999999993,-5.741602217312902e-05,-0.00016658940876368433,8.168958447640762e-05,0.0,0.0,0.0,0.0,-0.0015909888315945864,3.76738425984513e-05,0.005994486156851053,0.999606192111969,0.0,0.0,0.0,0.34740331768989563,2.6270387172698975,5.235816955566406,-62.88068771362305,0
