timestamp,stateEstimate.x,stateEstimate.y,stateEstimate.z,controller.cmd_thrust,controller.cmd_roll,controller.cmd_pitch,controller.cmd_yaw,controller.r_roll,controller.r_pitch,controller.r_yaw,controller.accelz,controller.actuatorThrust,controller.roll,controller.pitch,controller.yaw,controller.rollRate,controller.pitchRate,controller.yawRate,controller.ctr_yaw
0.0,-2.4708500859560445e-05,-0.00017158588161692023,-9.73183850874193e-05,0.0,0.0,0.0,0.0,-0.0031995291355997324,-0.00600081542506814,0.0030164679046720266,0.9995590448379517,0.0,0.0,0.0,0.33128637075424194,2.4561164379119873,4.713735103607178,-59.9634895324707,0
9.897999999999229,-9.334780042991042e-05,-0.00019912539573851973,-8.730806439416483e-05,0.0,0.0,0.0,0.0,-3.0109444196568802e-05,-0.0015241604996845126,-0.0007642479613423347,0.9984082579612732,0.0,0.0,0.0,0.3309997320175171,2.4580187797546387,4.717903137207031,-59.91161346435547,0
19.81500000000051,-6.24692183919251e-05,-0.00022220989922061563,-3.588988693081774e-05,0.0,0.0,0.0,0.0,-0.0014509264146909118,0.0017438166541978717,0.00017561214917805046,1.0002506971359253,0.0,0.0,0.0,0.33212774991989136,2.46066951751709,4.717162132263184,-60.115787506103516,0
29.721999999999753,-9.975955617846921e-05,-0.00019271111523266882,-4.513634485192597e-05,0.0,0.0,0.0,0.0,-0.0004094183095730841,-0.00028552039293572307,0.0011640106095001101,1.0025354623794556,0.0,0.0,0.0,0.33260294795036316,2.45979380607605,4.71417236328125,-60.2017936706543,0
39.654999999998836,-6.280717207118869e-05,-0.00022688257740810513,7.501148047595052e-06,0.0,0.0,0.0,0.0,0.0004501234507188201,0.0007079419447109103,-0.00015946582425385714,1.001423716545105,0.0,0.0,0.0,0.3317018151283264,2.4568676948547363,4.709527492523193,-60.038692474365234,0
49.54399999999987,-5.617623173748143e-05,-0.00016307855548802763,-4.2693289287853986e-05,0.0,0.0,0.0,0.0,-0.002807402750477195,1.2796469491149765e-05,0.0010581507813185453,0.9989830851554871,0.0,0.0,0.0,0.3310396373271942,2.455751419067383,4.704611778259277,-59.91883087158203,0
59.465000000000146,2.0562400095514022e-05,-0.00019730885105673224,1.900929601106327e-05,0.0,0.0,0.0,0.0,0.0007124863332137465,-0.0019944978412240744,-0.00022374294348992407,1.0011054277420044,0.0,0.0,0.0,0.33057501912117004,2.4540014266967773,4.700436115264893,-59.834739685058594,0
69.37199999999939,1.7386752006132156e-05,-0.00014186814951244742,-1.4623662536905613e-05,0.0,0.0,0.0,0.0,-0.0021919645369052887,0.002441296586766839,-0.0013273166259750724,1.0019829273223877,0.0,0.0,0.0,0.3318357467651367,2.4497289657592773,4.702169418334961,-60.06292724609375,0
79.30500000000029,-8.895312930690125e-06,-0.00017974115326069295,1.3130687875673175e-05,0.0,0.0,0.0,0.0,0.0013604130363091826,-0.0022285766899585724,-0.0007926190737634897,0.9999539852142334,0.0,0.0,0.0,0.3319587707519531,2.444894313812256,4.700412273406982,-60.0851936340332,0
89.19499999999971,-1.8522599930292927e-05,-0.00015659206837881356,-2.594742545625195e-05,0.0,0.0,0.0,0.0,-0.005410005338490009,-0.0075417435728013515,0.006290452554821968,0.9984446167945862,0.0,0.0,0.0,0.3315095901489258,2.444797992706299,4.696588516235352,-60.00389862060547,0
99.12799999999879,-3.727217699633911e-05,-0.00017906876746565104,1.3623476661450695e-05,0.0,0.0,0.0,0.0,-0.0013078668853268027,0.0038673558738082647,0.002112135523930192,1.0003823041915894,0.0,0.0,0.0,0.33144211769104004,2.4464097023010254,4.702665328979492,-59.99168395996094,0
109.02299999999923,-5.0595543143572286e-05,-0.0001540058437967673,-2.5259876565542072e-05,0.0,0.0,0.0,0.0,-0.0013433475978672504,-0.0012894859537482262,-0.0018688917625695467,0.9989382028579712,0.0,0.0,0.0,0.3312525451183319,2.447591781616211,4.702247142791748,-59.95737075805664,0
118.9390000000003,-7.975901098689064e-05,-0.00016353216778952628,1.9403714759391733e-05,0.0,0.0,0.0,0.0,-0.0012223164085298777,-0.0009444241295568645,8.779807103564963e-05,0.9984897375106812,0.0,0.0,0.0,0.3305477797985077,2.4479050636291504,4.691064357757568,-59.829803466796875,0
128.84499999999935,-7.835756696294993e-05,-0.00012406321184244007,-4.192622873233631e-05,0.0,0.0,0.0,0.0,-0.0007919342606328428,0.00035652657970786095,-0.0006295585772022605,0.9980372786521912,0.0,0.0,0.0,0.3372615575790405,2.459151029586792,4.70068883895874,-61.045013427734375,0
138.76599999999962,-5.893932029721327e-05,-0.00016615928325336426,-3.1610311452823225e-06,0.0,0.0,0.0,0.0,0.000705805781763047,-0.0009627970866858959,0.004920502658933401,0.9990911483764648,0.0,0.0,0.0,0.33797556161880493,2.4552102088928223,4.694802284240723,-61.174251556396484,0
148.66699999999946,-7.248937617987394e-05,-0.00012398947728797793,-4.742411329061724e-05,0.0,0.0,0.0,0.0,0.0026109640020877123,0.00340949185192585,-0.0009616361348889768,1.000810980796814,0.0,0.0,0.0,0.3390100598335266,2.453514814376831,4.692339897155762,-61.36149597167969,0
158.58799999999974,-8.498421084368601e-05,-0.00015823535795789212,-1.6425919966422953e-05,0.0,0.0,0.0,0.0,0.0010675550438463688,-0.0039350977167487144,-0.0011297223391011357,0.9997013211250305,0.0,0.0,0.0,0.3398873805999756,2.4520552158355713,4.69267463684082,-61.52029037475586,0
168.4930000000004,-8.160332799889147e-05,-7.647735765203834e-05,-7.440345507347956e-05,0.0,0.0,0.0,0.0,-0.0010483047226443887,0.0016739846905693412,-0.003149632131680846,0.9999883770942688,0.0,0.0,0.0,0.34744730591773987,2.465817451477051,4.693291187286377,-62.88865280151367,0
178.41399999999885,-8.392456220462918e-05,-9.809579205466434e-05,-3.8171558117028326e-05,0.0,0.0,0.0,0.0,-0.0002183359320042655,-6.469286017818376e-05,0.0012959109153598547,0.9973628520965576,0.0,0.0,0.0,0.3466320335865021,2.470689535140991,4.698736190795898,-62.7410888671875,0
188.3150000000005,-0.0001073723251465708,-7.072300650179386e-05,-7.905123493401334e-05,0.0,0.0,0.0,0.0,-0.0007280195713974535,-0.000564566464163363,0.0016945035895332694,0.9987521767616272,0.0,0.0,0.0,0.34714677929878235,2.4668171405792236,4.694748878479004,-62.834259033203125,0
198.23999999999978,-6.985783693380654e-05,-0.00011800089123426005,-4.170208558207378e-05,0.0,0.0,0.0,0.0,-0.0017282196786254644,-4.219934999127872e-05,0.00030581472674384713,0.9994821548461914,0.0,0.0,0.0,0.34746673703193665,2.4604146480560303,4.685786247253418,-62.89216613769531,0
208.1389999999992,-9.615542512619868e-05,-8.974763477453962e-05,-7.76786619098857e-05,0.0,0.0,0.0,0.0,0.002730571199208498,0.002121126977726817,-0.0029075597412884235,1.0019875764846802,0.0,0.0,0.0,0.3470587134361267,2.4675605297088623,4.680904865264893,-62.81831359863281,0
218.0669999999991,-5.488415263243951e-05,-0.00012119539314880967,-3.58851975761354e-05,0.0,0.0,0.0,0.0,-0.0022924267686903477,0.0010761552257463336,-0.0018979964079335332,1.0019484758377075,0.0,0.0,0.0,0.3461032509803772,2.460540294647217,4.678338050842285,-62.6453742980957,0
227.97099999999955,-6.220228533493355e-05,-5.569642235059291e-05,-8.398716454394162e-05,0.0,0.0,0.0,0.0,-0.0002111729554599151,-0.0015208207769319415,0.002246344927698374,1.0002607107162476,0.0,0.0,0.0,0.3458118140697479,2.461595296859741,4.667484760284424,-62.59262466430664,0
237.8809999999994,-3.6886594898533076e-05,-0.00010879256296902895,-5.5382555729011074e-05,0.0,0.0,0.0,0.0,0.0027135692071169615,0.001377179054543376,0.0008337793406099081,0.9982437491416931,0.0,0.0,0.0,0.34403350949287415,2.459683418273926,4.670134544372559,-62.270751953125,0
247.79199999999946,-4.955491385771893e-05,-5.539962148759514e-05,-0.00010035851300926879,0.0,0.0,0.0,0.0,-0.001805326552130282,0.0018374122446402907,0.0051148138009011745,0.9991339445114136,0.0,0.0,0.0,0.3444634974002838,2.4628946781158447,4.67235803604126,-62.348575592041016,0
257.71199999999953,-1.4144151464279275e-05,-0.00011594065290410072,-7.39245951990597e-05,0.0,0.0,0.0,0.0,-0.004110401496291161,-0.001637109788134694,0.0026628172490745783,1.000099539756775,0.0,0.0,0.0,0.3457680344581604,2.4579291343688965,4.657632350921631,-62.58469772338867,0
267.6129999999994,-5.1388102292548865e-05,-0.00010580136586213484,-0.00010475688759470358,0.0,0.0,0.0,0.0,0.0035678991116583347,0.000884335720911622,-0.0007600014214403927,0.9988064765930176,0.0,0.0,0.0,0.3396399915218353,2.4690136909484863,4.6582489013671875,-61.47551727294922,0
277.53399999999965,4.370108399598394e-06,-0.00019253886421211064,-8.561809227103367e-05,0.0,0.0,0.0,0.0,-0.000577976112253964,0.0008965565939433873,-0.00048665731446817517,1.0001331567764282,0.0,0.0,0.0,0.3386951982975006,2.4685871601104736,4.658411026000977,-61.30450439453125,0
287.4369999999999,-1.9791586964856833e-05,-0.0001523962419014424,-0.0001234853989444673,0.0,0.0,0.0,0.0,0.00041241582948714495,0.003948072902858257,-0.002965342253446579,1.0006685256958008,0.0,0.0,0.0,0.3387605547904968,2.465324640274048,4.658907890319824,-61.31633377075195,0
297.34900000000016,-1.9910128685296513e-05,-0.0001774529810063541,-9.119533933699131e-05,0.0,0.0,0.0,0.0,0.0005888603045605123,-0.0005314185400493443,0.0012002862058579922,0.9997226595878601,0.0,0.0,0.0,0.3382665514945984,2.4614078998565674,4.652467250823975,-61.2269172668457,0
307.2649999999994,-8.710989641258493e-05,-0.0001627300662221387,-7.935806206660345e-05,0.0,0.0,0.0,0.0,0.0003945263451896608,0.004204006865620613,-0.0007348062936216593,0.9985774755477905,0.0,0.0,0.0,0.3378901481628418,2.4591267108917236,4.642167568206787,-61.15878677368164,0
317.1749999999993,-6.516157736768946e-05,-0.00017161767755169421,-2.4956849301815964e-05,0.0,0.0,0.0,0.0,0.000601169653236866,0.0009322172845713794,-0.001638038200326264,0.9997937679290771,0.0,0.0,0.0,0.3384805917739868,2.4545412063598633,4.640491962432861,-61.265663146972656,0
327.08599999999933,-8.275547588709742e-05,-0.0001207020686706528,-6.594591832254082e-05,0.0,0.0,0.0,0.0,0.0001384004863211885,0.00596269778907299,-0.0012310647871345282,0.9989259243011475,0.0,0.0,0.0,0.33735203742980957,2.446967124938965,4.63010311126709,-61.0613899230957,0
336.9979999999996,-5.3801664762431756e-05,-0.00015218823682516813,-2.3058584702084772e-05,0.0,0.0,0.0,0.0,0.0005031370674259961,-0.0004893474979326129,-0.0004850987752433866,1.0006790161132812,0.0,0.0,0.0,0.337405800819397,2.4458296298980713,4.6170830726623535,-61.07112121582031,0
346.91100000000006,-0.00015194661682471633,-0.0001553622423671186,-6.617936014663428e-05,0.0,0.0,0.0,0.0,0.00021202984498813748,0.0013663920108228922,0.0010573564795777202,0.9999493360519409,0.0,0.0,0.0,0.3378308415412903,2.4463419914245605,4.605838775634766,-61.14805221557617,0
356.8279999999995,-5.227069414104335e-05,-0.00016376747225876898,-3.853952875942923e-05,0.0,0.0,0.0,0.0,0.0020327011588960886,0.002437868155539036,0.0015432137297466397,0.9994606375694275,0.0,0.0,0.0,0.3378308415412903,2.4463419914245605,4.605838775634766,-61.14805221557617,0
366.7340000000004,-0.00013227894669398665,-0.000123785444884561,-9.62890189839527e-05,0.0,0.0,0.0,0.0,0.0012296424247324467,-0.00028368207858875394,-0.0018319356022402644,0.9982456564903259,0.0,0.0,0.0,0.338388055562973,2.4481873512268066,4.58663272857666,-61.248905181884766,0
376.64899999999943,7.218789505714085e-06,-0.00017660575394984335,-7.855088915675879e-05,0.0,0.0,0.0,0.0,0.002072705654427409,-0.002963269827887416,-2.9027027267147787e-05,0.9990915060043335,0.0,0.0,0.0,0.338388055562973,2.4481873512268066,4.58663272857666,-61.248905181884766,0
386.5589999999993,1.223523577209562e-05,-0.00011772962170653045,-0.0001631019258638844,0.0,0.0,0.0,0.0,-0.0006315712234936655,-0.0012725080596283078,0.00041629091720096767,0.9992713928222656,0.0,0.0,0.0,0.3367961645126343,2.4403750896453857,4.581982135772705,-60.960777282714844,0
396.47400000000016,-3.765203291550279e-05,-0.00010531178122619167,-0.00013258644321467727,0.0,0.0,0.0,0.0,-0.001206223270855844,-0.0006420196732506156,0.0004680203564930707,0.9988896250724792,0.0,0.0,0.0,0.33671799302101135,2.439526319503784,4.58468770980835,-60.946632385253906,0
406.3899999999994,-4.470695785130374e-05,-6.711060996167362e-05,-0.00020722394401673228,0.0,0.0,0.0,0.0,0.0015045717591419816,0.003172422992065549,0.001170141389593482,0.9991968274116516,0.0,0.0,0.0,0.33593159914016724,2.4401073455810547,4.585468292236328,-60.80428695678711,0
416.29899999999907,-9.132767445407808e-05,-4.510459984885529e-05,-0.00017216391279362142,0.0,0.0,0.0,0.0,-0.0008931193733587861,-0.001581736491061747,-0.0009561547194607556,0.9994378089904785,0.0,0.0,0.0,0.33585524559020996,2.4410560131073,4.582592487335205,-60.79046630859375,0
426.2099999999991,-0.0001075815234798938,-1.587331462360453e-05,-0.00024453032528981566,0.0,0.0,0.0,0.0,-0.0010185728315263987,-0.005765031557530165,0.0013901530764997005,1.001322865486145,0.0,0.0,0.0,0.3294963538646698,2.454535722732544,4.583248138427734,-59.639495849609375,0
436.1209999999992,-0.00011054120113840327,1.0945282156171743e-06,-0.00020049919839948416,0.0,0.0,0.0,0.0,-8.936541416915134e-05,0.0005682051996700466,-0.0015376866795122623,1.0004842281341553,0.0,0.0,0.0,0.3289470374584198,2.4552292823791504,4.582617282867432,-59.54006576538086,0
446.03199999999924,-0.00017079705139622092,4.314460511523066e-06,-0.0002222479524789378,0.0,0.0,0.0,0.0,0.0006538426387123764,0.003204100299626589,0.0009678731439635158,1.000044822692871,0.0,0.0,0.0,0.3283435106277466,2.452291965484619,4.592207431793213,-59.43083190917969,0
455.9449999999997,-8.603226160630584e-05,-4.127928696107119e-05,-0.00017772150749806315,0.0,0.0,0.0,0.0,-0.002453478053212166,0.0021824147552251816,0.001429184922017157,0.9998164772987366,0.0,0.0,0.0,0.32772740721702576,2.4535787105560303,4.577154636383057,-59.319313049316406,0
465.85699999999997,-0.0001411363627994433,-3.4266533475602046e-05,-0.00019560320652090013,0.0,0.0,0.0,0.0,0.004315145779401064,0.003455442376434803,0.002743692137300968,1.0003679990768433,0.0,0.0,0.0,0.32768163084983826,2.453357219696045,4.572231769561768,-59.31102752685547,0
475.77000000000044,-0.00011130153870908543,-4.269263445166871e-05,-0.0001429687545169145,0.0,0.0,0.0,0.0,-0.0012426398461684585,-0.00025192840257659554,0.005944531410932541,1.0004966259002686,0.0,0.0,0.0,0.32663804292678833,2.444654703140259,4.558722972869873,-59.122135162353516,0
485.6839999999993,-0.0001877739850897342,-6.0839407524326816e-05,-0.00013521141954697669,0.0,0.0,0.0,0.0,0.00015977381553966552,-0.0018479172140359879,0.0004217473906464875,0.9999077916145325,0.0,0.0,0.0,0.32680225372314453,2.4403278827667236,4.554642200469971,-59.151859283447266,0
495.59799999999996,-5.254372808849439e-05,-0.00013342429883778095,-7.841438491595909e-05,0.0,0.0,0.0,0.0,0.002368740038946271,0.006442691199481487,0.00431802636012435,0.999570369720459,0.0,0.0,0.0,0.32693997025489807,2.440948009490967,4.553673267364502,-59.176780700683594,0
505.5059999999994,-0.00011680572788463905,-0.00015288787835743278,-8.07621909189038e-05,0.0,0.0,0.0,0.0,-0.00016480573685839772,-0.0016448732931166887,-0.0020501301623880863,1.0015349388122559,0.0,0.0,0.0,0.32697176933288574,2.437638521194458,4.549473762512207,-59.18253707885742,0
515.4179999999997,-6.876541738165542e-05,-0.00020135393424425274,-3.283128171460703e-05,0.0,0.0,0.0,0.0,0.00029724041814915836,-0.007831941358745098,0.0017199709545820951,1.0014606714248657,0.0,0.0,0.0,0.326632559299469,2.433776378631592,4.532822132110596,-59.12114334106445,0
525.3379999999997,-0.0001121869936469011,-0.00018553710833657533,-4.505021570366807e-05,0.0,0.0,0.0,0.0,-0.0018910649232566357,0.002614373806864023,-0.0065885381773114204,1.001439094543457,0.0,0.0,0.0,0.32648149132728577,2.422441244125366,4.532074928283691,-59.09379959106445,0
535.2420000000002,-6.808399484725669e-05,-0.0002261320041725412,1.0113269127032254e-05,0.0,0.0,0.0,0.0,-0.0011041602119803429,-0.0025046553928405046,0.000520276662427932,1.0016417503356934,0.0,0.0,0.0,0.3265359699726105,2.4213781356811523,4.531494140625,-59.103660583496094,0
545.155999999999,-8.962341235019267e-05,-0.0001558001386001706,-6.4546125031483825e-06,0.0,0.0,0.0,0.0,0.0025932088028639555,0.002238669665530324,-0.001158934785053134,1.0005582571029663,0.0,0.0,0.0,0.3245442509651184,2.426316261291504,4.520158767700195,-58.74315643310547,0
555.0669999999991,-5.5938668083399534e-05,-0.00020527232845779508,4.496624751482159e-05,0.0,0.0,0.0,0.0,0.0010423765052109957,0.0031882196199148893,0.0011375577887520194,1.0009607076644897,0.0,0.0,0.0,0.3264158368110657,2.4223928451538086,4.516075611114502,-59.08191680908203,0
564.9799999999996,-0.00013900327030569315,-0.00024434892111457884,7.5203635788057e-05,0.0,0.0,0.0,0.0,-0.003653679508715868,-0.0040511260740458965,0.0044377995654940605,1.0005500316619873,0.0,0.0,0.0,0.3258427083492279,2.4140961170196533,4.505715370178223,-58.97817611694336,0
574.8919999999998,-8.812836313154548e-05,-0.0002875407226383686,0.0001418768661096692,0.0,0.0,0.0,0.0,-0.0009738009539432824,0.0015194981824606657,0.0016340247821062803,0.9997876882553101,0.0,0.0,0.0,0.3255428373813629,2.4151551723480225,4.501870155334473,-58.92390441894531,0
584.8029999999999,-8.97382851690054e-05,-0.0002111996291205287,0.0001086403863155283,0.0,0.0,0.0,0.0,-0.00039125600596889853,-0.0008368394337594509,0.000782521441578865,1.0004138946533203,0.0,0.0,0.0,0.3270053267478943,2.418475866317749,4.498624324798584,-59.18861389160156,0
594.7150000000001,-3.224423562642187e-05,-0.0003025216865353286,0.00015170393453445286,0.0,0.0,0.0,0.0,0.002242772839963436,-0.0025993583258241415,-0.0030403996352106333,0.9989612102508545,0.0,0.0,0.0,0.32689210772514343,2.4152045249938965,4.495486736297607,-59.168121337890625,0
604.6279999999988,-6.009498974890448e-06,-0.00019616946519818157,8.927053568186238e-05,0.0,0.0,0.0,0.0,0.0008153372909873724,-0.00040173347224481404,-0.0022458515595644712,0.999301016330719,0.0,0.0,0.0,0.3267216086387634,2.4186832904815674,4.491931438446045,-59.13726043701172,0
614.539999999999,-1.0454383300384507e-05,-0.00027730248984880745,0.0001107162534026429,0.0,0.0,0.0,0.0,0.00022376466949936002,-0.0010625693248584867,0.005306163802742958,0.998655378818512,0.0,0.0,0.0,0.32654300332069397,2.414807081222534,4.501160621643066,-59.10493469238281,0
624.4609999999993,6.392132945620688e-06,-0.0001769232185324654,5.021495235268958e-05,0.0,0.0,0.0,0.0,-0.0012592959683388472,0.002599820028990507,-0.0006996805896051228,1.0007405281066895,0.0,0.0,0.0,0.32596591114997864,2.412111520767212,4.498003959655762,-59.0004768371582,0
634.366,-1.899634298752062e-05,-0.00021606951486319304,7.807465590303764e-05,0.0,0.0,0.0,0.0,-0.001680466695688665,-0.000509442703332752,0.0023228893987834454,1.0006732940673828,0.0,0.0,0.0,0.32730889320373535,2.4113564491271973,4.488419532775879,-59.243560791015625,0
644.2759999999998,-1.6354242688976228e-05,-0.000160726995090954,1.0562722309259698e-05,0.0,0.0,0.0,0.0,0.0007251401548273861,-0.004762864671647549,0.0015343817649409175,0.9983901381492615,0.0,0.0,0.0,0.3271767199039459,2.4141249656677246,4.4843010902404785,-59.219635009765625,0
654.1880000000001,-7.264444138854742e-05,-0.0001819880708353594,3.9050617488101125e-05,0.0,0.0,0.0,0.0,0.0003937973524443805,-0.0022123833186924458,-0.0005689499666914344,0.9977436065673828,0.0,0.0,0.0,0.3274495303630829,2.421233892440796,4.488509178161621,-59.269020080566406,0
664.1010000000006,-8.100312697933987e-05,-0.00013079286145512015,-2.632629912113771e-05,0.0,0.0,0.0,0.0,-0.0038354303687810898,-0.0023161708377301693,-0.0003610282437875867,0.9993512034416199,0.0,0.0,0.0,0.3272060751914978,2.419051170349121,4.486967086791992,-59.224952697753906,0
674.0139999999992,-9.6233154181391e-05,-0.0001518116914667189,9.21848914003931e-06,0.0,0.0,0.0,0.0,0.00432866346091032,0.004546937998384237,0.002967146225273609,0.9987161159515381,0.0,0.0,0.0,0.32667773962020874,2.4199509620666504,4.4863433837890625,-59.12932205200195,0
683.9259999999995,-0.00024287975975312293,-0.00019216848886571825,-1.9641736798803322e-05,0.0,0.0,0.0,0.0,0.0010925190290436149,-0.0006858595297671854,0.001386841875500977,1.0011680126190186,0.0,0.0,0.0,0.3275219202041626,2.402390718460083,4.471839904785156,-59.28211975097656,0
693.8369999999995,-0.00011994072701781988,-0.00015887693734839559,3.6785160773433745e-05,0.0,0.0,0.0,0.0,0.001156406942754984,-0.002966540399938822,0.0011571088107302785,0.9990043044090271,0.0,0.0,0.0,0.3275219202041626,2.402390718460083,4.471839904785156,-59.28211975097656,0
703.753999999999,-0.00022066259407438338,-0.0001414597500115633,-3.2192241633310914e-05,0.0,0.0,0.0,0.0,-0.0017422743840143085,0.002739798277616501,-0.001545390347018838,1.0001155138015747,0.0,0.0,0.0,0.3283006548881531,2.3928871154785156,4.476348876953125,-59.42306900024414,0
713.6739999999991,-7.463007932528853e-05,-0.00016516324831172824,3.043067181351944e-06,0.0,0.0,0.0,0.0,0.0005908585153520107,-0.0012999802129343152,-0.0009540827013552189,1.000652551651001,0.0,0.0,0.0,0.3283006548881531,2.3928871154785156,4.476348876953125,-59.42306900024414,0
723.5779999999995,-0.0001345577766187489,-0.00015567298396490514,-2.5732337235240266e-05,0.0,0.0,0.0,0.0,-0.003637433983385563,-0.0013570431619882584,0.002190079540014267,1.000023603439331,0.0,0.0,0.0,0.3275565207004547,2.395312547683716,4.467836380004883,-59.288387298583984,0
733.4969999999994,-8.792619337327778e-05,-0.00019815965788438916,2.1207390091149136e-05,0.0,0.0,0.0,0.0,-0.0033476941753178835,0.0023652641102671623,0.0034627339337021112,1.0002427101135254,0.0,0.0,0.0,0.32709115743637085,2.394779920578003,4.4692158699035645,-59.20415115356445,0
743.4030000000002,-9.111768304137513e-05,-0.00013221547123976052,-5.530352791538462e-05,0.0,0.0,0.0,0.0,-0.0014012533938512206,0.00032599910628050566,-0.001011781394481659,1.0014334917068481,0.0,0.0,0.0,0.33254459500312805,2.424488067626953,4.483623504638672,-60.19123077392578,0
753.3279999999995,-6.430545181501657e-05,-0.000182659481652081,-2.000942731683608e-05,0.0,0.0,0.0,0.0,-0.005055852700024843,-0.004733242094516754,0.003775910707190633,1.0020443201065063,0.0,0.0,0.0,0.3322576582431793,2.4308958053588867,4.478588581085205,-60.1392936706543,0
763.2309999999998,-8.35639875731431e-05,-0.0001228631881531328,-7.611051114508882e-05,0.0,0.0,0.0,0.0,9.148130629910156e-05,0.0006748129380866885,-0.001690283534117043,0.9994192719459534,0.0,0.0,0.0,0.331033855676651,2.435872793197632,4.469622611999512,-59.917789459228516,0
773.1419999999998,-5.861811587237753e-05,-0.0001713767123874277,-3.785689841606654e-05,0.0,0.0,0.0,0.0,0.0010382969630882144,-0.00449678348377347,0.004268983379006386,0.9993627667427063,0.0,0.0,0.0,0.3320002257823944,2.4387824535369873,4.470449447631836,-60.09270095825195,0
783.0489999999991,-4.914475721307099e-05,-9.127733210334554e-05,-0.0001273929956369102,0.0,0.0,0.0,0.0,-0.003155873855575919,-0.0031866473145782948,-0.00037948437966406345,0.9992687106132507,0.0,0.0,0.0,0.331728458404541,2.4357733726501465,4.464473247528076,-60.043514251708984,0
792.973,-8.080812403932214e-05,-0.00010220515105174854,-9.410975326318294e-05,0.0,0.0,0.0,0.0,-0.002128768712282181,-0.004052852280437946,0.0030489640776067972,1.001731276512146,0.0,0.0,0.0,0.33245784044265747,2.4217567443847656,4.459340572357178,-60.17552947998047,0
802.8729999999996,-7.374606502708048e-05,-1.2393075849104207e-05,-0.00018503351020626724,0.0,0.0,0.0,0.0,0.001156013342551887,0.0030881925486028194,0.0013626731233671308,0.9991713166236877,0.0,0.0,0.0,0.3318052589893341,2.424414873123169,4.462362766265869,-60.057411193847656,0
812.7929999999997,-6.78132419125177e-05,-3.665897384053096e-05,-0.0001497945049777627,0.0,0.0,0.0,0.0,0.0007909710402600467,0.000463353528175503,-0.0022211952600628138,0.9988625049591064,0.0,0.0,0.0,0.3313140273094177,2.4244470596313477,4.458581447601318,-59.968502044677734,0
822.7029999999995,-0.00012726355635095388,-4.8138474085135385e-05,-0.00019325930043123662,0.0,0.0,0.0,0.0,-0.0019738187547773123,-0.0003743630077224225,0.001098915934562683,1.0015932321548462,0.0,0.0,0.0,0.3309633731842041,2.4237060546875,4.448537826538086,-59.905029296875,0
832.6170000000002,-5.487292946781963e-05,-0.0001024441808112897,-0.00015109182277228683,0.0,0.0,0.0,0.0,-0.0017820626962929964,-0.004610633477568626,0.00014633830869570374,1.000627040863037,0.0,0.0,0.0,0.3307369649410248,2.417498826980591,4.440552234649658,-59.864044189453125,0
842.521999999999,-0.00010658929386409,-6.853367085568607e-05,-0.0001836717128753662,0.0,0.0,0.0,0.0,-0.0022179237566888332,-0.001763668260537088,-0.00011756017192965373,1.000280499458313,0.0,0.0,0.0,0.3303827941417694,2.423635482788086,4.444689750671387,-59.79994201660156,0
852.4480000000003,-8.253450505435467e-05,-9.768733434611931e-05,-0.0001371713005937636,0.0,0.0,0.0,0.0,-0.0002494953223504126,0.004588569514453411,-0.003922768868505955,1.0007543563842773,0.0,0.0,0.0,0.3290184736251831,2.424905776977539,4.4312028884887695,-59.553001403808594,0
862.3510000000006,-0.0001331809035036713,-6.679696525679901e-05,-0.0001720057480270043,0.0,0.0,0.0,0.0,0.004444160498678684,0.00024230903363786638,0.003506527980789542,1.0003774166107178,0.0,0.0,0.0,0.32316434383392334,2.443549871444702,4.437011241912842,-58.49338912963867,0
872.262999999999,-9.19167505344376e-05,-8.316870662383735e-05,-0.00011091506166849285,0.0,0.0,0.0,0.0,0.002488167257979512,-0.0009499545558355749,-7.870231638662517e-05,1.0010244846343994,0.0,0.0,0.0,0.3227378726005554,2.433212995529175,4.427362442016602,-58.416194915771484,0
882.1759999999995,-0.00010994082549586892,-4.6762484998907894e-05,-0.00018932009697891772,0.0,0.0,0.0,0.0,0.004179705400019884,-0.0011991175124421716,0.000831806450150907,1.0015851259231567,0.0,0.0,0.0,0.32164207100868225,2.421511650085449,4.426890850067139,-58.217857360839844,0
892.0879999999997,-3.827308682957664e-05,-0.00011090053158113733,-0.00014389738498721272,0.0,0.0,0.0,0.0,0.000701571290846914,-0.00523565337061882,-0.0010390800889581442,1.0015779733657837,0.0,0.0,0.0,0.3215228319168091,2.412569999694824,4.418240070343018,-58.1962776184082,0
902.003999999999,-0.00013772470992989838,-0.00010617419320624322,-0.00012094272096874192,0.0,0.0,0.0,0.0,0.0010128458961844444,0.002405560342594981,-0.0019246636657044291,1.0011459589004517,0.0,0.0,0.0,0.3219335377216339,2.411060094833374,4.427188396453857,-58.27061462402344,0
911.9239999999991,-2.4275450414279476e-05,-0.00019390511442907155,-6.411185313481838e-05,0.0,0.0,0.0,0.0,0.0029373513534665108,-0.0012293292675167322,0.0004708746273536235,1.0014394521713257,0.0,0.0,0.0,0.32061198353767395,2.404066562652588,4.429433822631836,-58.03140640258789,0
921.8189999999995,-0.00010323566675651819,-0.00018536736024543643,-5.9152018366148695e-05,0.0,0.0,0.0,0.0,0.0019780206494033337,-0.0007528749410994351,2.3725422579445876e-05,1.000775933265686,0.0,0.0,0.0,0.32190316915512085,2.3997089862823486,4.414611339569092,-58.26511764526367,0
931.7420000000002,-4.1081028030021116e-05,-0.00022499755141325295,1.2202759535284713e-05,0.0,0.0,0.0,0.0,0.0004339158767834306,0.0038067514542490244,0.001648814301006496,0.9995390176773071,0.0,0.0,0.0,0.3209993243217468,2.3941221237182617,4.411747455596924,-58.10151290893555,0
941.643,-9.821310231927782e-05,-0.0001952142483787611,4.282894678908633e-06,0.0,0.0,0.0,0.0,0.003351696068421006,-0.0020563285797834396,-0.0006589015247300267,0.999370276927948,0.0,0.0,0.0,0.3199958801269531,2.3809850215911865,4.400834083557129,-57.91989517211914,0
951.5640000000003,-7.174730853876099e-05,-0.0002410196902928874,6.526881770696491e-05,0.0,0.0,0.0,0.0,-0.0021245500538498163,0.0006343259010463953,0.001586719648912549,0.9985988140106201,0.0,0.0,0.0,0.31980493664741516,2.379977226257324,4.3879523277282715,-57.88533401489258,0
961.4679999999989,-7.739995635347441e-05,-0.00016138158389367163,5.26362236996647e-06,0.0,0.0,0.0,0.0,0.0036462952848523855,-0.0009788344614207745,0.0026062908582389355,0.9992727637290955,0.0,0.0,0.0,0.3197183907032013,2.3750479221343994,4.386855125427246,-57.86967086791992,0
971.3860000000004,-6.617481267312542e-05,-0.00020250010129529983,5.7927612942876294e-05,0.0,0.0,0.0,0.0,0.00048607407370582223,-0.0013635235372930765,0.0006116930162534118,1.001413106918335,0.0,0.0,0.0,0.3198067545890808,2.3721470832824707,4.378213882446289,-57.88566207885742,0
981.2929999999997,-0.00011648819781839848,-0.00018029983039014041,3.445216498221271e-05,0.0,0.0,0.0,0.0,-0.0029022686649113894,-0.002720666816458106,-0.0011928625172004104,1.002103567123413,0.0,0.0,0.0,0.3134089708328247,2.3840291500091553,4.374199390411377,-56.7276496887207,0
991.2170000000006,-0.00010642080451361835,-0.00022898033785168082,8.615599654149264e-05,0.0,0.0,0.0,0.0,0.003249782370403409,0.0037260421086102724,0.002101099817082286,0.9992058277130127,0.0,0.0,0.0,0.3127617835998535,2.3859314918518066,4.372277736663818,-56.61050796508789,0
1001.1270000000004,-0.00024528169888071716,-0.00025702256243675947,6.260103691602126e-05,0.0,0.0,0.0,0.0,-0.0004303499881643802,0.0009476650739088655,-0.00032001888030208647,0.9976856708526611,0.0,0.0,0.0,0.3116869628429413,2.3803436756134033,4.351495742797852,-56.415958404541016,0
1011.0339999999997,-9.959201997844502e-05,-0.0002534006489440799,0.00011300344340270385,0.0,0.0,0.0,0.0,0.002784918062388897,-0.003295591101050377,-0.0024038958363234997,0.9989840388298035,0.0,0.0,0.0,0.3116869628429413,2.3803436756134033,4.351495742797852,-56.415958404541016,0
1020.9419999999991,-0.0001846854720497504,-0.00021573151752818376,3.6856537917628884e-05,0.0,0.0,0.0,0.0,0.0016360535519197583,-0.002572250086814165,-0.0007898163166828454,1.0000722408294678,0.0,0.0,0.0,0.31813955307006836,2.3993828296661377,4.380928993225098,-57.58388900756836,0
1030.8680000000004,-5.227294604992494e-05,-0.00022187776630744338,7.578493386972696e-05,0.0,0.0,0.0,0.0,-0.002603578381240368,-0.006187396589666605,0.001470928662456572,0.9994891881942749,0.0,0.0,0.0,0.31813955307006836,2.3993828296661377,4.380928993225098,-57.58388900756836,0
1040.7709999999988,-6.060131636331789e-05,-0.00013994998880662024,4.356104000180494e-06,0.0,0.0,0.0,0.0,0.0026949523016810417,-0.0016636246582493186,-0.006094119045883417,0.9981427192687988,0.0,0.0,0.0,0.31689390540122986,2.3917014598846436,4.386020660400391,-57.35842514038086,0
1050.6900000000005,-9.852850780589506e-06,-0.0002196597633883357,4.1544837586116046e-05,0.0,0.0,0.0,0.0,-0.0018120133318006992,-0.004317639395594597,0.0007759314612485468,0.9997438192367554,0.0,0.0,0.0,0.3177945017814636,2.385488271713257,4.396139621734619,-57.52144241333008,0
1060.5910000000003,-0.0001027717808028683,-0.000272076518740505,4.595133214024827e-05,0.0,0.0,0.0,0.0,-0.002537744352594018,0.0012113506672903895,0.0014213246759027243,1.0012333393096924,0.0,0.0,0.0,0.31581780314445496,2.3823771476745605,4.394484043121338,-57.16365051269531,0
1070.5200000000004,-9.287591092288494e-05,-0.00018213850853499025,-5.6030909036053345e-05,0.0,0.0,0.0,0.0,-0.0022577436175197363,-0.0020835930481553078,-0.001325830235145986,1.0002326965332031,0.0,0.0,0.0,0.32115909457206726,2.4158432483673096,4.427310466766357,-58.130435943603516,0
1080.4159999999993,-0.00018856808310374618,-0.00023273869010154158,-5.90827658015769e-05,0.0,0.0,0.0,0.0,0.0014766460517421365,-0.0007768368814140558,-0.001416685525327921,0.9980723857879639,0.0,0.0,0.0,0.32041293382644653,2.4214377403259277,4.423232555389404,-57.99538040161133,0
1090.3420000000006,-0.00020254342234693468,-0.00012745740241371095,-0.00013005184882786125,0.0,0.0,0.0,0.0,0.0010656386148184538,0.0005047617596574128,-0.0034200744703412056,0.9990923404693604,0.0,0.0,0.0,0.32061532139778137,2.4681010246276855,4.457237720489502,-58.03200912475586,0
1100.2399999999998,-0.0002967548498418182,-0.00017097276577260345,-0.00013971015869174153,0.0,0.0,0.0,0.0,-0.003315276699140668,-0.0013536714250221848,0.00022422736219596118,0.9983128905296326,0.0,0.0,0.0,0.3194494843482971,2.4631831645965576,4.450712203979492,-57.82099151611328,0
1110.1630000000005,-0.00032746660872362554,-9.778087405720726e-05,-0.0001995757920667529,0.0,0.0,0.0,0.0,0.0006341302650980651,-0.0010860696202144027,0.0010699073318392038,0.9985008835792542,0.0,0.0,0.0,0.3173373341560364,2.5033414363861084,4.4833664894104,-57.438682556152344,0
1120.063,-0.00041929190047085285,-0.00013329491775948554,-0.0002159115974791348,0.0,0.0,0.0,0.0,-0.0006195633322931826,0.00298243947327137,-0.0025925927329808474,0.9983903765678406,0.0,0.0,0.0,0.3169998228549957,2.496593475341797,4.478416919708252,-57.377601623535156,0
1129.9940000000006,-0.0004401222104206681,-7.98407054389827e-05,-0.00028974749147892,0.0,0.0,0.0,0.0,-0.002259710105136037,0.004405173007398844,0.0036895154044032097,1.0009675025939941,0.0,0.0,0.0,0.3162887692451477,2.530341863632202,4.509286403656006,-57.248897552490234,0
1139.887999999999,-0.0005303445504978299,-0.00011195288971066475,-0.0003130784025415778,0.0,0.0,0.0,0.0,-7.946482219267637e-05,0.0011205078335478902,0.002111087553203106,1.0020906925201416,0.0,0.0,0.0,0.3160538375377655,2.523385763168335,4.493277549743652,-57.20637893676758,0
1149.815999999999,-0.0005735217127948999,-5.5246880947379395e-05,-0.0003463478642515838,0.0,0.0,0.0,0.0,-0.0008471330511383712,-0.0009257372003048658,0.0024137382861226797,1.0004349946975708,0.0,0.0,0.0,0.32090091705322266,2.562248468399048,4.51702356338501,-58.083702087402344,0
1159.7119999999995,-0.0006633353186771274,-8.391767914872617e-05,-0.00036855993675999343,0.0,0.0,0.0,0.0,-0.0006021615699864924,0.0009348497842438519,-0.0019804283510893583,0.9995730519294739,0.0,0.0,0.0,0.32039564847946167,2.5549557209014893,4.518434047698975,-57.99224853515625,0
1169.6399999999994,-0.0006903392495587468,-2.7243097065365873e-05,-0.00040728607564233243,0.0,0.0,0.0,0.0,-0.0012435101671144366,0.006496434565633535,-4.693283335654996e-05,1.0004245042800903,0.0,0.0,0.0,0.3218819200992584,2.5958263874053955,4.540258884429932,-58.26126480102539,0
1179.5419999999995,-0.0007807397050783038,-5.045031866757199e-05,-0.000430872431024909,0.0,0.0,0.0,0.0,0.0004491063591558486,0.002230560639873147,-0.0033806427381932735,0.9997422099113464,0.0,0.0,0.0,0.3212052881717682,2.5911684036254883,4.52876615524292,-58.138790130615234,0
1189.4689999999991,-0.0007989442092366517,2.1077417841297574e-05,-0.0004653368960134685,0.0,0.0,0.0,0.0,-0.0001942659291671589,0.00019330994109623134,0.004263135604560375,0.9973360300064087,0.0,0.0,0.0,0.31494012475013733,2.635873556137085,4.551058292388916,-57.004791259765625,0
1199.3629999999994,-0.000887213449459523,5.413903636508621e-06,-0.0004908792907372117,0.0,0.0,0.0,0.0,0.0012246875558048487,-0.0007217630045488477,-0.0008477297378703952,1.0002118349075317,0.0,0.0,0.0,0.3144911825656891,2.630354881286621,4.539063453674316,-56.92353439331055,0
1209.2829999999994,-0.0008519141701981425,8.615601836936548e-05,-0.0005595982074737549,0.0,0.0,0.0,0.0,0.0017910811584442854,-0.001999728614464402,-0.0005364806856960058,1.0017582178115845,0.0,0.0,0.0,0.3157923221588135,2.6776862144470215,4.593966960906982,-57.15903854370117,0
1219.188,-0.0009343872079625726,7.827782246749848e-05,-0.0005916548543609679,0.0,0.0,0.0,0.0,-0.00028063281206414104,-0.001636616070754826,-0.0008993824594654143,0.9974717497825623,0.0,0.0,0.0,0.3163270950317383,2.670822858810425,4.596084117889404,-57.255836486816406,0
1229.110999999999,-0.000912920106202364,0.0001443634246243164,-0.0006580679910257459,0.0,0.0,0.0,0.0,0.0029862283263355494,0.000418121024267748,0.003668568329885602,0.9993513226509094,0.0,0.0,0.0,0.3153490126132965,2.703244924545288,4.63292121887207,-57.07879638671875,0
1239.0110000000004,-0.0009928002255037427,0.00013903809303883463,-0.0006949881790205836,0.0,0.0,0.0,0.0,1.3012187991989776e-05,0.0033431323245167732,0.001960857305675745,0.998534083366394,0.0,0.0,0.0,0.31436195969581604,2.7035393714904785,4.632864475250244,-56.900142669677734,0
1248.9400000000005,-0.0009893459500744939,0.0002024963469011709,-0.0007570211309939623,0.0,0.0,0.0,0.0,-0.0007997206994332373,-0.0005556269316002727,0.0016748097259551287,0.9968887567520142,0.0,0.0,0.0,0.31475597620010376,2.7282538414001465,4.659358501434326,-56.97145462036133,0
1258.8439999999991,-0.0010713129304349422,0.00019895713194273412,-0.0007999259396456182,0.0,0.0,0.0,0.0,-0.0030447053723037243,0.0017259076703339815,-3.810950875049457e-05,0.9996370673179626,0.0,0.0,0.0,0.3150904178619385,2.7234039306640625,4.658756256103516,-57.03199005126953,0
1268.759,-0.0010745233157649636,0.00027706060791388154,-0.0008590941433794796,0.0,0.0,0.0,0.0,-3.67836510122288e-05,-0.0009310762980021536,-0.0012766651343554258,0.9983585476875305,0.0,0.0,0.0,0.32309210300445557,2.761850357055664,4.679772853851318,-58.480316162109375,0
1278.6589999999997,-0.0011562473373487592,0.0002779726928565651,-0.0009079767041839659,0.0,0.0,0.0,0.0,-0.0016116546466946602,-0.0032476524356752634,0.0008627493516542017,1.0003951787948608,0.0,0.0,0.0,0.32273560762405396,2.7639265060424805,4.673743724822998,-58.41578674316406,0
1288.5820000000003,-0.0012416326208040118,0.0002775497268885374,-0.0009576583979651332,0.0,0.0,0.0,0.0,0.002426010789349675,0.00296316877938807,0.00031892952392809093,1.0014187097549438,0.0,0.0,0.0,0.32346799969673157,2.7656545639038086,4.6752424240112305,-58.5483512878418,0
1298.485999999999,-0.0013312664814293385,0.00027535887784324586,-0.0010069101117551327,0.0,0.0,0.0,0.0,-0.001078838831745088,-0.0011697424342855811,-0.0016078803455457091,0.9999319911003113,0.0,0.0,0.0,0.32225435972213745,2.763003349304199,4.669407844543457,-58.328678131103516,0
1308.4030000000002,-0.0014249244704842567,0.00027091632364317775,-0.0010549621656537056,0.0,0.0,0.0,0.0,0.0006296875071711838,-0.0010513713350519538,-0.0008672628900967538,0.9990982413291931,0.0,0.0,0.0,0.32196348905563354,2.7542779445648193,4.664477348327637,-58.276031494140625,0
1318.3069999999989,-0.0015214676968753338,0.0002647874061949551,-0.0011029172455891967,0.0,0.0,0.0,0.0,-0.0017882363172248006,-0.002297501778230071,-0.001162368687801063,0.9986646771430969,0.0,0.0,0.0,0.321848064661026,2.7529168128967285,4.665842533111572,-58.25514221191406,0
1328.2330000000002,-0.0016203626291826367,0.00025717716198414564,-0.0011515920050442219,0.0,0.0,0.0,0.0,-0.003382511669769883,-0.006866831332445145,-0.003217904129996896,0.9988834261894226,0.0,0.0,0.0,0.32112887501716614,2.752758741378784,4.657719135284424,-58.124961853027344,0
1338.137999999999,-0.0018270647851750255,0.00023642071755602956,-0.0012516281567513943,0.0,0.0,0.0,0.0,3.770686817006208e-05,0.003846102626994252,-0.0010640692198649049,0.9997292757034302,0.0,0.0,0.0,0.3199191093444824,2.754587173461914,4.666502475738525,-57.9059944152832,0
1348.057999999999,-0.0018270647851750255,0.00023642071755602956,-0.0012516281567513943,0.0,0.0,0.0,0.0,-0.005046995356678963,0.0010017944732680917,0.0011919568059965968,0.9990717172622681,0.0,0.0,0.0,0.3199191093444824,2.754587173461914,4.666502475738525,-57.9059944152832,0
1357.9580000000005,-0.0019470058614388108,0.00022252177586778998,-0.0013072703732177615,0.0,0.0,0.0,0.0,-0.0014855633489787579,-0.0047116391360759735,-0.0011248864466324449,0.9993341565132141,0.0,0.0,0.0,0.31849604845046997,2.751319408416748,4.656088352203369,-57.64841842651367,0
1367.8819999999996,-0.002060435712337494,0.00020807614782825112,-0.0013582943938672543,0.0,0.0,0.0,0.0,0.0006036293343640864,-0.002166532212868333,-0.002153645968064666,0.9997568726539612,0.0,0.0,0.0,0.31884101033210754,2.749466896057129,4.656310081481934,-57.71086120605469,0
1377.7829999999994,-0.0021774759516119957,0.00019240185793023556,-0.0014098321553319693,0.0,0.0,0.0,0.0,-0.0016766503686085343,-0.0012405447196215391,-0.0010436887387186289,0.9992709159851074,0.0,0.0,0.0,0.31823205947875977,2.753056049346924,4.659984588623047,-57.60063934326172,0
1387.7080000000005,-0.002297887345775962,0.00017581094289198518,-0.0014615878462791443,0.0,0.0,0.0,0.0,-0.0007789225783199072,-0.00345348147675395,0.0009337531519122422,0.9996090531349182,0.0,0.0,0.0,0.3182491660118103,2.748089075088501,4.663560390472412,-57.60373306274414,0
1397.6080000000002,-0.002421439392492175,0.00015792466001585126,-0.0015139016322791576,0.0,0.0,0.0,0.0,-0.0010022284695878625,0.004055639263242483,-0.00240087672136724,0.9988322257995605,0.0,0.0,0.0,0.3182200491428375,2.74481463432312,4.667807102203369,-57.59846115112305,0
1407.530999999999,-0.002547861309722066,0.00013859939645044506,-0.0015666058752685785,0.0,0.0,0.0,0.0,0.0031401277519762516,0.0021840790286660194,-0.002375632058829069,0.9999042749404907,0.0,0.0,0.0,0.3183605968952179,2.7400920391082764,4.6657023429870605,-57.623905181884766,0
1417.4310000000005,-0.002677680691704154,0.00011761161294998601,-0.0016199387609958649,0.0,0.0,0.0,0.0,-0.0003185258246958256,0.0013556302292272449,-0.0030595867428928614,1.0011869668960571,0.0,0.0,0.0,0.31748226284980774,2.738312244415283,4.651272296905518,-57.46491622924805,0
1427.3539999999994,-0.002810340840369463,9.497288556303829e-05,-0.0016731866635382175,0.0,0.0,0.0,0.0,-0.0021365219727158546,-0.006136823911219835,0.001605129917152226,0.9997515678405762,0.0,0.0,0.0,0.31686508655548096,2.7290027141571045,4.636784553527832,-57.353214263916016,0
1437.2559999999994,-0.0029456461779773235,7.060953794280067e-05,-0.0017257218714803457,0.0,0.0,0.0,0.0,0.00023266326752491295,0.007487052585929632,-0.0013838743325322866,0.999108612537384,0.0,0.0,0.0,0.3165616989135742,2.731016159057617,4.631710052490234,-57.29829406738281,0
1447.1810000000005,-0.0030848572496324778,4.4062326196581125e-05,-0.0017782009672373533,0.0,0.0,0.0,0.0,0.0026160269044339657,-0.000188372956472449,-0.0013041079510003328,1.0023887157440186,0.0,0.0,0.0,0.31617698073387146,2.7252848148345947,4.624570369720459,-57.22866439819336,0
1457.08,-0.0032277756836265326,1.548364889458753e-05,-0.0018304489785805345,0.0,0.0,0.0,0.0,-0.001448329072445631,-0.002941681072115898,0.002928873524069786,0.9987621307373047,0.0,0.0,0.0,0.3155592679977417,2.721776247024536,4.59882926940918,-57.11685562133789,0
1467.0029999999988,-0.0033740573562681675,-1.5128243830986321e-05,-0.0018815838266164064,0.0,0.0,0.0,0.0,0.0013721245341002941,-0.0006942262989468873,-0.0005506742745637894,0.9990686774253845,0.0,0.0,0.0,0.3145115077495575,2.7197256088256836,4.6019673347473145,-56.92721176147461,0
1476.9130000000005,-0.003523814957588911,-4.759693183586933e-05,-0.0019324577879160643,0.0,0.0,0.0,0.0,-0.0012196695897728205,-0.0020788994152098894,0.0027498325798660517,0.9996901154518127,0.0,0.0,0.0,0.3149009346961975,2.7185165882110596,4.608532428741455,-56.9976921081543,0
1486.833999999999,-0.003676291322335601,-8.177674317266792e-05,-0.0019842025358229876,0.0,0.0,0.0,0.0,-0.00045942573342472315,0.005086606368422508,-0.0033901806455105543,0.9982659816741943,0.0,0.0,0.0,0.3149571120738983,2.7134292125701904,4.6051530838012695,-57.00786209106445,0
1496.7279999999992,-0.0038311458192765713,-0.0001177511439891532,-0.0020366269163787365,0.0,0.0,0.0,0.0,-0.0017120245611295104,5.577135016210377e-05,-0.0042623840272426605,0.9985015392303467,0.0,0.0,0.0,0.31370943784713745,2.716364860534668,4.595318794250488,-56.78202819824219,0
1506.6530000000002,-0.002835190622135997,0.0008622914319857955,-0.0026039311196655035,0.0,0.0,0.0,0.0,-0.001249795313924551,0.000700469478033483,-0.0007715738611295819,1.0002686977386475,0.0,0.0,0.0,0.3186398446559906,2.9448723793029785,4.796872138977051,-57.67444610595703,0
1516.5519999999997,-0.0029487416613847017,0.000872783362865448,-0.0026868043933063745,0.0,0.0,0.0,0.0,0.0006035948754288256,-0.001971662510186434,-0.000855324266012758,1.001340627670288,0.0,0.0,0.0,0.3174040913581848,2.941474199295044,4.788481712341309,-57.45077133178711,0
1526.476999999999,-0.003064509714022279,0.0008837057393975556,-0.002769129117950797,0.0,0.0,0.0,0.0,-0.0011183207388967276,0.0017222044989466667,-0.001490117167122662,1.0000611543655396,0.0,0.0,0.0,0.31648385524749756,2.94010066986084,4.771732807159424,-57.28420639038086,0
1536.3829999999998,-6.844265590189025e-05,-0.0002447009028401226,1.5145405996008776e-05,0.0,0.0,0.0,0.0,-0.0007150251767598093,0.003087840508669615,0.003672419348731637,1.0011409521102905,0.0,0.0,0.0,0.3177216649055481,2.846464157104492,5.030450344085693,-57.50825500488281,0
1546.298999999999,-0.0001044503296725452,-0.00026420789072290063,4.918407285003923e-06,0.0,0.0,0.0,0.0,0.0016281140269711614,-0.0006619365303777158,0.000661320285871625,1.000610113143921,0.0,0.0,0.0,0.3174689710140228,2.8415818214416504,5.021258354187012,-57.46251678466797,0
1556.2029999999995,-0.00014139484846964478,-0.000284575013210997,-4.2269184632459655e-06,0.0,0.0,0.0,0.0,0.00038540438981726766,0.0015753782354295254,-0.0007105059921741486,1.0003527402877808,0.0,0.0,0.0,0.3182077407836914,2.842832565307617,5.016599178314209,-57.59623336791992,0
1566.1239999999998,-0.0001794898562366143,-0.0003062724426854402,-1.2788770618499257e-05,0.0,0.0,0.0,0.0,0.0005371132283471525,-0.003179834922775626,-0.0015716361813247204,1.0027430057525635,0.0,0.0,0.0,0.31757065653800964,2.838487148284912,5.013337135314941,-57.480918884277344,0
1576.0249999999996,-9.087829675991088e-05,-0.0002863770932890475,0.00010138712241314352,0.0,0.0,0.0,0.0,0.0030742769595235586,-0.00011659453593892977,-0.002552019665017724,1.0006349086761475,0.0,0.0,0.0,0.31677740812301636,2.8283579349517822,4.999074935913086,-57.337345123291016,0
1585.9570000000003,-0.00012825673911720514,-0.00030831602634862065,0.00010146506247110665,0.0,0.0,0.0,0.0,-0.004955742042511702,-0.0010092153679579496,0.0031546594109386206,0.9977315068244934,0.0,0.0,0.0,0.31648847460746765,2.8250434398651123,5.007316589355469,-57.28504180908203,0
1595.8590000000004,-0.00012297760986257344,-0.00028062384808436036,0.00017460159142501652,0.0,0.0,0.0,0.0,0.0024236259050667286,0.0011903760023415089,0.004398425109684467,0.9995190501213074,0.0,0.0,0.0,0.31659793853759766,2.8233938217163086,5.001840114593506,-57.30485534667969,0
1605.780999999999,-0.00016382210014853626,-0.0003032224776688963,0.00017900465172715485,0.0,0.0,0.0,0.0,-0.0014286127407103777,-0.0002972015936393291,0.0014061013935133815,1.0012413263320923,0.0,0.0,0.0,0.31555306911468506,2.821446418762207,4.994438648223877,-57.11573028564453,0
1615.6800000000003,-0.0002067478053504601,-0.00032625196035951376,0.00018333425396122038,0.0,0.0,0.0,0.0,0.0021709562279284,0.0010946558322757483,-0.001480355393141508,1.0018967390060425,0.0,0.0,0.0,0.3167770206928253,2.811187982559204,4.985115051269531,-57.3372688293457,0
1625.5990000000002,-0.000252636062214151,-0.0003488828369881958,0.0001889309787657112,0.0,0.0,0.0,0.0,0.0011178157292306423,-0.00047595243086107075,-0.0011378646595403552,0.9998919367790222,0.0,0.0,0.0,0.31614041328430176,2.806764841079712,4.9799299240112305,-57.2220458984375,0
1635.4989999999998,-0.0003014498797710985,-0.0003717572253663093,0.00019596031052060425,0.0,0.0,0.0,0.0,0.0016014741268008947,-0.003097268519923091,0.0031285781878978014,1.0011451244354248,0.0,0.0,0.0,0.31496790051460266,2.8041234016418457,4.97603178024292,-57.00981903076172,0
1645.4249999999993,-0.00035247765481472015,-0.0003956957662012428,0.00020397730986587703,0.0,0.0,0.0,0.0,0.0020930839236825705,0.0004147447762079537,-0.0004919540951959789,0.999346911907196,0.0,0.0,0.0,0.31459519267082214,2.7997562885284424,4.976631164550781,-56.94235610961914,0
1655.3379999999997,-0.00045892398338764906,-0.00044663771404884756,0.00022147988784126937,0.0,0.0,0.0,0.0,0.0013832523254677653,-0.0031638650689274073,-0.0015477145789191127,1.0011814832687378,0.0,0.0,0.0,0.31461238861083984,2.792746067047119,4.970590114593506,-56.94546890258789,0
1665.2559999999994,-0.00045892398338764906,-0.00044663771404884756,0.00022147988784126937,0.0,0.0,0.0,0.0,0.001003158395178616,0.002218111651018262,0.002187600824981928,0.9998459219932556,0.0,0.0,0.0,0.31461238861083984,2.792746067047119,4.970590114593506,-56.94546890258789,0
1675.1489999999994,-0.00023631031217519194,-0.0003957812150474638,0.00036419957177713513,0.0,0.0,0.0,0.0,-0.0013561970554292202,-0.003338573034852743,-0.0021995895076543093,0.9987508654594421,0.0,0.0,0.0,0.32139667868614197,2.8129844665527344,5.0558390617370605,-58.173439025878906,0
1685.0730000000003,-0.0002789447898976505,-0.00041906596743501723,0.0003844300517812371,0.0,0.0,0.0,0.0,-0.0014896007487550378,-0.001981136854737997,-0.002694257302209735,0.9988511800765991,0.0,0.0,0.0,0.32052671909332275,2.810192584991455,5.06137752532959,-58.01597213745117,0
1694.9760000000006,-0.00018325699784327298,-0.0004129721492063254,0.0004490333376452327,0.0,0.0,0.0,0.0,0.0016609093872830272,0.00028483523055911064,-0.000640958605799824,0.9988572001457214,0.0,0.0,0.0,0.3198646605014801,2.8054869174957275,5.059473514556885,-57.89614486694336,0
1704.8999999999996,-0.0002265108923893422,-0.0004356016870588064,0.0004711242509074509,0.0,0.0,0.0,0.0,-0.001078892033547163,-0.0006956386496312916,0.0013536367332562804,0.9979334473609924,0.0,0.0,0.0,0.31927689909935,2.8021702766418457,5.057055950164795,-57.78975296020508,0
1714.8029999999999,-0.00027280556969344616,-0.0004596459330059588,0.0004920245846733451,0.0,0.0,0.0,0.0,-0.0030825878493487835,-7.183640991570428e-05,-0.0002595858240965754,0.9994907975196838,0.0,0.0,0.0,0.3209744095802307,2.804433584213257,5.064217567443848,-58.09700393676758,0
1724.7109999999993,-0.0003213135350961238,-0.0004853013379033655,0.0005116165266372263,0.0,0.0,0.0,0.0,-0.0006986716180108488,0.0008230825187638402,-0.0012752769980579615,0.9988851547241211,0.0,0.0,0.0,0.3209320604801178,2.80299711227417,5.064937114715576,-58.08934020996094,0
1734.6329999999998,-0.00017943840066436678,-0.0005111797363497317,0.0005619694129563868,0.0,0.0,0.0,0.0,0.0023337940219789743,0.004149450920522213,-0.0010178197408095002,0.9999121427536011,0.0,0.0,0.0,0.3279290497303009,2.7947981357574463,5.108114242553711,-59.355812072753906,0
1744.5389999999989,-0.00010642891720635816,-0.00015435823297593743,-1.3101283002470154e-05,0.0,0.0,0.0,0.0,0.0036090603098273277,0.0011750368867069483,0.0013595062773674726,1.0007517337799072,0.0,0.0,0.0,0.32381099462509155,2.8752269744873047,5.120997905731201,-58.610435485839844,0
1754.4519999999993,-8.066622831393033e-05,-0.00017704333004076034,3.072024992434308e-05,0.0,0.0,0.0,0.0,-0.003387299831956625,0.002369178459048271,-0.003328991122543812,0.9999768137931824,0.0,0.0,0.0,0.32291001081466675,2.8694517612457275,5.119530200958252,-58.447357177734375,0
1764.3600000000006,-0.00010338107676943764,-0.0001321024465141818,-2.3233278625411913e-06,0.0,0.0,0.0,0.0,0.0003555227885954082,0.00022360027651302516,0.00018314103363081813,1.0004805326461792,0.0,0.0,0.0,0.32134610414505005,2.8690147399902344,5.112357139587402,-58.164283752441406,0
1774.2790000000005,-9.182309440802783e-06,-0.0001659503031987697,5.663060073857196e-05,0.0,0.0,0.0,0.0,0.0023476106580346823,-0.0027371766045689583,0.0017287149094045162,1.0019387006759644,0.0,0.0,0.0,0.32134199142456055,2.8681130409240723,5.1068196296691895,-58.163536071777344,0
1784.1839999999993,-1.999389860429801e-05,-9.315822535427287e-05,1.5843765140743926e-05,0.0,0.0,0.0,0.0,0.00022081795032136142,-0.0017932845512405038,-0.0031908396631479263,0.9988675117492676,0.0,0.0,0.0,0.3217245042324066,2.857982635498047,5.097174644470215,-58.2327766418457,0
1794.1039999999994,-7.838669262127951e-05,-8.860007801558822e-05,2.83565550489584e-05,0.0,0.0,0.0,0.0,-0.0020185140892863274,0.0012157713063061237,0.001052139443345368,1.000423550605774,0.0,0.0,0.0,0.32100677490234375,2.8523387908935547,5.095260143280029,-58.102867126464844,0
1804.0059999999994,-9.468162170378491e-05,-7.801668834872544e-05,-1.7066891814465635e-05,0.0,0.0,0.0,0.0,-0.002177415182814002,0.0018649229314178228,-0.002985002240166068,0.9999788999557495,0.0,0.0,0.0,0.3326126039028168,2.862478017807007,5.090194225311279,-60.20353698730469,0
1813.9269999999997,-8.526035526301712e-05,-0.00010999247751897201,1.2723116924462374e-06,0.0,0.0,0.0,0.0,0.0011727145174518228,-0.004637971520423889,0.003011255292221904,0.9970650672912598,0.0,0.0,0.0,0.3319121301174164,2.861971378326416,5.079867839813232,-60.07675552368164,0
1823.83,-9.987338853534311e-05,-8.642666216474026e-05,-3.9569291402585804e-05,0.0,0.0,0.0,0.0,-0.00026362252538092434,-0.003885502927005291,0.0024090006481856108,0.997231125831604,0.0,0.0,0.0,0.3410539925098419,2.862788438796997,5.088239669799805,-61.7314567565918,0
1833.7579999999998,-0.00011806779366452247,-0.0001168313974631019,-3.593353176256642e-05,0.0,0.0,0.0,0.0,0.00014876284694764763,-0.00025498110335320234,-0.0012099627638235688,0.9981598854064941,0.0,0.0,0.0,0.34116122126579285,2.8579158782958984,5.088501453399658,-61.750858306884766,0
1843.6549999999988,-0.00012878800043836236,-8.664628694532439e-05,-8.977697871159762e-05,0.0,0.0,0.0,0.0,-0.0016060082707554102,0.0021159795578569174,-0.0048962789587676525,1.000442385673523,0.0,0.0,0.0,0.34972864389419556,2.8616726398468018,5.085920333862305,-63.30158233642578,0
1853.5769999999993,-9.220723586622626e-05,-0.00011100560368504375,-6.730403401888907e-05,0.0,0.0,0.0,0.0,0.00017810839926823974,-0.0015194341540336609,0.0030360897071659565,0.9996473789215088,0.0,0.0,0.0,0.3488081693649292,2.859452486038208,5.0758867263793945,-63.13497543334961,0
1863.4830000000002,-0.00011139106936752796,-7.87011522334069e-05,-0.00011103695578640327,0.0,0.0,0.0,0.0,-0.0008774410234764218,9.970688552130014e-05,0.0065199388191103935,0.9986555576324463,0.0,0.0,0.0,0.3496987223625183,2.8572347164154053,5.073663711547852,-63.29616165161133,0
1873.405999999999,-0.00010543867392698303,-9.962960029952228e-05,-9.517039870843291e-05,0.0,0.0,0.0,0.0,-0.0015199573244899511,-0.0023972392082214355,0.001667516422457993,0.9974451661109924,0.0,0.0,0.0,0.35048186779022217,2.852241039276123,5.066556930541992,-63.43791198730469,0
1883.3060000000005,-0.00013894418952986598,-9.201358625432476e-05,-0.00013466810924001038,0.0,0.0,0.0,0.0,-0.00023470753512810916,-0.002384662628173828,0.002614883705973625,0.999346911907196,0.0,0.0,0.0,0.3504738211631775,2.850398063659668,5.070229530334473,-63.43646240234375,0
1893.2289999999994,-0.00012277586210984737,-9.477991989115253e-05,-0.00010613890481181443,0.0,0.0,0.0,0.0,-0.000525396317243576,0.0016273658256977797,0.0027693877927958965,1.000062346458435,0.0,0.0,0.0,0.34276503324508667,2.848475456237793,5.077984809875488,-62.04115295410156,0
1903.1279999999988,-0.0001499030040577054,-5.814211908727884e-05,-0.0001425208174623549,0.0,0.0,0.0,0.0,0.00046734660281799734,0.0019081406062468886,0.00014373012527357787,1.0023690462112427,0.0,0.0,0.0,0.34307971596717834,2.84724497795105,5.074528694152832,-62.098114013671875,0
1913.0519999999997,-0.000128628482343629,-5.682363553205505e-05,-0.00011096747766714543,0.0,0.0,0.0,0.0,-0.00011913677008124068,0.0035524596460163593,-0.003499327227473259,1.0006641149520874,0.0,0.0,0.0,0.342230886220932,2.841672420501709,5.065418243408203,-61.9444694519043,0
1922.9529999999995,-0.0001649550104048103,-3.622152144089341e-05,-0.00013732411025557667,0.0,0.0,0.0,0.0,0.0013893517898395658,-0.0005467572482302785,0.0012137219309806824,1.0004479885101318,0.0,0.0,0.0,0.3405970633029938,2.838270664215088,5.059172630310059,-61.648746490478516,0
1932.8809999999994,-9.404403681401163e-05,-7.402720075333491e-05,-0.00010726098844315857,0.0,0.0,0.0,0.0,0.004113865550607443,-0.0005015487549826503,-0.0007567424327135086,0.9987847208976746,0.0,0.0,0.0,0.34019890427589417,2.8376612663269043,5.057575225830078,-61.57667922973633,0
1942.777,-0.00011729133257176727,-2.174842666136101e-05,-0.00013935576134826988,0.0,0.0,0.0,0.0,0.002400242490693927,0.0021701755467802286,0.0033158003352582455,1.0005484819412231,0.0,0.0,0.0,0.33961883187294006,2.825834274291992,5.049083709716797,-61.4716796875,0
1952.6990000000005,-9.394339576829225e-05,-5.5591015552636236e-05,-0.00012290205631870776,0.0,0.0,0.0,0.0,-0.0013493921142071486,-0.001067766104824841,-0.0003556441224645823,1.0002517700195312,0.0,0.0,0.0,0.34101390838623047,2.8194658756256104,5.043796062469482,-61.72419357299805,0
1962.6029999999992,-0.0001437524042557925,-4.298768180888146e-05,-0.00013200320245232433,0.0,0.0,0.0,0.0,-0.00014684141206089407,-0.00046362870489247143,-0.0015898292185738683,0.998828649520874,0.0,0.0,0.0,0.34082910418510437,2.821425199508667,5.027573108673096,-61.69075012207031,0
1972.527,-0.00013035819574724883,-4.790112507180311e-05,-0.00010134138574358076,0.0,0.0,0.0,0.0,0.004808302503079176,-0.0010060456115752459,0.0024012906942516565,1.0016767978668213,0.0,0.0,0.0,0.33961915969848633,2.822455406188965,5.023171424865723,-61.471744537353516,0
1982.4279999999999,-1.3677108654519543e-05,-6.158937321742997e-05,-9.820125706028193e-05,0.0,0.0,0.0,0.0,0.0025013755075633526,0.0005402608658187091,0.0028548389673233032,1.0003430843353271,0.0,0.0,0.0,0.34029337763786316,2.8141536712646484,5.013198375701904,-61.59377670288086,0
1992.3469999999998,-7.269684283528477e-05,-7.86931486800313e-05,-9.685811528470367e-05,0.0,0.0,0.0,0.0,-0.0036527374759316444,-0.0016496906755492091,0.0037367010954767466,0.9980196952819824,0.0,0.0,0.0,0.3406293988227844,2.8066704273223877,5.010341167449951,-61.65460205078125,0
2002.2610000000004,8.587807315052487e-06,-0.00010123677202500403,-0.00012372081982903183,0.0,0.0,0.0,0.0,-0.00021343679691199213,0.002440480515360832,-0.0011372583685442805,0.998874306678772,0.0,0.0,0.0,0.3417035639286041,2.8057892322540283,5.006864547729492,-61.84902572631836,0
2012.1759999999995,-4.9227419367525727e-05,-0.0001183792483061552,-0.00012601722846738994,0.0,0.0,0.0,0.0,0.0001529986475361511,-0.0033955781254917383,0.004489623475819826,1.0004640817642212,0.0,0.0,0.0,0.3413233160972595,2.801541566848755,4.99865198135376,-61.78020095825195,0
2022.0869999999995,2.0580202544806525e-05,-0.0001315160043304786,-0.00012074362894054502,0.0,0.0,0.0,0.0,-0.0006055458215996623,8.405679545830935e-05,0.0005077113164588809,1.0008634328842163,0.0,0.0,0.0,0.35126176476478577,2.804133892059326,4.993527889251709,-63.579078674316406,0
2031.994999999999,-3.6564462789101526e-05,-0.00014858318900223821,-0.0001221559796249494,0.0,0.0,0.0,0.0,2.5377019483130425e-05,0.004790317267179489,-0.0022339702118188143,0.9996601343154907,0.0,0.0,0.0,0.351245254278183,2.802711009979248,4.990479469299316,-63.576087951660156,0
2041.9040000000005,-1.2870033060607966e-05,-0.0001539597869850695,-7.145836570998654e-05,0.0,0.0,0.0,0.0,-0.0019559545908123255,0.0017946340376511216,0.0015515522100031376,0.9988641142845154,0.0,0.0,0.0,0.34968411922454834,2.7993853092193604,4.970200061798096,-63.293521881103516,0
2051.8269999999993,-7.037692557787523e-05,-0.00017323321662843227,-6.793261127313599e-05,0.0,0.0,0.0,0.0,-0.0013730954378843307,0.0020685226190835238,0.0005874042399227619,0.9982718229293823,0.0,0.0,0.0,0.3492048978805542,2.8007845878601074,4.956820011138916,-63.206783294677734,0
2061.7299999999996,9.110516657528933e-06,-0.00014337978791445494,-7.88038523751311e-05,0.0,0.0,0.0,0.0,0.002409650245681405,-0.007853878661990166,0.0005710314144380391,1.0002498626708984,0.0,0.0,0.0,0.35540148615837097,2.8137083053588867,4.957581043243408,-64.32837677001953,0
2071.646999999999,-4.913083466817625e-05,-0.00016252238128799945,-7.795314741088077e-05,0.0,0.0,0.0,0.0,0.0003421684668865055,0.0014684908092021942,-0.0019559634383767843,0.9985229969024658,0.0,0.0,0.0,0.35542747378349304,2.815399408340454,4.970587730407715,-64.33308410644531,0
2081.5499999999993,-2.737113209150266e-05,-0.00015842878201510757,-3.96400319004897e-05,0.0,0.0,0.0,0.0,-0.0006060100859031081,-0.0013346181949600577,0.0011699809692800045,0.9986792206764221,0.0,0.0,0.0,0.3597400188446045,2.8156158924102783,4.962094783782959,-65.11365509033203,0
2091.474,-8.729402179596946e-05,-0.00018151495896745473,-3.6382556572789326e-05,0.0,0.0,0.0,0.0,-0.0027679228223860264,-0.0025368528440594673,-0.0007023440557532012,1.0000979900360107,0.0,0.0,0.0,0.35833147168159485,2.814422369003296,4.954432487487793,-64.85871124267578,0
2101.375,-4.09240456065163e-05,-0.0001801378675736487,-4.358686965133529e-06,0.0,0.0,0.0,0.0,0.0024041200522333384,0.0010560975642874837,-0.0034025658387690783,0.9990870952606201,0.0,0.0,0.0,0.35807275772094727,2.81132173538208,4.960217475891113,-64.81188201904297,0
2111.2919999999995,-0.00010055153688881546,-0.00020517631492111832,3.8570306060137227e-07,0.0,0.0,0.0,0.0,-0.0009264383697882295,-0.003596918424591422,0.0007129436708055437,0.9980989098548889,0.0,0.0,0.0,0.3578092157840729,2.803478240966797,4.960494041442871,-64.7641830444336,0
