timestamp,stateEstimate.x,stateEstimate.y,stateEstimate.z,controller.cmd_thrust,controller.cmd_roll,controller.cmd_pitch,controller.cmd_yaw,controller.r_roll,controller.r_pitch,controller.r_yaw,controller.accelz,controller.actuatorThrust,controller.roll,controller.pitch,controller.yaw,controller.rollRate,controller.pitchRate,controller.yawRate,controller.ctr_yaw
0.0,0.004039118532091379,-0.007199070882052183,-0.00021126438514329493,0.0,0.0,0.0,0.0,-0.0012088206131011248,-2.7013550152332755e-06,0.00101103272754699,0.9989681243896484,0.0,0.0,0.0,-11.84145450592041,4.159627437591553,4.6847825050354,2143.326904296875,0
9.913000000000466,0.004016258753836155,-0.007183804642409086,-0.00022847880609333515,0.0,0.0,0.0,0.0,-0.00048318321933038533,-0.0017297931481152773,-0.0011095283553004265,1.0000704526901245,0.0,0.0,0.0,-11.847932815551758,4.171557426452637,4.6865081787109375,2144.49951171875,0
19.822000000000116,0.003978482447564602,-0.007202629931271076,-0.00023335272271651775,0.0,0.0,0.0,0.0,0.00020743031927850097,0.002227204153314233,0.0008421970997005701,1.0001684427261353,0.0,0.0,0.0,-11.853055953979492,4.165200710296631,4.6791253089904785,2145.4267578125,0
29.736000000000786,0.003946351818740368,-0.00721508264541626,-0.0002501207054592669,0.0,0.0,0.0,0.0,0.00014865460980217904,0.00042554448009468615,-0.003294887952506542,0.9993633031845093,0.0,0.0,0.0,-11.841323852539062,4.161774635314941,4.659975528717041,2143.302978515625,0
39.64600000000064,0.0039199599996209145,-0.007189154624938965,-0.0002679897006601095,0.0,0.0,0.0,0.0,0.0014059795066714287,-0.003403166076168418,-0.0013826837530359626,0.9997631311416626,0.0,0.0,0.0,-11.846274375915527,4.1708455085754395,4.650141716003418,2144.19921875,0
49.556000000000495,0.0040561603382229805,-0.007262272294610739,-0.00015124984201975167,0.0,0.0,0.0,0.0,3.165422094753012e-05,0.0023621120490133762,-0.0017083882121369243,0.9989867210388184,0.0,0.0,0.0,-11.858753204345703,4.162560939788818,4.703543186187744,2146.4580078125,0
59.46900000000096,0.004029089119285345,-0.007271074689924717,-0.000150234904140234,0.0,0.0,0.0,0.0,-0.0007398693705908954,0.0022015448193997145,0.0033838599920272827,0.9984346032142639,0.0,0.0,0.0,-11.860647201538086,4.159643650054932,4.693343639373779,2146.800537109375,0
69.37900000000081,0.004004342015832663,-0.0072859651409089565,-0.00016000555478967726,0.0,0.0,0.0,0.0,0.003956345841288567,0.003561887191608548,0.002000681823119521,0.9975624084472656,0.0,0.0,0.0,-11.8482027053833,4.155506134033203,4.677262783050537,2144.548095703125,0
79.29800000000068,0.0040046535432338715,-0.00723091047257185,-0.00019138735660817474,0.0,0.0,0.0,0.0,0.0005241487524472177,0.001033007982186973,0.0022251938935369253,1.0007320642471313,0.0,0.0,0.0,-11.852057456970215,4.165855407714844,4.663002014160156,2145.245849609375,0
89.20300000000134,0.004086282569915056,-0.00722473906353116,-0.0001019852643366903,0.0,0.0,0.0,0.0,0.00011002507380908355,-0.00357682048343122,0.003268446307629347,1.0002148151397705,0.0,0.0,0.0,-11.862334251403809,4.1683878898620605,4.676397800445557,2147.106201171875,0
99.11499999999978,0.004074059426784515,-0.007184902206063271,-0.00010542659583734348,0.0,0.0,0.0,0.0,0.00029378492035903037,0.0013467404060065746,-0.0028444172348827124,0.999125599861145,0.0,0.0,0.0,-11.862829208374023,4.173890113830566,4.679891109466553,2147.19580078125,0
109.03000000000065,0.004048218950629234,-0.007192383054643869,-0.00011110379273304716,0.0,0.0,0.0,0.0,0.0012261292431503534,0.0033239300828427076,0.0016593323089182377,0.999938428401947,0.0,0.0,0.0,-11.852354049682617,4.169036865234375,4.672534465789795,2145.299560546875,0
118.9390000000003,0.004015214741230011,-0.007215860299766064,-0.00010970084986183792,0.0,0.0,0.0,0.0,-0.0016587839927524328,0.003758362028747797,-0.0010885545052587986,1.000125527381897,0.0,0.0,0.0,-11.855852127075195,4.160857200622559,4.657917499542236,2145.9326171875,0
128.85000000000036,0.004034778103232384,-0.007229944691061974,-6.29794376436621e-05,0.0,0.0,0.0,0.0,0.0025030660908669233,0.0031290899496525526,-0.00037152430741116405,0.9985262751579285,0.0,0.0,0.0,-11.872568130493164,4.1614603996276855,4.652099132537842,2148.958251953125,0
138.76200000000063,0.004018441773951054,-0.007236005738377571,-7.659679977223277e-05,0.0,0.0,0.0,0.0,-0.00427280692383647,-0.002617959398776293,0.001627142308279872,0.9996784925460815,0.0,0.0,0.0,-11.873165130615234,4.156613349914551,4.635269641876221,2149.066650390625,0
148.6740000000009,0.003992902580648661,-0.007249305956065655,-7.96761887613684e-05,0.0,0.0,0.0,0.0,0.003350934712216258,-0.0015457897679880261,0.004537004511803389,1.0001484155654907,0.0,0.0,0.0,-11.860530853271484,4.15989875793457,4.634449481964111,2146.779541015625,0
158.58500000000095,0.003997992258518934,-0.007207789923995733,-0.00011469882883829996,0.0,0.0,0.0,0.0,0.0024648760445415974,-0.0016494141891598701,-0.0013197037624195218,0.9999856352806091,0.0,0.0,0.0,-11.864830017089844,4.165075778961182,4.635275363922119,2147.5576171875,0
168.4979999999996,0.0039702826179564,-0.007220287807285786,-0.00012016123946523294,0.0,0.0,0.0,0.0,3.9079288399079815e-05,0.0023499762173742056,2.870248135877773e-05,1.0000239610671997,0.0,0.0,0.0,-11.854522705078125,4.15934419631958,4.628381252288818,2145.6923828125,0
178.41100000000006,0.003950915299355984,-0.0072120376862585545,-0.0001470858114771545,0.0,0.0,0.0,0.0,0.0002910067851189524,0.001615741872228682,-0.0010592122562229633,0.998371422290802,0.0,0.0,0.0,-11.856749534606934,4.164392471313477,4.616367340087891,2146.09521484375,0
188.32200000000012,0.004066463094204664,-0.007270739413797855,-5.650997627526522e-05,0.0,0.0,0.0,0.0,-0.00282086618244648,-0.003531418740749359,0.0014941508416086435,0.9987317323684692,0.0,0.0,0.0,-11.869938850402832,4.160740375518799,4.643925189971924,2148.482666015625,0
198.23199999999997,0.004068674053996801,-0.007267342414706945,-9.921551827574149e-05,0.0,0.0,0.0,0.0,0.0008314467268064618,0.0018938352586701512,-0.000268623378360644,0.9980683922767639,0.0,0.0,0.0,-11.870491981506348,4.170261383056641,4.64503288269043,2148.58251953125,0
208.14400000000023,0.004043794237077236,-0.007279474288225174,-0.00010597345681162551,0.0,0.0,0.0,0.0,-0.0018254437018185854,0.0014848693972453475,0.001931496663019061,1.0004627704620361,0.0,0.0,0.0,-11.85857105255127,4.162632465362549,4.636960506439209,2146.4248046875,0
218.0660000000007,0.004054391756653786,-0.007227857131510973,-0.0001544860569993034,0.0,0.0,0.0,0.0,-0.001663947245106101,-0.004708912689238787,0.0020732085686177015,0.9996579885482788,0.0,0.0,0.0,-11.859696388244629,4.180468559265137,4.637475967407227,2146.628662109375,0
227.96800000000076,0.00404439028352499,-0.00722866877913475,-0.00012184279330540448,0.0,0.0,0.0,0.0,0.0020129899494349957,0.0022865566425025463,0.0014653626130893826,0.9972918033599854,0.0,0.0,0.0,-11.872407913208008,4.187617778778076,4.647099018096924,2148.92919921875,0
237.88600000000042,0.004046292044222355,-0.0071919700130820274,-0.00015524605987593532,0.0,0.0,0.0,0.0,-0.00011014428309863433,-0.0008404247346334159,0.0010123325046151876,0.9987715482711792,0.0,0.0,0.0,-11.872282981872559,4.192684173583984,4.633134365081787,2148.90673828125,0
247.79399999999987,0.004019009415060282,-0.0072014229372143745,-0.00016691660857759416,0.0,0.0,0.0,0.0,8.93108153832145e-05,-3.1215549824992195e-05,0.0031077738385647535,1.000908374786377,0.0,0.0,0.0,-11.860276222229004,4.188223361968994,4.627686500549316,2146.7333984375,0
257.71100000000115,0.004004094284027815,-0.007176071871072054,-0.00018718421051744372,0.0,0.0,0.0,0.0,0.0006314022466540337,0.0023652149830013514,0.0020130793564021587,0.9989199638366699,0.0,0.0,0.0,-11.863222122192383,4.192282199859619,4.622897624969482,2147.266845703125,0
267.6260000000002,0.004087151028215885,-0.007179367821663618,-0.00010406832734588534,0.0,0.0,0.0,0.0,0.0026651951484382153,0.001107828109525144,0.004092875402420759,0.9973759651184082,0.0,0.0,0.0,-11.87459945678711,4.1895952224731445,4.6338090896606445,2149.325927734375,0
277.52800000000025,0.004040815867483616,-0.007191790733486414,-8.283663919428363e-05,0.0,0.0,0.0,0.0,-0.0023846165277063847,0.005126911215484142,-0.004385594744235277,0.9980921745300293,0.0,0.0,0.0,-11.880678176879883,4.180821418762207,4.626287460327148,2150.426513671875,0
287.4390000000003,0.004013526253402233,-0.007198740262538195,-8.918008097680286e-05,0.0,0.0,0.0,0.0,-5.099844929645769e-05,0.0015470647485926747,0.00011929406900890172,1.0001490116119385,0.0,0.0,0.0,-11.869742393493652,4.18178129196167,4.611774444580078,2148.447021484375,0
297.3540000000012,0.003983919974416494,-0.007181769702583551,-7.946883124532178e-05,0.0,0.0,0.0,0.0,0.0022599417716264725,0.0007801920874044299,-0.0010840683244168758,1.000925898551941,0.0,0.0,0.0,-11.873908042907715,4.184751987457275,4.599750995635986,2149.200927734375,0
307.26400000000103,0.003954882733523846,-0.007189617492258549,-8.438158693024889e-05,0.0,0.0,0.0,0.0,-0.0023678503930568695,0.0019362784223631024,0.004720868542790413,0.9986348152160645,0.0,0.0,0.0,-11.86198616027832,4.17805290222168,4.592703819274902,2147.04296875,0
317.1779999999999,0.003915220499038696,-0.00718574458733201,-6.625255628023297e-05,0.0,0.0,0.0,0.0,-0.002630890579894185,0.005354474298655987,-0.0018308190628886223,0.9999306201934814,0.0,0.0,0.0,-11.862774848937988,4.182025909423828,4.57933235168457,2147.18603515625,0
327.08500000000095,0.0040208459831774235,-0.00723879924044013,2.439718446112238e-05,0.0,0.0,0.0,0.0,-0.000616459350567311,-0.0044699967838823795,0.002952887210994959,0.9987861514091492,0.0,0.0,0.0,-11.877135276794434,4.1847968101501465,4.603653907775879,2149.784912109375,0
337.0020000000004,0.004003811627626419,-0.0072585586458444595,5.734098067478044e-06,0.0,0.0,0.0,0.0,0.0013577634235844016,-0.00044332488323561847,0.0016817187424749136,0.9981989860534668,0.0,0.0,0.0,-11.87806224822998,4.184970378875732,4.611100196838379,2149.95263671875,0
346.9150000000009,0.0039764526300132275,-0.0072698527947068214,5.4268198255158495e-06,0.0,0.0,0.0,0.0,-0.0005560237332247198,0.00024254464369732887,0.0006926670903339982,0.9989003539085388,0.0,0.0,0.0,-11.865610122680664,4.174901962280273,4.608380317687988,2147.698974609375,0
356.8209999999999,0.003982647322118282,-0.007231231778860092,-3.724901034729555e-05,0.0,0.0,0.0,0.0,-0.0006189974956214428,-0.0017100237309932709,0.0021148750092834234,0.999223530292511,0.0,0.0,0.0,-11.867791175842285,4.182013511657715,4.605242729187012,2148.09375,0
366.7330000000002,0.0040561240166425705,-0.007243299391120672,3.8845329981995746e-05,0.0,0.0,0.0,0.0,0.00026722598704509437,0.002193460240960121,0.00443987175822258,0.9971184134483337,0.0,0.0,0.0,-11.87879753112793,4.184353351593018,4.624299049377441,2150.085693359375,0
376.65099999999984,0.004074820317327976,-0.0072033400647342205,-1.0289434612786863e-05,0.0,0.0,0.0,0.0,0.0012755795614793897,0.0007722065784037113,-0.0015330944443121552,0.9972258806228638,0.0,0.0,0.0,-11.882204055786133,4.196722984313965,4.620141506195068,2150.702392578125,0
386.5630000000001,0.004047777503728867,-0.007214078679680824,-1.7090562323573977e-05,0.0,0.0,0.0,0.0,-0.0008445470011793077,0.0017410034779459238,-2.4643468350404873e-05,0.9976170063018799,0.0,0.0,0.0,-11.870859146118164,4.190267562866211,4.611067771911621,2148.64892578125,0
396.47600000000057,0.004067079164087772,-0.007170569151639938,-8.627593342680484e-05,0.0,0.0,0.0,0.0,0.0002223174669779837,0.001794958719983697,-0.000604111875873059,1.0009870529174805,0.0,0.0,0.0,-11.868152618408203,4.204474925994873,4.609661102294922,2148.1591796875,0
406.38900000000103,0.0040834397077560425,-0.007205252535641193,-7.151881436584517e-05,0.0,0.0,0.0,0.0,0.0012611569836735725,-0.007466597016900778,0.0018564540660008788,1.0011650323867798,0.0,0.0,0.0,-11.879987716674805,4.199714660644531,4.617513179779053,2150.301513671875,0
416.2960000000003,0.004100089892745018,-0.007151323836296797,-0.000130508589791134,0.0,0.0,0.0,0.0,-0.0017534479266032577,0.0002830593439284712,0.0024497935082763433,0.9989180564880371,0.0,0.0,0.0,-11.879907608032227,4.208242893218994,4.632343769073486,2150.286865234375,0
426.20900000000074,0.004072309006005526,-0.007157937157899141,-0.00014491970068775117,0.0,0.0,0.0,0.0,0.002464850666001439,0.004884816240519285,-0.005870575550943613,0.9991863369941711,0.0,0.0,0.0,-11.867383003234863,4.210179328918457,4.626837253570557,2148.02001953125,0
436.1350000000002,0.0040283482521772385,-0.007197587285190821,-0.00015836731472518295,0.0,0.0,0.0,0.0,-1.955896550498437e-05,-0.0021904618479311466,0.00020774692529812455,0.9999313354492188,0.0,0.0,0.0,-11.867724418640137,4.201938629150391,4.609124183654785,2148.08154296875,0
446.0400000000009,0.003997561056166887,-0.007206890266388655,-0.00017362811195198447,0.0,0.0,0.0,0.0,0.0007541592349298298,0.008152619004249573,-0.0026094692293554544,1.0000122785568237,0.0,0.0,0.0,-11.856332778930664,4.1938018798828125,4.60343599319458,2146.019775390625,0
455.95200000000114,0.003977935295552015,-0.007189812138676643,-0.0002034197823377326,0.0,0.0,0.0,0.0,0.00402434216812253,0.00027470430359244347,0.0031042404007166624,0.9982160329818726,0.0,0.0,0.0,-11.857649803161621,4.195792198181152,4.5827202796936035,2146.25830078125,0
465.8590000000004,0.0039832936599850655,-0.007172722835093737,-0.00014618856948800385,0.0,0.0,0.0,0.0,-0.0016436794539913535,-0.0009209501440636814,-0.0006810281774960458,0.9997957348823547,0.0,0.0,0.0,-11.869230270385742,4.199221134185791,4.590548515319824,2148.354248046875,0
475.78399999999965,0.003967942204326391,-0.007156318053603172,-0.00018156718579120934,0.0,0.0,0.0,0.0,-0.0015770801110193133,0.0017449476290494204,-0.002941740211099386,1.0009928941726685,0.0,0.0,0.0,-11.870768547058105,4.208822250366211,4.589539051055908,2148.632568359375,0
485.6850000000013,0.0039327084086835384,-0.007159622386097908,-0.00019527494441717863,0.0,0.0,0.0,0.0,-0.0008853671024553478,-0.00229830015450716,0.0014527698513120413,0.9999803900718689,0.0,0.0,0.0,-11.858772277832031,4.207064628601074,4.5772857666015625,2146.461181640625,0
495.6050000000014,0.0038851972203701735,-0.007155159953981638,-0.00018213910516351461,0.0,0.0,0.0,0.0,0.0003744318673852831,0.00270804762840271,0.0032112288754433393,0.999790608882904,0.0,0.0,0.0,-11.859277725219727,4.208080291748047,4.5747833251953125,2146.552978515625,0
505.5060000000012,0.003922559786587954,-0.00718572037294507,-0.0001438572653569281,0.0,0.0,0.0,0.0,0.001959800021722913,0.004300217144191265,0.001739688916131854,1.0001716613769531,0.0,0.0,0.0,-11.871851921081543,4.206116676330566,4.586115837097168,2148.828857421875,0
515.4210000000003,0.003922642674297094,-0.007156209088861942,-0.0001963632385013625,0.0,0.0,0.0,0.0,-3.233040479244664e-05,-0.0019153296016156673,-0.00020449220028240234,0.9970663785934448,0.0,0.0,0.0,-11.871214866638184,4.214504241943359,4.578890323638916,2148.71337890625,0
525.3360000000011,0.003886792343109846,-0.007162654306739569,-0.0002095469826599583,0.0,0.0,0.0,0.0,-0.000631137692835182,0.0024073640815913677,-0.001104008755646646,0.9985511898994446,0.0,0.0,0.0,-11.859505653381348,4.213120937347412,4.575279712677002,2146.593994140625,0
535.2330000000002,0.003900605719536543,-0.007115616928786039,-0.00029032351449131966,0.0,0.0,0.0,0.0,0.0014201949816197157,-0.001886173733510077,0.0053468262776732445,1.0007905960083008,0.0,0.0,0.0,-11.860569953918457,4.226312637329102,4.5771589279174805,2146.78662109375,0
545.148000000001,0.003996273502707481,-0.007150173187255859,-0.00023034479818306863,0.0,0.0,0.0,0.0,0.0006490032537840307,0.0035936066415160894,0.0016378180589526892,1.00146484375,0.0,0.0,0.0,-11.873796463012695,4.228041172027588,4.5935492515563965,2149.1806640625,0
555.0690000000013,0.003947961609810591,-0.007186553440988064,-0.00023199229326564819,0.0,0.0,0.0,0.0,0.0018748133443295956,-0.0050805434584617615,0.0003112446574959904,0.9988710284233093,0.0,0.0,0.0,-11.872304916381836,4.2222723960876465,4.5855793952941895,2148.910888671875,0
564.9770000000008,0.003914181143045425,-0.007195544429123402,-0.0002443963894620538,0.0,0.0,0.0,0.0,0.0002220232563558966,0.0005558987613767385,-0.0005764236557297409,0.9977604150772095,0.0,0.0,0.0,-11.860430717468262,4.211175918579102,4.588424205780029,2146.761474609375,0
574.8870000000006,0.0038909772410988808,-0.007210413925349712,-0.00028104183729737997,0.0,0.0,0.0,0.0,-0.0009489863296039402,0.00560969952493906,-0.005023767706006765,1.0000531673431396,0.0,0.0,0.0,-11.861654281616211,4.207611083984375,4.587666034698486,2146.98291015625,0
584.7990000000009,0.003854271722957492,-0.007220998406410217,-0.0002974513918161392,0.0,0.0,0.0,0.0,0.0014356065075844526,0.0019385660998523235,-0.0014435782795771956,1.0016664266586304,0.0,0.0,0.0,-11.851265907287598,4.204427242279053,4.570302963256836,2145.102783203125,0
594.7250000000004,0.00383216910995543,-0.007173783611506224,-0.0003203171363566071,0.0,0.0,0.0,0.0,0.0005023122066631913,-0.0026785011868923903,-0.0017795999301597476,1.0006026029586792,0.0,0.0,0.0,-11.855031967163086,4.21464729309082,4.569311141967773,2145.7841796875,0
604.6229999999996,0.003992088139057159,-0.0072164228186011314,-0.0001870078849606216,0.0,0.0,0.0,0.0,-0.0007576451753266156,-0.0035919114015996456,-1.9564547983463854e-05,0.998533308506012,0.0,0.0,0.0,-11.864933967590332,4.218477725982666,4.616623878479004,2147.57666015625,0
614.5390000000007,0.003953404724597931,-0.0072078341618180275,-0.00016628084995318204,0.0,0.0,0.0,0.0,0.001198768150061369,0.004978478420525789,-0.002549384720623493,0.999040424823761,0.0,0.0,0.0,-11.868494033813477,4.219048976898193,4.613185405731201,2148.220947265625,0
624.4510000000009,0.003922303672879934,-0.007215655874460936,-0.0001713998062768951,0.0,0.0,0.0,0.0,-0.0003954607236664742,-0.0005595131660811603,0.0011236555874347687,0.9963887929916382,0.0,0.0,0.0,-11.856579780578613,4.213436603546143,4.59705114364624,2146.064453125,0
634.366,0.003885789541527629,-0.007234322838485241,-0.00017443577235098928,0.0,0.0,0.0,0.0,-0.0004580725508276373,0.0004722355806734413,0.0030966750346124172,0.9978645443916321,0.0,0.0,0.0,-11.860711097717285,4.208878517150879,4.598106861114502,2146.812255859375,0
644.2710000000006,0.004029374569654465,-0.007254312746226788,-5.177556522539817e-05,0.0,0.0,0.0,0.0,-0.0016204377170652151,0.0004924058448523283,-0.003966599702835083,1.0008903741836548,0.0,0.0,0.0,-11.869251251220703,4.2103047370910645,4.630509853363037,2148.358154296875,0
654.1840000000011,0.004039424937218428,-0.007209595292806625,-9.31040704017505e-05,0.0,0.0,0.0,0.0,-0.00044573971536010504,-0.0035193755757063627,0.003269206965342164,1.0008522272109985,0.0,0.0,0.0,-11.870307922363281,4.225796699523926,4.626843452453613,2148.54931640625,0
664.0950000000012,0.004009669180959463,-0.007216583471745253,-9.554716234561056e-05,0.0,0.0,0.0,0.0,0.002147441264241934,0.0001233234506798908,-0.0024650616105645895,0.9979525804519653,0.0,0.0,0.0,-11.857832908630371,4.221170425415039,4.624808311462402,2146.291259765625,0
674.0150000000012,0.004000603221356869,-0.007174450438469648,-0.00011716855078702793,0.0,0.0,0.0,0.0,0.0009477735147811472,-0.005593972280621529,-0.0007309159263968468,1.0002976655960083,0.0,0.0,0.0,-11.858001708984375,4.230199337005615,4.624561309814453,2146.32177734375,0
683.9210000000003,0.004046756308525801,-0.007178290281444788,-5.219829108682461e-05,0.0,0.0,0.0,0.0,0.003710870398208499,0.001242813770659268,-0.000883276981767267,1.0010558366775513,0.0,0.0,0.0,-11.868074417114258,4.229930877685547,4.635822296142578,2148.14501953125,0
693.8360000000011,0.004012315068393946,-0.00720186298713088,-5.6381111789960414e-05,0.0,0.0,0.0,0.0,-0.0018588314997032285,0.0007410722901113331,0.0012025388423353434,0.9989376664161682,0.0,0.0,0.0,-11.865730285644531,4.21742057800293,4.629835605621338,2147.720703125,0
703.7420000000002,0.00397960189729929,-0.007205945905297995,-5.5895310651976615e-05,0.0,0.0,0.0,0.0,0.00012317058281041682,0.00047027680557221174,-0.0013139022048562765,0.997947633266449,0.0,0.0,0.0,-11.853931427001953,4.211954116821289,4.618537425994873,2145.5849609375,0
713.6530000000002,0.003959478810429573,-0.00720439525321126,-7.805735367583111e-05,0.0,0.0,0.0,0.0,-0.0009118877933360636,-0.00033882271964102983,-0.0007255481323227286,0.9981375932693481,0.0,0.0,0.0,-11.853407859802246,4.20651912689209,4.622230529785156,2145.490234375,0
723.5580000000009,0.003925037104636431,-0.007209885865449905,-8.211698877857998e-05,0.0,0.0,0.0,0.0,0.0013245658483356237,0.0015447675250470638,-0.002487409161403775,0.9995647668838501,0.0,0.0,0.0,-11.841545104980469,4.200556755065918,4.624499797821045,2143.34326171875,0
733.478000000001,0.00390662020072341,-0.007200433872640133,-0.00011314041330479085,0.0,0.0,0.0,0.0,-0.0021562008187174797,0.002973858267068863,-2.0473418771871366e-05,1.0000042915344238,0.0,0.0,0.0,-11.841766357421875,4.201227188110352,4.619293689727783,2143.383056640625,0
743.380000000001,0.003998839762061834,-0.007260990794748068,-4.106663982383907e-05,0.0,0.0,0.0,0.0,0.0002180593874072656,-0.0005629116203635931,0.0017272272380068898,1.000551462173462,0.0,0.0,0.0,-11.854515075683594,4.194711685180664,4.641412734985352,2145.69091796875,0
753.2960000000003,0.003992486745119095,-0.007244102191179991,-7.204607391031459e-05,0.0,0.0,0.0,0.0,-0.0019253874197602272,0.0013887257082387805,-0.0007253491785377264,0.9998076558113098,0.0,0.0,0.0,-11.854501724243164,4.195125102996826,4.637661933898926,2145.688232421875,0
763.2110000000011,0.003962486982345581,-0.00725064892321825,-7.500377978431061e-05,0.0,0.0,0.0,0.0,0.0017012757016345859,0.0006449213833548129,-0.0004698772099800408,1.0003173351287842,0.0,0.0,0.0,-11.842838287353516,4.192263126373291,4.623490333557129,2143.577392578125,0
773.125,0.003987635485827923,-0.0071658664382994175,-0.0001385064097121358,0.0,0.0,0.0,0.0,-0.002072036499157548,-8.672320836922154e-05,-0.001227533328346908,1.0000351667404175,0.0,0.0,0.0,-11.845189094543457,4.2161455154418945,4.633432865142822,2144.002685546875,0
783.0339999999997,0.003981867339462042,-0.007156108971685171,-9.680091170594096e-05,0.0,0.0,0.0,0.0,-0.0004567470750771463,0.003282504854723811,-3.749972893274389e-05,0.9983205199241638,0.0,0.0,0.0,-11.858192443847656,4.221372604370117,4.634099006652832,2146.356201171875,0
792.9449999999997,0.003970371093600988,-0.007148852106183767,-0.00012763077393174171,0.0,0.0,0.0,0.0,-0.0011990152997896075,0.00031776001560501754,0.004843927454203367,1.0012606382369995,0.0,0.0,0.0,-11.859824180603027,4.222214698791504,4.619990348815918,2146.651611328125,0
802.8590000000004,0.003940131980925798,-0.007151636760681868,-0.0001336624554824084,0.0,0.0,0.0,0.0,0.0020419538486748934,-0.0010011750273406506,0.0014058643719181418,0.9994233250617981,0.0,0.0,0.0,-11.846691131591797,4.221270561218262,4.613746643066406,2144.274658203125,0
812.7780000000002,0.003955628722906113,-0.007118785288184881,-0.00020755638252012432,0.0,0.0,0.0,0.0,-0.0005291993729770184,0.0020828989800065756,-0.0062744817696511745,0.9998127222061157,0.0,0.0,0.0,-11.848679542541504,4.225464344024658,4.615958213806152,2144.634521484375,0
822.6880000000001,0.003924270160496235,-0.00711933383718133,-0.00021855148952454329,0.0,0.0,0.0,0.0,0.002327985828742385,-0.0035544473212212324,0.0004008843097835779,0.999060869216919,0.0,0.0,0.0,-11.838608741760254,4.223663806915283,4.611550807952881,2142.811767578125,0
832.6010000000006,0.003919866867363453,-0.007081385236233473,-0.0002700287732295692,0.0,0.0,0.0,0.0,-0.00026285156491212547,-0.00021098639990668744,-0.0002907353627961129,0.9995549321174622,0.0,0.0,0.0,-11.844411849975586,4.225612640380859,4.626062393188477,2143.862060546875,0
842.509,0.0040300749242305756,-0.007131124380975962,-0.0001932852464960888,0.0,0.0,0.0,0.0,0.002386712469160557,-0.00035419236519373953,0.0026358705945312977,0.9978970289230347,0.0,0.0,0.0,-11.85733413696289,4.226147651672363,4.656620025634766,2146.201171875,0
852.4220000000005,0.0039803385734558105,-0.007182167377322912,-0.0001887014223029837,0.0,0.0,0.0,0.0,-0.001590298255905509,0.00019619330123532563,-0.00021795056818518788,0.9993149042129517,0.0,0.0,0.0,-11.860532760620117,4.210925102233887,4.65204381942749,2146.77978515625,0
862.3340000000007,0.003951207268983126,-0.007185759488493204,-0.00019877481099683791,0.0,0.0,0.0,0.0,-0.0009253868483938277,-0.0006148875690996647,-0.001514927833341062,0.9996752142906189,0.0,0.0,0.0,-11.849257469177246,4.207391262054443,4.6472907066345215,2144.739013671875,0
872.2450000000008,0.003920080605894327,-0.007198018487542868,-0.0002101640566252172,0.0,0.0,0.0,0.0,0.0033251859713345766,0.003221386345103383,-0.0019401489989832044,0.9996896386146545,0.0,0.0,0.0,-11.851823806762695,4.203695774078369,4.64581823348999,2145.20361328125,0
882.1530000000002,0.003970132675021887,-0.0071785287000238895,-0.00012403461732901633,0.0,0.0,0.0,0.0,8.561741560697556e-05,0.0011883476981893182,-0.0010262341238558292,1.0010242462158203,0.0,0.0,0.0,-11.86395263671875,4.2064738273620605,4.653451442718506,2147.399169921875,0
892.0640000000003,0.003935817163437605,-0.00716805225238204,-0.00010878007742576301,0.0,0.0,0.0,0.0,0.002259636064991355,0.004139949567615986,0.0016533375019207597,0.9997491836547852,0.0,0.0,0.0,-11.867141723632812,4.207543849945068,4.643515110015869,2147.976318359375,0
901.978000000001,0.003906977362930775,-0.007172740530222654,-0.00010996623313985765,0.0,0.0,0.0,0.0,-0.0016626014839857817,-0.007585912011563778,-1.2378035535220988e-05,0.9995702505111694,0.0,0.0,0.0,-11.854474067687988,4.199544429779053,4.629826545715332,2145.68359375,0
911.8829999999998,0.003889283398166299,-0.00717730401083827,-0.0001332727842964232,0.0,0.0,0.0,0.0,-0.0011399217182770371,0.002799007808789611,0.0026031944435089827,0.9997525215148926,0.0,0.0,0.0,-11.860503196716309,4.202401638031006,4.644406795501709,2146.774658203125,0
921.7980000000007,0.003858222858980298,-0.007181311026215553,-0.00013626273721456528,0.0,0.0,0.0,0.0,-0.00012954884732607752,-0.0012380874250084162,0.002476608380675316,0.9998093247413635,0.0,0.0,0.0,-11.847940444946289,4.197885513305664,4.637081146240234,2144.500732421875,0
931.7039999999997,0.0038477175403386354,-0.007164796348661184,-0.00017530031618662179,0.0,0.0,0.0,0.0,-0.0027805741410702467,0.0002108992193825543,-0.001953902654349804,0.9993488788604736,0.0,0.0,0.0,-11.845682144165039,4.203051567077637,4.641773700714111,2144.092041015625,0
941.6220000000012,0.0038156802766025066,-0.007168101146817207,-0.00018111139070242643,0.0,0.0,0.0,0.0,0.0019768550992012024,-0.003882503602653742,-0.002080056117847562,0.9985710382461548,0.0,0.0,0.0,-11.833734512329102,4.203358173370361,4.635372638702393,2141.9296875,0
951.527,0.0038097023498266935,-0.007122484967112541,-0.00022526959946844727,0.0,0.0,0.0,0.0,0.0009536781581118703,0.0054807523265480995,-0.003057745983824134,1.0008686780929565,0.0,0.0,0.0,-11.837957382202148,4.214979648590088,4.6503586769104,2142.69384765625,0
961.4500000000007,0.003777095815166831,-0.0071245585568249226,-0.00023460060765501112,0.0,0.0,0.0,0.0,0.0011790016433224082,-0.0018801653059199452,0.0011843607062473893,1.0003799200057983,0.0,0.0,0.0,-11.826216697692871,4.210272789001465,4.637295246124268,2140.568603515625,0
971.3500000000004,0.003744840621948242,-0.007090080063790083,-0.00023297032748814672,0.0,0.0,0.0,0.0,0.0005707656964659691,0.009501277469098568,-0.0003615344758145511,1.0001331567764282,0.0,0.0,0.0,-11.831693649291992,4.217285633087158,4.640843391418457,2141.560302734375,0
981.2700000000004,0.004068385809659958,-0.007203275803476572,2.3744496502331458e-05,0.0,0.0,0.0,0.0,0.00032590574119240046,-0.002568572759628296,-0.0005100411362946033,0.9975214600563049,0.0,0.0,0.0,-11.84610652923584,4.212149620056152,4.705692291259766,2144.1689453125,0
991.1720000000005,0.004067027010023594,-0.007215962279587984,-7.001754056545906e-07,0.0,0.0,0.0,0.0,-0.0005156706320121884,-0.0007900565979070961,0.003306982573121786,0.9979461431503296,0.0,0.0,0.0,-11.84770393371582,4.210755825042725,4.7049560546875,2144.457763671875,0
1001.0930000000008,0.004052039235830307,-0.007223336026072502,1.6510648492840119e-06,0.0,0.0,0.0,0.0,-0.002364516956731677,-0.0029345746152102947,-0.004340156447142363,0.9973364472389221,0.0,0.0,0.0,-11.834588050842285,4.2076544761657715,4.702322959899902,2142.083984375,0
1011.0010000000002,0.004053629003465176,-0.007224712520837784,-2.9327095035114326e-05,0.0,0.0,0.0,0.0,0.0009686347912065685,0.005349733401089907,-0.0034300219267606735,0.9995699524879456,0.0,0.0,0.0,-11.839313507080078,4.216585159301758,4.7023491859436035,2142.939208984375,0
1020.9179999999997,0.004051136318594217,-0.007272486109286547,-2.7797746952273883e-05,0.0,0.0,0.0,0.0,0.0016374128172174096,0.003907595295459032,0.0003382922150194645,0.9991095066070557,0.0,0.0,0.0,-11.852550506591797,4.209338665008545,4.687507629394531,2145.335205078125,0
1030.8190000000013,0.004075721371918917,-0.0072282105684280396,-7.472797733498737e-05,0.0,0.0,0.0,0.0,0.00297569390386343,0.0004927911795675755,0.0003206584369763732,0.9983121752738953,0.0,0.0,0.0,-11.852675437927246,4.216088771820068,4.677078723907471,2145.357666015625,0
1040.741,0.004061075858771801,-0.007237344514578581,-8.262035407824442e-05,0.0,0.0,0.0,0.0,-0.0027780078817158937,0.003409512108191848,-0.0002360371290706098,0.9978160858154297,0.0,0.0,0.0,-11.840450286865234,4.2111287117004395,4.676478385925293,2143.145263671875,0
1050.643,0.00409026350826025,-0.007192251738160849,-0.00014902229304425418,0.0,0.0,0.0,0.0,-0.00019831697863992304,-0.0019280981505289674,0.0011790530988946557,0.9974830150604248,0.0,0.0,0.0,-11.840200424194336,4.2274298667907715,4.677784442901611,2143.099853515625,0
1060.5650000000005,0.004077554680407047,-0.007199767976999283,-0.0001647898752707988,0.0,0.0,0.0,0.0,0.0002736941969487816,0.0019757761619985104,0.0006028204807080328,0.9984248280525208,0.0,0.0,0.0,-11.827703475952148,4.223376274108887,4.678957939147949,2140.837890625,0
1070.469000000001,0.004063478671014309,-0.007192447315901518,-0.00017698884767014533,0.0,0.0,0.0,0.0,-0.0003247608838137239,0.0011456027859821916,0.0005463695852085948,1.001415729522705,0.0,0.0,0.0,-11.829184532165527,4.224069595336914,4.674083709716797,2141.10595703125,0
1080.3880000000008,0.004046779591590166,-0.007200400345027447,-0.00019381944730412215,0.0,0.0,0.0,0.0,0.0019145876867696643,0.005635975394397974,0.0011052782647311687,0.998790442943573,0.0,0.0,0.0,-11.817380905151367,4.218545436859131,4.66624116897583,2138.969482421875,0
1090.291000000001,0.004030866548418999,-0.007175876293331385,-0.0002039683604380116,0.0,0.0,0.0,0.0,0.00010509318963158876,-0.002416433999314904,0.0014580375282093883,0.9993051290512085,0.0,0.0,0.0,-11.821188926696777,4.222825050354004,4.639649391174316,2139.658935546875,0
1100.2170000000006,0.004011084791272879,-0.007182085420936346,-0.0002208961668657139,0.0,0.0,0.0,0.0,0.0006527742370963097,-0.00010174216731684282,-0.0017518834210932255,0.9994913935661316,0.0,0.0,0.0,-11.80947208404541,4.214097499847412,4.637612342834473,2137.5380859375,0
1110.1130000000012,0.004006416071206331,-0.007135890424251556,-0.00025725900195539,0.0,0.0,0.0,0.0,-0.0034792476799339056,0.003498632460832596,0.002610068768262863,0.9990448951721191,0.0,0.0,0.0,-11.815328598022461,4.225836277008057,4.638110160827637,2138.597900390625,0
1120.0330000000013,0.004080329090356827,-0.007172898855060339,-0.00018799617828335613,0.0,0.0,0.0,0.0,-0.0005545607418753207,0.0009991300757974386,-0.0020883360411971807,0.9998618364334106,0.0,0.0,0.0,-11.829483985900879,4.229676723480225,4.648672580718994,2141.16015625,0
1129.9359999999997,0.004042054992169142,-0.007209285628050566,-0.00018220920173916966,0.0,0.0,0.0,0.0,0.0018110077362507582,0.00656490633264184,-0.0011719975154846907,1.0006768703460693,0.0,0.0,0.0,-11.832901000976562,4.217491149902344,4.633620738983154,2141.778564453125,0
1139.8580000000002,0.004019867163151503,-0.007212964352220297,-0.00019490237173158675,0.0,0.0,0.0,0.0,0.004079931415617466,0.0010484779486432672,0.0023601322900503874,0.9987474679946899,0.0,0.0,0.0,-11.820980072021484,4.204641819000244,4.6123881340026855,2139.620849609375,0
1149.7600000000002,0.0040035187266767025,-0.0071806893683969975,-0.0002070081391138956,0.0,0.0,0.0,0.0,-0.00020297503215260804,-0.0022102929651737213,-0.00011816656478913501,0.9984719157218933,0.0,0.0,0.0,-11.824462890625,4.202602863311768,4.606119632720947,2140.251220703125,0
1159.6810000000005,0.004025243688374758,-0.00718429870903492,-0.00016522825171705335,0.0,0.0,0.0,0.0,0.0007361762691289186,0.0024185162037611008,0.004522050265222788,0.9984852075576782,0.0,0.0,0.0,-11.839885711669922,4.2035088539123535,4.621260643005371,2143.042724609375,0
1169.5860000000011,0.004010369069874287,-0.007164706476032734,-0.0001882197248050943,0.0,0.0,0.0,0.0,-4.993309630663134e-05,0.0016879640752449632,-0.0010092142038047314,0.997775673866272,0.0,0.0,0.0,-11.846497535705566,4.201625347137451,4.609645366668701,2144.23974609375,0
1179.5069999999996,0.003982756286859512,-0.007165997754782438,-0.0002021397085627541,0.0,0.0,0.0,0.0,0.0006604365771636367,0.004615205805748701,-0.0015974064590409398,0.9992902874946594,0.0,0.0,0.0,-11.834941864013672,4.193440914154053,4.596627235412598,2142.148193359375,0
1189.4089999999997,0.0039400504902005196,-0.0071664778515696526,-0.00018535646086093038,0.0,0.0,0.0,0.0,0.0008007229771465063,0.003072962164878845,0.0035462756641209126,1.0010241270065308,0.0,0.0,0.0,-11.840838432312012,4.185966968536377,4.573493003845215,2143.215087890625,0
1199.33,0.003911803476512432,-0.00717148557305336,-0.000197977977222763,0.0,0.0,0.0,0.0,0.00022371103113982826,-0.0015004067681729794,-0.002631446113809943,0.9981960654258728,0.0,0.0,0.0,-11.828451156616211,4.175597190856934,4.566141605377197,2140.97314453125,0
1209.2309999999998,0.003886632388457656,-0.007178838364779949,-0.0002181051386287436,0.0,0.0,0.0,0.0,0.0004874649166595191,-2.523610419302713e-05,9.647245860833209e-06,1.0012027025222778,0.0,0.0,0.0,-11.832316398620605,4.1685967445373535,4.562912940979004,2141.6728515625,0
1219.1509999999998,0.00400219950824976,-0.00721122557297349,-0.00011329814151395112,0.0,0.0,0.0,0.0,-0.0002774449239950627,0.001213856739923358,0.0007469979464076459,1.000441074371338,0.0,0.0,0.0,-11.845091819763184,4.172171592712402,4.590277194976807,2143.985107421875,0
1229.054,0.004005836322903633,-0.007174037862569094,-0.00014896168431732804,0.0,0.0,0.0,0.0,7.390430982923135e-05,0.0013028944376856089,0.004543939605355263,0.9999149441719055,0.0,0.0,0.0,-11.84597396850586,4.180550575256348,4.5868635177612305,2144.14501953125,0
1238.9740000000002,0.003980589564889669,-0.007179760839790106,-0.00015566985530313104,0.0,0.0,0.0,0.0,-0.0019324917811900377,0.002567840274423361,-0.0005990510107949376,0.9992926716804504,0.0,0.0,0.0,-11.833362579345703,4.178964138031006,4.585799694061279,2141.8623046875,0
1248.8790000000008,0.003948693163692951,-0.007202140986919403,-0.00015735729539301246,0.0,0.0,0.0,0.0,0.00208176183514297,0.0007198275998234749,0.0013440741458907723,0.9997566342353821,0.0,0.0,0.0,-11.836296081542969,4.179472923278809,4.57850456237793,2142.393310546875,0
1258.8070000000007,0.004021899309009314,-0.007240357808768749,-9.820372360991314e-05,0.0,0.0,0.0,0.0,0.002008826471865177,-0.002762596122920513,0.0013150302693247795,0.9997636675834656,0.0,0.0,0.0,-11.855374336242676,4.171494483947754,4.59415864944458,2145.846435546875,0
1268.701000000001,0.003997142426669598,-0.007215913850814104,-8.752397843636572e-05,0.0,0.0,0.0,0.0,0.0019501211354508996,0.00035868489067070186,-0.00018664651724975556,1.001642107963562,0.0,0.0,0.0,-11.857965469360352,4.170841217041016,4.597202777862549,2146.315185546875,0
1278.6220000000012,0.0039689200930297375,-0.007221537176519632,-8.833981701172888e-05,0.0,0.0,0.0,0.0,0.0024480572901666164,0.0019214835483580828,0.0001413900899933651,1.0000381469726562,0.0,0.0,0.0,-11.845674514770508,4.164423942565918,4.5930891036987305,2144.090576171875,0
1288.5259999999998,0.003963971044868231,-0.007176067680120468,-0.00011111977801192552,0.0,0.0,0.0,0.0,-0.000432496250141412,0.0013846075162291527,0.0009837698889896274,1.0006555318832397,0.0,0.0,0.0,-11.846851348876953,4.175207614898682,4.592076778411865,2144.303466796875,0
1298.4470000000001,0.003932857885956764,-0.007180897518992424,-0.00011210907541681081,0.0,0.0,0.0,0.0,0.0005662949988618493,-0.001894324435852468,-0.0018279165960848331,0.9993367195129395,0.0,0.0,0.0,-11.835217475891113,4.175098419189453,4.586361885070801,2142.19775390625,0
1308.3490000000002,0.003922120202332735,-0.007145883981138468,-0.00014207384083420038,0.0,0.0,0.0,0.0,0.0006187134422361851,0.009153895080089569,0.0007358003058470786,1.0015054941177368,0.0,0.0,0.0,-11.837567329406738,4.1861748695373535,4.587835311889648,2142.623046875,0
1318.2690000000002,0.0038905686233192682,-0.007149090524762869,-0.0001448794500902295,0.0,0.0,0.0,0.0,-1.73366552189691e-05,-0.001596256741322577,0.0015123948687687516,0.9979636073112488,0.0,0.0,0.0,-11.825209617614746,4.178648471832275,4.56765079498291,2140.386474609375,0
1328.1720000000005,0.0038687288761138916,-0.007152231875807047,-0.00017435531481169164,0.0,0.0,0.0,0.0,-0.0006532195839099586,0.005106850992888212,-0.0017154818633571267,0.9985252022743225,0.0,0.0,0.0,-11.829102516174316,4.173468112945557,4.571107387542725,2141.091064453125,0
1338.0950000000012,0.0038348210509866476,-0.007154387421905994,-0.00018045734032057226,0.0,0.0,0.0,0.0,0.0009656529291532934,-9.878366108750924e-05,0.00025112161529250443,0.9973981380462646,0.0,0.0,0.0,-11.81824016571045,4.167697906494141,4.553334712982178,2139.125,0
1348.0,0.0038128297310322523,-0.007145847659558058,-0.00021535312407650054,0.0,0.0,0.0,0.0,0.002230886137112975,0.0021385615691542625,-0.0004264457675162703,0.9978307485580444,0.0,0.0,0.0,-11.820539474487305,4.168045997619629,4.554347991943359,2139.541259765625,0
1357.916000000001,0.004041269421577454,-0.007246444467455149,-3.798013131017797e-05,0.0,0.0,0.0,0.0,-0.002555794082581997,0.0013249206822365522,-0.0030331069137901068,1.0003107786178589,0.0,0.0,0.0,-11.835811614990234,4.160370826721191,4.617281436920166,2142.3056640625,0
1367.8190000000013,0.00405148696154356,-0.007197877857834101,-7.407841621898115e-05,0.0,0.0,0.0,0.0,0.0024135312996804714,-0.002645632950589061,0.0003627676924224943,1.0005170106887817,0.0,0.0,0.0,-11.83803939819336,4.1760053634643555,4.613948822021484,2142.708740234375,0
1377.7420000000002,0.0040292078629136086,-0.00719915796071291,-7.857239688746631e-05,0.0,0.0,0.0,0.0,-0.0005239571328274906,0.0037037243600934744,0.0014209758955985308,0.9990341663360596,0.0,0.0,0.0,-11.826282501220703,4.165831565856934,4.611090183258057,2140.580810546875,0
1387.6419999999998,0.004019518382847309,-0.007174622267484665,-9.767245501279831e-05,0.0,0.0,0.0,0.0,-0.0012074888218194246,0.001033000648021698,0.002116917632520199,0.99791020154953,0.0,0.0,0.0,-11.830912590026855,4.1707539558410645,4.5981125831604,2141.418701171875,0
1397.562,0.004064735025167465,-0.007182474713772535,-3.6052908399142325e-05,0.0,0.0,0.0,0.0,0.0006527085206471384,-0.0038489089347422123,0.0023200104478746653,0.9982600212097168,0.0,0.0,0.0,-11.843905448913574,4.1738362312316895,4.605759143829346,2143.7705078125,0
1407.4680000000008,0.0040580350905656815,-0.0071710143238306046,-6.19681813986972e-05,0.0,0.0,0.0,0.0,0.002960135694593191,0.0011638173600658774,-0.001836286741308868,1.001393437385559,0.0,0.0,0.0,-11.841320037841797,4.175245761871338,4.607563495635986,2143.302490234375,0
1417.3900000000012,0.00403549475595355,-0.007172738667577505,-6.726117862854153e-05,0.0,0.0,0.0,0.0,0.0008379873470403254,0.0028511600103229284,-0.005003158003091812,0.9995335340499878,0.0,0.0,0.0,-11.830401420593262,4.162117958068848,4.601282596588135,2141.326171875,0
1427.2920000000013,0.004026256501674652,-0.007158281747251749,-8.935234654927626e-05,0.0,0.0,0.0,0.0,-0.00021564732014667243,-0.0005035147769376636,0.00031381353619508445,0.9989740252494812,0.0,0.0,0.0,-11.835075378417969,4.167474269866943,4.5872907638549805,2142.17236328125,0
1437.210000000001,0.004002205096185207,-0.007159750908613205,-9.5951727416832e-05,0.0,0.0,0.0,0.0,0.001872242079116404,-0.002442286815494299,0.0028572934679687023,0.9986173510551453,0.0,0.0,0.0,-11.822552680969238,4.165207386016846,4.580256938934326,2139.905517578125,0
1447.1140000000014,0.003980322740972042,-0.007176377344876528,-0.00011822823580587283,0.0,0.0,0.0,0.0,-0.0002434530615573749,-0.0009580166079103947,0.006678573787212372,1.0016824007034302,0.0,0.0,0.0,-11.82569694519043,4.154545307159424,4.581964015960693,2140.474609375,0
1457.0370000000003,0.003981230314821005,-0.0071611166931688786,-6.21625003986992e-05,0.0,0.0,0.0,0.0,0.0004966194974258542,-0.0006449018837884068,0.0019493406871333718,1.0013723373413086,0.0,0.0,0.0,-11.842327117919922,4.160141468048096,4.5876994132995605,2143.484619140625,0
1466.9359999999997,0.00396288838237524,-0.007177135907113552,-9.01174425962381e-05,0.0,0.0,0.0,0.0,0.0008913109195418656,0.00016123626846820116,0.0019334168173372746,0.9988811612129211,0.0,0.0,0.0,-11.842920303344727,4.153077125549316,4.586457252502441,2143.59228515625,0
1476.857,0.003934928216040134,-0.00717956805601716,-9.404378215549514e-05,0.0,0.0,0.0,0.0,0.0008108045440167189,0.004043121822178364,0.0040002078749239445,0.9977889060974121,0.0,0.0,0.0,-11.831219673156738,4.149637222290039,4.578942775726318,2141.47412109375,0
1486.7600000000002,0.003913469612598419,-0.007192618679255247,-0.00011804148380178958,0.0,0.0,0.0,0.0,-0.00044957222416996956,0.0009806632297113538,-0.0005889805615879595,0.9967926144599915,0.0,0.0,0.0,-11.832456588745117,4.14178991317749,4.568152904510498,2141.697998046875,0
1496.6850000000013,0.00399400619789958,-0.007213138975203037,-3.934686174034141e-05,0.0,0.0,0.0,0.0,-0.0007459940388798714,0.00041297057759948075,0.0006753605557605624,0.9979462027549744,0.0,0.0,0.0,-11.845901489257812,4.144928455352783,4.585482597351074,2144.1318359375,0
1506.5860000000011,0.00396802369505167,-0.007196270860731602,-4.4596348743652925e-05,0.0,0.0,0.0,0.0,0.0008289028191938996,-9.152353595709428e-05,0.00013385362399276346,0.997503936290741,0.0,0.0,0.0,-11.849352836608887,4.1527252197265625,4.573397159576416,2144.756591796875,0
1516.505000000001,0.0039368500001728535,-0.007203575689345598,-5.195207995711826e-05,0.0,0.0,0.0,0.0,0.00015023574815131724,0.000755591201595962,0.001898056361824274,0.9982602000236511,0.0,0.0,0.0,-11.83809757232666,4.1504292488098145,4.574158668518066,2142.71923828125,0
1526.4089999999997,0.0039023952558636665,-0.007208638358861208,-5.672770203091204e-05,0.0,0.0,0.0,0.0,0.0015656407922506332,0.003943278454244137,-0.0015578012680634856,0.9995906352996826,0.0,0.0,0.0,-11.843486785888672,4.151316165924072,4.566585540771484,2143.69482421875,0
1536.3320000000003,0.0038662636652588844,-0.007217237260192633,-6.652734009549022e-05,0.0,0.0,0.0,0.0,-0.00021685224783141166,-0.0038574901409447193,0.00022474447905551642,1.0007048845291138,0.0,0.0,0.0,-11.832428932189941,4.142404079437256,4.548771381378174,2141.693359375,0
1546.232,0.0038302044849842787,-0.00721273198723793,-7.468784315278754e-05,0.0,0.0,0.0,0.0,-0.0006341240950860083,-0.0014608700294047594,0.00030630038236267865,1.001033067703247,0.0,0.0,0.0,-11.837259292602539,4.147160053253174,4.550151348114014,2142.567626953125,0
1556.157000000001,0.0037904877681285143,-0.007221410050988197,-8.319093467434868e-05,0.0,0.0,0.0,0.0,9.692847379483283e-05,0.0032100665848702192,0.004449976608157158,1.0000908374786377,0.0,0.0,0.0,-11.825150489807129,4.146085262298584,4.545770168304443,2140.3759765625,0
1566.054,0.0037925206124782562,-0.0071496907621622086,-0.0001546959683764726,0.0,0.0,0.0,0.0,-0.000915217213332653,-0.0013782032765448093,0.002287986921146512,0.9986171722412109,0.0,0.0,0.0,-11.827242851257324,4.169160842895508,4.5477986335754395,2140.75439453125,0
1575.982,0.00400709779933095,-0.007223262917250395,2.454493187542539e-05,0.0,0.0,0.0,0.0,-0.0004821384500246495,0.0019724692683666945,-0.0010581414680927992,0.9996851682662964,0.0,0.0,0.0,-11.838916778564453,4.16634464263916,4.611554145812988,2142.867431640625,0
1585.8819999999996,0.00404795166105032,-0.007165620569139719,-7.499432103941217e-05,0.0,0.0,0.0,0.0,-0.003518128301948309,-2.5098328478634357e-05,-0.0016052443534135818,0.9991059899330139,0.0,0.0,0.0,-11.838826179504395,4.180631160736084,4.609647274017334,2142.85107421875,0
1595.7980000000007,0.004014687146991491,-0.007184983696788549,-8.026955765672028e-05,0.0,0.0,0.0,0.0,-0.0011400863295421004,0.0009061945020221174,0.0031914093997329473,0.9999772906303406,0.0,0.0,0.0,-11.850200653076172,4.177889823913574,4.604423522949219,2144.909912109375,0
1605.7060000000001,0.004039669409394264,-0.007141748443245888,-0.00016039561887737364,0.0,0.0,0.0,0.0,-0.00295155867934227,0.0027816572692245245,-0.003504581516608596,0.9987024664878845,0.0,0.0,0.0,-11.850817680358887,4.183025360107422,4.601191520690918,2145.021728515625,0
1615.625,0.004010370001196861,-0.007146076764911413,-0.00017491662583779544,0.0,0.0,0.0,0.0,-0.0024182372726500034,0.004965350031852722,0.0012775299837812781,0.9978662133216858,0.0,0.0,0.0,-11.840642929077148,4.18207311630249,4.591259479522705,2143.179931640625,0
1625.5240000000013,0.004007802810519934,-0.0071259536780416965,-0.0002304397930856794,0.0,0.0,0.0,0.0,0.00039351137820631266,0.0028813076205551624,-0.0011549388291314244,1.0001554489135742,0.0,0.0,0.0,-11.840314865112305,4.189826011657715,4.583207130432129,2143.12060546875,0
1635.4470000000001,0.004078797530382872,-0.007150321267545223,-0.00018184496730100363,0.0,0.0,0.0,0.0,0.0003525899664964527,-0.005841875448822975,0.0023252859245985746,1.0001320838928223,0.0,0.0,0.0,-11.85053825378418,4.187020778656006,4.592803001403809,2144.97119140625,0
1645.3540000000012,0.004024788271635771,-0.0071967607364058495,-0.00017624074826017022,0.0,0.0,0.0,0.0,0.0018194002332165837,0.004003087989985943,-0.0030464855954051018,0.9986588358879089,0.0,0.0,0.0,-11.8524808883667,4.178651332855225,4.598302364349365,2145.32275390625,0
1655.2710000000006,0.00399395264685154,-0.007205236237496138,-0.00018914163229055703,0.0,0.0,0.0,0.0,-0.003496567253023386,0.0053620776161551476,0.0003538216697052121,0.9980238676071167,0.0,0.0,0.0,-11.84218692779541,4.171178340911865,4.583101749420166,2143.45947265625,0
1665.1769999999997,0.003957470413297415,-0.007216708734631538,-0.00019422367040533572,0.0,0.0,0.0,0.0,-0.0020919539965689182,-0.0027891520876437426,0.00011500061373226345,0.9985696077346802,0.0,0.0,0.0,-11.8435640335083,4.1712260246276855,4.562639236450195,2143.70849609375,0
1675.0920000000006,0.003923248499631882,-0.007227104622870684,-0.00020900553499814123,0.0,0.0,0.0,0.0,-0.0005561677971854806,0.0047733113169670105,-0.002055317861959338,0.9998006224632263,0.0,0.0,0.0,-11.831534385681152,4.168176174163818,4.565370082855225,2141.531494140625,0
1685.0020000000004,0.0038944659754633904,-0.007226698100566864,-0.00023619600688107312,0.0,0.0,0.0,0.0,-0.0009837624384090304,-0.0019742960575968027,0.0004877144529018551,0.9986054301261902,0.0,0.0,0.0,-11.838552474975586,4.171238899230957,4.553877353668213,2142.801513671875,0
1694.92,0.004004582762718201,-0.00724844029173255,-0.00012907091877423227,0.0,0.0,0.0,0.0,0.0020166586618870497,-0.0004368856025394052,0.0027270568534731865,0.9989844560623169,0.0,0.0,0.0,-11.850934982299805,4.179066181182861,4.582684516906738,2145.04296875,0
1704.8270000000011,0.003982631489634514,-0.007245860528200865,-0.00014633439423050731,0.0,0.0,0.0,0.0,0.0015547171933576465,-0.0031310436315834522,0.0005295040900819004,1.001129388809204,0.0,0.0,0.0,-11.849653244018555,4.177731513977051,4.57289981842041,2144.810791015625,0
1714.7399999999998,0.004042767453938723,-0.007260746788233519,-0.00010364970512455329,0.0,0.0,0.0,0.0,0.0008860343950800598,0.004273674916476011,0.002396445721387863,1.0007458925247192,0.0,0.0,0.0,-11.862805366516113,4.176842212677002,4.588200092315674,2147.191162109375,0
1724.652,0.004022657871246338,-0.007258360739797354,-0.00012153518764534965,0.0,0.0,0.0,0.0,0.0013989186845719814,0.004194009583443403,-0.000718067807611078,0.9999135136604309,0.0,0.0,0.0,-11.863785743713379,4.178469181060791,4.5727458000183105,2147.36865234375,0
1734.5699999999997,0.004032847471535206,-0.007284366525709629,-0.00010604199633235112,0.0,0.0,0.0,0.0,-0.0011646918719634414,0.0007487739203497767,0.0010244209552183747,0.9983395338058472,0.0,0.0,0.0,-11.876270294189453,4.176309585571289,4.564967155456543,2149.62841796875,0
1744.473,0.004012663848698139,-0.007270387373864651,-0.00012091083772247657,0.0,0.0,0.0,0.0,-0.0014135160017758608,0.0014428728027269244,0.00043834454845637083,0.9990894198417664,0.0,0.0,0.0,-11.873005867004395,4.179650783538818,4.555927753448486,2149.03759765625,0
1754.3860000000004,0.003979219123721123,-0.007283054757863283,-0.00012766075087711215,0.0,0.0,0.0,0.0,-0.0017296225996688008,-0.0026174269150942564,0.001506795291788876,0.9989365339279175,0.0,0.0,0.0,-11.860748291015625,4.173563003540039,4.547913551330566,2146.819091796875,0
1764.2939999999999,0.003961388021707535,-0.007270257454365492,-0.00015317312499973923,0.0,0.0,0.0,0.0,0.002095477655529976,0.008293715305626392,-0.001991415163502097,0.999100387096405,0.0,0.0,0.0,-11.864398002624512,4.176391124725342,4.553244113922119,2147.4794921875,0
1774.2120000000014,0.0039237793534994125,-0.007283566519618034,-0.0001628305035410449,0.0,0.0,0.0,0.0,-0.0024870112538337708,-0.004608080256730318,-0.0018047273624688387,0.997861385345459,0.0,0.0,0.0,-11.853791236877441,4.166431903839111,4.533490180969238,2145.559814453125,0
1784.1239999999998,0.003900115145370364,-0.00726252282038331,-0.00018823023128788918,0.0,0.0,0.0,0.0,0.0026517685037106276,-0.0013321699807420373,-0.000821957248263061,0.9972887635231018,0.0,0.0,0.0,-11.854473114013672,4.177025318145752,4.543142318725586,2145.683349609375,0
1794.0339999999997,0.003994319587945938,-0.0072791436687111855,-8.493919449392706e-05,0.0,0.0,0.0,0.0,-0.00018444453598931432,0.0020402155350893736,-0.0010418397141620517,0.9985616207122803,0.0,0.0,0.0,-11.863186836242676,4.173307418823242,4.578310489654541,2147.260498046875,0
1803.9410000000007,0.004005644470453262,-0.007230252027511597,-0.00013372296234592795,0.0,0.0,0.0,0.0,-0.002549953293055296,-0.0010133800096809864,0.0030995237175375223,0.9982444047927856,0.0,0.0,0.0,-11.869173049926758,4.185771465301514,4.573754787445068,2148.343994140625,0
1813.8590000000004,0.003975539468228817,-0.007240766659379005,-0.00014590652426704764,0.0,0.0,0.0,0.0,-0.001875462243333459,0.0008033427293412387,-0.0021875721868127584,1.000105857849121,0.0,0.0,0.0,-11.855534553527832,4.185344696044922,4.566980361938477,2145.87548828125,0
1823.7810000000009,0.003948884084820747,-0.00724237784743309,-0.00016384324408136308,0.0,0.0,0.0,0.0,-0.0003572911082301289,-4.2774598114192486e-05,-0.00224571255967021,0.9992567896842957,0.0,0.0,0.0,-11.860021591186523,4.188244819641113,4.55951452255249,2146.6875,0
1833.6810000000005,0.004016707185655832,-0.007286496926099062,-0.00011083138815592974,0.0,0.0,0.0,0.0,-0.0016067088581621647,0.0024792151525616646,-0.004277074243873358,1.0008459091186523,0.0,0.0,0.0,-11.873729705810547,4.18682861328125,4.5752854347229,2149.168701171875,0
1843.5900000000001,0.004015736747533083,-0.007241742219775915,-0.00014586065663024783,0.0,0.0,0.0,0.0,-5.127921667735791e-06,0.0014997213147580624,0.003464160021394491,0.9976173639297485,0.0,0.0,0.0,-11.874335289001465,4.1951680183410645,4.5691704750061035,2149.2783203125,0
1853.5100000000002,0.003982580732554197,-0.007251623086631298,-0.00015645299572497606,0.0,0.0,0.0,0.0,-0.0006884817266836762,0.0032869221176952124,0.0009981474140658975,0.999168336391449,0.0,0.0,0.0,-11.860718727111816,4.186913967132568,4.567870140075684,2146.8134765625,0
1863.4230000000007,0.003950539510697126,-0.007250133436173201,-0.0001679718552622944,0.0,0.0,0.0,0.0,-0.0006711122114211321,0.0056742895394563675,-0.0012317789951339364,0.9976916313171387,0.0,0.0,0.0,-11.86034870147705,4.183523654937744,4.55830717086792,2146.74658203125,0
1873.3220000000001,0.004035221878439188,-0.007276709657162428,-9.472965029999614e-05,0.0,0.0,0.0,0.0,0.00019480418995954096,-0.0026660864241421223,0.0009877411648631096,0.9991256594657898,0.0,0.0,0.0,-11.8742094039917,4.184600353240967,4.567636966705322,2149.255615234375,0
1883.2360000000008,0.004062683787196875,-0.007193000055849552,-0.00016103204688988626,0.0,0.0,0.0,0.0,0.0007855637231841683,0.003613717621192336,0.0009326932486146688,0.999705970287323,0.0,0.0,0.0,-11.875162124633789,4.202043533325195,4.566682815551758,2149.427734375,0
1893.148000000001,0.0040677390061318874,-0.007211009040474892,-0.00015157203597482294,0.0,0.0,0.0,0.0,0.00196278840303421,0.0023536966182291508,0.0037775710225105286,1.0014485120773315,0.0,0.0,0.0,-11.886595726013184,4.194218158721924,4.564232349395752,2151.497314453125,0
1903.0640000000003,0.00402482133358717,-0.00722994701936841,-0.0001533186004962772,0.0,0.0,0.0,0.0,-0.0026559506077319384,-0.007496676407754421,0.00011269097012700513,1.0011154413223267,0.0,0.0,0.0,-11.88502311706543,4.18458890914917,4.55472469329834,2151.212646484375,0
1912.9660000000003,0.003992874175310135,-0.007234487682580948,-0.00016310584032908082,0.0,0.0,0.0,0.0,0.0011612509842962027,-0.0014067154843360186,0.001785373198799789,0.9997066259384155,0.0,0.0,0.0,-11.873260498046875,4.183200836181641,4.558576583862305,2149.08349609375,0
1922.884,0.003981453366577625,-0.0071966578252613544,-0.0001889729028334841,0.0,0.0,0.0,0.0,-0.0012760747922584414,-0.0021117813885211945,-0.003478115424513817,0.9964982271194458,0.0,0.0,0.0,-11.873954772949219,4.193175792694092,4.5602216720581055,2149.209228515625,0
1932.795,0.004044815897941589,-0.007223727647215128,-0.00013979937648400664,0.0,0.0,0.0,0.0,-0.0029193656519055367,0.0020625407341867685,0.00011930172331631184,0.9965272545814514,0.0,0.0,0.0,-11.885699272155762,4.1981611251831055,4.577794551849365,2151.3349609375,0
1942.7160000000003,0.004031090065836906,-0.007198808714747429,-0.000162473414093256,0.0,0.0,0.0,0.0,-0.00027340903761796653,-0.0013578427024185658,0.0005688786623068154,0.9972990155220032,0.0,0.0,0.0,-11.884264945983887,4.209468841552734,4.5757246017456055,2151.07568359375,0
1952.6239999999998,0.004001072142273188,-0.007204865105450153,-0.0001763186592143029,0.0,0.0,0.0,0.0,-0.0002388989960309118,-0.0003853772359434515,0.002896861871704459,0.9995644688606262,0.0,0.0,0.0,-11.872875213623047,4.204226493835449,4.568727016448975,2149.01416015625,0
1962.5300000000007,0.0039403620176017284,-0.007230596616864204,-0.00014862381794955581,0.0,0.0,0.0,0.0,0.003164073219522834,-0.00034754021908156574,0.0013406462967395782,0.9974820017814636,0.0,0.0,0.0,-11.875992774963379,4.19852352142334,4.558445453643799,2149.578125,0
1972.4390000000003,0.003904232755303383,-0.007238735910505056,-0.0001620408584130928,0.0,0.0,0.0,0.0,-0.0001577227667439729,0.0006571866106241941,0.0006198204937390983,0.9967708587646484,0.0,0.0,0.0,-11.864677429199219,4.188538074493408,4.561044216156006,2147.530029296875,0
1982.3640000000014,0.003878478892147541,-0.007215034682303667,-0.0001887712860479951,0.0,0.0,0.0,0.0,0.0037257939111441374,0.0019187196157872677,0.004791686777025461,0.9988324046134949,0.0,0.0,0.0,-11.863744735717773,4.190334320068359,4.558124542236328,2147.361328125,0
1992.2620000000006,0.003838547971099615,-0.007221984677016735,-0.00020708571537397802,0.0,0.0,0.0,0.0,0.0008656675927340984,-0.005783900152891874,0.0025054030120372772,0.9998229146003723,0.0,0.0,0.0,-11.85127067565918,4.173834800720215,4.552102088928223,2145.103759765625,0
2002.1779999999999,0.003789810463786125,-0.007200965192168951,-0.00020620934083126485,0.0,0.0,0.0,0.0,0.004868036136031151,0.004253860097378492,-0.0009972340194508433,1.0002241134643555,0.0,0.0,0.0,-11.855096817016602,4.179262161254883,4.556586265563965,2145.796142578125,0
2012.0950000000012,0.0037445249035954475,-0.007207109127193689,-0.0002238265296909958,0.0,0.0,0.0,0.0,-0.0017127636820077896,-0.0010555987246334553,-2.9415585231618024e-05,0.9999643564224243,0.0,0.0,0.0,-11.843426704406738,4.165836811065674,4.542910575866699,2143.68359375,0
2022.0120000000006,0.003697418374940753,-0.007178419269621372,-0.00023542229610029608,0.0,0.0,0.0,0.0,0.0016537579940631986,-0.0012642984511330724,0.0006323181441985071,0.998773992061615,0.0,0.0,0.0,-11.847029685974121,4.181008815765381,4.539702415466309,2144.3359375,0
2031.907000000001,0.003650267841294408,-0.007184672635048628,-0.0002524711308069527,0.0,0.0,0.0,0.0,0.0009368524770252407,0.0030744941905140877,0.00041217502439394593,0.9986218214035034,0.0,0.0,0.0,-11.834264755249023,4.172996520996094,4.542278289794922,2142.025634765625,0
2041.8310000000001,0.0036008909810334444,-0.007192052900791168,-0.00027056026738137007,0.0,0.0,0.0,0.0,0.00395255908370018,0.005305808503180742,0.0009625001111999154,1.0003561973571777,0.0,0.0,0.0,-11.821571350097656,4.1652374267578125,4.534864902496338,2139.727783203125,0
2051.7300000000014,0.0035493760369718075,-0.0072000110521912575,-0.0002890788309741765,0.0,0.0,0.0,0.0,0.001787411980330944,-0.0008094964432530105,0.00020017115457449108,1.0007702112197876,0.0,0.0,0.0,-11.809277534484863,4.153337478637695,4.521185874938965,2137.5029296875,0
2061.66,0.0034956736490130424,-0.007207843475043774,-0.0003070422390010208,0.0,0.0,0.0,0.0,0.0007705974858254194,0.00019188215082976967,0.00349249760620296,1.0002336502075195,0.0,0.0,0.0,-11.797545433044434,4.14799165725708,4.511943340301514,2135.379150390625,0
2071.553,0.0034392480738461018,-0.007216156460344791,-0.00032438189373351634,0.0,0.0,0.0,0.0,0.0021033799275755882,-0.0037781475111842155,-0.0003847651241812855,0.9999285340309143,0.0,0.0,0.0,-11.784612655639648,4.144280910491943,4.50220251083374,2133.03857421875,0
2081.473,0.0033795402850955725,-0.007225944194942713,-0.0003414780367165804,0.0,0.0,0.0,0.0,-0.0013126615667715669,0.002421860583126545,0.0004823954659514129,0.9992315769195557,0.0,0.0,0.0,-11.772722244262695,4.139719486236572,4.501125335693359,2130.885986328125,0
2091.381000000001,0.003316376591101289,-0.007236685138195753,-0.0003586369566619396,0.0,0.0,0.0,0.0,-0.001190564245916903,0.001985781593248248,0.0024038676638156176,0.9993633031845093,0.0,0.0,0.0,-11.759779930114746,4.1372880935668945,4.492626190185547,2128.54345703125,0
2101.2980000000007,0.0032501323148608208,-0.007247166242450476,-0.0003761272819247097,0.0,0.0,0.0,0.0,0.004283302463591099,-0.0012675414327532053,-0.003497024532407522,1.0002652406692505,0.0,0.0,0.0,-11.746167182922363,4.132577419281006,4.4851298332214355,2126.07958984375,0
2111.2000000000007,0.003180902451276779,-0.00725671136751771,-0.00039376094355247915,0.0,0.0,0.0,0.0,0.002222508890554309,0.002979729324579239,-0.000371817615814507,1.0002728700637817,0.0,0.0,0.0,-11.735383033752441,4.119274139404297,4.479870319366455,2124.127685546875,0
2121.120000000001,0.0033366417046636343,-0.007048874162137508,-0.0005698698805645108,0.0,0.0,0.0,0.0,-0.000879388942848891,-0.0016336002154275775,-0.0003147957904729992,0.9993239641189575,0.0,0.0,0.0,-11.746389389038086,4.189929008483887,4.520147800445557,2126.11962890625,0
2131.0240000000013,0.003278559073805809,-0.007043857127428055,-0.0005968574550934136,0.0,0.0,0.0,0.0,-0.002016577171161771,0.0014402605593204498,0.001552482252009213,0.9993734955787659,0.0,0.0,0.0,-11.735430717468262,4.184625148773193,4.5152692794799805,2124.13623046875,0
2140.9490000000005,0.0032193600200116634,-0.007039257790893316,-0.0006241990486159921,0.0,0.0,0.0,0.0,0.0036545712500810623,-0.0021832885686308146,0.0017741125775501132,0.9976396560668945,0.0,0.0,0.0,-11.72395133972168,4.182755947113037,4.503571033477783,2122.05859375,0
2150.849,0.003158292965963483,-0.007034086622297764,-0.0006527858786284924,0.0,0.0,0.0,0.0,0.0004351232200860977,0.005263944156467915,-0.002208639634773135,1.0007739067077637,0.0,0.0,0.0,-11.711758613586426,4.173819541931152,4.501824378967285,2119.8515625,0
