timestamp,stateEstimate.x,stateEstimate.y,stateEstimate.z,controller.cmd_thrust,controller.cmd_roll,controller.cmd_pitch,controller.cmd_yaw,controller.r_roll,controller.r_pitch,controller.r_yaw,controller.accelz,controller.actuatorThrust,controller.roll,controller.pitch,controller.yaw,controller.rollRate,controller.pitchRate,controller.yawRate,controller.ctr_yaw
0.0,-0.02447523921728134,0.014415518380701542,-0.0011534683872014284,0.0,0.0,0.0,0.0,0.0017634783871471882,0.000688309723045677,-0.0004185809812042862,0.998974084854126,0.0,0.0,0.0,-16.833898544311523,3.1921064853668213,7.8211774826049805,3046.96923828125,0
9.918999999999869,-0.02451821230351925,0.014408940449357033,-0.0011760907946154475,0.0,0.0,0.0,0.0,-0.0003934941778425127,-0.0019781743176281452,0.0019007603405043483,0.9987999796867371,0.0,0.0,0.0,-16.81683921813965,3.1816179752349854,7.810462951660156,3043.88134765625,0
19.829999999999927,-0.024563200771808624,0.014402304776012897,-0.001198771526105702,0.0,0.0,0.0,0.0,-0.0010504642268642783,0.0013565545668825507,-0.003217218443751335,0.9992020130157471,0.0,0.0,0.0,-16.80057144165039,3.184061050415039,7.806455135345459,3040.93701171875,0
29.744000000000597,-0.024609727784991264,0.014394987374544144,-0.0012222274672240019,0.0,0.0,0.0,0.0,0.0018044660100713372,-0.0040962533093988895,-0.0010273392545059323,0.99962317943573,0.0,0.0,0.0,-16.783477783203125,3.176637887954712,7.7956223487854,3037.8427734375,0
39.647000000000844,-0.02465781755745411,0.014386463910341263,-0.0012459477875381708,0.0,0.0,0.0,0.0,-0.003181472886353731,0.00344488094560802,0.00108379649464041,0.9995139241218567,0.0,0.0,0.0,-16.766721725463867,3.1751084327697754,7.788406848907471,3034.809814453125,0
49.564000000000306,-0.024707378819584846,0.014377511106431484,-0.0012698480859398842,0.0,0.0,0.0,0.0,0.001220452948473394,-0.0035751203540712595,0.002579885069280863,0.9970635771751404,0.0,0.0,0.0,-16.74962615966797,3.1687753200531006,7.783315658569336,3031.715576171875,0
59.47199999999975,-0.024758411571383476,0.014369118958711624,-0.00129449344240129,0.0,0.0,0.0,0.0,0.0019250726327300072,0.004571753088384867,-0.00289971474558115,0.9983373880386353,0.0,0.0,0.0,-16.731847763061523,3.166922092437744,7.765417098999023,3028.497802734375,0
69.39099999999962,-0.024812117218971252,0.014361061155796051,-0.0013207013253122568,0.0,0.0,0.0,0.0,0.002236227970570326,0.0032803299836814404,-0.0008842786191962659,0.9995899796485901,0.0,0.0,0.0,-16.71489143371582,3.1652352809906006,7.756796836853027,3025.428466796875,0
79.29199999999946,-0.024869047105312347,0.014352038502693176,-0.0013484843075275421,0.0,0.0,0.0,0.0,-0.0009313681512139738,-0.0025548276025801897,0.0002790799189824611,0.9985945820808411,0.0,0.0,0.0,-16.700002670288086,3.154961585998535,7.734979152679443,3022.733642578125,0
89.21299999999974,-0.0249281357973814,0.014341303147375584,-0.0013766726478934288,0.0,0.0,0.0,0.0,-0.0007120365626178682,-0.0036353119648993015,0.0007681977585889399,0.9974699020385742,0.0,0.0,0.0,-16.682308197021484,3.154282331466675,7.726778030395508,3019.53076171875,0
99.121000000001,-0.02498769387602806,0.014329329133033752,-0.001405450515449047,0.0,0.0,0.0,0.0,0.0009181707864627242,-0.002233502920717001,-0.0009353103232569993,0.9967592358589172,0.0,0.0,0.0,-16.66489601135254,3.1587164402008057,7.724715709686279,3016.379150390625,0
109.04199999999946,-0.025047531351447105,0.014316990971565247,-0.0014363890513777733,0.0,0.0,0.0,0.0,-0.0008625894552096725,0.003979820292443037,0.003919932059943676,0.9971509575843811,0.0,0.0,0.0,-16.648351669311523,3.1518211364746094,7.727490425109863,3013.384765625,0
118.9390000000003,-0.025108784437179565,0.014304948039352894,-0.0014700987376272678,0.0,0.0,0.0,0.0,0.0016885632649064064,-0.0019949679262936115,0.003534637624397874,0.9974663853645325,0.0,0.0,0.0,-16.631486892700195,3.1466917991638184,7.717034816741943,3010.33203125,0
128.85599999999977,-0.025171704590320587,0.014292478561401367,-0.0015064068138599396,0.0,0.0,0.0,0.0,-0.0028096793685108423,-0.004081860184669495,0.0013435189612209797,0.9994652271270752,0.0,0.0,0.0,-16.614320755004883,3.1411845684051514,7.71368408203125,3007.225341796875,0
138.76200000000063,-0.025306040421128273,0.014264803379774094,-0.001583281671628356,0.0,0.0,0.0,0.0,0.002077074022963643,0.004466662183403969,-0.00031131546711549163,0.9994979500770569,0.0,0.0,0.0,-16.580495834350586,3.1308562755584717,7.697718143463135,3001.1025390625,0
148.6859999999997,-0.025306040421128273,0.014264803379774094,-0.001583281671628356,0.0,0.0,0.0,0.0,-0.001306123798713088,-0.0008064297726377845,-0.0013082382502034307,1.0010160207748413,0.0,0.0,0.0,-16.580495834350586,3.1308562755584717,7.697718143463135,3001.1025390625,0
158.58799999999974,-0.025452155619859695,0.01423264667391777,-0.001659969799220562,0.0,0.0,0.0,0.0,-0.0017979636322706938,-0.002737948903813958,9.462456364417449e-05,0.999333381652832,0.0,0.0,0.0,-16.546571731567383,3.1303389072418213,7.680647373199463,2994.96240234375,0
168.5020000000004,-0.025452155619859695,0.01423264667391777,-0.001659969799220562,0.0,0.0,0.0,0.0,0.000791180704254657,0.0013903382932767272,-0.005434750113636255,0.9999168515205383,0.0,0.0,0.0,-16.546571731567383,3.1303389072418213,7.680647373199463,2994.96240234375,0
178.41200000000026,-0.02560579776763916,0.014194941148161888,-0.0017345985397696495,0.0,0.0,0.0,0.0,-0.0018537540454417467,-0.0051809572614729404,-0.002028929302468896,1.0017666816711426,0.0,0.0,0.0,-16.51388931274414,3.126640558242798,7.6769232749938965,2989.046630859375,0
188.33200000000033,-0.02560579776763916,0.014194941148161888,-0.0017345985397696495,0.0,0.0,0.0,0.0,0.0015236043836921453,-0.0027610743418335915,0.0013846554793417454,0.9989250898361206,0.0,0.0,0.0,-16.51388931274414,3.126640558242798,7.6769232749938965,2989.046630859375,0
198.23300000000017,-0.025693083181977272,0.014172024093568325,-0.0017748172394931316,0.0,0.0,0.0,0.0,-0.00018247257685288787,-0.00043666953570209444,-0.002595303812995553,0.9986671805381775,0.0,0.0,0.0,-16.497779846191406,3.1224324703216553,7.676074981689453,2986.130859375,0
208.15500000000065,-0.025774408131837845,0.014150561764836311,-0.0018116127466782928,0.0,0.0,0.0,0.0,-0.0007451225537806749,0.0022361716255545616,-8.761168282944709e-05,1.0012305974960327,0.0,0.0,0.0,-16.481828689575195,3.119068145751953,7.665576934814453,2983.24365234375,0
218.0570000000007,-0.02585650607943535,0.014129105024039745,-0.0018486317712813616,0.0,0.0,0.0,0.0,0.00039644312346354127,0.0004953095922246575,-0.003590761683881283,0.9984598159790039,0.0,0.0,0.0,-16.465953826904297,3.109890937805176,7.663486957550049,2980.370361328125,0
227.97800000000097,-0.02594001777470112,0.014107868075370789,-0.0018851147033274174,0.0,0.0,0.0,0.0,0.004486752208322287,-0.0025408475194126368,0.0019516730681061745,0.9980339407920837,0.0,0.0,0.0,-16.4493408203125,3.103881359100342,7.664155960083008,2977.363525390625,0
237.8809999999994,-0.026026196777820587,0.014086739160120487,-0.0019221503753215075,0.0,0.0,0.0,0.0,-0.00026996058295480907,-0.0009089868981391191,-0.0002261342597194016,1.0000238418579102,0.0,0.0,0.0,-16.433259963989258,3.100116491317749,7.657586097717285,2974.452880859375,0
247.79800000000068,-0.026115112006664276,0.014065821655094624,-0.0019601250533014536,0.0,0.0,0.0,0.0,-0.0015538131119683385,0.00011701876792358235,0.0022337681148201227,0.9983686804771423,0.0,0.0,0.0,-16.416913986206055,3.0943987369537354,7.650915622711182,2971.494140625,0
257.70100000000093,-0.02620653621852398,0.014044501818716526,-0.0019986466504633427,0.0,0.0,0.0,0.0,-0.00310152699239552,-0.003088114084675908,-0.0007501351065002382,0.9993160963058472,0.0,0.0,0.0,-16.40069580078125,3.090970993041992,7.646492958068848,2968.55859375,0
267.6219999999994,-0.026300227269530296,0.014022083953022957,-0.0020380658097565174,0.0,0.0,0.0,0.0,-0.0036387485451996326,-0.0036426906008273363,0.001900464529171586,1.0012335777282715,0.0,0.0,0.0,-16.385395050048828,3.0904922485351562,7.639901638031006,2965.7890625,0
277.52399999999943,-0.026396768167614937,0.013998768292367458,-0.002077721059322357,0.0,0.0,0.0,0.0,0.0032852517906576395,-0.00011843383254017681,0.005503839813172817,0.9974026083946228,0.0,0.0,0.0,-16.368545532226562,3.088613748550415,7.63594913482666,2962.7392578125,0
287.4470000000001,-0.02649635076522827,0.01397500280290842,-0.0021171511616557837,0.0,0.0,0.0,0.0,0.002259439555928111,0.0024532745592296124,0.0014679091982543468,0.9968700408935547,0.0,0.0,0.0,-16.352115631103516,3.0875351428985596,7.634700775146484,2959.765625,0
297.353000000001,-0.026598116382956505,0.013950505293905735,-0.0021578799933195114,0.0,0.0,0.0,0.0,3.104199277004227e-05,-0.002617352642118931,0.0015127506339922547,0.9999068379402161,0.0,0.0,0.0,-16.33424949645996,3.0783321857452393,7.6274638175964355,2956.53173828125,0
307.26800000000003,-0.02670108899474144,0.013924875296652317,-0.0022003762423992157,0.0,0.0,0.0,0.0,-0.0015350647736340761,-0.000820569577626884,0.0016005828510969877,1.0008119344711304,0.0,0.0,0.0,-16.31740379333496,3.070302724838257,7.6202497482299805,2953.48291015625,0
317.1779999999999,-0.026805581524968147,0.01389821246266365,-0.002242900198325515,0.0,0.0,0.0,0.0,0.00027052234509028494,-0.0021307040005922318,0.00015648672706447542,1.000144600868225,0.0,0.0,0.0,-16.300691604614258,3.062115430831909,7.6240010261535645,2950.457763671875,0
327.09499999999935,-0.026912441477179527,0.013871030882000923,-0.00228449166752398,0.0,0.0,0.0,0.0,-0.0023214740213006735,0.004602000117301941,-0.0016529746353626251,0.999736487865448,0.0,0.0,0.0,-16.28476905822754,3.053954601287842,7.616035461425781,2947.575439453125,0
337.0,-0.027021700516343117,0.01384386233985424,-0.002325365785509348,0.0,0.0,0.0,0.0,0.0026878733187913895,0.0020696634892374277,-0.0010062375804409385,1.002852201461792,0.0,0.0,0.0,-16.26949691772461,3.0472869873046875,7.608354568481445,2944.811279296875,0
346.91400000000067,-0.027132317423820496,0.013816327787935734,-0.0023653502576053143,0.0,0.0,0.0,0.0,-0.00021656086028087884,-0.006662868894636631,-0.001113015809096396,1.000507116317749,0.0,0.0,0.0,-16.25162124633789,3.0425755977630615,7.599191665649414,2941.57568359375,0
356.8170000000009,-0.02724425680935383,0.013787352479994297,-0.0024035670794546604,0.0,0.0,0.0,0.0,-0.0008208359940908849,-0.002160917269065976,0.002609094837680459,0.9980729818344116,0.0,0.0,0.0,-16.23633575439453,3.037677764892578,7.597238063812256,2938.80908203125,0
366.7440000000006,-0.027358710765838623,0.01375642791390419,-0.002440685173496604,0.0,0.0,0.0,0.0,0.0011478408705443144,0.0021670402493327856,0.00034041336039081216,0.9993045926094055,0.0,0.0,0.0,-16.22062110900879,3.0294687747955322,7.593765735626221,2935.964599609375,0
376.6409999999996,-0.024149153381586075,0.01405115146189928,4.8344310926040635e-05,0.0,0.0,0.0,0.0,-0.00024450974888168275,-0.002066433895379305,0.004600210580974817,0.9984801411628723,0.0,0.0,0.0,-16.344308853149414,3.198472499847412,7.808060646057129,2958.3525390625,0
386.5590000000011,-0.02418530359864235,0.014036512933671474,5.952693391009234e-05,0.0,0.0,0.0,0.0,0.0013449178077280521,0.0032645021565258503,-0.0009335007052868605,0.9998266100883484,0.0,0.0,0.0,-16.32866668701172,3.193721055984497,7.796453475952148,2955.521240234375,0
396.478000000001,-0.02415776625275612,0.014082205481827259,4.566325878840871e-05,0.0,0.0,0.0,0.0,0.003497037570923567,0.0030796409118920565,0.002536107785999775,0.9978955388069153,0.0,0.0,0.0,-16.426084518432617,3.2088539600372314,7.799107551574707,2973.154052734375,0
406.39500000000044,-0.024192659184336662,0.01407054252922535,5.5405183957191184e-05,0.0,0.0,0.0,0.0,-0.00235227239318192,-0.005086737219244242,0.0003002013545483351,0.9998525381088257,0.0,0.0,0.0,-16.40868377685547,3.1958818435668945,7.783702850341797,2970.00439453125,0
416.28700000000026,-0.024228397756814957,0.01406029425561428,6.427905464079231e-05,0.0,0.0,0.0,0.0,0.00023295969003811479,0.002606178168207407,0.0011788018746301532,1.0008845329284668,0.0,0.0,0.0,-16.39170265197754,3.1902010440826416,7.783760070800781,2966.9306640625,0
426.2049999999999,-0.02426525577902794,0.014051114208996296,7.277091208379716e-05,0.0,0.0,0.0,0.0,0.00036703984369523823,0.000578434148337692,-4.191113112028688e-05,0.9994059205055237,0.0,0.0,0.0,-16.375843048095703,3.188293695449829,7.777766704559326,2964.06005859375,0
436.1110000000008,-0.02416561171412468,0.014196631498634815,-4.460756099433638e-05,0.0,0.0,0.0,0.0,0.00023484100529458374,-0.0032821339555084705,0.0005218112492002547,0.9986108541488647,0.0,0.0,0.0,-16.4608097076416,3.2314510345458984,7.813520431518555,2979.439208984375,0
446.02900000000045,-0.02419249713420868,0.014190460555255413,-3.4061322367051616e-05,0.0,0.0,0.0,0.0,0.00044279382564127445,-0.0006121252081356943,-0.0012390762567520142,0.998947024345398,0.0,0.0,0.0,-16.444345474243164,3.223212718963623,7.8075432777404785,2976.458984375,0
455.9340000000011,-0.02412998117506504,0.014295743778347969,-0.00014455839118454605,0.0,0.0,0.0,0.0,-6.706608110107481e-05,0.0013349992223083973,0.00044589382014237344,0.9990581274032593,0.0,0.0,0.0,-16.52299690246582,3.250929355621338,7.827550411224365,2990.695068359375,0
465.85599999999977,-0.024148663505911827,0.014289943501353264,-0.00013480371853802353,0.0,0.0,0.0,0.0,0.0011924839345738292,0.0028839046135544777,-0.00123443896882236,0.9984938502311707,0.0,0.0,0.0,-16.506669998168945,3.241999626159668,7.814948081970215,2987.740234375,0
475.7649999999994,-0.024101605638861656,0.014360050670802593,-0.00022496846213471144,0.0,0.0,0.0,0.0,0.002893261844292283,0.002790985628962517,0.0015187137760221958,0.9976668357849121,0.0,0.0,0.0,-16.569717407226562,3.259228467941284,7.830145359039307,2999.15185546875,0
485.6759999999995,-0.024116620421409607,0.01435583271086216,-0.00021700414072256535,0.0,0.0,0.0,0.0,-0.00028295809170231223,0.004146830178797245,0.0009330910979770124,0.9972072243690491,0.0,0.0,0.0,-16.551830291748047,3.2524585723876953,7.817527770996094,2995.91455078125,0
495.5789999999997,-0.02402433753013611,0.014434297569096088,-0.0003515888238325715,0.0,0.0,0.0,0.0,-0.0011024033883586526,-0.003224846674129367,-0.003455688711255789,0.9979279041290283,0.0,0.0,0.0,-16.61052131652832,3.2707831859588623,7.853433132171631,3006.53759765625,0
505.5030000000006,-0.024033481255173683,0.014429512433707714,-0.0003480858285911381,0.0,0.0,0.0,0.0,-6.371644849423319e-05,4.3313550122547895e-05,-8.943819557316601e-05,0.9966303110122681,0.0,0.0,0.0,-16.593677520751953,3.2674243450164795,7.83973503112793,3003.488525390625,0
515.402,-0.02399934083223343,0.014438169077038765,-0.0004131604509893805,0.0,0.0,0.0,0.0,0.0033329043071717024,-0.0019589983858168125,-0.0025501588825136423,0.997435450553894,0.0,0.0,0.0,-16.651025772094727,3.269956350326538,7.857835292816162,3013.868896484375,0
525.3270000000011,-0.024006841704249382,0.01443066168576479,-0.0004158986557740718,0.0,0.0,0.0,0.0,-0.0013565131230279803,-0.0013750450452789664,0.0007196064107120037,0.9974600076675415,0.0,0.0,0.0,-16.635570526123047,3.2651283740997314,7.851363658905029,3011.071533203125,0
535.2250000000004,-0.023955095559358597,0.014486356638371944,-0.000501166214235127,0.0,0.0,0.0,0.0,0.0016417670994997025,-0.005608642473816872,0.0006024669855833054,0.9983923435211182,0.0,0.0,0.0,-16.68354606628418,3.2742550373077393,7.880622386932373,3019.755126953125,0
545.1570000000011,-0.023957928642630577,0.014482204802334309,-0.0005080447299405932,0.0,0.0,0.0,0.0,-0.0020096541848033667,0.0001028506740112789,0.0002623489417601377,0.9986138939857483,0.0,0.0,0.0,-16.666759490966797,3.27327036857605,7.8739471435546875,3016.716552734375,0
555.0590000000011,-0.02395053580403328,0.01454886980354786,-0.0005831665475852787,0.0,0.0,0.0,0.0,0.0016991865122690797,-0.0018256239127367735,0.00020228976791258901,0.997967541217804,0.0,0.0,0.0,-16.71315574645996,3.288872003555298,7.866800785064697,3025.114501953125,0
564.9760000000006,-0.023991474881768227,0.014455151744186878,-0.0005655565182678401,0.0,0.0,0.0,0.0,-0.00355797098018229,-0.0008159661665558815,0.0012074342230334878,0.99872225522995,0.0,0.0,0.0,-16.763723373413086,3.256103515625,7.868258476257324,3034.26708984375,0
574.875,-0.02405776083469391,0.014458810910582542,-0.0005616346606984735,0.0,0.0,0.0,0.0,-0.0010471825953572989,-0.004333884920924902,0.00038112280890345573,0.9988364577293396,0.0,0.0,0.0,-16.806241989135742,3.2703592777252197,7.852470874786377,3041.963134765625,0
584.7970000000005,-0.024065082892775536,0.014456207863986492,-0.0005755390739068389,0.0,0.0,0.0,0.0,-0.000683738908264786,-0.0021002814173698425,-0.0007756552076898515,1.000135064125061,0.0,0.0,0.0,-16.788789749145508,3.2719411849975586,7.862264633178711,3038.804443359375,0
594.6949999999997,-0.02405437082052231,0.014477944932878017,-0.0005535085801966488,0.0,0.0,0.0,0.0,0.0023952594492584467,-0.0055753374472260475,0.0014224929036572576,1.0000293254852295,0.0,0.0,0.0,-16.81451988220215,3.2835683822631836,7.85587215423584,3043.461669921875,0
604.6190000000006,-0.02406119741499424,0.01447826437652111,-0.0005650118691846728,0.0,0.0,0.0,0.0,-0.0013740411959588528,0.0014949527103453875,-0.000698090938385576,1.0016207695007324,0.0,0.0,0.0,-16.798736572265625,3.278670310974121,7.850634574890137,3040.60498046875,0
614.5220000000008,-0.02407747134566307,0.014487442560493946,-0.0005636736168526113,0.0,0.0,0.0,0.0,0.002831860212609172,-0.0006813567597419024,0.001048212288878858,1.0003840923309326,0.0,0.0,0.0,-16.838336944580078,3.28330397605896,7.847241401672363,3047.7724609375,0
624.4369999999999,-0.02406126633286476,0.014482640661299229,-0.0006865111063234508,0.0,0.0,0.0,0.0,0.0010509734274819493,0.0038874922320246696,-0.0017480159876868129,0.998413622379303,0.0,0.0,0.0,-16.87094497680664,3.285473585128784,7.838953018188477,3053.67431640625,0
634.3420000000006,-0.02407340705394745,0.014488435350358486,-0.000663800397887826,0.0,0.0,0.0,0.0,-0.005283863749355078,-0.0006896084523759782,-0.0023384783416986465,0.9985488057136536,0.0,0.0,0.0,-16.899385452270508,3.2856123447418213,7.823915004730225,3058.822265625,0
644.2700000000004,-0.024073012173175812,0.014451426453888416,-0.0007290009525604546,0.0,0.0,0.0,0.0,0.0018155085854232311,0.0005586814368143678,0.0033013387583196163,1.0006369352340698,0.0,0.0,0.0,-16.92930030822754,3.284573793411255,7.81515645980835,3064.237060546875,0
654.1720000000005,-0.02404634840786457,0.014493433758616447,-0.0006800754927098751,0.0,0.0,0.0,0.0,3.142522109556012e-05,0.0002613627875689417,-0.0005164075992070138,0.999308168888092,0.0,0.0,0.0,-16.9456787109375,3.2881836891174316,7.80823278427124,3067.20166015625,0
664.085000000001,-0.02405356429517269,0.014495627954602242,-0.0006925940979272127,0.0,0.0,0.0,0.0,0.0013724175514653325,0.002822933020070195,0.002206649864092469,0.9967927932739258,0.0,0.0,0.0,-16.92827033996582,3.2823407649993896,7.808043479919434,3064.050537109375,0
673.9879999999994,-0.02402949519455433,0.014526261948049068,-0.0006778226234018803,0.0,0.0,0.0,0.0,-0.0030010882765054703,-0.0024117929860949516,0.005628532730042934,0.9994974732398987,0.0,0.0,0.0,-16.941604614257812,3.2797563076019287,7.801114082336426,3066.464111328125,0
683.9120000000003,-0.02404021844267845,0.01452964823693037,-0.000691006425768137,0.0,0.0,0.0,0.0,-0.0033950963988900185,0.004415576811879873,0.0008102600695565343,0.9990819692611694,0.0,0.0,0.0,-16.92365837097168,3.283371925354004,7.799841403961182,3063.216064453125,0
693.8109999999997,-0.024022962898015976,0.014565115794539452,-0.0006793002830818295,0.0,0.0,0.0,0.0,0.00156680541113019,0.002220143796876073,0.0008600001456215978,0.9993929862976074,0.0,0.0,0.0,-16.944482803344727,3.289862871170044,7.780268669128418,3066.9853515625,0
703.7309999999998,-0.024060407653450966,0.014460842125117779,-0.0007000882178544998,0.0,0.0,0.0,0.0,-0.0007802756153978407,0.0032797681633383036,0.0006853408995084465,0.9985150098800659,0.0,0.0,0.0,-16.949132919311523,3.267611503601074,7.772455215454102,3067.826904296875,0
713.639000000001,-0.024024536833167076,0.014424959197640419,-0.0006874187383800745,0.0,0.0,0.0,0.0,3.005643065989716e-06,-0.0010284961899742484,-6.98612057021819e-05,0.9986667037010193,0.0,0.0,0.0,-16.97029685974121,3.260584831237793,7.7714643478393555,3071.65771484375,0
723.5580000000009,-0.02402835339307785,0.014406385831534863,-0.0007453726138919592,0.0,0.0,0.0,0.0,0.0037596423644572496,-0.000944731174968183,-0.003626848105341196,1.000442385673523,0.0,0.0,0.0,-16.99142837524414,3.262960433959961,7.774461269378662,3075.482177734375,0
733.4650000000001,-0.023988129571080208,0.014426772482693195,-0.000700238801073283,0.0,0.0,0.0,0.0,0.0010100813815370202,-0.0020852885209023952,0.003272339701652527,0.9984884858131409,0.0,0.0,0.0,-17.006267547607422,3.2563042640686035,7.772722244262695,3078.168212890625,0
743.371000000001,-0.024006104096770287,0.014429516158998013,-0.0007121585076674819,0.0,0.0,0.0,0.0,0.001349933329038322,-0.002005587797611952,-0.0010766761843115091,0.9991379976272583,0.0,0.0,0.0,-16.988563537597656,3.2502591609954834,7.763846397399902,3074.963623046875,0
753.2900000000009,-0.0239411573857069,0.014459606260061264,-0.000688494648784399,0.0,0.0,0.0,0.0,3.2352705602534115e-05,0.0036580932792276144,0.00021245692914817482,0.9968801736831665,0.0,0.0,0.0,-17.004426956176758,3.259382486343384,7.7703022956848145,3077.8349609375,0
763.1949999999997,-0.023971853777766228,0.014404713176190853,-0.0007101846858859062,0.0,0.0,0.0,0.0,0.006242837756872177,-0.0021987403742969036,0.0025324299931526184,0.997478187084198,0.0,0.0,0.0,-17.019283294677734,3.2534337043762207,7.758022308349609,3080.524169921875,0
773.1149999999998,-0.024010365828871727,0.014393511228263378,-0.0007116361521184444,0.0,0.0,0.0,0.0,-0.004667955916374922,0.001750740921124816,0.003002609359100461,0.9982683658599854,0.0,0.0,0.0,-17.032514572143555,3.2469890117645264,7.764156818389893,3082.919189453125,0
783.0159999999996,-0.024032846093177795,0.0143929123878479,-0.0007268113549798727,0.0,0.0,0.0,0.0,-0.003916099667549133,0.00622471934184432,-3.549703023963957e-06,0.9991467595100403,0.0,0.0,0.0,-17.01445960998535,3.249326467514038,7.759284973144531,3079.65087890625,0
792.9400000000005,-0.023990094661712646,0.014436681754887104,-0.0007007200038060546,0.0,0.0,0.0,0.0,-0.00026610770146362484,-0.003822199534624815,0.0020431778393685818,0.9992678761482239,0.0,0.0,0.0,-17.025049209594727,3.2621724605560303,7.752835750579834,3081.56787109375,0
802.8379999999997,-0.024010872468352318,0.014437996782362461,-0.0007142792455852032,0.0,0.0,0.0,0.0,0.0017011179588735104,8.716239972272888e-05,0.0027841832488775253,0.9990161061286926,0.0,0.0,0.0,-17.007362365722656,3.263296604156494,7.757468223571777,3078.3662109375,0
812.7569999999996,-0.024039892479777336,0.01448145043104887,-0.0006971543771214783,0.0,0.0,0.0,0.0,0.0021756645292043686,-0.001135055092163384,-0.0009590086410753429,0.9981034994125366,0.0,0.0,0.0,-17.01381492614746,3.2680037021636963,7.752176761627197,3079.534423828125,0
822.6610000000001,-0.024059506133198738,0.014456617645919323,-0.0007493963348679245,0.0,0.0,0.0,0.0,-0.0017096756491810083,-0.00403194036334753,-0.0013433767016977072,0.9990165829658508,0.0,0.0,0.0,-17.02615737915039,3.258974313735962,7.751156330108643,3081.768310546875,0
832.5879999999997,-0.024040356278419495,0.01450231485068798,-0.0006876547704450786,0.0,0.0,0.0,0.0,-0.000691310444381088,0.0007483529625460505,0.000536310370080173,1.0003769397735596,0.0,0.0,0.0,-17.0379638671875,3.272784948348999,7.759997367858887,3083.905517578125,0
842.4889999999996,-0.024064427241683006,0.014506664127111435,-0.0006984315696172416,0.0,0.0,0.0,0.0,0.00047114992048591375,-0.0033969716168940067,0.001052053994499147,0.9996336102485657,0.0,0.0,0.0,-17.020095825195312,3.2681946754455566,7.749196529388428,3080.671142578125,0
852.4140000000007,-0.024055400863289833,0.014544392004609108,-0.0006758159724995494,0.0,0.0,0.0,0.0,0.0004512261657509953,-0.004641921259462833,-0.0003595614980440587,0.9994215369224548,0.0,0.0,0.0,-17.028491973876953,3.275559663772583,7.754382610321045,3082.190673828125,0
862.3090000000011,-0.02407831884920597,0.014503294602036476,-0.0007276320829987526,0.0,0.0,0.0,0.0,-0.002811497775837779,-0.005856301635503769,-2.18542518268805e-05,0.9984807968139648,0.0,0.0,0.0,-17.04427719116211,3.271850347518921,7.760550022125244,3085.04833984375,0
872.2330000000002,-0.024057649075984955,0.014537690207362175,-0.0006766262231394649,0.0,0.0,0.0,0.0,-0.0006570768891833723,1.7814838429330848e-05,0.001365017262287438,0.9987605214118958,0.0,0.0,0.0,-17.05175018310547,3.284943103790283,7.773624420166016,3086.40087890625,0
882.134,-0.02408347651362419,0.014542763121426105,-0.0006850900826975703,0.0,0.0,0.0,0.0,-0.00027963242609985173,-0.001421568333171308,0.0017279783496633172,1.0004512071609497,0.0,0.0,0.0,-17.034374237060547,3.278562068939209,7.76475715637207,3083.255615234375,0
892.0519999999997,-0.024050327017903328,0.014573631808161736,-0.0006641368963755667,0.0,0.0,0.0,0.0,0.003285601967945695,0.00502894539386034,-0.003918135538697243,0.999325692653656,0.0,0.0,0.0,-17.043317794799805,3.293287992477417,7.779648303985596,3084.87451171875,0
901.9549999999999,-0.02408352866768837,0.014506008476018906,-0.0006994972936809063,0.0,0.0,0.0,0.0,-0.003360703121870756,-0.002694543916732073,0.004872971214354038,0.9983754754066467,0.0,0.0,0.0,-17.059782028198242,3.277045726776123,7.77493953704834,3087.8544921875,0
911.8870000000006,-0.02404937334358692,0.01453163381665945,-0.0006431867368519306,0.0,0.0,0.0,0.0,0.0021294530015438795,0.006822268478572369,0.001537212054245174,1.0001399517059326,0.0,0.0,0.0,-17.06475257873535,3.285426616668701,7.789830207824707,3088.754150390625,0
921.777,-0.024074895307421684,0.014532886445522308,-0.0006477258866652846,0.0,0.0,0.0,0.0,0.00034803582821041346,0.0016227453015744686,4.018020263174549e-07,0.9990546703338623,0.0,0.0,0.0,-17.047216415405273,3.2740187644958496,7.7711405754089355,3085.579833984375,0
931.6959999999999,-0.02404550462961197,0.014552630484104156,-0.0006275424384512007,0.0,0.0,0.0,0.0,-0.001940316054970026,0.0039253244176507,-0.0014028995065018535,1.000809669494629,0.0,0.0,0.0,-17.055269241333008,3.2817704677581787,7.766016960144043,3087.03759765625,0
941.607,-0.024070823565125465,0.014553078450262547,-0.0006299815722741187,0.0,0.0,0.0,0.0,0.0002764802484307438,-0.0012896718690171838,-0.0003909123479388654,1.0019805431365967,0.0,0.0,0.0,-17.038881301879883,3.2808876037597656,7.749294757843018,3084.07177734375,0
951.523000000001,-0.024067219346761703,0.01453841757029295,-0.000638693745713681,0.0,0.0,0.0,0.0,0.00013405065692495555,0.003694163402542472,-0.003539907978847623,1.000895619392395,0.0,0.0,0.0,-17.05017852783203,3.2761476039886475,7.7595977783203125,3086.1162109375,0
961.4269999999997,-0.024092942476272583,0.014537029899656773,-0.000638786528725177,0.0,0.0,0.0,0.0,-8.740920020500198e-05,0.0012591202976182103,0.0007366917561739683,0.9998435378074646,0.0,0.0,0.0,-17.034543991088867,3.271489143371582,7.749014377593994,3083.286376953125,0
971.3500000000004,-0.02394273318350315,0.014535646885633469,-0.0006319066742435098,0.0,0.0,0.0,0.0,0.0003428137570153922,-0.0029081229586154222,-0.002096473705023527,0.9991940855979919,0.0,0.0,0.0,-17.044048309326172,3.2792165279388428,7.767214298248291,3085.0068359375,0
981.2540000000008,-0.023980462923645973,0.014461096376180649,-0.0006333800265565515,0.0,0.0,0.0,0.0,-0.0005374563043005764,0.001070587313733995,-0.0024385189171880484,1.0018302202224731,0.0,0.0,0.0,-17.058496475219727,3.2599217891693115,7.768115520477295,3087.6220703125,0
991.1750000000011,-0.02394193783402443,0.014393559657037258,-0.0006265172851271927,0.0,0.0,0.0,0.0,-0.002337929792702198,-0.0025265878066420555,0.0023784323129802942,0.9993007779121399,0.0,0.0,0.0,-17.06865692138672,3.2543716430664062,7.7798895835876465,3089.4609375,0
1001.0699999999997,-0.02395738661289215,0.014414489269256592,-0.0005969227058812976,0.0,0.0,0.0,0.0,0.00042364621185697615,0.0022216043435037136,0.0021200242917984724,0.9989473223686218,0.0,0.0,0.0,-17.078237533569336,3.265630006790161,7.780209064483643,3091.195068359375,0
1010.9930000000004,-0.023982711136341095,0.014405903406441212,-0.0005931142368353903,0.0,0.0,0.0,0.0,-0.00021097141143400222,-0.0020813175942748785,0.00046679042861796916,0.9993877410888672,0.0,0.0,0.0,-17.061315536499023,3.262659788131714,7.769369125366211,3088.132080078125,0
1020.893,-0.02402266301214695,0.014446831308305264,-0.0006133709102869034,0.0,0.0,0.0,0.0,-0.0014106096932664514,-0.0020172724034637213,0.002443920588120818,1.0010383129119873,0.0,0.0,0.0,-17.094970703125,3.278672456741333,7.769470691680908,3094.223876953125,0
1030.8150000000005,-0.024050815030932426,0.01444168109446764,-0.0006103708292357624,0.0,0.0,0.0,0.0,0.004209982696920633,0.0012230066349729896,0.002006355905905366,1.0002163648605347,0.0,0.0,0.0,-17.077733993530273,3.2729897499084473,7.763555526733398,3091.103515625,0
1040.7330000000002,-0.024054432287812233,0.014411084353923798,-0.000546687631867826,0.0,0.0,0.0,0.0,-0.004064871929585934,-0.0011247947113588452,0.0004362469771876931,0.9975513219833374,0.0,0.0,0.0,-17.097105026245117,3.262873649597168,7.755879878997803,3094.60986328125,0
1050.6450000000004,-0.024081865325570107,0.014405897818505764,-0.0005391606246121228,0.0,0.0,0.0,0.0,0.0020139983389526606,-0.0029882544185966253,-0.0003615088644437492,0.999140739440918,0.0,0.0,0.0,-17.079866409301758,3.2668747901916504,7.755264759063721,3091.48974609375,0
1060.549000000001,-0.024081461131572723,0.014414668083190918,-0.000516468717250973,0.0,0.0,0.0,0.0,0.0009951390093192458,0.0022484094370156527,-0.00047503868700005114,0.9994249939918518,0.0,0.0,0.0,-17.093242645263672,3.270003318786621,7.760066032409668,3093.9111328125,0
1070.464,-0.024106521159410477,0.014412932097911835,-0.0005093621439300478,0.0,0.0,0.0,0.0,0.0013306940672919154,-0.00019794705440290272,-0.00030907924519851804,0.9998642206192017,0.0,0.0,0.0,-17.076520919799805,3.2670047283172607,7.746872901916504,3090.88427734375,0
1080.3639999999996,-0.024096913635730743,0.014422745443880558,-0.0004920705687254667,0.0,0.0,0.0,0.0,0.0021561034955084324,-2.3102199975255644e-06,-0.0008323588990606368,0.9982539415359497,0.0,0.0,0.0,-17.086280822753906,3.2758922576904297,7.747289180755615,3092.650634765625,0
1090.286,-0.024122945964336395,0.014421236701309681,-0.00048426660941913724,0.0,0.0,0.0,0.0,-0.0013406913494691253,0.00033281039213761687,-0.002206662902608514,1.0008395910263062,0.0,0.0,0.0,-17.06941795349121,3.267767906188965,7.736471652984619,3089.598876953125,0
1100.1890000000003,-0.024047059938311577,0.014470327645540237,-0.0005689492681995034,0.0,0.0,0.0,0.0,-3.860526703647338e-05,-0.0015689658466726542,0.0011411149753257632,0.9987217783927917,0.0,0.0,0.0,-17.104389190673828,3.2923948764801025,7.754331588745117,3095.928466796875,0
1110.1080000000002,-0.02407500520348549,0.014472010545432568,-0.0005667947116307914,0.0,0.0,0.0,0.0,-0.000953685084823519,0.0011892167385667562,0.005009375978261232,0.9998623728752136,0.0,0.0,0.0,-17.08793067932129,3.293346881866455,7.7500224113464355,3092.949462890625,0
1120.0110000000004,-0.024060368537902832,0.014467834495007992,-0.0005579866701737046,0.0,0.0,0.0,0.0,0.0014320805203169584,0.0028200724627822638,-0.00030698502087034285,1.00105881690979,0.0,0.0,0.0,-17.097957611083984,3.2985291481018066,7.749835014343262,3094.76416015625,0
1129.934000000001,-0.02408783696591854,0.014469481073319912,-0.0005553860100917518,0.0,0.0,0.0,0.0,9.16069548111409e-05,-0.0009867423214018345,0.0006979915197007358,1.0004602670669556,0.0,0.0,0.0,-17.080839157104492,3.2926580905914307,7.733107089996338,3091.665771484375,0
1139.8330000000005,-0.024053746834397316,0.014449830166995525,-0.0005302868667058647,0.0,0.0,0.0,0.0,-0.0017662408063188195,-0.0028616259805858135,-0.00010806051432155073,0.9982420802116394,0.0,0.0,0.0,-17.112043380737305,3.298670768737793,7.745157718658447,3097.31396484375,0
1149.7530000000006,-0.024080881848931313,0.014452976174652576,-0.0005250740796327591,0.0,0.0,0.0,0.0,-0.0004129119624849409,-0.007069687824696302,-0.001754462136887014,0.9981281161308289,0.0,0.0,0.0,-17.095094680786133,3.2944741249084473,7.7485198974609375,3094.24609375,0
1159.661,-0.02402695268392563,0.014475411735475063,-0.0004946582484990358,0.0,0.0,0.0,0.0,-0.0003579792974051088,0.00024500128347426653,0.0026961863040924072,0.9996321201324463,0.0,0.0,0.0,-17.099210739135742,3.306453227996826,7.770045280456543,3094.990966796875,0
1169.5830000000005,-0.02405393309891224,0.014480957761406898,-0.0004893604782409966,0.0,0.0,0.0,0.0,0.0004331691307015717,0.0005876208306290209,-0.0011449125595390797,0.9995547533035278,0.0,0.0,0.0,-17.08079719543457,3.303619623184204,7.757877826690674,3091.658447265625,0
1179.4809999999998,-0.024012913927435875,0.014454795978963375,-0.0005029540043324232,0.0,0.0,0.0,0.0,-0.0019361359300091863,0.00014403811655938625,0.0036214531864970922,0.9980124235153198,0.0,0.0,0.0,-17.095945358276367,3.3016176223754883,7.770549774169922,3094.400146484375,0
1189.3989999999994,-0.02403905987739563,0.014459427446126938,-0.0004999018274247646,0.0,0.0,0.0,0.0,-0.0009423487936146557,0.0033485107123851776,0.0031096329912543297,0.9972062110900879,0.0,0.0,0.0,-17.078655242919922,3.304481029510498,7.763433933258057,3091.2705078125,0
1199.304,-0.024005364626646042,0.014334526844322681,-0.0004397240118123591,0.0,0.0,0.0,0.0,0.0017594017554074526,-0.0008128673653118312,-0.000988546060398221,0.9971420168876648,0.0,0.0,0.0,-17.105918884277344,3.2824325561523438,7.776783466339111,3096.205322265625,0
1209.2250000000004,-0.024028802290558815,0.014333201572299004,-0.00043745420407503843,0.0,0.0,0.0,0.0,0.0013422371121123433,-0.0003418732376303524,-0.0046149203553795815,1.0003091096878052,0.0,0.0,0.0,-17.089027404785156,3.2733914852142334,7.768203258514404,3093.148193359375,0
1219.130000000001,-0.023984912782907486,0.014312739484012127,-0.0004350366652943194,0.0,0.0,0.0,0.0,-0.001507434295490384,-0.003384475829079747,0.001337709603831172,0.9985059499740601,0.0,0.0,0.0,-17.09845542907715,3.2680583000183105,7.777612209320068,3094.8544921875,0
1229.050000000001,-0.024006135761737823,0.014308962039649487,-0.00043431721860542893,0.0,0.0,0.0,0.0,-0.0017064646817743778,0.004395004361867905,-0.0023888489231467247,0.9991542100906372,0.0,0.0,0.0,-17.079734802246094,3.2684168815612793,7.784662246704102,3091.466064453125,0
1238.955,-0.0239842738956213,0.014323670417070389,-0.00041726851486600935,0.0,0.0,0.0,0.0,-0.003984321840107441,-0.006472413428127766,-0.0026319175958633423,0.9987917542457581,0.0,0.0,0.0,-17.090030670166016,3.276458501815796,7.789985656738281,3093.32958984375,0
1248.8860000000004,-0.024004507809877396,0.014321582391858101,-0.0004164677520748228,0.0,0.0,0.0,0.0,0.003253286238759756,0.004109610803425312,0.002511669183149934,0.9977151155471802,0.0,0.0,0.0,-17.074254989624023,3.2799482345581055,7.794600486755371,3090.47412109375,0
1258.7720000000008,-0.023954585194587708,0.014347868971526623,-0.00039052742067724466,0.0,0.0,0.0,0.0,0.0004681048740167171,0.003265696344897151,0.0023503806442022324,0.9966550469398499,0.0,0.0,0.0,-17.079973220825195,3.2879226207733154,7.792913436889648,3091.509033203125,0
1268.7020000000011,-0.023973966017365456,0.014346860349178314,-0.0003906705533154309,0.0,0.0,0.0,0.0,-3.819056655629538e-05,0.004299288149923086,-0.002586043206974864,0.9982309937477112,0.0,0.0,0.0,-17.06247901916504,3.2772512435913086,7.781059265136719,3088.3427734375,0
1278.6039999999994,-0.023901695385575294,0.014358206652104855,-0.0003803810686804354,0.0,0.0,0.0,0.0,0.0013362328754737973,-0.0010755121475085616,0.001305309822782874,0.999317467212677,0.0,0.0,0.0,-17.078256607055664,3.290330648422241,7.788511276245117,3091.198486328125,0
1288.518,-0.02391989529132843,0.014357244595885277,-0.00038232310907915235,0.0,0.0,0.0,0.0,-0.0018770069582387805,0.0004279454005882144,-0.0018247392727062106,1.000661015510559,0.0,0.0,0.0,-17.061134338378906,3.278290033340454,7.779696941375732,3088.09912109375,0
1298.4220000000005,-0.02401181496679783,0.01433217991143465,-0.00041015935130417347,0.0,0.0,0.0,0.0,0.00037224814877845347,0.0024956795386970043,-0.006008765194565058,1.0005162954330444,0.0,0.0,0.0,-17.0730037689209,3.263681650161743,7.763862609863281,3090.247802734375,0
1308.3400000000001,-0.024032698944211006,0.014329087920486927,-0.00041363417403772473,0.0,0.0,0.0,0.0,0.0019924496300518513,-0.004482800606638193,-0.0009973830310627818,0.9993699193000793,0.0,0.0,0.0,-17.056556701660156,3.25958251953125,7.7541961669921875,3087.27099609375,0
1318.2450000000008,-0.024060072377324104,0.01434483751654625,-0.00040472083492204547,0.0,0.0,0.0,0.0,3.675614789244719e-05,0.006161799654364586,-0.005041266325861216,0.9988817572593689,0.0,0.0,0.0,-17.072200775146484,3.2681798934936523,7.759400367736816,3090.10205078125,0
1328.1650000000009,-0.0240803062915802,0.01434452272951603,-0.0004072626761626452,0.0,0.0,0.0,0.0,-0.0018484967295080423,-0.0018002523574978113,0.007340746000409126,0.9979007840156555,0.0,0.0,0.0,-17.056554794311523,3.263028621673584,7.742259502410889,3087.2705078125,0
1338.067000000001,-0.024061169475317,0.014378846623003483,-0.0003813335206359625,0.0,0.0,0.0,0.0,-0.0005069608450867236,-0.0004604400892276317,0.004018470644950867,0.9994058609008789,0.0,0.0,0.0,-17.064556121826172,3.2845921516418457,7.745473384857178,3088.71875,0
1347.9840000000004,-0.024083055555820465,0.014382267370820045,-0.0003832695656456053,0.0,0.0,0.0,0.0,-0.0021797625813633204,0.001910154358483851,-0.00221327249892056,0.9983801245689392,0.0,0.0,0.0,-17.047115325927734,3.276982545852661,7.736630916595459,3085.56201171875,0
1357.8870000000006,-0.024067096412181854,0.01441432535648346,-0.00036273981095291674,0.0,0.0,0.0,0.0,-0.0017770914128050208,0.004338928963989019,-0.001768781105056405,0.9973015785217285,0.0,0.0,0.0,-17.058027267456055,3.291287660598755,7.732955455780029,3087.537109375,0
1367.809000000001,-0.02408786118030548,0.0144190127030015,-0.00036514332168735564,0.0,0.0,0.0,0.0,-0.0023730017710477114,-3.287371146143414e-05,0.00012337158841546625,0.9990764260292053,0.0,0.0,0.0,-17.041645050048828,3.2861952781677246,7.712862491607666,3084.57177734375,0
1377.7110000000011,-0.024065475910902023,0.01444219145923853,-0.0003536092408467084,0.0,0.0,0.0,0.0,0.00021638735779561102,0.0013771909289062023,0.0005481049884110689,0.9996389150619507,0.0,0.0,0.0,-17.051918029785156,3.2993762493133545,7.71687650680542,3086.431396484375,0
1387.6270000000004,-0.024088552221655846,0.014447166584432125,-0.00035641685826703906,0.0,0.0,0.0,0.0,-0.0025600718799978495,-0.002776097971946001,0.003551081521436572,0.9994380474090576,0.0,0.0,0.0,-17.034189224243164,3.2916953563690186,7.707324504852295,3083.221923828125,0
1397.536,-0.024062784388661385,0.014519849792122841,-0.0006185195525176823,0.0,0.0,0.0,0.0,0.0010620999382808805,-0.004415669944137335,0.0007387186633422971,0.9986661672592163,0.0,0.0,0.0,-17.078609466552734,3.302349805831909,7.718914031982422,3091.262451171875,0
1407.4580000000005,-0.02408662624657154,0.014527477324008942,-0.0006340071558952332,0.0,0.0,0.0,0.0,-0.0015906834742054343,0.0005672977422364056,0.002301218919456005,0.9999390840530396,0.0,0.0,0.0,-17.061298370361328,3.2955965995788574,7.715951919555664,3088.128662109375,0
1417.3559999999998,-0.02404840663075447,0.014545888639986515,-0.0006210660212673247,0.0,0.0,0.0,0.0,0.001831122557632625,0.0017006616108119488,0.0017196527915075421,0.9977545738220215,0.0,0.0,0.0,-17.0679874420166,3.305957317352295,7.717058181762695,3089.339599609375,0
1427.2739999999994,-0.02407139539718628,0.014553532935678959,-0.0006351217161864042,0.0,0.0,0.0,0.0,-0.0007084155804477632,0.0013763761380687356,0.0009306036517955363,0.9995653629302979,0.0,0.0,0.0,-17.051342010498047,3.2971251010894775,7.7044901847839355,3086.3271484375,0
1437.179,-0.024034736678004265,0.014573413878679276,-0.000632203184068203,0.0,0.0,0.0,0.0,9.170398698188365e-05,0.0012434526579454541,0.002671285765245557,0.997818648815155,0.0,0.0,0.0,-17.059040069580078,3.303755521774292,7.71401834487915,3087.72021484375,0
1447.1049999999996,-0.02405845932662487,0.014582488685846329,-0.0006466604536399245,0.0,0.0,0.0,0.0,-0.0018709178548306227,-0.0010293459054082632,0.0002507129102014005,1.000671625137329,0.0,0.0,0.0,-17.041791915893555,3.29508113861084,7.699781894683838,3084.598388671875,0
1457.0110000000004,-0.02404685504734516,0.014580768533051014,-0.000673249363899231,0.0,0.0,0.0,0.0,-0.0019362701568752527,0.0024643565993756056,-0.00030786756542511284,1.0003713369369507,0.0,0.0,0.0,-17.05484390258789,3.2947580814361572,7.710200786590576,3086.9609375,0
1466.92,-0.024071134626865387,0.01458988431841135,-0.0006889450596645474,0.0,0.0,0.0,0.0,0.0010640518739819527,-0.0014390518190339208,0.0014672719407826662,0.9985295534133911,0.0,0.0,0.0,-17.038774490356445,3.2967779636383057,7.701159477233887,3084.05224609375,0
1476.826000000001,-0.02404528111219406,0.014602146111428738,-0.0007013909635134041,0.0,0.0,0.0,0.0,-0.00031379907159134746,-0.004626359324902296,-0.00396738201379776,0.999424934387207,0.0,0.0,0.0,-17.05755615234375,3.2960119247436523,7.701131820678711,3087.45166015625,0
1486.7489999999998,-0.02407184988260269,0.014611192978918552,-0.0007172819459810853,0.0,0.0,0.0,0.0,-0.0022996559273451567,-0.0013562554959207773,-0.003488567192107439,0.99960857629776,0.0,0.0,0.0,-17.041711807250977,3.2919836044311523,7.6965107917785645,3084.583740234375,0
1496.6489999999994,-0.024053525179624557,0.014609415084123611,-0.0007455988670699298,0.0,0.0,0.0,0.0,0.0005735275917686522,0.0003556872543413192,0.001720563042908907,1.0010989904403687,0.0,0.0,0.0,-17.05533218383789,3.2931032180786133,7.710771560668945,3087.04931640625,0
1506.5770000000011,-0.024104883894324303,0.014517249539494514,-0.000718992727342993,0.0,0.0,0.0,0.0,-0.0010612559271976352,-0.0023637826088815928,0.0030751507729291916,1.0024601221084595,0.0,0.0,0.0,-17.069021224975586,3.261324644088745,7.716136932373047,3089.526611328125,0
1516.4740000000002,-0.024028774350881577,0.014463773928582668,-0.0006885149050503969,0.0,0.0,0.0,0.0,-0.002001566579565406,-0.0031985521782189608,3.913122054655105e-05,0.9996576309204102,0.0,0.0,0.0,-17.079246520996094,3.257197856903076,7.737174987792969,3091.377685546875,0
1526.3999999999996,-0.024049995467066765,0.01446601189672947,-0.0006997063755989075,0.0,0.0,0.0,0.0,-0.001008280087262392,-0.0023762304335832596,0.0009320059325546026,0.9975995421409607,0.0,0.0,0.0,-17.062305450439453,3.2553133964538574,7.736501693725586,3088.311279296875,0
1536.295,-0.024019232019782066,0.01445380225777626,-0.0007072780863381922,0.0,0.0,0.0,0.0,-0.0004172705521341413,0.002675238298252225,0.0010802318574860692,0.9977988600730896,0.0,0.0,0.0,-17.07505989074707,3.2582056522369385,7.743169784545898,3090.619873046875,0
1546.214,-0.024039283394813538,0.01445679645985365,-0.0007206766167655587,0.0,0.0,0.0,0.0,-0.0021825337316840887,0.008100185543298721,0.000532807782292366,0.9995315074920654,0.0,0.0,0.0,-17.056718826293945,3.2564756870269775,7.722843170166016,3087.30029296875,0
1556.121000000001,-0.023927662521600723,0.01448100432753563,-0.0007058049086481333,0.0,0.0,0.0,0.0,-0.0015878041740506887,-0.0014521953416988254,-0.002896666992455721,1.0000579357147217,0.0,0.0,0.0,-17.069477081298828,3.273209571838379,7.723526477813721,3089.609375,0
1566.0429999999997,-0.02394409105181694,0.014486389234662056,-0.0007188039598986506,0.0,0.0,0.0,0.0,0.0009175145532935858,-0.0004638488753698766,-0.0005799187929369509,0.9990681409835815,0.0,0.0,0.0,-17.052993774414062,3.2711219787597656,7.727084159851074,3086.625732421875,0
1575.9439999999995,-0.02389311045408249,0.014520671218633652,-0.0006970425602048635,0.0,0.0,0.0,0.0,0.00042674114229157567,-0.008399310521781445,0.0039062320720404387,0.9979122281074524,0.0,0.0,0.0,-17.06352996826172,3.2874932289123535,7.732621192932129,3088.532958984375,0
1585.8680000000004,-0.023905158042907715,0.014528729021549225,-0.0007067801197990775,0.0,0.0,0.0,0.0,-0.0012025695759803057,0.002434964757412672,-0.001982708927243948,0.9989967346191406,0.0,0.0,0.0,-17.045108795166016,3.282656192779541,7.742308139801025,3085.19873046875,0
1595.7649999999994,-0.023882374167442322,0.014557558111846447,-0.0006941749015823007,0.0,0.0,0.0,0.0,-0.0016881183255463839,0.0037951043341308832,-0.00018787625594995916,1.0008131265640259,0.0,0.0,0.0,-17.057321548461914,3.2906620502471924,7.732794284820557,3087.4091796875,0
1605.6939999999995,-0.02389540709555149,0.014568543061614037,-0.000703205936588347,0.0,0.0,0.0,0.0,0.00013012264389544725,-0.006235700100660324,0.004466503858566284,0.9998399615287781,0.0,0.0,0.0,-17.040443420410156,3.2828423976898193,7.715906143188477,3084.3544921875,0
1615.5879999999997,-0.02398989163339138,0.01457513403147459,-0.0007219581748358905,0.0,0.0,0.0,0.0,0.0026915783528238535,0.004238999914377928,-0.0033539398573338985,0.9978198409080505,0.0,0.0,0.0,-17.05250358581543,3.273607015609741,7.7208967208862305,3086.536865234375,0
1625.5059999999994,-0.024008922278881073,0.014586317352950573,-0.0007317448616959155,0.0,0.0,0.0,0.0,-0.0017628043424338102,-0.0019319860730320215,-0.0016160554951056838,0.9984334707260132,0.0,0.0,0.0,-17.036083221435547,3.265896797180176,7.710204601287842,3083.56494140625,0
1635.4120000000003,-0.024028697982430458,0.01459441240876913,-0.0007512205047532916,0.0,0.0,0.0,0.0,0.000505327305290848,0.0012493230169638991,0.006010991055518389,0.9998031258583069,0.0,0.0,0.0,-17.050416946411133,3.267899990081787,7.717940330505371,3086.159423828125,0
1645.339,-0.024076679721474648,0.014531421475112438,-0.0007316179107874632,0.0,0.0,0.0,0.0,-0.0011468580923974514,-0.0070786545984447,0.001266244682483375,0.9996819496154785,0.0,0.0,0.0,-17.064401626586914,3.2430593967437744,7.7115936279296875,3088.690673828125,0
1655.2389999999996,-0.02406967058777809,0.014528872445225716,-0.0006981019978411496,0.0,0.0,0.0,0.0,0.0008995439857244492,0.004687553737312555,0.0020386623218655586,0.9997708797454834,0.0,0.0,0.0,-17.0794734954834,3.2447612285614014,7.729336261749268,3091.418701171875,0
1665.157000000001,-0.024091387167572975,0.01450181845575571,-0.0007467448012903333,0.0,0.0,0.0,0.0,0.0018665288807824254,-0.0003029748913832009,0.003381859278306365,0.9982909560203552,0.0,0.0,0.0,-17.088314056396484,3.23524808883667,7.716882228851318,3093.0185546875,0
1675.058000000001,-0.02410561963915825,0.014498763717710972,-0.0007300713332369924,0.0,0.0,0.0,0.0,0.001788187539204955,-0.0009896965930238366,-0.00017288452363573015,0.9968987107276917,0.0,0.0,0.0,-17.102014541625977,3.2327799797058105,7.710049629211426,3095.49853515625,0
1684.9799999999996,-0.024123664945364,0.014468629844486713,-0.0007826504297554493,0.0,0.0,0.0,0.0,0.0016171425813809037,-0.0014804211677983403,-0.0004908654373139143,0.9947674870491028,0.0,0.0,0.0,-17.113298416137695,3.23236346244812,7.70750093460083,3097.540771484375,0
1694.8909999999996,-0.02411756105720997,0.014465760439634323,-0.0007685424061492085,0.0,0.0,0.0,0.0,-0.0016745500033721328,-0.0017714763525873423,-0.001996051287278533,0.9993172287940979,0.0,0.0,0.0,-17.123899459838867,3.23095440864563,7.714684009552002,3099.459716796875,0
1704.8050000000003,-0.024155892431735992,0.014439142309129238,-0.0007899327320046723,0.0,0.0,0.0,0.0,0.0012268431019037962,0.006074138451367617,-0.0025077734608203173,1.0006318092346191,0.0,0.0,0.0,-17.13446044921875,3.2297959327697754,7.711108684539795,3101.37109375,0
1714.705,-0.024085313081741333,0.014460434205830097,-0.000748069491237402,0.0,0.0,0.0,0.0,-0.0031554438173770905,-0.005297503434121609,0.002647099085152149,0.9997771978378296,0.0,0.0,0.0,-17.143341064453125,3.2325599193573,7.710418701171875,3102.978759765625,0
1724.6180000000004,-0.024113010615110397,0.01447177492082119,-0.0007626715814694762,0.0,0.0,0.0,0.0,-2.1852752979611978e-05,-0.0012554419226944447,0.0026161503046751022,0.9978117942810059,0.0,0.0,0.0,-17.125545501708984,3.229654550552368,7.71137809753418,3099.757568359375,0
1734.5290000000005,-0.02406410500407219,0.014497865922749043,-0.0007566245622001588,0.0,0.0,0.0,0.0,-0.005152178928256035,-0.00045083597069606185,-0.0021243190858513117,1.00028395652771,0.0,0.0,0.0,-17.133176803588867,3.239985704421997,7.7262797355651855,3101.138916015625,0
1744.442000000001,-0.02408948726952076,0.014509765431284904,-0.0007708915509283543,0.0,0.0,0.0,0.0,-0.0011544831795617938,0.0021117038559168577,-0.0027043111622333527,1.0004862546920776,0.0,0.0,0.0,-17.11678695678711,3.2418572902679443,7.71718692779541,3098.172607421875,0
1754.3510000000006,-0.024006733670830727,0.01450371090322733,-0.0007897038594819605,0.0,0.0,0.0,0.0,-0.002197077963501215,0.0005619687726721168,0.00044131436152383685,0.9996909499168396,0.0,0.0,0.0,-17.125085830688477,3.2421882152557373,7.735718250274658,3099.674560546875,0
1764.264000000001,-0.024028262123465538,0.014513409696519375,-0.0008033636258915067,0.0,0.0,0.0,0.0,-0.0008557831170037389,0.0012644337257370353,0.0015953978290781379,0.9998108744621277,0.0,0.0,0.0,-17.107837677001953,3.237607002258301,7.731949806213379,3096.552490234375,0
1774.1730000000007,-0.024045614525675774,0.014542768709361553,-0.0008024671114981174,0.0,0.0,0.0,0.0,0.00042818515794351697,0.0019366784254088998,-0.00044015372986905277,0.9973651766777039,0.0,0.0,0.0,-17.11636734008789,3.242567300796509,7.731403350830078,3098.0966796875,0
1784.0949999999993,-0.024066347628831863,0.014551067724823952,-0.0008156934636645019,0.0,0.0,0.0,0.0,5.608886931440793e-05,0.0037898279260843992,0.0016196167562156916,0.9985994100570679,0.0,0.0,0.0,-17.099227905273438,3.236233711242676,7.722418785095215,3094.994140625,0
1793.9969999999994,-0.02396504580974579,0.0145735377445817,-0.0008152483496814966,0.0,0.0,0.0,0.0,0.0010019292822107673,-0.002222227631136775,-0.0016365585615858436,1.0001126527786255,0.0,0.0,0.0,-17.105743408203125,3.2411115169525146,7.736988544464111,3096.173583984375,0
1803.9150000000009,-0.023982176557183266,0.014581936411559582,-0.0008288252865895629,0.0,0.0,0.0,0.0,0.001727733644656837,-0.00025810260558500886,-0.0013048978289589286,0.9988918304443359,0.0,0.0,0.0,-17.088943481445312,3.2337746620178223,7.732492446899414,3093.1328125,0
1813.8220000000001,-0.02402256615459919,0.014604175463318825,-0.0008304404327645898,0.0,0.0,0.0,0.0,-0.0016750822542235255,-2.7353353289072402e-05,-0.005171052645891905,0.9980921149253845,0.0,0.0,0.0,-17.101398468017578,3.2384963035583496,7.7276225090026855,3095.38720703125,0
1823.741,-0.024042872712016106,0.014612922444939613,-0.0008439189987257123,0.0,0.0,0.0,0.0,0.0010037595639005303,0.0007069188286550343,0.0028708099853247404,0.9985692501068115,0.0,0.0,0.0,-17.08556365966797,3.2407777309417725,7.716387748718262,3092.52099609375,0
1833.6470000000008,-0.02402753010392189,0.014623712748289108,-0.0008566100150346756,0.0,0.0,0.0,0.0,0.0006496293935924768,-0.006058043800294399,0.0009882613085210323,0.999687910079956,0.0,0.0,0.0,-17.09531021118164,3.2388250827789307,7.724958896636963,3094.284912109375,0
1843.5640000000003,-0.02404879778623581,0.014630740508437157,-0.0008716366719454527,0.0,0.0,0.0,0.0,0.0015616680029779673,-0.003700818167999387,-0.001860973541624844,0.9978229403495789,0.0,0.0,0.0,-17.07787322998047,3.229853868484497,7.7265143394470215,3091.129150390625,0
1853.4699999999993,-0.02402714267373085,0.014637939631938934,-0.0008883191621862352,0.0,0.0,0.0,0.0,-0.0013568958966061473,0.0005143238231539726,0.00023587480245623738,0.9968502521514893,0.0,0.0,0.0,-17.087888717651367,3.230121374130249,7.737491607666016,3092.94189453125,0
1863.389000000001,-0.024049270898103714,0.01464624423533678,-0.0009057821589522064,0.0,0.0,0.0,0.0,-0.0011165846372023225,0.0012448526686057448,-0.00041160863474942744,0.9986396431922913,0.0,0.0,0.0,-17.070648193359375,3.2299537658691406,7.737559795379639,3089.821044921875,0
1873.2900000000009,-0.023990705609321594,0.014676244929432869,-0.0009008568013086915,0.0,0.0,0.0,0.0,0.000935209624003619,-0.003521444508805871,-0.00435359962284565,0.9999569654464722,0.0,0.0,0.0,-17.07636070251465,3.2483556270599365,7.744012832641602,3090.855224609375,0
1883.2240000000002,-0.024010194465517998,0.01468693371862173,-0.0009183816146105528,0.0,0.0,0.0,0.0,0.0011755583109334111,0.0027889590710401535,0.0010497595649212599,0.9998103380203247,0.0,0.0,0.0,-17.059429168701172,3.2457964420318604,7.74440336227417,3087.790771484375,0
1893.125,-0.02400875650346279,0.014699551276862621,-0.0009392114588990808,0.0,0.0,0.0,0.0,-0.0003186287940479815,-0.0018658278277143836,0.003449284238740802,1.0004030466079712,0.0,0.0,0.0,-17.07484245300293,3.2450029850006104,7.744154930114746,3090.580322265625,0
1903.0280000000002,-0.024029914289712906,0.014709497801959515,-0.0009561519837006927,0.0,0.0,0.0,0.0,-0.0002586775226518512,-0.004909053910523653,-0.000745518715120852,0.9990925192832947,0.0,0.0,0.0,-17.056848526000977,3.235269546508789,7.741861820220947,3087.323486328125,0
1912.9390000000003,-0.024008948355913162,0.014731500297784805,-0.0009635055321268737,0.0,0.0,0.0,0.0,0.0013916584430262446,0.0011026074644178152,-6.087688234401867e-05,0.998755156993866,0.0,0.0,0.0,-17.076231002807617,3.2458853721618652,7.755812168121338,3090.831787109375,0
1922.8539999999994,-0.024030493572354317,0.014740376733243465,-0.0009798452956601977,0.0,0.0,0.0,0.0,0.0010540657676756382,0.0001314930705120787,-5.9669168877007905e-06,0.9999130368232727,0.0,0.0,0.0,-17.059749603271484,3.2394628524780273,7.746757507324219,3087.848388671875,0
1932.7690000000002,-0.023984169587492943,0.014765017665922642,-0.0009803331922739744,0.0,0.0,0.0,0.0,-0.0013264701701700687,-0.0032904089894145727,0.002111596753820777,0.9997687339782715,0.0,0.0,0.0,-17.06862449645996,3.2476658821105957,7.7502522468566895,3089.455078125,0
1942.6820000000007,-0.024068651720881462,0.014575282111763954,-0.0007352512911893427,0.0,0.0,0.0,0.0,0.001121810171753168,-0.0013663991121575236,-0.0007345969206653535,0.9993822574615479,0.0,0.0,0.0,-17.086275100708008,3.1991522312164307,7.755072116851807,3092.649658203125,0
1952.5840000000007,-0.024052802473306656,0.014546279795467854,-0.0007015711744315922,0.0,0.0,0.0,0.0,0.0009417080436833203,-0.0017970958724617958,-0.0007777076098136604,0.9970101714134216,0.0,0.0,0.0,-17.097293853759766,3.1914587020874023,7.772017955780029,3094.64404296875,0
1962.5059999999994,-0.024074088782072067,0.014545675367116928,-0.0007078836788423359,0.0,0.0,0.0,0.0,-0.0021791826002299786,-0.0027460912242531776,0.000924176536500454,0.9996193647384644,0.0,0.0,0.0,-17.080236434936523,3.182856321334839,7.763627529144287,3091.556884765625,0
1972.4089999999997,-0.023923860862851143,0.014554736204445362,-0.0006653802702203393,0.0,0.0,0.0,0.0,-0.004171292297542095,9.238930942956358e-05,0.005321509670466185,0.9998461008071899,0.0,0.0,0.0,-17.088939666748047,3.1985483169555664,7.793364524841309,3093.13232421875,0
1982.3310000000001,-0.02393951080739498,0.014555947855114937,-0.0006700285011902452,0.0,0.0,0.0,0.0,8.14550367067568e-05,0.007913450710475445,-0.0006007335032336414,0.9983576536178589,0.0,0.0,0.0,-17.070510864257812,3.1971633434295654,7.7858195304870605,3089.79638671875,0
1992.2309999999998,-0.02389221265912056,0.01456373743712902,-0.0006636137259192765,0.0,0.0,0.0,0.0,-0.00027551871608011425,0.00035842013312503695,-0.0010220271069556475,0.9978358149528503,0.0,0.0,0.0,-17.08574867248535,3.2001304626464844,7.773736000061035,3092.554443359375,0
2002.1530000000002,-0.023907562717795372,0.014567270874977112,-0.0006693462491966784,0.0,0.0,0.0,0.0,-3.122989437542856e-05,-0.002494222018867731,0.0027368245646357536,0.9979798197746277,0.0,0.0,0.0,-17.069509506225586,3.192089796066284,7.7675676345825195,3089.614990234375,0
2012.0519999999997,-0.023935353383421898,0.014558137394487858,-0.000690244312863797,0.0,0.0,0.0,0.0,-0.00016659643733873963,-0.003016839502379298,-0.001399714034050703,0.9966448545455933,0.0,0.0,0.0,-17.078144073486328,3.1898436546325684,7.771207332611084,3091.177734375,0
2021.9799999999996,-0.023952960968017578,0.014558220282196999,-0.0007011096458882093,0.0,0.0,0.0,0.0,0.0005938559188507497,0.006429808214306831,-0.0015180855989456177,0.9984196424484253,0.0,0.0,0.0,-17.061847686767578,3.1863725185394287,7.772144317626953,3088.228515625,0
2031.875,-0.023972226306796074,0.014540448784828186,-0.0007356718415394425,0.0,0.0,0.0,0.0,-0.0007406740332953632,-0.003647423116490245,0.004605777561664581,0.9995274543762207,0.0,0.0,0.0,-17.075801849365234,3.1760878562927246,7.766179084777832,3090.754150390625,0
2041.7980000000007,-0.023987825959920883,0.014540029689669609,-0.0007515728939324617,0.0,0.0,0.0,0.0,0.002438024152070284,-0.004423582460731268,-0.0026226621121168137,0.9994479417800903,0.0,0.0,0.0,-17.05653953552246,3.1717076301574707,7.766968727111816,3087.267578125,0
2051.6990000000005,-0.023982232436537743,0.01452881470322609,-0.0007839192403480411,0.0,0.0,0.0,0.0,0.0008687578374519944,-0.002245316281914711,-7.541199738625437e-05,0.9990544319152832,0.0,0.0,0.0,-17.07093620300293,3.161506414413452,7.780887126922607,3089.873291015625,0
2061.626,-0.024019332602620125,0.014470136724412441,-0.0007725728792138398,0.0,0.0,0.0,0.0,-0.0030896873213350773,-0.0003659145731944591,0.001467169146053493,0.9986370801925659,0.0,0.0,0.0,-17.086580276489258,3.1439380645751953,7.778321743011475,3092.705078125,0
2071.527,-0.0239639300853014,0.014456810429692268,-0.0007167768198996782,0.0,0.0,0.0,0.0,-0.0023045530542731285,0.002532911254093051,0.000508081226143986,0.9998584985733032,0.0,0.0,0.0,-17.098037719726562,3.149728298187256,7.787148475646973,3094.77880859375,0
2081.451000000001,-0.02401917427778244,0.014379032887518406,-0.0006725829443894327,0.0,0.0,0.0,0.0,-0.0020591767970472574,-0.0030854586511850357,0.0022376496344804764,0.9975425004959106,0.0,0.0,0.0,-17.110454559326172,3.1370389461517334,7.780695915222168,3097.0263671875,0
2091.344000000001,-0.02403666265308857,0.01442843209952116,-0.0006244588294066489,0.0,0.0,0.0,0.0,0.002853618236258626,0.001195142394863069,-0.000940722122322768,0.9989349842071533,0.0,0.0,0.0,-17.11292266845703,3.1478142738342285,7.7852702140808105,3097.472900390625,0
2101.272000000001,-0.024057120084762573,0.01442483626306057,-0.0006332388147711754,0.0,0.0,0.0,0.0,-0.0005626089405268431,0.0033386931754648685,0.0009040666045621037,0.9980661869049072,0.0,0.0,0.0,-17.09670066833496,3.143803596496582,7.780125617980957,3094.53662109375,0
2111.1730000000007,-0.024054575711488724,0.014468389563262463,-0.0006032430101186037,0.0,0.0,0.0,0.0,0.0003123636415693909,-0.0018387400778010488,0.0033069413620978594,0.9994773268699646,0.0,0.0,0.0,-17.097179412841797,3.154979705810547,7.775437831878662,3094.623291015625,0
2121.09,-0.024077005684375763,0.014464491046965122,-0.000610983173828572,0.0,0.0,0.0,0.0,-0.000673545990139246,0.0013665894512087107,0.0003662602975964546,0.9971398711204529,0.0,0.0,0.0,-17.080137252807617,3.1508371829986572,7.771707534790039,3091.538818359375,0
2130.992,-0.024083565920591354,0.014481238089501858,-0.0006029568612575531,0.0,0.0,0.0,0.0,0.0027270556893199682,0.0014969655312597752,-0.001913726911880076,0.9974883794784546,0.0,0.0,0.0,-17.09311866760254,3.1605327129364014,7.76308012008667,3093.88818359375,0
2140.9130000000005,-0.02410729043185711,0.014479554258286953,-0.0006122844060882926,0.0,0.0,0.0,0.0,0.0007073745364323258,-0.0015209399862214923,-0.0022946870885789394,0.9987145066261292,0.0,0.0,0.0,-17.075820922851562,3.1498031616210938,7.757979393005371,3090.757568359375,0
2150.8199999999997,-0.024126412346959114,0.01447280216962099,-0.0006278472137637436,0.0,0.0,0.0,0.0,0.001026937854476273,0.002474735025316477,-0.0029471577145159245,0.9987031817436218,0.0,0.0,0.0,-17.094276428222656,3.153376340866089,7.762948513031006,3094.097900390625,0
2160.742,-0.024150006473064423,0.014467526227235794,-0.0006402371218428016,0.0,0.0,0.0,0.0,0.0002956150856334716,-0.0032832997385412455,-0.004746750462800264,0.9994819760322571,0.0,0.0,0.0,-17.078100204467773,3.1490230560302734,7.746059417724609,3091.170166015625,0
