timestamp,stateEstimate.x,stateEstimate.y,stateEstimate.z,controller.cmd_thrust,controller.cmd_roll,controller.cmd_pitch,controller.cmd_yaw,controller.r_roll,controller.r_pitch,controller.r_yaw,controller.accelz,controller.actuatorThrust,controller.roll,controller.pitch,controller.yaw,controller.rollRate,controller.pitchRate,controller.yawRate,controller.ctr_yaw
0.0,-0.0014989353949204087,-0.007910523563623428,8.057499508140609e-05,0.0,0.0,0.0,0.0,0.0017781801288947463,0.0007216609083116055,0.0005205925554037094,0.9998137354850769,0.0,0.0,0.0,-17.315027236938477,2.7272403240203857,5.299160957336426,3134.054443359375,0
9.92200000000048,-0.0014488552697002888,-0.007940375246107578,0.00010784023470478132,0.0,0.0,0.0,0.0,-0.0022233494091778994,0.004554437473416328,-0.002769127255305648,0.9994353652000427,0.0,0.0,0.0,-17.351613998413086,2.7261922359466553,5.317790985107422,3140.676513671875,0
19.81999999999971,-0.0014759354526177049,-0.007950211875140667,0.00011328882101224735,0.0,0.0,0.0,0.0,0.0005846414715051651,-0.0020645419135689735,0.001882293727248907,0.9978406429290771,0.0,0.0,0.0,-17.334497451782227,2.725918769836426,5.307491779327393,3137.57861328125,0
29.743000000000393,-0.0014682029141113162,-0.007961558178067207,0.00012018571578664705,0.0,0.0,0.0,0.0,-0.0007642460404895246,-0.0018708606949076056,-0.000935955555178225,0.9991345405578613,0.0,0.0,0.0,-17.370601654052734,2.721524477005005,5.305628776550293,3144.113525390625,0
39.641999999999825,-0.001496582292020321,-0.007972183637320995,0.0001240827259607613,0.0,0.0,0.0,0.0,0.0008880971581675112,0.006897451356053352,-0.0016228656750172377,0.9989409446716309,0.0,0.0,0.0,-17.352344512939453,2.7159595489501953,5.30284309387207,3140.808837890625,0
49.564000000000306,-0.0015259943902492523,-0.007982800714671612,0.0001268587657250464,0.0,0.0,0.0,0.0,0.0008928419556468725,-0.003067097859457135,0.004691123031079769,0.999746561050415,0.0,0.0,0.0,-17.335134506225586,2.716378688812256,5.2912468910217285,3137.693603515625,0
59.465000000000146,-0.001557415584102273,-0.00799347274005413,0.00012883392628282309,0.0,0.0,0.0,0.0,0.0045983982272446156,0.0032583693973720074,-0.005454933736473322,0.9994311928749084,0.0,0.0,0.0,-17.318016052246094,2.7151060104370117,5.280639171600342,3134.595458984375,0
69.39300000000003,-0.0015922592720016837,-0.008004452101886272,0.0001303635654039681,0.0,0.0,0.0,0.0,-0.002247116295620799,-0.0052680508233606815,-0.0006181656499393284,0.9991483092308044,0.0,0.0,0.0,-17.301685333251953,2.7093236446380615,5.269328594207764,3131.639404296875,0
79.29500000000007,-0.0016310794744640589,-0.00801535788923502,0.00013160041999071836,0.0,0.0,0.0,0.0,0.0019018680322915316,0.00016690920165274292,-0.0027508980128914118,0.9993337988853455,0.0,0.0,0.0,-17.284170150756836,2.696063756942749,5.265783786773682,3128.469482421875,0
89.21800000000076,-0.0016731861978769302,-0.008027111180126667,0.0001324282493442297,0.0,0.0,0.0,0.0,-0.001899372087791562,-0.0018888222984969616,0.0003826561151072383,0.9981442093849182,0.0,0.0,0.0,-17.266889572143555,2.6934800148010254,5.262933254241943,3125.34130859375,0
99.1239999999998,-0.0017181957373395562,-0.008040789514780045,0.00013280758867040277,0.0,0.0,0.0,0.0,0.001611041952855885,0.00690451031550765,-0.001586618134751916,0.9988953471183777,0.0,0.0,0.0,-17.250062942504883,2.6903226375579834,5.2606940269470215,3122.2958984375,0
109.03399999999965,-0.001528201624751091,-0.008030430413782597,0.00016118507483042777,0.0,0.0,0.0,0.0,-0.001141763641498983,0.0014768021646887064,-0.0027315004263073206,0.9987912774085999,0.0,0.0,0.0,-17.29387664794922,2.7154347896575928,5.334701061248779,3130.225830078125,0
118.94700000000012,-0.0015621392522007227,-0.008046548813581467,0.00016342414892278612,0.0,0.0,0.0,0.0,0.0029891696758568287,-0.002143973484635353,-0.0015288402792066336,0.9988139867782593,0.0,0.0,0.0,-17.276769638061523,2.70983624458313,5.32063627243042,3127.1298828125,0
128.85100000000057,-0.001596816466189921,-0.008063806220889091,0.00016432444681413472,0.0,0.0,0.0,0.0,0.0006362753338180482,0.002781511517241597,-0.004640955477952957,1.0014162063598633,0.0,0.0,0.0,-17.259521484375,2.705228805541992,5.3112263679504395,3124.0078125,0
138.76200000000063,-0.0016331844963133335,-0.008082124404609203,0.0001644458679948002,0.0,0.0,0.0,0.0,0.0022737965919077396,0.002314333338290453,-0.0007496786420233548,0.9992130398750305,0.0,0.0,0.0,-17.24336051940918,2.6934561729431152,5.309935092926025,3121.08251953125,0
148.67799999999988,-0.0016713711665943265,-0.00810116808861494,0.00016519075143150985,0.0,0.0,0.0,0.0,-0.002857324667274952,-0.0023900805972516537,0.004115487448871136,0.9978364109992981,0.0,0.0,0.0,-17.22710418701172,2.6903183460235596,5.302684783935547,3118.14013671875,0
158.58899999999994,-0.0015927287749946117,-0.007821746170520782,-0.00032507837750017643,0.0,0.0,0.0,0.0,-0.006676093675196171,-0.0022232881747186184,-0.001476557576097548,1.000986099243164,0.0,0.0,0.0,-17.24967384338379,2.759428024291992,5.297802448272705,3122.225341796875,0
168.4979999999996,-0.0014173313975334167,-0.00791922677308321,-0.00020157643302809447,0.0,0.0,0.0,0.0,0.0032742046751081944,-0.0002621874155011028,0.00042179733281955123,0.9989876747131348,0.0,0.0,0.0,-17.272592544555664,2.7649405002593994,5.3837571144104,3126.37353515625,0
178.41599999999926,-0.001425982336513698,-0.007937266491353512,-0.00018722300592344254,0.0,0.0,0.0,0.0,0.0016452257987111807,0.0006548115634359419,0.0023902729153633118,0.997804582118988,0.0,0.0,0.0,-17.29845428466797,2.767078399658203,5.3823041915893555,3131.0546875,0
188.32200000000012,-0.0014848203863948584,-0.007931637577712536,-0.00015430012717843056,0.0,0.0,0.0,0.0,0.0034745177254080772,0.0005426921998150647,-0.0002732138673309237,0.9969656467437744,0.0,0.0,0.0,-17.31978988647461,2.7639400959014893,5.37301778793335,3134.91650390625,0
198.23799999999937,-0.001435231533832848,-0.007859745994210243,-0.00022477025049738586,0.0,0.0,0.0,0.0,-0.001793964416719973,-0.00595920579507947,0.002097340067848563,1.0014275312423706,0.0,0.0,0.0,-17.34305191040039,2.7752957344055176,5.372631072998047,3139.126953125,0
208.14600000000064,-0.001464241766370833,-0.007867194712162018,-0.00019913300639018416,0.0,0.0,0.0,0.0,-0.0018381924601271749,-0.0031263164710253477,0.0013846135698258877,1.00162935256958,0.0,0.0,0.0,-17.36580467224121,2.770167112350464,5.374806880950928,3143.245361328125,0
218.0599999999995,-0.0014489243039861321,-0.00784127414226532,-0.000216648360947147,0.0,0.0,0.0,0.0,0.0011734660947695374,-0.002395047340542078,-0.006158691365271807,0.9995988011360168,0.0,0.0,0.0,-17.396831512451172,2.776627540588379,5.373841762542725,3148.861328125,0
227.96099999999933,-0.0014387168921530247,-0.007864399813115597,-0.00019526922551449388,0.0,0.0,0.0,0.0,0.001983351306989789,-0.0009549760143272579,-0.002200777642428875,1.000304102897644,0.0,0.0,0.0,-17.42681312561035,2.783472776412964,5.384862899780273,3154.287841796875,0
237.88999999999942,-0.0014130023773759604,-0.007777821272611618,-0.000254073238465935,0.0,0.0,0.0,0.0,0.005035845562815666,0.006523169111460447,0.0005387697019614279,1.0003886222839355,0.0,0.0,0.0,-17.423450469970703,2.796295404434204,5.381123065948486,3153.67919921875,0
247.78900000000067,-0.0014248256338760257,-0.007818587124347687,-0.0002551413490436971,0.0,0.0,0.0,0.0,-0.0014968642499297857,6.736755312886089e-05,-6.629377458011732e-05,0.9994011521339417,0.0,0.0,0.0,-17.44764518737793,2.784184455871582,5.372901439666748,3158.058349609375,0
257.6990000000005,-0.001412945450283587,-0.007748387288302183,-0.00030267442343756557,0.0,0.0,0.0,0.0,0.001366106211207807,0.0016687123570591211,-0.002313269767910242,1.0000101327896118,0.0,0.0,0.0,-17.447559356689453,2.782304525375366,5.357298374176025,3158.04296875,0
267.6129999999994,-0.0014010891318321228,-0.0077908276580274105,-0.00029545501456595957,0.0,0.0,0.0,0.0,0.002533826744183898,0.004804427735507488,-9.752447658684105e-05,0.9984794855117798,0.0,0.0,0.0,-17.472591400146484,2.782310962677002,5.355919361114502,3162.573486328125,0
277.52599999999984,-0.0014431996969506145,-0.007809339556843042,-0.0002916319645009935,0.0,0.0,0.0,0.0,0.0029362451750785112,0.00037556682946160436,-0.0006097590085119009,0.9963040351867676,0.0,0.0,0.0,-17.479219436645508,2.776724100112915,5.339118480682373,3163.7734375,0
287.4320000000007,-0.0013758133864030242,-0.007847723551094532,-0.0002690482069738209,0.0,0.0,0.0,0.0,-0.0017392660956829786,-0.0006147006060928106,0.0034401132725179195,0.9987586736679077,0.0,0.0,0.0,-17.489500045776367,2.7749011516571045,5.342294692993164,3165.63427734375,0
297.35100000000057,-0.0014037064975127578,-0.007821029983460903,-0.00026806481764651835,0.0,0.0,0.0,0.0,0.001222226768732071,0.0015102385077625513,-0.002018161118030548,0.9996805191040039,0.0,0.0,0.0,-17.4884090423584,2.7754931449890137,5.333335876464844,3165.436767578125,0
307.2530000000006,-0.0013749506324529648,-0.007826946675777435,-0.00024062713782768697,0.0,0.0,0.0,0.0,-0.0034917546436190605,0.0033137688878923655,-0.0034979262854903936,0.9984863996505737,0.0,0.0,0.0,-17.50602149963379,2.7750892639160156,5.336628437042236,3168.624755859375,0
317.1769999999997,-0.0013909728731960058,-0.007810141891241074,-0.0002599561121314764,0.0,0.0,0.0,0.0,0.0038661162834614515,0.0035912482999265194,0.0012011571088805795,0.9981754422187805,0.0,0.0,0.0,-17.503154754638672,2.7821080684661865,5.321568012237549,3168.10595703125,0
327.07600000000093,-0.0013830317184329033,-0.007882087491452694,-0.00026662854361347854,0.0,0.0,0.0,0.0,0.0005735181039199233,-0.001063119969330728,0.0016757879639044404,1.0002927780151367,0.0,0.0,0.0,-17.520843505859375,2.7786505222320557,5.324988842010498,3171.307373046875,0
336.9979999999996,-0.0014201855519786477,-0.007871010340750217,-0.0002600142324808985,0.0,0.0,0.0,0.0,0.0034353365190327168,0.004306632559746504,-0.0012138980673626065,0.9997431635856628,0.0,0.0,0.0,-17.514677047729492,2.7789721488952637,5.32097864151001,3170.191162109375,0
346.89999999999964,-0.0014256932772696018,-0.007885600440204144,-0.0002438620722386986,0.0,0.0,0.0,0.0,0.0009001153521239758,0.001071857986971736,-0.00028979990747757256,0.999171793460846,0.0,0.0,0.0,-17.52743148803711,2.7698402404785156,5.314471244812012,3172.499755859375,0
356.8179999999993,-0.0014587510377168655,-0.00785914808511734,-0.0002380266087129712,0.0,0.0,0.0,0.0,0.0031781469006091356,-0.00027474958915263414,0.0013849339447915554,0.9972950220108032,0.0,0.0,0.0,-17.520341873168945,2.767763137817383,5.303511619567871,3171.217041015625,0
366.72500000000036,-0.0014631485100835562,-0.00783286802470684,-0.00019591522868722677,0.0,0.0,0.0,0.0,0.00037554235314019024,0.0008045975700952113,3.4174117899965495e-05,0.9966830015182495,0.0,0.0,0.0,-17.53870391845703,2.7743966579437256,5.2987284660339355,3174.540283203125,0
376.64700000000084,-0.0015172547427937388,-0.007840446196496487,-0.00017535484221298248,0.0,0.0,0.0,0.0,0.002543744398280978,0.0012846786994487047,-0.00019462646741885692,1.0010260343551636,0.0,0.0,0.0,-17.5377140045166,2.7694380283355713,5.290567398071289,3174.361083984375,0
386.5540000000001,-0.0014246396021917462,-0.007879323326051235,-0.00013768914504908025,0.0,0.0,0.0,0.0,-0.0036802722606807947,0.0058266459964215755,0.001322598080150783,1.0014468431472778,0.0,0.0,0.0,-17.547025680541992,2.7755072116851807,5.308867454528809,3176.046875,0
396.46399999999994,-0.0014472715556621552,-0.007843485102057457,-0.0001438298204448074,0.0,0.0,0.0,0.0,-0.0009773126803338528,-0.004684376064687967,-4.929058559355326e-05,1.0002541542053223,0.0,0.0,0.0,-17.537128448486328,2.7829315662384033,5.304549217224121,3174.2548828125,0
406.3719999999994,-0.0014874208718538284,-0.007852299138903618,-0.00013247740571387112,0.0,0.0,0.0,0.0,-0.00025360219296999276,-0.0033412836492061615,-0.00259769381955266,0.9983906745910645,0.0,0.0,0.0,-17.5421142578125,2.7778637409210205,5.297929763793945,3175.15771484375,0
416.29399999999987,-0.0015020265709608793,-0.007820098660886288,-0.0001519053621450439,0.0,0.0,0.0,0.0,-0.0016574872424826026,0.0030112513341009617,-0.0015241780783981085,0.9993608593940735,0.0,0.0,0.0,-17.532733917236328,2.7838895320892334,5.300777912139893,3173.45947265625,0
426.20100000000093,-0.0014703659107908607,-0.007885202765464783,-0.00014360202476382256,0.0,0.0,0.0,0.0,0.0004602185799740255,0.0001666448952164501,0.0026596738025546074,0.9985443949699402,0.0,0.0,0.0,-17.543561935424805,2.7879762649536133,5.306656837463379,3175.419677734375,0
436.1110000000008,-0.0014858455397188663,-0.007844887673854828,-0.00016399209562223405,0.0,0.0,0.0,0.0,-0.00018914288375526667,-0.002202666364610195,0.0014558054972440004,0.9989815354347229,0.0,0.0,0.0,-17.53386688232422,2.7931017875671387,5.3054938316345215,3173.66455078125,0
446.02200000000084,-0.001462241867557168,-0.007853795774281025,-0.00012645592505577952,0.0,0.0,0.0,0.0,0.002114436589181423,0.00629039341583848,0.002098333789035678,1.0008574724197388,0.0,0.0,0.0,-17.547422409057617,2.79266095161438,5.312747001647949,3176.118408203125,0
455.9449999999997,-0.0015025254106149077,-0.007850646041333675,-0.00012197445903439075,0.0,0.0,0.0,0.0,-0.0016780418809503317,0.00018928054487332702,0.002577909268438816,1.0020524263381958,0.0,0.0,0.0,-17.54637336730957,2.798978805541992,5.310159683227539,3175.9287109375,0
465.84200000000055,-0.0014151863288134336,-0.007885630242526531,-7.803863263688982e-05,0.0,0.0,0.0,0.0,-0.0013526873663067818,0.0017218984430655837,0.0013399784220382571,1.0015863180160522,0.0,0.0,0.0,-17.55552864074707,2.802342176437378,5.319629192352295,3177.585693359375,0
475.7549999999992,-0.0014223239850252867,-0.007839144207537174,-9.158996545011178e-05,0.0,0.0,0.0,0.0,0.0001896037720143795,0.002784192329272628,-0.002154602436348796,0.9990283846855164,0.0,0.0,0.0,-17.548545837402344,2.813790798187256,5.3163347244262695,3176.32177734375,0
485.6759999999995,-0.0013466195669025183,-0.007915469817817211,-6.524567288579419e-05,0.0,0.0,0.0,0.0,-0.0008807907579466701,0.00044361662003211677,0.0016744397580623627,0.9992651343345642,0.0,0.0,0.0,-17.560251235961914,2.8087308406829834,5.324194431304932,3178.4404296875,0
495.59100000000035,-0.0013456153683364391,-0.0078763822093606,-8.973883086582646e-05,0.0,0.0,0.0,0.0,0.0007566495332866907,-0.0011770072160288692,-0.005224799737334251,1.0005971193313599,0.0,0.0,0.0,-17.558631896972656,2.8187453746795654,5.315540790557861,3178.147216796875,0
505.4879999999994,-0.0013731142971664667,-0.007925380952656269,-8.466612052870914e-05,0.0,0.0,0.0,0.0,-0.0005434239865280688,-0.00012354576028883457,-0.002702596364542842,1.0001380443572998,0.0,0.0,0.0,-17.568479537963867,2.8200039863586426,5.321074962615967,3179.9296875,0
515.4060000000009,-0.0013776145642623305,-0.007894241251051426,-0.00010418785677757114,0.0,0.0,0.0,0.0,0.002587070921435952,0.0013473997823894024,-0.000564791786018759,1.0023117065429688,0.0,0.0,0.0,-17.56715965270996,2.827425479888916,5.318115234375,3179.69091796875,0
525.3130000000001,-0.0013739948626607656,-0.007928011007606983,-8.757087925914675e-05,0.0,0.0,0.0,0.0,-0.0014004564145579934,0.0015496162232011557,0.00022092477593105286,1.0001020431518555,0.0,0.0,0.0,-17.5804386138916,2.8215291500091553,5.325560092926025,3182.09423828125,0
535.2250000000004,-0.0013730797218158841,-0.007853562012314796,-9.953604603651911e-05,0.0,0.0,0.0,0.0,0.0033519132994115353,0.00253407284617424,0.0025675592478364706,1.0001707077026367,0.0,0.0,0.0,-17.573591232299805,2.8351588249206543,5.314938545227051,3180.85498046875,0
545.1389999999992,-0.0013668598840013146,-0.007894663140177727,-8.544688898837194e-05,0.0,0.0,0.0,0.0,0.0007010176195763052,-0.0016754934331402183,-0.001008909079246223,0.9998833537101746,0.0,0.0,0.0,-17.585662841796875,2.8268001079559326,5.3066864013671875,3183.039794921875,0
555.0480000000007,-0.0013752980157732964,-0.007863265462219715,-9.861746366368607e-05,0.0,0.0,0.0,0.0,-0.003224859945476055,-0.0035961123649030924,0.0021172540728002787,1.0022207498550415,0.0,0.0,0.0,-17.583410263061523,2.8352129459381104,5.297658920288086,3182.63232421875,0
564.960000000001,-0.0013695483794435859,-0.007906298153102398,-8.518341928720474e-05,0.0,0.0,0.0,0.0,0.0016261681448668242,0.0023729351814836264,-0.0032152554485946894,1.0030118227005005,0.0,0.0,0.0,-17.594881057739258,2.840949296951294,5.311661720275879,3184.70849609375,0
574.8799999999992,-0.001370181213133037,-0.007821150124073029,-9.202145884046331e-05,0.0,0.0,0.0,0.0,0.005083253141492605,0.0035421489737927914,-0.0019131008302792907,1.0007288455963135,0.0,0.0,0.0,-17.59050178527832,2.8525538444519043,5.315375804901123,3183.91552734375,0
584.7880000000005,-0.0013819902669638395,-0.007838087156414986,-7.153920159908012e-05,0.0,0.0,0.0,0.0,-0.00031024657073430717,-0.0016899504698812962,-0.0015494923572987318,1.001478672027588,0.0,0.0,0.0,-17.600133895874023,2.847212553024292,5.302862167358398,3185.6591796875,0
594.6970000000001,-0.0014006523415446281,-0.007819552905857563,-7.370289677055553e-05,0.0,0.0,0.0,0.0,0.001326715457253158,-0.004596405662596226,-0.0013279967242851853,1.000572919845581,0.0,0.0,0.0,-17.596439361572266,2.851266860961914,5.301135540008545,3184.99072265625,0
604.6129999999994,-0.001392437843605876,-0.007841033861041069,-4.5369280996965244e-05,0.0,0.0,0.0,0.0,0.00018159823957830667,-0.0031414141412824392,0.0018959929002448916,0.9989782571792603,0.0,0.0,0.0,-17.603300094604492,2.8495280742645264,5.326981067657471,3186.232177734375,0
614.5190000000002,-0.0014020719099789858,-0.007818973623216152,-5.2971103286836296e-05,0.0,0.0,0.0,0.0,-0.0021532061509788036,0.0046964725479483604,-0.0011699280003085732,0.9997317790985107,0.0,0.0,0.0,-17.597867965698242,2.851606607437134,5.328375339508057,3185.2490234375,0
624.4310000000005,-0.0014434315962716937,-0.00785847194492817,-5.2638453780673444e-05,0.0,0.0,0.0,0.0,-0.0026055288035422564,0.0009598050964996219,0.0019694739021360874,0.9987367987632751,0.0,0.0,0.0,-17.60564613342285,2.848234176635742,5.3170013427734375,3186.65673828125,0
634.3420000000006,-0.0014404028188437223,-0.007823387160897255,-7.690283382544294e-05,0.0,0.0,0.0,0.0,-0.0013626731233671308,-0.00014657765859737992,-0.005033853929489851,0.9995103478431702,0.0,0.0,0.0,-17.600854873657227,2.8558311462402344,5.308131694793701,3185.789794921875,0
644.259,-0.001442563603632152,-0.007858001627027988,-6.417626718757674e-05,0.0,0.0,0.0,0.0,0.00034989850246347487,0.000809816992841661,-0.00354024744592607,1.0005511045455933,0.0,0.0,0.0,-17.61231803894043,2.848450183868408,5.318704605102539,3187.8642578125,0
654.1640000000007,-0.001442209118977189,-0.007827547378838062,-8.574254025006667e-05,0.0,0.0,0.0,0.0,0.0005733180441893637,-0.0012092773104086518,-0.003341780509799719,0.9991090893745422,0.0,0.0,0.0,-17.607093811035156,2.852091073989868,5.308077812194824,3186.919189453125,0
664.0760000000009,-0.0014388543786481023,-0.007859366945922375,-7.020005432423204e-05,0.0,0.0,0.0,0.0,-2.9154894946259446e-05,0.000330237700836733,0.0017692078836262226,0.9987704753875732,0.0,0.0,0.0,-17.616024017333984,2.848904848098755,5.317318439483643,3188.53515625,0
673.9899999999998,-0.0014356496976688504,-0.007822951301932335,-9.396161476615816e-05,0.0,0.0,0.0,0.0,0.0027986105997115374,0.0006262264214456081,-0.0007562485989183187,1.0014269351959229,0.0,0.0,0.0,-17.609634399414062,2.8579583168029785,5.313640594482422,3187.378662109375,0
683.9040000000005,-0.001462214975617826,-0.00782731082290411,-7.826012733858079e-05,0.0,0.0,0.0,0.0,-0.0012717479839920998,0.0018018060363829136,0.0022463176865130663,1.002122163772583,0.0,0.0,0.0,-17.618234634399414,2.8546130657196045,5.310229778289795,3188.935546875,0
693.8099999999995,-0.0014657392166554928,-0.007814671844244003,-9.964442870113999e-05,0.0,0.0,0.0,0.0,5.253765993984416e-05,0.002315826015546918,-0.0009325188002549112,0.9998364448547363,0.0,0.0,0.0,-17.609455108642578,2.854865074157715,5.305558204650879,3187.346435546875,0
703.7199999999993,-0.00140693923458457,-0.00786577258259058,-8.176142000593245e-05,0.0,0.0,0.0,0.0,-0.0018433252116665244,-0.004883498884737492,-0.0007861964986659586,0.9997562170028687,0.0,0.0,0.0,-17.613037109375,2.8476219177246094,5.30356502532959,3187.994873046875,0
713.6370000000006,-0.0014450475573539734,-0.007863353937864304,-5.437427171273157e-05,0.0,0.0,0.0,0.0,0.0039722854271531105,-0.0004265579045750201,0.0013149721780791879,0.9981048107147217,0.0,0.0,0.0,-17.605262756347656,2.848621368408203,5.308323860168457,3186.58740234375,0
723.5480000000007,-0.0014624139294028282,-0.007874942384660244,-3.4841399610741064e-05,0.0,0.0,0.0,0.0,0.002470537554472685,-0.0023259916342794895,0.0019289115443825722,0.9984362721443176,0.0,0.0,0.0,-17.615596771240234,2.846543312072754,5.311593532562256,3188.4580078125,0
733.4580000000005,-0.0014508755411952734,-0.007822476327419281,-6.633943121414632e-05,0.0,0.0,0.0,0.0,-0.001082383911125362,0.0009842627914622426,-0.000749255414120853,0.9983856678009033,0.0,0.0,0.0,-17.611207962036133,2.8563685417175293,5.307818412780762,3187.66357421875,0
743.3690000000006,-0.0014579761773347855,-0.007846655324101448,-5.515207885764539e-05,0.0,0.0,0.0,0.0,0.0026571855414658785,0.004024882335215807,-0.001042169169522822,0.9992613792419434,0.0,0.0,0.0,-17.622644424438477,2.856281280517578,5.308395862579346,3189.733642578125,0
753.2800000000007,-0.0014550676569342613,-0.007810382172465324,-8.733896538615227e-05,0.0,0.0,0.0,0.0,0.00260977353900671,-0.002422626595944166,-0.002263376722112298,0.9992783069610596,0.0,0.0,0.0,-17.616792678833008,2.8600873947143555,5.296116828918457,3188.67431640625,0
763.1970000000001,-0.0014439717633649707,-0.007879529148340225,-9.851007052930072e-05,0.0,0.0,0.0,0.0,-0.0012662244262173772,-0.0063172983936965466,-0.0020561357960104942,0.9992880821228027,0.0,0.0,0.0,-17.620540618896484,2.843738317489624,5.311904430389404,3189.3525390625,0
773.1049999999996,-0.0014424988767132163,-0.007837604731321335,-0.00013191865582484752,0.0,0.0,0.0,0.0,0.0009063598699867725,0.0063287485390901566,-0.0004325115878600627,0.9988735914230347,0.0,0.0,0.0,-17.616003036499023,2.858543872833252,5.315801620483398,3188.531494140625,0
783.0159999999996,-0.0014039857778698206,-0.007876324467360973,-0.0001250266213901341,0.0,0.0,0.0,0.0,-0.0003373868530616164,-0.000635876611340791,-0.0016086966497823596,0.9978390336036682,0.0,0.0,0.0,-17.61728286743164,2.851757764816284,5.316810607910156,3188.762939453125,0
792.9259999999995,-0.0014141618739813566,-0.007847519591450691,-0.00014668148651253432,0.0,0.0,0.0,0.0,-0.003108744276687503,0.0021635761950165033,0.0031683507841080427,0.999489963054657,0.0,0.0,0.0,-17.609485626220703,2.8587543964385986,5.31160831451416,3187.351806640625,0
802.835000000001,-0.001370826386846602,-0.007880350574851036,-0.0001349874510196969,0.0,0.0,0.0,0.0,-0.0008472647750750184,-0.0017950355540961027,-0.00023865305411163718,0.9999390244483948,0.0,0.0,0.0,-17.618436813354492,2.8602449893951416,5.318551540374756,3188.971923828125,0
812.7450000000008,-0.0013576711062341928,-0.007830730639398098,-0.00018549476226326078,0.0,0.0,0.0,0.0,0.0025022723712027073,0.0009489156655035913,-0.0011798200430348516,1.0033355951309204,0.0,0.0,0.0,-17.601444244384766,2.85365891456604,5.31744909286499,3185.896240234375,0
822.6560000000009,-0.0013589569134637713,-0.007847185246646404,-0.00018252649169880897,0.0,0.0,0.0,0.0,0.0017722856719046831,0.006692592054605484,-0.0016304001910611987,1.0017181634902954,0.0,0.0,0.0,-17.61270523071289,2.855109453201294,5.31118106842041,3187.934814453125,0
832.5709999999999,-0.001364797935821116,-0.00782624538987875,-0.0002129327622242272,0.0,0.0,0.0,0.0,-6.945805944269523e-05,-0.0038888659328222275,0.001752425218001008,1.0003187656402588,0.0,0.0,0.0,-17.59471321105957,2.843353271484375,5.2932610511779785,3184.67822265625,0
842.4869999999992,-0.001357500092126429,-0.007875466719269753,-0.00021614471916109324,0.0,0.0,0.0,0.0,0.0006599833723157644,-0.0012908638454973698,0.000367392145562917,1.0002751350402832,0.0,0.0,0.0,-17.602874755859375,2.834568738937378,5.3118157386779785,3186.155029296875,0
852.3909999999996,-0.0013876447919756174,-0.00786726176738739,-0.0002125995233654976,0.0,0.0,0.0,0.0,-0.0028653941117227077,-0.0031084332149475813,-6.574550207005814e-05,0.9981861114501953,0.0,0.0,0.0,-17.594913482666016,2.841156482696533,5.312224864959717,3184.71435546875,0
862.3070000000007,-0.0013720619026571512,-0.007888427004218102,-0.0001972113095689565,0.0,0.0,0.0,0.0,0.00254065846092999,0.005076534580439329,-0.0007298476994037628,1.0005487203598022,0.0,0.0,0.0,-17.605905532836914,2.8462796211242676,5.318670749664307,3186.703857421875,0
872.219000000001,-0.0014063993003219366,-0.007867636159062386,-0.00018725389963947237,0.0,0.0,0.0,0.0,0.0025199262890964746,0.0010935727041214705,-0.0059080892242491245,1.0008279085159302,0.0,0.0,0.0,-17.595901489257812,2.8489296436309814,5.312747955322266,3184.89306640625,0
882.1290000000008,-0.0014544392470270395,-0.007877063006162643,-0.00018460737192071974,0.0,0.0,0.0,0.0,0.002055342309176922,-0.00032525075948797166,-0.0075563061982393265,0.9994770884513855,0.0,0.0,0.0,-17.60381507873535,2.845594644546509,5.297703266143799,3186.325439453125,0
892.0429999999997,-0.0015044339234009385,-0.007870097644627094,-0.00015914507093839347,0.0,0.0,0.0,0.0,-0.0014556897804141045,0.0006955645512789488,0.000751506770029664,0.9984395503997803,0.0,0.0,0.0,-17.602357864379883,2.8438334465026855,5.290317535400391,3186.06201171875,0
901.9570000000003,-0.0014724424108862877,-0.007891935296356678,-0.00012927645002491772,0.0,0.0,0.0,0.0,0.0017134557710960507,0.0006908898358233273,0.0022713318467140198,0.9981805086135864,0.0,0.0,0.0,-17.613630294799805,2.8442089557647705,5.307908535003662,3188.10205078125,0
911.8670000000002,-0.0015065012266859412,-0.007870953530073166,-0.00011877221550093964,0.0,0.0,0.0,0.0,-0.002331898780539632,-0.0016077408799901605,-0.0031184288673102856,0.9982618093490601,0.0,0.0,0.0,-17.608219146728516,2.843170404434204,5.293423652648926,3187.122802734375,0
921.7790000000005,-0.0014932109043002129,-0.007925702258944511,-0.00011537969839992002,0.0,0.0,0.0,0.0,-0.002008196897804737,-0.0018465756438672543,-0.0012399228289723396,0.9958834648132324,0.0,0.0,0.0,-17.613710403442383,2.8320882320404053,5.290406703948975,3188.116455078125,0
931.6880000000001,-0.0015205360250547528,-0.007883934304118156,-0.00011163161252625287,0.0,0.0,0.0,0.0,-0.0025934060104191303,0.0022907587699592113,0.0018577321898192167,1.000252366065979,0.0,0.0,0.0,-17.608192443847656,2.8472959995269775,5.288341045379639,3187.11767578125,0
941.5990000000002,-0.0015271041775122285,-0.007852134294807911,-7.447209645761177e-05,0.0,0.0,0.0,0.0,-0.0002483457210473716,0.0008634695550426841,0.0011281025363132358,1.0007002353668213,0.0,0.0,0.0,-17.615013122558594,2.8564648628234863,5.288143157958984,3188.352294921875,0
951.5120000000006,-0.001536054303869605,-0.007812979631125927,-0.00010025063966168091,0.0,0.0,0.0,0.0,-0.002347838133573532,-0.0014436192577704787,-0.00023326442169491202,0.9978338479995728,0.0,0.0,0.0,-17.597169876098633,2.856492757797241,5.27830696105957,3185.122802734375,0
961.4230000000007,-0.0014810125576332211,-0.007845981977880001,-6.946606299607083e-05,0.0,0.0,0.0,0.0,0.0012056099949404597,0.005191682372242212,-0.001885778154246509,0.9972214698791504,0.0,0.0,0.0,-17.605363845825195,2.8656625747680664,5.3004255294799805,3186.605712890625,0
971.3340000000007,-0.0015176961896941066,-0.007834418676793575,-6.623173248954117e-05,0.0,0.0,0.0,0.0,0.002373824594542384,0.0005332764121703804,-0.0019158386858180165,0.9981675744056702,0.0,0.0,0.0,-17.596742630004883,2.8638386726379395,5.287874698638916,3185.045654296875,0
981.2459999999992,-0.0014785341918468475,-0.007894844748079777,-5.948570469627157e-05,0.0,0.0,0.0,0.0,0.0019245375879108906,0.0013301779981702566,0.0013453210704028606,0.9991788864135742,0.0,0.0,0.0,-17.603904724121094,2.852989912033081,5.2963385581970215,3186.341796875,0
991.1569999999992,-0.0014835057081654668,-0.007839569821953773,-9.196336031891406e-05,0.0,0.0,0.0,0.0,0.0009723649709485471,0.004133588634431362,-0.0008137260447256267,0.9991564750671387,0.0,0.0,0.0,-17.585283279418945,2.8453593254089355,5.287126541137695,3182.971435546875,0
1001.0699999999997,-0.0014713555574417114,-0.007886129431426525,-8.848809375194833e-05,0.0,0.0,0.0,0.0,-0.0032173197250813246,-0.005504556931555271,0.0013498871121555567,1.0006060600280762,0.0,0.0,0.0,-17.5919189453125,2.8361449241638184,5.289557456970215,3184.17236328125,0
1010.9789999999994,-0.0015016295947134495,-0.007850654423236847,-9.20058591873385e-05,0.0,0.0,0.0,0.0,-0.002304155146703124,0.0008893025224097073,0.005023080389946699,0.9996602535247803,0.0,0.0,0.0,-17.58952522277832,2.8428826332092285,5.289361000061035,3183.73876953125,0
1020.8889999999992,-0.0014067572774365544,-0.007908371277153492,-6.895932892803103e-05,0.0,0.0,0.0,0.0,0.0008191901724785566,0.0032389359548687935,0.006879845634102821,0.9989000558853149,0.0,0.0,0.0,-17.596811294555664,2.8374826908111572,5.30932092666626,3185.057861328125,0
1030.804,-0.0014098683604970574,-0.007870982401072979,-0.00010220181138720363,0.0,0.0,0.0,0.0,0.0033577135764062405,0.003305261256173253,-0.0008990096976049244,0.9976797103881836,0.0,0.0,0.0,-17.588659286499023,2.842385768890381,5.302456378936768,3183.582275390625,0
1040.7080000000005,-0.0013504469534382224,-0.007963953539729118,-0.00011052058835048229,0.0,0.0,0.0,0.0,0.0025744440499693155,2.9084887501085177e-05,-0.00023824172967579216,0.9949018359184265,0.0,0.0,0.0,-17.59684181213379,2.8322246074676514,5.307587623596191,3185.0634765625,0
1050.6190000000006,-0.0013304197927936912,-0.00788778718560934,-0.00016328510537277907,0.0,0.0,0.0,0.0,-0.0013174173654988408,0.0001892681757453829,-0.0004980224184691906,0.9990944862365723,0.0,0.0,0.0,-17.586673736572266,2.841264009475708,5.297176361083984,3183.22314453125,0
1060.5319999999992,-0.001347205601632595,-0.007863032631576061,-0.0002243191411253065,0.0,0.0,0.0,0.0,0.002950062742456794,-0.0030223007779568434,-0.0016712768701836467,0.999098002910614,0.0,0.0,0.0,-17.60260581970215,2.8525965213775635,5.293979167938232,3186.106689453125,0
1070.442000000001,-0.0013759576249867678,-0.007861810736358166,-0.000245509174419567,0.0,0.0,0.0,0.0,-0.001684851013123989,-0.003356771543622017,0.0036170175299048424,0.9986617565155029,0.0,0.0,0.0,-17.584636688232422,2.8442347049713135,5.290524959564209,3182.854248046875,0
1080.3559999999998,-0.0013245109003037214,-0.007800379768013954,-0.00027106227935291827,0.0,0.0,0.0,0.0,-0.002729777479544282,-0.0017034878255799413,-0.004510195925831795,0.9997794032096863,0.0,0.0,0.0,-17.59039306640625,2.844357490539551,5.3006911277771,3183.89599609375,0
1090.2649999999994,-0.0013499980559572577,-0.007797473110258579,-0.0002939056430477649,0.0,0.0,0.0,0.0,0.0026837987825274467,0.0011527884053066373,0.0021291980519890785,0.9993450045585632,0.0,0.0,0.0,-17.574020385742188,2.8417398929595947,5.2896013259887695,3180.9326171875,0
1100.1810000000005,-0.0013350961962714791,-0.007830154150724411,-0.00030018840334378183,0.0,0.0,0.0,0.0,-0.0009489772492088377,0.002895117038860917,-0.0005588220665231347,1.0011900663375854,0.0,0.0,0.0,-17.582508087158203,2.8388373851776123,5.29443883895874,3182.468994140625,0
1110.0879999999997,-0.0013607788132503629,-0.007831180468201637,-0.0003218220081180334,0.0,0.0,0.0,0.0,-0.0010920683853328228,0.0026736550498753786,-0.002552849007770419,1.001846432685852,0.0,0.0,0.0,-17.564762115478516,2.8389649391174316,5.278260231018066,3179.257080078125,0
1120.0059999999994,-0.001394887687638402,-0.00782878790050745,-0.0002792203740682453,0.0,0.0,0.0,0.0,-0.0005276075098663568,-0.0030072536319494247,0.0035040874499827623,0.9997272491455078,0.0,0.0,0.0,-17.586254119873047,2.8450088500976562,5.272953510284424,3183.147216796875,0
1129.9169999999995,-0.0014208625070750713,-0.007828649133443832,-0.00029327647644095123,0.0,0.0,0.0,0.0,-0.0023487182334065437,0.000763884570915252,-0.00540353124961257,1.0004384517669678,0.0,0.0,0.0,-17.568309783935547,2.8400235176086426,5.268947601318359,3179.89892578125,0
1139.8220000000001,-0.0014103116700425744,-0.007849290035665035,-0.00025275765801779926,0.0,0.0,0.0,0.0,0.0007999843801371753,0.003212832845747471,0.0005958877736702561,0.9978907108306885,0.0,0.0,0.0,-17.57364845275879,2.8438315391540527,5.277276992797852,3180.865478515625,0
1149.7360000000008,-0.001420580898411572,-0.007853600196540356,-0.0002434502384858206,0.0,0.0,0.0,0.0,0.00031292252242565155,-0.0003735543286893517,0.0055131386034190655,0.9991636872291565,0.0,0.0,0.0,-17.58136749267578,2.844146966934204,5.264571189880371,3182.2626953125,0
1159.6460000000006,-0.0014738605823367834,-0.007858049124479294,-0.00021700815705116838,0.0,0.0,0.0,0.0,0.0035191539209336042,-0.001022637588903308,-0.003186248242855072,0.9994261860847473,0.0,0.0,0.0,-17.577760696411133,2.843515157699585,5.253240585327148,3181.609619140625,0
1169.5589999999993,-0.0014440282247960567,-0.007875747978687286,-0.00019848323427140713,0.0,0.0,0.0,0.0,0.0011438491055741906,0.0036225111689418554,0.0029787439852952957,1.000038504600525,0.0,0.0,0.0,-17.58555030822754,2.8395514488220215,5.259492874145508,3183.01953125,0
1179.469000000001,-0.0014668127987533808,-0.007846381515264511,-0.00019567129493225366,0.0,0.0,0.0,0.0,-0.001623074640519917,0.0007560494705103338,0.0004947450943291187,0.9980804920196533,0.0,0.0,0.0,-17.574247360229492,2.843057155609131,5.240026473999023,3180.9736328125,0
1189.3809999999994,-0.001397343585267663,-0.007869759574532509,-0.00016905434313230217,0.0,0.0,0.0,0.0,0.0008341593784280121,-0.0050318497233092785,-0.0008880895329639316,0.9990721344947815,0.0,0.0,0.0,-17.580657958984375,2.8448095321655273,5.253675937652588,3182.1337890625,0
1199.2970000000005,-0.001409811549820006,-0.007850170135498047,-0.00018170317343901843,0.0,0.0,0.0,0.0,0.0024032299406826496,-0.00025909263058565557,0.0027545352932065725,0.9999197125434875,0.0,0.0,0.0,-17.577983856201172,2.8445146083831787,5.255253791809082,3181.650146484375,0
1209.2029999999995,-0.0014332087012007833,-0.007850722409784794,-0.0001863221259554848,0.0,0.0,0.0,0.0,-0.002597997896373272,0.0025097921025007963,0.0011636714916676283,0.9991971850395203,0.0,0.0,0.0,-17.5601863861084,2.834238290786743,5.2525787353515625,3178.4287109375,0
1219.1170000000002,-0.0013608784647658467,-0.007875478826463223,-0.0001738526625558734,0.0,0.0,0.0,0.0,0.002060161903500557,-0.0005070383776910603,0.0019709914922714233,0.9993093013763428,0.0,0.0,0.0,-17.582469940185547,2.840590715408325,5.264590740203857,3182.4619140625,0
1229.0259999999998,-0.0013581245439127088,-0.007855227217078209,-0.0001422981295036152,0.0,0.0,0.0,0.0,-0.0009408139740116894,-0.0017595718381926417,-0.001162577886134386,0.9999056458473206,0.0,0.0,0.0,-17.592103958129883,2.84840989112854,5.271021842956543,3184.2060546875,0
1238.9410000000007,-0.0013476639287546277,-0.007836670614778996,-0.00018300535157322884,0.0,0.0,0.0,0.0,0.00015308659931179136,0.001989285461604595,-0.0030249985866248608,1.0019967555999756,0.0,0.0,0.0,-17.57440757751465,2.8412227630615234,5.275147438049316,3181.002685546875,0
1248.8559999999998,-0.0013308570487424731,-0.007869862951338291,-0.00017250947712454945,0.0,0.0,0.0,0.0,0.0006443597958423197,0.0021566166542470455,0.0007994495681487024,0.9991433024406433,0.0,0.0,0.0,-17.584909439086914,2.844449043273926,5.282251834869385,3182.903564453125,0
1258.7620000000006,-0.0013513552257791162,-0.007862693630158901,-0.00016828217485453933,0.0,0.0,0.0,0.0,-0.0028174403123557568,-0.003637037705630064,-0.002510271966457367,0.9985980987548828,0.0,0.0,0.0,-17.58111000061035,2.850611925125122,5.271852016448975,3182.2158203125,0
1268.6769999999997,-0.001339784823358059,-0.007884062826633453,-0.00015437496767845005,0.0,0.0,0.0,0.0,0.0030906409956514835,0.004909334238618612,-0.001127143856137991,0.999413013458252,0.0,0.0,0.0,-17.59010887145996,2.84555983543396,5.275224685668945,3183.8447265625,0
1278.5879999999997,-0.0013282110448926687,-0.007839430123567581,-0.00018529346561990678,0.0,0.0,0.0,0.0,0.0011784175876528025,0.0045189447700977325,-0.0002896403893828392,0.9974655508995056,0.0,0.0,0.0,-17.582130432128906,2.8539271354675293,5.276431083679199,3182.400390625,0
1288.5079999999998,-0.0013811916578561068,-0.00783991627395153,-0.00018256586918141693,0.0,0.0,0.0,0.0,-0.0006590830744244158,-0.0025991760194301605,-0.0008489374304190278,0.9996362328529358,0.0,0.0,0.0,-17.593477249145508,2.856156349182129,5.2606401443481445,3184.454345703125,0
1298.4060000000009,-0.0013977811904624104,-0.007825820706784725,-0.00019360457372386009,0.0,0.0,0.0,0.0,8.385447290493175e-05,-0.001148454612120986,0.0004454133450053632,1.0005372762680054,0.0,0.0,0.0,-17.591323852539062,2.859879732131958,5.248824119567871,3184.064453125,0
1308.326000000001,-0.0013475212035700679,-0.00786211434751749,-0.00018177428864873946,0.0,0.0,0.0,0.0,0.00043978606117889285,-0.0018021693686023355,0.00020466948626562953,0.9996502995491028,0.0,0.0,0.0,-17.601158142089844,2.855259418487549,5.26689338684082,3185.8447265625,0
1318.2289999999994,-0.0013773441314697266,-0.007852084003388882,-0.00017287627269979566,0.0,0.0,0.0,0.0,0.0006007922347635031,0.0020782826468348503,-0.001159881823696196,0.9984725117683411,0.0,0.0,0.0,-17.584087371826172,2.8526406288146973,5.259357452392578,3182.7548828125,0
1328.1460000000006,-0.0013689759653061628,-0.007864873856306076,-0.0001586970902280882,0.0,0.0,0.0,0.0,0.0014163816813379526,-0.006785703357309103,0.0017178538255393505,0.9987096190452576,0.0,0.0,0.0,-17.58975601196289,2.8568406105041504,5.269281387329102,3183.781005859375,0
1338.0519999999997,-0.0014148942427709699,-0.007872814312577248,-0.00013244619185570627,0.0,0.0,0.0,0.0,-0.0007069949060678482,-0.001341787283308804,0.0006647419068031013,1.0001436471939087,0.0,0.0,0.0,-17.585033416748047,2.854053020477295,5.2590131759643555,3182.92626953125,0
1347.9719999999998,-0.0013552270829677582,-0.007906820625066757,-0.00010327966447221115,0.0,0.0,0.0,0.0,-0.0017044029664248228,0.0006596830789931118,0.0028890827670693398,0.9982203245162964,0.0,0.0,0.0,-17.59546661376953,2.8535521030426025,5.285889148712158,3184.814208984375,0
1357.8799999999992,-0.001420919899828732,-0.007953890599310398,-5.7094814110314474e-05,0.0,0.0,0.0,0.0,0.0001395942090312019,-0.0038046222180128098,0.0002946967142634094,0.9988889694213867,0.0,0.0,0.0,-17.577898025512695,2.848647356033325,5.283565521240234,3181.63427734375,0
1367.7980000000007,-0.001385222771205008,-0.007994676940143108,-3.645026299636811e-05,0.0,0.0,0.0,0.0,-0.0019995977636426687,0.002955804346129298,-0.003308093873783946,0.9987832307815552,0.0,0.0,0.0,-17.584402084350586,2.8500492572784424,5.301412105560303,3182.8115234375,0
1377.6980000000003,-0.00141300936229527,-0.008013286627829075,-3.169290357618593e-05,0.0,0.0,0.0,0.0,-0.002985616447404027,-0.0006761477561667562,-0.0007532414747402072,1.0006630420684814,0.0,0.0,0.0,-17.578372955322266,2.848952293395996,5.2973713874816895,3181.720703125,0
1387.6170000000002,-0.0014631288358941674,-0.007968087680637836,2.5363649456267012e-06,0.0,0.0,0.0,0.0,-0.0023900712840259075,0.0005286009982228279,0.00031120673520490527,1.0006216764450073,0.0,0.0,0.0,-17.591842651367188,2.862989664077759,5.289432525634766,3184.158447265625,0
1397.5210000000006,-0.0014847831334918737,-0.007959811016917229,5.857705673406599e-06,0.0,0.0,0.0,0.0,0.0002267926320200786,0.004082308616489172,-0.0013332116650417447,1.0004254579544067,0.0,0.0,0.0,-17.57437515258789,2.864405870437622,5.287544250488281,3180.9970703125,0
1407.4439999999995,-0.0014308905228972435,-0.007983441464602947,3.85201201424934e-05,0.0,0.0,0.0,0.0,0.0005996643449179828,-0.000775044085457921,-0.0003079970192629844,0.9995151162147522,0.0,0.0,0.0,-17.578611373901367,2.8630409240722656,5.2950439453125,3181.763671875,0
1417.3449999999993,-0.0013914627488702536,-0.007897269912064075,-1.0541883057157975e-05,0.0,0.0,0.0,0.0,-0.00236721895635128,-0.000886156689375639,-0.001810773159377277,0.9974528551101685,0.0,0.0,0.0,-17.57400131225586,2.882176399230957,5.294495582580566,3180.92919921875,0
1427.2649999999994,-0.001430436852388084,-0.007917261682450771,-4.852647634834284e-06,0.0,0.0,0.0,0.0,3.141827983199619e-05,-0.00010265104356221855,0.003547169268131256,0.9996703863143921,0.0,0.0,0.0,-17.58289337158203,2.880174160003662,5.290365219116211,3182.53857421875,0
1437.1669999999995,-0.001379838795401156,-0.007843215949833393,-8.299410546896979e-05,0.0,0.0,0.0,0.0,-0.0015906848711892962,0.0020226866472512484,0.0013722957810387015,1.0020277500152588,0.0,0.0,0.0,-17.56597328186035,2.8776769638061523,5.288121700286865,3179.47607421875,0
1447.089,-0.001378044718876481,-0.00787693914026022,-8.332526340382174e-05,0.0,0.0,0.0,0.0,0.0015123359626159072,-0.0014744651271030307,0.0020906717982143164,1.0011012554168701,0.0,0.0,0.0,-17.570903778076172,2.875941038131714,5.28815221786499,3180.36865234375,0
1456.9899999999998,-0.0013432132545858622,-0.007788204587996006,-0.00013737977133132517,0.0,0.0,0.0,0.0,-0.0012782284757122397,0.00244234804995358,-0.00041242700535804033,1.0008625984191895,0.0,0.0,0.0,-17.564437866210938,2.8892979621887207,5.275057792663574,3179.198486328125,0
1466.9099999999999,-0.0014088267926126719,-0.007846101187169552,-0.00016991281881928444,0.0,0.0,0.0,0.0,0.0020200081635266542,0.001975421328097582,-0.0027932669036090374,1.0003751516342163,0.0,0.0,0.0,-17.571544647216797,2.8728013038635254,5.264135837554932,3180.484375,0
1476.813,-0.0013814097037538886,-0.0077531542629003525,-0.00021785584976896644,0.0,0.0,0.0,0.0,0.0014247565995901823,-0.002112327143549919,0.0012146156514063478,0.9995455741882324,0.0,0.0,0.0,-17.559341430664062,2.89713978767395,5.263230800628662,3178.275634765625,0
1486.7369999999992,-0.001383406575769186,-0.007817663252353668,-0.00023348270042333752,0.0,0.0,0.0,0.0,0.001130289863795042,0.0012459467398002744,0.0030603648629039526,1.0008031129837036,0.0,0.0,0.0,-17.571752548217773,2.887479782104492,5.272202014923096,3180.522216796875,0
1496.6360000000004,-0.001392138539813459,-0.007804057560861111,-0.00026036048075184226,0.0,0.0,0.0,0.0,-8.029359378269874e-06,-0.002462295815348625,-0.0016940414207056165,0.9990701079368591,0.0,0.0,0.0,-17.553253173828125,2.8889541625976562,5.276013374328613,3177.173828125,0
1506.558000000001,-0.0014066554140299559,-0.007828626781702042,-0.0002645073982421309,0.0,0.0,0.0,0.0,-0.0010989904403686523,0.0015929791843518615,-0.0011717330198734999,0.9973297119140625,0.0,0.0,0.0,-17.562711715698242,2.8837618827819824,5.27616024017334,3178.8857421875,0
1516.4590000000007,-0.0014252335531637073,-0.007756408303976059,-0.00030248475377447903,0.0,0.0,0.0,0.0,-0.0022326356265693903,-0.0013994122855365276,0.002090411726385355,0.9995132684707642,0.0,0.0,0.0,-17.527931213378906,2.8795435428619385,5.264174938201904,3172.59033203125,0
1526.3819999999996,-0.0013420333852991462,-0.007797651924192905,-0.0002800380461849272,0.0,0.0,0.0,0.0,-0.00024004612350836396,0.000670412031468004,0.0003144460206385702,1.0029652118682861,0.0,0.0,0.0,-17.556787490844727,2.882122278213501,5.282670497894287,3177.813720703125,0
1536.2819999999992,-0.0014497508527711034,-0.007845872081816196,-0.00023328897077590227,0.0,0.0,0.0,0.0,0.004101707600057125,-0.0006505830097012222,-0.0009169586119242013,1.0007987022399902,0.0,0.0,0.0,-17.53485107421875,2.8718278408050537,5.270781993865967,3173.8427734375,0
1546.2000000000007,-0.0013492595171555877,-0.007880703546106815,-0.00020058480731677264,0.0,0.0,0.0,0.0,-0.0020888864528387785,0.00017180641589220613,-0.001986224902793765,1.0003949403762817,0.0,0.0,0.0,-17.566438674926758,2.8770008087158203,5.291815280914307,3179.560302734375,0
1556.1049999999996,-0.0014072977937757969,-0.007867547683417797,-0.0001847623789217323,0.0,0.0,0.0,0.0,-0.0028001603204756975,-0.002198707778006792,0.0028499315958470106,0.9982125759124756,0.0,0.0,0.0,-17.53728485107422,2.8710079193115234,5.276968002319336,3174.283203125,0
1566.0290000000005,-0.0013836110010743141,-0.007925502024590969,-0.0001853716094046831,0.0,0.0,0.0,0.0,0.0013322352897375822,-0.0036689164116978645,-0.0038350922986865044,0.9988333582878113,0.0,0.0,0.0,-17.567230224609375,2.8686161041259766,5.28870964050293,3179.703369140625,0
1575.9310000000005,-0.0013933939626440406,-0.007885566912591457,-0.00019973525195382535,0.0,0.0,0.0,0.0,-0.00048152433009818196,-0.0018692712765187025,0.004944735672324896,1.0000616312026978,0.0,0.0,0.0,-17.56346893310547,2.8752756118774414,5.291557312011719,3179.02294921875,0
1585.8469999999998,-0.0014219338772818446,-0.007887249812483788,-0.00020197744015604258,0.0,0.0,0.0,0.0,-0.0015909357462078333,0.005299121607095003,0.0012535685673356056,1.001301646232605,0.0,0.0,0.0,-17.545867919921875,2.8709750175476074,5.286197662353516,3175.8369140625,0
1595.7540000000008,-0.001450846903026104,-0.007848873734474182,-0.00019215910288039595,0.0,0.0,0.0,0.0,0.0025410016532987356,-0.00047394391731359065,-0.005482631269842386,1.0001300573349,0.0,0.0,0.0,-17.534770965576172,2.877376079559326,5.2741851806640625,3173.82861328125,0
1605.6720000000005,-0.0014292318373918533,-0.007872549816966057,-0.00015207557589747012,0.0,0.0,0.0,0.0,0.00012406967289280146,0.00013356248382478952,0.0014801070792600513,1.0002580881118774,0.0,0.0,0.0,-17.5497989654541,2.8827760219573975,5.283107757568359,3176.548828125,0
1615.5750000000007,-0.0014697255101054907,-0.007863025180995464,-0.00012517391587607563,0.0,0.0,0.0,0.0,-0.0024720935616642237,0.00048274180153384805,0.0020995952654629946,1.0005759000778198,0.0,0.0,0.0,-17.54875373840332,2.8846795558929443,5.272162914276123,3176.359130859375,0
1625.4959999999992,-0.0014560564886778593,-0.007909227162599564,-0.00011287430243100971,0.0,0.0,0.0,0.0,-0.0008766346727497876,-0.0013559885555878282,0.0014063840499147773,0.99978107213974,0.0,0.0,0.0,-17.555084228515625,2.880660057067871,5.282209873199463,3177.50537109375,0
1635.3979999999992,-0.0014801606303080916,-0.007877861149609089,-0.00010572097380645573,0.0,0.0,0.0,0.0,0.0022412450052797794,0.0009617795585654676,0.003018341725692153,0.9977783560752869,0.0,0.0,0.0,-17.552583694458008,2.8916587829589844,5.2743706703186035,3177.052490234375,0
1645.3179999999993,-0.0014514107024297118,-0.007896898314356804,-7.078198541421443e-05,0.0,0.0,0.0,0.0,0.00207307911477983,-0.0028406509663909674,-0.0010481905192136765,0.999459981918335,0.0,0.0,0.0,-17.56487464904785,2.891608476638794,5.294968605041504,3179.277099609375,0
1655.2209999999995,-0.0014693569391965866,-0.007863524369895458,-6.757040682714432e-05,0.0,0.0,0.0,0.0,0.0010645308066159487,0.0026781572960317135,-0.006115224678069353,1.0006061792373657,0.0,0.0,0.0,-17.561086654663086,2.8943560123443604,5.2862653732299805,3178.591552734375,0
1665.1440000000002,-0.001433167140930891,-0.007895356975495815,-3.819089033640921e-05,0.0,0.0,0.0,0.0,0.0011146541219204664,0.00309830904006958,0.0004158347728662193,0.9992841482162476,0.0,0.0,0.0,-17.5728816986084,2.8930246829986572,5.294815540313721,3180.7265625,0
1675.0439999999999,-0.0014239861629903316,-0.007856194861233234,-6.931523239472881e-05,0.0,0.0,0.0,0.0,-0.0019774469546973705,-0.0008867222932167351,-0.0022419425658881664,0.9989442825317383,0.0,0.0,0.0,-17.568090438842773,2.8966050148010254,5.286324977874756,3179.859375,0
1684.9570000000003,-0.0013881130144000053,-0.007875380106270313,-3.855234172078781e-05,0.0,0.0,0.0,0.0,-0.0001232227514265105,0.003607924561947584,-0.0001768674119375646,0.9976780414581299,0.0,0.0,0.0,-17.576480865478516,2.897843599319458,5.292322158813477,3181.378173828125,0
1694.8670000000002,-0.0013946843100711703,-0.00783609040081501,-5.008624793845229e-05,0.0,0.0,0.0,0.0,0.0027176516596227884,-0.00033971210359595716,0.0033383734989911318,1.0005549192428589,0.0,0.0,0.0,-17.565935134887695,2.902954578399658,5.290665149688721,3179.468994140625,0
1704.7880000000005,-0.0013667077291756868,-0.007884605787694454,-3.624134114943445e-05,0.0,0.0,0.0,0.0,0.0019497063476592302,-0.0012579633621498942,-0.00018784869462251663,0.9996811747550964,0.0,0.0,0.0,-17.577802658081055,2.899362325668335,5.2968831062316895,3181.617431640625,0
1714.6900000000005,-0.0013555301120504737,-0.007811011280864477,-6.217431655386463e-05,0.0,0.0,0.0,0.0,-0.0012016399996355176,0.005809591617435217,-0.000437406386481598,1.0009987354278564,0.0,0.0,0.0,-17.569583892822266,2.909740447998047,5.292869567871094,3180.1298828125,0
1724.6020000000008,-0.0013874344294890761,-0.007890477776527405,-8.378810161957517e-05,0.0,0.0,0.0,0.0,0.0013396271970123053,-0.0025346032343804836,0.0012392328353598714,1.0012102127075195,0.0,0.0,0.0,-17.580766677856445,2.89261531829834,5.282992362976074,3182.15380859375,0
1734.5130000000008,-0.0014038747176527977,-0.007857577875256538,-9.145365038421005e-05,0.0,0.0,0.0,0.0,0.0016465779626742005,-0.002599636558443308,0.002698461292311549,0.9998089075088501,0.0,0.0,0.0,-17.569639205932617,2.8929474353790283,5.266684055328369,3180.1396484375,0
1744.4259999999995,-0.001346475793980062,-0.007920107804238796,-7.819484744686633e-05,0.0,0.0,0.0,0.0,-0.000459438597317785,0.0030586502980440855,-0.0020297907758504152,0.999329149723053,0.0,0.0,0.0,-17.578475952148438,2.887061357498169,5.285388469696045,3181.739013671875,0
1754.3379999999997,-0.0013853319687768817,-0.007902918383479118,-5.692764898412861e-05,0.0,0.0,0.0,0.0,-0.00025415094569325447,0.0018065295880660415,-0.0009062188910320401,0.9991650581359863,0.0,0.0,0.0,-17.57314682006836,2.8880772590637207,5.2753095626831055,3180.774658203125,0
1764.2479999999996,-0.0013577492209151387,-0.007938934490084648,-3.7909947423031554e-05,0.0,0.0,0.0,0.0,0.0006494937115348876,-0.0004993762704543769,-0.00048488430911675096,0.9997223615646362,0.0,0.0,0.0,-17.585535049438477,2.8870527744293213,5.282617568969727,3183.016845703125,0
1774.1589999999997,-0.0013782596215605736,-0.007908751256763935,-3.229725916753523e-05,0.0,0.0,0.0,0.0,0.004895852878689766,0.0007137171342037618,0.0014565973542630672,0.9999263286590576,0.0,0.0,0.0,-17.580535888671875,2.88564133644104,5.272655963897705,3182.11181640625,0
1784.071,-0.0013617530930787325,-0.007943445816636086,-1.5946643543429673e-05,0.0,0.0,0.0,0.0,-0.0026733591221272945,0.000356826902134344,0.004474771674722433,0.9982495307922363,0.0,0.0,0.0,-17.59033966064453,2.8848299980163574,5.281126499176025,3183.88623046875,0
1793.982,-0.0013551997253671288,-0.007889636792242527,-3.572061177692376e-05,0.0,0.0,0.0,0.0,0.0010341671295464039,0.0012312033213675022,0.0013198822271078825,0.9990806579589844,0.0,0.0,0.0,-17.57756233215332,2.8867905139923096,5.269762992858887,3181.573486328125,0
1803.9030000000002,-0.0013633117778226733,-0.007914341054856777,-2.8232256227056496e-05,0.0,0.0,0.0,0.0,-0.0012386440066620708,0.003300143638625741,0.0008721654885448515,0.9998551607131958,0.0,0.0,0.0,-17.58330726623535,2.885511875152588,5.274898529052734,3182.613525390625,0
1813.8050000000003,-0.0013655343791469932,-0.0078669348731637,-4.376573997433297e-05,0.0,0.0,0.0,0.0,-0.0007497207261621952,0.0017301582265645266,-0.0006517577567137778,0.9990454912185669,0.0,0.0,0.0,-17.573301315307617,2.8932039737701416,5.2740936279296875,3180.802490234375,0
1823.7180000000008,-0.0013493448495864868,-0.007916509173810482,-4.1559786041034386e-05,0.0,0.0,0.0,0.0,-0.0014566591707989573,-0.0007623184355907142,0.0006935160490684211,0.9991188645362854,0.0,0.0,0.0,-17.58466339111328,2.887601375579834,5.272266864776611,3182.859130859375,0
1833.6290000000008,-0.0013089763233438134,-0.007820634171366692,-0.00010021644993685186,0.0,0.0,0.0,0.0,-0.002011257689446211,-0.004102958831936121,0.001688452553935349,0.9979735612869263,0.0,0.0,0.0,-17.575714111328125,2.898702621459961,5.275396347045898,3181.2392578125,0
1843.5400000000009,-0.0013556359335780144,-0.00782212894409895,-0.00010578182263998315,0.0,0.0,0.0,0.0,-0.0029969580937176943,0.0006435989052988589,-0.0037371725775301456,0.9986752271652222,0.0,0.0,0.0,-17.584802627563477,2.902883768081665,5.2751688957214355,3182.88427734375,0
1853.451000000001,-0.001431178068742156,-0.007823715917766094,-9.005928586702794e-05,0.0,0.0,0.0,0.0,0.005404473282396793,0.0066790650598704815,-0.0026743581984192133,0.9982613325119019,0.0,0.0,0.0,-17.56342315673828,2.8970861434936523,5.261327743530273,3179.0146484375,0
1863.3629999999994,-0.0013483020011335611,-0.007897132076323032,-8.493437053402886e-05,0.0,0.0,0.0,0.0,0.002180843846872449,-0.00037019167211838067,0.003356217872351408,0.9997349381446838,0.0,0.0,0.0,-17.587966918945312,2.8936381340026855,5.279170036315918,3183.45703125,0
1873.2749999999996,-0.0014196349075064063,-0.007892873138189316,-6.748493615305051e-05,0.0,0.0,0.0,0.0,-0.004927420988678932,-0.00036035507218912244,0.0010598887456580997,1.0014841556549072,0.0,0.0,0.0,-17.56793785095215,2.875185251235962,5.257655620574951,3179.831787109375,0
1883.1859999999997,-0.001360661699436605,-0.00792137160897255,-4.768331200466491e-05,0.0,0.0,0.0,0.0,-0.000365014944691211,0.0055726380087435246,0.001368847326375544,0.9992356300354004,0.0,0.0,0.0,-17.597932815551758,2.8788864612579346,5.269637584686279,3185.2607421875,0
1893.098,-0.001426082686521113,-0.007886047475039959,-1.6458023310406134e-05,0.0,0.0,0.0,0.0,0.0008550168131478131,-0.002841557376086712,0.0011190531076863408,0.9995444416999817,0.0,0.0,0.0,-17.562952041625977,2.888737440109253,5.267270565032959,3178.92919921875,0
1903.009,-0.0013708622427657247,-0.007932026870548725,-7.172982805059291e-06,0.0,0.0,0.0,0.0,-0.0025287067983299494,-0.004837762098759413,0.0016881264746189117,0.9984367489814758,0.0,0.0,0.0,-17.59113311767578,2.8889849185943604,5.279364585876465,3184.0302734375,0
1912.9339999999993,-0.001420453772880137,-0.00794956274330616,2.011780088650994e-05,0.0,0.0,0.0,0.0,0.0009198452462442219,0.0030347781721502542,-0.0017418315401300788,0.999171793460846,0.0,0.0,0.0,-17.57297706604004,2.886124849319458,5.271714210510254,3180.74365234375,0
1922.8359999999993,-0.0013764003524556756,-0.007971265353262424,4.9654317990643904e-05,0.0,0.0,0.0,0.0,-0.0019668410532176495,-0.004194941371679306,-0.0033724678214639425,0.9986996650695801,0.0,0.0,0.0,-17.588422775268555,2.8881423473358154,5.290136337280273,3183.53955078125,0
1932.7469999999994,-0.001405644230544567,-0.007978713139891624,5.878478259546682e-05,0.0,0.0,0.0,0.0,-0.003117803717032075,-0.0006235091132111847,-0.0016399651067331433,1.0001599788665771,0.0,0.0,0.0,-17.570968627929688,2.882716178894043,5.284822463989258,3180.38037109375,0
1942.6579999999994,-0.00140810024458915,-0.0079856151714921,7.837951125111431e-05,0.0,0.0,0.0,0.0,-0.0039007149171084166,-0.001536234631203115,-0.0023127857130020857,0.999222457408905,0.0,0.0,0.0,-17.57697105407715,2.8843884468078613,5.293615818023682,3181.466796875,0
1952.567000000001,-0.0014131643110886216,-0.007977570407092571,5.4673568229191005e-05,0.0,0.0,0.0,0.0,-0.001275748130865395,-0.0030853664502501488,0.00497873080894351,0.9987192153930664,0.0,0.0,0.0,-17.574003219604492,2.8946614265441895,5.286468029022217,3180.929443359375,0
1962.4789999999994,-0.0014712929259985685,-0.007943591102957726,7.747893687337637e-05,0.0,0.0,0.0,0.0,0.0020973775535821915,-0.0005458442610688508,0.0008043654961511493,0.9975382089614868,0.0,0.0,0.0,-17.58453369140625,2.9086341857910156,5.284113883972168,3182.83544921875,0
1972.3899999999994,-0.001385364099405706,-0.007786951959133148,-3.1962314096745104e-05,0.0,0.0,0.0,0.0,-0.0005145551403984427,0.0012188523542135954,0.0024200051557272673,0.9992668628692627,0.0,0.0,0.0,-17.57744789123535,2.9393692016601562,5.302619934082031,3181.552978515625,0
1982.3070000000007,-0.001420090440660715,-0.007805683184415102,-3.901719901477918e-05,0.0,0.0,0.0,0.0,-0.002084638923406601,-0.002935722703114152,0.003560242708772421,1.0002312660217285,0.0,0.0,0.0,-17.58804702758789,2.9364700317382812,5.299536228179932,3183.4716796875,0
1992.214,-0.001387819997034967,-0.0077305263839662075,-0.00011348751286277547,0.0,0.0,0.0,0.0,-0.0031967847608029842,0.001828167587518692,0.0010869551915675402,1.0025278329849243,0.0,0.0,0.0,-17.579511642456055,2.945711374282837,5.296170234680176,3181.9267578125,0
2002.125,-0.0013540921499952674,-0.007795592769980431,-0.00013064956874586642,0.0,0.0,0.0,0.0,-0.0019054048461839557,-0.001026276615448296,-0.0001360676105832681,0.9994989633560181,0.0,0.0,0.0,-17.58597183227539,2.943354606628418,5.305877208709717,3183.095947265625,0
2012.0409999999993,-0.001310405321419239,-0.00770790409296751,-0.00021626788657158613,0.0,0.0,0.0,0.0,-0.004463076125830412,-0.002547634532675147,0.000647473381832242,0.998609721660614,0.0,0.0,0.0,-17.582265853881836,2.9667887687683105,5.3058762550354,3182.42529296875,0
2021.9480000000003,-0.0013593314215540886,-0.007741032168269157,-0.00024532288080081344,0.0,0.0,0.0,0.0,-0.0013133649481460452,-0.00047436554450541735,0.003993702586740255,0.998780369758606,0.0,0.0,0.0,-17.59309196472168,2.9666213989257812,5.313840389251709,3184.384765625,0
2031.8590000000004,-0.0013730787904933095,-0.007715190295130014,-0.0002773542364593595,0.0,0.0,0.0,0.0,0.0005582819576375186,-0.0005091412458568811,-0.0017611572984606028,0.9999104142189026,0.0,0.0,0.0,-17.586999893188477,2.96730899810791,5.312051773071289,3183.281982421875,0
2041.7710000000006,-0.001386816380545497,-0.007778000086545944,-0.00031626501004211605,0.0,0.0,0.0,0.0,0.0023909977171570063,-0.001854808535426855,-0.004204276483505964,1.001908540725708,0.0,0.0,0.0,-17.591569900512695,2.9527530670166016,5.315367698669434,3184.10888671875,0
2051.6890000000003,-0.0014423405518755317,-0.007801158353686333,-0.00031379357096739113,0.0,0.0,0.0,0.0,0.00017905088316183537,0.0014690168900415301,0.0023080825340002775,1.0009315013885498,0.0,0.0,0.0,-17.589170455932617,2.9522807598114014,5.309994220733643,3183.6748046875,0
2061.5949999999993,-0.0014170053182169795,-0.0078046610578894615,-0.000304321147268638,0.0,0.0,0.0,0.0,-0.0004728343046735972,0.0029454047325998545,-0.003075574990361929,0.9992005825042725,0.0,0.0,0.0,-17.598224639892578,2.948801040649414,5.326596260070801,3185.313720703125,0
2071.51,-0.0014745336957275867,-0.00781142245978117,-0.00028842492611147463,0.0,0.0,0.0,0.0,-0.0007251827046275139,-9.138217865256593e-05,0.0001543341059004888,0.9995213150978088,0.0,0.0,0.0,-17.579526901245117,2.939162254333496,5.318331718444824,3181.92919921875,0
2081.4179999999997,-0.0013638315722346306,-0.007843195460736752,-0.0002592087839730084,0.0,0.0,0.0,0.0,-0.0010830152314156294,0.0009622145444154739,-0.002467880956828594,0.9993627071380615,0.0,0.0,0.0,-17.590694427490234,2.941922426223755,5.338718891143799,3183.95068359375,0
2091.331,-0.001448746188543737,-0.007864595390856266,-0.00019760752911679447,0.0,0.0,0.0,0.0,0.0008940438856370747,0.0001320236042374745,0.004002962727099657,0.9984480738639832,0.0,0.0,0.0,-17.57180404663086,2.936691999435425,5.330478668212891,3180.531494140625,0
2101.24,-0.001478213700465858,-0.007861565798521042,-0.00020279042655602098,0.0,0.0,0.0,0.0,0.0036346926353871822,0.003336774418130517,-0.0008405486587435007,0.9979436993598938,0.0,0.0,0.0,-17.554285049438477,2.928513765335083,5.323414325714111,3177.360595703125,0
2111.152,-0.0015366410370916128,-0.007837641052901745,-0.00016444592620246112,0.0,0.0,0.0,0.0,0.002171557629480958,-0.0033263610675930977,0.001467823050916195,0.9971936345100403,0.0,0.0,0.0,-17.542722702026367,2.9264321327209473,5.305112838745117,3175.267822265625,0
2121.063,-0.0014084287686273456,-0.007903159596025944,-0.00011102395365014672,0.0,0.0,0.0,0.0,-0.00046097071026451886,-0.0012645453680306673,-0.0009681618539616466,0.9993308186531067,0.0,0.0,0.0,-17.54782485961914,2.926218032836914,5.342736721038818,3176.191162109375,0
2130.9799999999996,-0.0014181225560605526,-0.007854831404983997,-0.00011962847202084959,0.0,0.0,0.0,0.0,-0.0011417543282732368,-0.0033663001377135515,0.001010838896036148,1.0013965368270874,0.0,0.0,0.0,-17.539445877075195,2.933687925338745,5.3448991775512695,3174.674560546875,0
2140.8950000000004,-0.0013872653944417834,-0.007881557568907738,-0.00010261055285809562,0.0,0.0,0.0,0.0,-0.0014056586660444736,-0.0014587529003620148,-0.002539271954447031,0.9991838932037354,0.0,0.0,0.0,-17.546133041381836,2.929131031036377,5.365344524383545,3175.88525390625,0
