timestamp,stateEstimate.x,stateEstimate.y,stateEstimate.z,controller.cmd_thrust,controller.cmd_roll,controller.cmd_pitch,controller.cmd_yaw,controller.r_roll,controller.r_pitch,controller.r_yaw,controller.accelz,controller.actuatorThrust,controller.roll,controller.pitch,controller.yaw,controller.rollRate,controller.pitchRate,controller.yawRate,controller.ctr_yaw
0.0,0.014355744235217571,0.014172900468111038,0.0004339494917076081,0.0,0.0,0.0,0.0,0.0019913939759135246,0.00299462815746665,-0.002254572929814458,0.9988386034965515,0.0,0.0,0.0,0.7454507946968079,1.362299919128418,5.807741641998291,-134.92807006835938,0
9.906000000000859,0.014450766146183014,0.01417728140950203,0.0004784788761753589,0.0,0.0,0.0,0.0,0.001967546995729208,0.0009206277318298817,-0.000503597198985517,0.9996777176856995,0.0,0.0,0.0,0.7501084208488464,1.3630648851394653,5.832727909088135,-135.7711181640625,0
19.835000000000946,0.014398695901036263,0.01417415402829647,0.0004841754853259772,0.0,0.0,0.0,0.0,-0.0018223575316369534,-0.0011434266343712807,-0.004921077284961939,0.998388409614563,0.0,0.0,0.0,0.749792754650116,1.3596019744873047,5.825774669647217,-135.7139892578125,0
29.72899999999936,0.0144560681656003,0.014164619147777557,0.00031839049188420177,0.0,0.0,0.0,0.0,-0.0010676573729142547,-0.0033185358624905348,0.0021456265822052956,1.00092351436615,0.0,0.0,0.0,0.7479115724563599,1.3610435724258423,5.82049560546875,-135.3734893798828,0
39.647000000000844,0.014403441920876503,0.014159099198877811,0.00031536968890577555,0.0,0.0,0.0,0.0,-0.001687453594058752,0.004750224761664867,-0.0012957758735865355,0.9984216690063477,0.0,0.0,0.0,0.7474184036254883,1.3581396341323853,5.820847988128662,-135.2842254638672,0
49.55400000000009,0.014474243856966496,0.014114424586296082,0.0002799570211209357,0.0,0.0,0.0,0.0,-0.00017050174938049167,-0.0008115468663163483,0.0009055107366293669,0.9984819889068604,0.0,0.0,0.0,0.7450633645057678,1.3525525331497192,5.80023193359375,-134.8579559326172,0
59.472999999999956,0.014420785941183567,0.01410761009901762,0.0002738189941737801,0.0,0.0,0.0,0.0,0.002926959889009595,-0.002062255283817649,-0.002891886280849576,0.9983881115913391,0.0,0.0,0.0,0.7450577616691589,1.3499428033828735,5.7980523109436035,-134.85694885253906,0
69.375,0.014440718106925488,0.014140188694000244,0.0002828761062119156,0.0,0.0,0.0,0.0,0.0007282630540430546,-0.001818596269004047,-0.00266926153562963,1.000503659248352,0.0,0.0,0.0,0.7350876927375793,1.3416744470596313,5.8004150390625,-133.0523223876953,0
79.30099999999948,0.014384820125997066,0.014132549054920673,0.00027620350010693073,0.0,0.0,0.0,0.0,-0.0021734421607106924,0.0017461564857512712,-0.0004782739852089435,0.9981366395950317,0.0,0.0,0.0,0.734276533126831,1.3382638692855835,5.798122882843018,-132.90550231933594,0
89.19900000000052,0.014448344707489014,0.014182333834469318,0.00021918844140600413,0.0,0.0,0.0,0.0,0.002614200348034501,0.0014231277164071798,-0.0025139946956187487,0.9998824596405029,0.0,0.0,0.0,0.7414852380752563,1.3447871208190918,5.796064853668213,-134.21031188964844,0
99.1180000000004,0.014391375705599785,0.014173982664942741,0.00020810104615520686,0.0,0.0,0.0,0.0,0.0005930979968979955,-0.005605741403996944,0.002364075742661953,0.9988278150558472,0.0,0.0,0.0,0.7403745055198669,1.3364665508270264,5.786477565765381,-134.00924682617188,0
109.02300000000105,0.01449968945235014,0.014164682477712631,0.0002540541172493249,0.0,0.0,0.0,0.0,7.372418622253463e-05,0.003509758971631527,-0.0025043783243745565,0.9970890879631042,0.0,0.0,0.0,0.750106692314148,1.3370556831359863,5.806863784790039,-135.7707977294922,0
118.94300000000112,0.014440723694860935,0.014152861200273037,0.0002453793422318995,0.0,0.0,0.0,0.0,0.0012652869336307049,-0.002714146627113223,-0.00016639838577248156,0.9975119233131409,0.0,0.0,0.0,0.7485722303390503,1.3360203504562378,5.794827461242676,-135.49307250976562,0
128.84599999999955,0.014502124860882759,0.014063715934753418,0.000303198816254735,0.0,0.0,0.0,0.0,-0.0008232106920331717,-0.0023091216571629047,-0.0012644223170354962,0.9992085099220276,0.0,0.0,0.0,0.7502859234809875,1.3236514329910278,5.806927680969238,-135.80323791503906,0
138.76599999999962,0.014442910440266132,0.014047839678823948,0.0002966689062304795,0.0,0.0,0.0,0.0,-0.0011441167443990707,-0.0020381121430546045,-0.002533207880333066,1.0009294748306274,0.0,0.0,0.0,0.7486544847488403,1.3228247165679932,5.806115627288818,-135.50794982910156,0
148.67699999999968,0.014507929794490337,0.01412409171462059,0.0003199933562427759,0.0,0.0,0.0,0.0,0.0015527037903666496,-0.0046040392480790615,0.000565315131098032,0.9999115467071533,0.0,0.0,0.0,0.7459230422973633,1.331607460975647,5.817248821258545,-135.01356506347656,0
158.59300000000076,0.014449146576225758,0.014107526279985905,0.00031743745785206556,0.0,0.0,0.0,0.0,-0.0015506502240896225,0.0045893844217062,-0.0014828424900770187,0.9987062215805054,0.0,0.0,0.0,0.7450171709060669,1.3224470615386963,5.816939830780029,-134.849609375,0
168.5030000000006,0.014530475251376629,0.01417593564838171,0.00028284350992180407,0.0,0.0,0.0,0.0,0.0023944645654410124,-0.003851678455248475,0.003544742241501808,0.9987514019012451,0.0,0.0,0.0,0.7460507154464722,1.3369340896606445,5.814568042755127,-135.0366668701172,0
178.41400000000067,0.014471525326371193,0.01415945403277874,0.0002766948309727013,0.0,0.0,0.0,0.0,-0.003322537988424301,-0.0021612176205962896,-0.0035478638019412756,1.0000702142715454,0.0,0.0,0.0,0.7458040118217468,1.3304462432861328,5.815179347991943,-134.99200439453125,0
188.3189999999995,0.014513134025037289,0.014170139096677303,0.0002986190374940634,0.0,0.0,0.0,0.0,-0.0027639376930892467,-0.0027578347362577915,-0.00011335469753248617,1.0013724565505981,0.0,0.0,0.0,0.7513716220855713,1.340247392654419,5.827529430389404,-135.99974060058594,0
198.23999999999978,0.014455310069024563,0.014152390882372856,0.0002954638039227575,0.0,0.0,0.0,0.0,0.0005034852074459195,0.0038391880225390196,-5.755683014285751e-05,0.9987779259681702,0.0,0.0,0.0,0.7501626014709473,1.3404351472854614,5.829083442687988,-135.78091430664062,0
208.13999999999942,0.014503994956612587,0.014168234542012215,0.00032020584330894053,0.0,0.0,0.0,0.0,0.00170630041975528,-0.0003406706964597106,-0.0007815913413651288,0.9997318387031555,0.0,0.0,0.0,0.7497179508209229,1.3401724100112915,5.834718704223633,-135.70042419433594,0
218.0609999999997,0.01444665715098381,0.014148779213428497,0.0003193983866367489,0.0,0.0,0.0,0.0,0.002954212250187993,-5.643487020279281e-05,-0.00039978825952857733,0.9999713897705078,0.0,0.0,0.0,0.7488236427307129,1.3347716331481934,5.832396507263184,-135.53855895996094,0
227.96399999999994,0.014449122361838818,0.014158355072140694,0.0003170458658132702,0.0,0.0,0.0,0.0,-0.004785004071891308,-0.0035661954898387194,0.0014284612843766809,0.9997974038124084,0.0,0.0,0.0,0.7472960352897644,1.3306121826171875,5.82600736618042,-135.26206970214844,0
237.88800000000083,0.014389591291546822,0.014139324426651001,0.00031654906342737377,0.0,0.0,0.0,0.0,0.0017365124076604843,0.003427210496738553,-0.006098856218159199,1.0015451908111572,0.0,0.0,0.0,0.7469257116317749,1.3401110172271729,5.827402114868164,-135.19503784179688,0
247.79199999999946,0.014411735348403454,0.014098778367042542,0.00028620954253710806,0.0,0.0,0.0,0.0,-0.0005500831757672131,-0.0039032194763422012,-0.0006716076168231666,0.9988183379173279,0.0,0.0,0.0,0.7381865382194519,1.3271106481552124,5.819265365600586,-133.6132354736328,0
257.7049999999999,0.014348860830068588,0.014079932123422623,0.0002848953881766647,0.0,0.0,0.0,0.0,0.0011187742929905653,-0.002665159525349736,-0.0009205323876813054,0.9988433718681335,0.0,0.0,0.0,0.7379510998725891,1.3309253454208374,5.818883419036865,-133.57061767578125,0
267.6129999999994,0.014489453285932541,0.014140102081000805,0.00030758834327571094,0.0,0.0,0.0,0.0,-0.002535303356125951,-0.0005451422766782343,0.0010574068874120712,0.9972879886627197,0.0,0.0,0.0,0.7380014657974243,1.3304169178009033,5.815200328826904,-133.57972717285156,0
277.53100000000086,0.014427550137043,0.014122312888503075,0.0003064405464101583,0.0,0.0,0.0,0.0,-0.0030960615258663893,0.002714869799092412,0.0005434929626062512,0.9997035264968872,0.0,0.0,0.0,0.7378994226455688,1.3347340822219849,5.808714389801025,-133.561279296875,0
287.4349999999995,0.014499092474579811,0.014156671240925789,0.00032995600486174226,0.0,0.0,0.0,0.0,0.0036972982343286276,-0.0002867155708372593,0.001388011733070016,0.999356210231781,0.0,0.0,0.0,0.7459808588027954,1.3501949310302734,5.813185214996338,-135.02403259277344,0
297.3580000000002,0.014436725527048111,0.014137259684503078,0.0003293805639259517,0.0,0.0,0.0,0.0,-0.0038577939849346876,-0.00269540143199265,0.0015682000666856766,0.998187243938446,0.0,0.0,0.0,0.7448312640190125,1.3411788940429688,5.804747581481934,-134.81594848632812,0
307.259,0.014443947933614254,0.014134381897747517,0.0003302125842310488,0.0,0.0,0.0,0.0,0.003047257661819458,-0.003617451526224613,-0.003713837591931224,1.001175880432129,0.0,0.0,0.0,0.7418736815452576,1.348209023475647,5.817837238311768,-134.28060913085938,0
317.1900000000005,0.014380875043570995,0.01411039475351572,0.0003291030297987163,0.0,0.0,0.0,0.0,0.00017133528308477253,0.002013496356084943,-0.001360400696285069,0.999617874622345,0.0,0.0,0.0,0.7412245273590088,1.3392016887664795,5.825198173522949,-134.16310119628906,0
327.08300000000054,0.014463229104876518,0.0140942158177495,0.00030306732514873147,0.0,0.0,0.0,0.0,-0.00353921833448112,-0.00998053140938282,0.002136075170710683,0.9997962117195129,0.0,0.0,0.0,0.7410473823547363,1.3408610820770264,5.812324523925781,-134.1310577392578,0
337.0069999999996,0.01440285611897707,0.014066789299249649,0.00030072827939875424,0.0,0.0,0.0,0.0,-0.0005618323921225965,0.0012257988564670086,-0.003086596494540572,0.9963630437850952,0.0,0.0,0.0,0.7408915758132935,1.3446639776229858,5.823012351989746,-134.10284423828125,0
346.90999999999985,0.014468018896877766,0.014055934734642506,0.00037411460652947426,0.0,0.0,0.0,0.0,-0.000494376930873841,0.0016179854283109307,0.0017886552959680557,0.9967989325523376,0.0,0.0,0.0,0.7482963800430298,1.3591256141662598,5.8297624588012695,-135.44313049316406,0
356.82600000000093,0.014408442191779613,0.014025270007550716,0.0003739501698873937,0.0,0.0,0.0,0.0,-0.0008191856904886663,-0.0035020022187381983,-0.0014222715981304646,1.0003457069396973,0.0,0.0,0.0,0.7480936646461487,1.3577829599380493,5.820656776428223,-135.40643310546875,0
366.72899999999936,0.014476138167083263,0.014055375009775162,0.00041334176785312593,0.0,0.0,0.0,0.0,0.002107210224494338,0.003303416771814227,0.0007019874174147844,0.9998171329498291,0.0,0.0,0.0,0.7462078928947449,1.3610453605651855,5.825869560241699,-135.06512451171875,0
376.65099999999984,0.01441920641809702,0.014026456512510777,0.00041572641930542886,0.0,0.0,0.0,0.0,0.0014346017269417644,-0.001362498034723103,0.0006637161714024842,0.997058629989624,0.0,0.0,0.0,0.7454971075057983,1.3580199480056763,5.814655780792236,-134.93646240234375,0
386.5529999999999,0.014487984590232372,0.014076711609959602,0.00037238202639855444,0.0,0.0,0.0,0.0,1.2956400496477727e-05,-0.0016705173766240478,0.0029473472386598587,0.996532142162323,0.0,0.0,0.0,0.7445275783538818,1.355372667312622,5.807311534881592,-134.76097106933594,0
396.47400000000016,0.014430551789700985,0.014050079509615898,0.00036715518217533827,0.0,0.0,0.0,0.0,0.0023323926143348217,-0.0005524341831915081,-0.0006343467975966632,0.9993594288825989,0.0,0.0,0.0,0.7443196773529053,1.3570432662963867,5.804835796356201,-134.7233428955078,0
406.3770000000004,0.014498630538582802,0.014111132360994816,0.00037004982004873455,0.0,0.0,0.0,0.0,-0.0006162890931591392,-0.0005214187549427152,-0.0015932264504954219,1.0009056329727173,0.0,0.0,0.0,0.7418631911277771,1.3665456771850586,5.821675777435303,-134.27870178222656,0
416.3029999999999,0.014441205188632011,0.014085314236581326,0.0003641219809651375,0.0,0.0,0.0,0.0,-0.0008890203898772597,-0.0013506878167390823,0.003434458514675498,1.0030932426452637,0.0,0.0,0.0,0.7402805089950562,1.3691505193710327,5.8168230056762695,-133.9922332763672,0
426.2000000000007,0.014503619633615017,0.01412881538271904,0.0002778474008664489,0.0,0.0,0.0,0.0,0.0008837634231895208,-0.0012434304226189852,0.0021442093420773745,0.9987967014312744,0.0,0.0,0.0,0.7408937811851501,1.3754643201828003,5.812909126281738,-134.10324096679688,0
436.125,0.01444654818624258,0.014104360714554787,0.00026849820278584957,0.0,0.0,0.0,0.0,0.002580242697149515,0.003678792156279087,-0.00028516526799649,0.9978008270263672,0.0,0.0,0.0,0.7407397627830505,1.3756779432296753,5.8051557540893555,-134.07537841796875,0
446.02800000000025,0.014448089525103569,0.014147753827273846,0.00025496125454083085,0.0,0.0,0.0,0.0,0.0010441761696711183,-0.002249558921903372,0.00010427670349599794,1.0002342462539673,0.0,0.0,0.0,0.739938497543335,1.3693296909332275,5.7857866287231445,-133.9303436279297,0
455.9490000000005,0.014408868737518787,0.014115918427705765,0.00021370366448536515,0.0,0.0,0.0,0.0,0.0023053998593240976,0.0031171063892543316,0.0025440924800932407,0.9992899894714355,0.0,0.0,0.0,0.7389726638793945,1.3690283298492432,5.7845916748046875,-133.75552368164062,0
465.84799999999996,0.01450041402131319,0.014172381721436977,0.0002864930429495871,0.0,0.0,0.0,0.0,-0.00213093520142138,-0.0014194302493706346,0.0020919356029480696,0.9988638758659363,0.0,0.0,0.0,0.7459014654159546,1.3798656463623047,5.796823501586914,-135.0096435546875,0
475.76800000000003,0.014458171091973782,0.014103666879236698,0.00024032947840169072,0.0,0.0,0.0,0.0,-9.631260581954848e-06,-0.0006496795103885233,-0.0013875608565285802,0.9999086260795593,0.0,0.0,0.0,0.7457608580589294,1.3807734251022339,5.7960896492004395,-134.98419189453125,0
485.6759999999995,0.014502088539302349,0.01415475457906723,0.0002994233800563961,0.0,0.0,0.0,0.0,-0.0009774267673492432,-0.006242107599973679,0.002415030961856246,1.0003007650375366,0.0,0.0,0.0,0.7528144717216492,1.3925610780715942,5.812124729156494,-136.26092529296875,0
495.60100000000057,0.014465924352407455,0.014113960787653923,0.0002554476377554238,0.0,0.0,0.0,0.0,0.002643209882080555,-0.0015804670983925462,-0.00369745003990829,0.9985737204551697,0.0,0.0,0.0,0.7535853981971741,1.3928346633911133,5.823725700378418,-136.4004669189453,0
505.496000000001,0.014504482969641685,0.014167381450533867,0.00031691769254393876,0.0,0.0,0.0,0.0,-0.0006581779452972114,0.0013172355247661471,-0.0016313435044139624,0.9989112019538879,0.0,0.0,0.0,0.760349452495575,1.3962095975875854,5.8362298011779785,-137.62477111816406,0
515.4189999999999,0.014460763894021511,0.014106395654380322,0.0002736080496106297,0.0,0.0,0.0,0.0,-6.904130714247003e-05,0.0011203285539522767,-0.0006207533297128975,0.9990785717964172,0.0,0.0,0.0,0.7593953609466553,1.3950399160385132,5.826200485229492,-137.4520721435547,0
525.3220000000001,0.014448328875005245,0.014152891933918,0.0003180664498358965,0.0,0.0,0.0,0.0,-0.0027956715784966946,0.0022352240048348904,-0.00046532312990166247,0.9994240999221802,0.0,0.0,0.0,0.7585034966468811,1.391876459121704,5.817370414733887,-137.2906494140625,0
535.2430000000004,0.014383441768586636,0.014062183909118176,0.0002906639128923416,0.0,0.0,0.0,0.0,0.0003919707960449159,0.0005489459144882858,-0.0015449078055098653,0.9999077916145325,0.0,0.0,0.0,0.7578973770141602,1.3948558568954468,5.806035995483398,-137.18092346191406,0
545.1440000000002,0.014455505646765232,0.014062220230698586,0.00034170702565461397,0.0,0.0,0.0,0.0,0.00026266786153428257,0.0010251126950606704,-0.002199385082349181,0.99809730052948,0.0,0.0,0.0,0.7574297785758972,1.393993616104126,5.798473358154297,-137.09629821777344,0
555.0650000000005,0.014429946430027485,0.014044823125004768,0.00028535895398817956,0.0,0.0,0.0,0.0,0.0002723555953707546,0.00028922344790771604,-0.0002780835784506053,0.9970543384552002,0.0,0.0,0.0,0.7499931454658508,1.3991707563400269,5.79789924621582,-135.750244140625,0
564.9670000000006,0.014485751278698444,0.014048001728951931,0.00032926120911724865,0.0,0.0,0.0,0.0,-0.00042803006363101304,9.88782849162817e-05,0.0029754473362118006,0.9976159334182739,0.0,0.0,0.0,0.7480776906013489,1.3984243869781494,5.792543888092041,-135.40354919433594,0
574.8880000000008,0.014470384456217289,0.01403280720114708,0.00025461535551585257,0.0,0.0,0.0,0.0,0.00033635422005318105,0.0020223520696163177,0.000575410551391542,0.9992085099220276,0.0,0.0,0.0,0.7485350966453552,1.3937110900878906,5.786020278930664,-135.486328125,0
584.7929999999997,0.014534653164446354,0.014055079780519009,0.00030655774753540754,0.0,0.0,0.0,0.0,0.0008911487529985607,0.0004883869551122189,-0.004484804812818766,0.9985713362693787,0.0,0.0,0.0,0.7549454569816589,1.401218056678772,5.791935920715332,-136.64663696289062,0
594.7049999999999,0.014478106983006,0.014013797976076603,0.0002794785250443965,0.0,0.0,0.0,0.0,0.0004902849323116243,-0.0005649826489388943,0.0008885423885658383,0.9988742470741272,0.0,0.0,0.0,0.7528231143951416,1.4004507064819336,5.786335468292236,-136.26248168945312,0
604.616,0.014526709914207458,0.014044349081814289,0.00032986447331495583,0.0,0.0,0.0,0.0,0.00013032931019552052,0.0050421482883393764,0.0037478962913155556,0.9978167414665222,0.0,0.0,0.0,0.7596594095230103,1.4132167100906372,5.805978775024414,-137.49986267089844,0
614.5280000000002,0.014516614377498627,0.014043348841369152,0.00025590884615667164,0.0,0.0,0.0,0.0,0.0005113596562296152,-0.0010490537388250232,0.0007646719459444284,0.9991844296455383,0.0,0.0,0.0,0.7591913342475891,1.4131706953048706,5.7922515869140625,-137.41514587402344,0
624.4369999999999,0.014515641145408154,0.014120196923613548,0.0003070702950935811,0.0,0.0,0.0,0.0,0.0024688735138624907,0.0023623008746653795,0.00018416241800878197,1.0002765655517578,0.0,0.0,0.0,0.7662156224250793,1.432593584060669,5.798253059387207,-138.68653869628906,0
634.3539999999994,0.01447087898850441,0.01405829843133688,0.00025702270795591176,0.0,0.0,0.0,0.0,0.0005043745040893555,0.0032769429963082075,-0.0018105561612173915,0.9983356595039368,0.0,0.0,0.0,0.7657010555267334,1.4275915622711182,5.78409481048584,-138.59339904785156,0
644.264000000001,0.014487480744719505,0.014074466191232204,0.00028849233058281243,0.0,0.0,0.0,0.0,0.0022504173684865236,-0.0027775480411946774,-0.0009084085468202829,0.999927818775177,0.0,0.0,0.0,0.7640905976295471,1.4254318475723267,5.768121719360352,-138.3019256591797,0
654.1759999999995,0.014418890699744225,0.013976438902318478,0.0002554185630287975,0.0,0.0,0.0,0.0,-0.0010865741642192006,0.0010444482322782278,0.0024548654910176992,0.9987838864326477,0.0,0.0,0.0,0.7633528709411621,1.4179012775421143,5.766172885894775,-138.16839599609375,0
664.085000000001,0.014455262571573257,0.014013598673045635,0.00030507217161357403,0.0,0.0,0.0,0.0,0.0031533038709312677,-0.0028160379733890295,-0.0031389915384352207,0.9981651902198792,0.0,0.0,0.0,0.7625295519828796,1.4174184799194336,5.7494611740112305,-138.01937866210938,0
674.0020000000004,0.014403888955712318,0.013988357968628407,0.00027768831932917237,0.0,0.0,0.0,0.0,0.0030837631784379482,-0.00047420442570000887,-0.001875082147307694,1.0005202293395996,0.0,0.0,0.0,0.7555665373802185,1.413745403289795,5.756155967712402,-136.75904846191406,0
683.9140000000007,0.014464379288256168,0.014018901623785496,0.0003337552188895643,0.0,0.0,0.0,0.0,-0.0004894740995950997,-0.0019004856003448367,-0.00210521905682981,0.9998895525932312,0.0,0.0,0.0,0.754924476146698,1.4109283685684204,5.753549098968506,-136.642822265625,0
693.8199999999997,0.01445256918668747,0.01400774996727705,0.00026494162739254534,0.0,0.0,0.0,0.0,-0.0005068671889603138,8.4055689512752e-05,0.001178391044959426,1.0007610321044922,0.0,0.0,0.0,0.7475957274436951,1.4173306226730347,5.7596049308776855,-135.31631469726562,0
703.732,0.014433173462748528,0.0140816206112504,0.00031651125755161047,0.0,0.0,0.0,0.0,-0.0023556191008538008,0.0007007337408140302,0.0039035407826304436,1.0000417232513428,0.0,0.0,0.0,0.7479832768440247,1.4169169664382935,5.755809307098389,-135.38645935058594,0
713.6440000000002,0.014416323974728584,0.014071387238800526,0.0002557950501795858,0.0,0.0,0.0,0.0,-0.0022397637367248535,-0.001775441924110055,0.0005346231046132743,0.9991253018379211,0.0,0.0,0.0,0.7392118573188782,1.4233863353729248,5.7570414543151855,-133.79881286621094,0
723.5590000000011,0.014465726912021637,0.014076825231313705,0.00029636971885338426,0.0,0.0,0.0,0.0,0.0009165708906948566,-0.0012656244216486812,0.002331341849640012,0.9977124929428101,0.0,0.0,0.0,0.7378765940666199,1.4223463535308838,5.755434989929199,-133.55714416503906,0
733.4680000000008,0.014431413263082504,0.01403683703392744,0.00024556045536883175,0.0,0.0,0.0,0.0,0.0006913246470503509,-0.0060700359754264355,0.00106245547067374,0.9984472990036011,0.0,0.0,0.0,0.7307583093643188,1.4184019565582275,5.754398822784424,-132.26870727539062,0
743.3809999999994,0.014486746862530708,0.014116519130766392,0.0003219904319848865,0.0,0.0,0.0,0.0,-0.00031892748665995896,-0.004357083700597286,-0.003695214167237282,0.998751699924469,0.0,0.0,0.0,0.7378782033920288,1.4312163591384888,5.778824806213379,-133.5574188232422,0
753.2919999999995,0.014489194378256798,0.014125198125839233,0.00023941443942021579,0.0,0.0,0.0,0.0,-0.0015545430360361934,0.004616036079823971,0.0014767366228625178,0.9994640946388245,0.0,0.0,0.0,0.7352780699729919,1.4271851778030396,5.7742533683776855,-133.08677673339844,0
763.2029999999995,0.014459836296737194,0.014167258515954018,0.00026826909743249416,0.0,0.0,0.0,0.0,0.0017970299813896418,-0.001811903901398182,-0.0019515680614858866,0.9994222521781921,0.0,0.0,0.0,0.7418351173400879,1.4411402940750122,5.761382102966309,-134.27362060546875,0
773.1180000000004,0.014415047131478786,0.014105849899351597,0.00022027357772458345,0.0,0.0,0.0,0.0,-0.001319823320955038,0.0013841791078448296,-0.00039726277464069426,0.9986342787742615,0.0,0.0,0.0,0.7337177991867065,1.428061842918396,5.765380382537842,-132.80438232421875,0
783.027,0.014427212998270988,0.014096670784056187,0.0002398027281742543,0.0,0.0,0.0,0.0,0.0016372737009078264,0.0005437706713564694,-0.0002717132738325745,0.9987035393714905,0.0,0.0,0.0,0.7338566184043884,1.4294450283050537,5.765706539154053,-132.82949829101562,0
792.9380000000001,0.01438518799841404,0.01403195783495903,0.00017829543503466994,0.0,0.0,0.0,0.0,-0.004089140333235264,0.0011975300731137395,0.0009925559861585498,0.9981244802474976,0.0,0.0,0.0,0.7333613634109497,1.4274368286132812,5.76369047164917,-132.73985290527344,0
802.8500000000004,0.014387696981430054,0.014096707105636597,0.00023096613585948944,0.0,0.0,0.0,0.0,2.9040522349532694e-05,-0.001285917591303587,0.0015122222248464823,0.9983403086662292,0.0,0.0,0.0,0.7329877018928528,1.4325169324874878,5.755147457122803,-132.6722412109375,0
812.7690000000002,0.014351913705468178,0.014059770852327347,0.0001685141323832795,0.0,0.0,0.0,0.0,0.0008522853022441268,-0.0031695780344307423,-0.0007385237840935588,0.9976450204849243,0.0,0.0,0.0,0.7328029870986938,1.4308346509933472,5.756383895874023,-132.63880920410156,0
822.6740000000009,0.014406450092792511,0.01411367766559124,0.0002286447852384299,0.0,0.0,0.0,0.0,-0.0020461990498006344,-0.0027884813025593758,-0.0013521970249712467,0.9986677765846252,0.0,0.0,0.0,0.7404856085777283,1.4414175748825073,5.775809288024902,-134.0293731689453,0
832.6010000000006,0.014363642781972885,0.014042162336409092,0.00016674843209329993,0.0,0.0,0.0,0.0,-0.0005127128679305315,0.0013713432708755136,0.000471665698569268,0.9988717436790466,0.0,0.0,0.0,0.7317935824394226,1.4371364116668701,5.782220840454102,-132.45608520507812,0
842.5059999999994,0.01437015924602747,0.01409301720559597,0.00021046219626441598,0.0,0.0,0.0,0.0,0.0043044257909059525,0.0036187830846756697,-0.0021862604189664125,0.9997413754463196,0.0,0.0,0.0,0.7308555841445923,1.4367573261260986,5.774582862854004,-132.28631591796875,0
852.4210000000003,0.014299768954515457,0.013995041139423847,0.00017936989024747163,0.0,0.0,0.0,0.0,0.0008258025045506656,-0.0014978538965806365,-0.0007365175988525152,0.9998205304145813,0.0,0.0,0.0,0.7280839681625366,1.4348288774490356,5.763022422790527,-131.78463745117188,0
862.3270000000011,0.014383059926331043,0.014073818922042847,0.00026739758322946727,0.0,0.0,0.0,0.0,-0.0018619794864207506,-0.0007130722515285015,0.0006753741763532162,0.9988484978675842,0.0,0.0,0.0,0.7282343506813049,1.4388395547866821,5.765190124511719,-131.81185913085938,0
872.2489999999998,0.01432653609663248,0.013981027528643608,0.00022767181508243084,0.0,0.0,0.0,0.0,0.0023238786961883307,-0.0026164520531892776,-0.0008386197732761502,1.0002923011779785,0.0,0.0,0.0,0.7198775410652161,1.4314870834350586,5.761678218841553,-130.29925537109375,0
882.1450000000004,0.01439671590924263,0.014048374257981777,0.00030918445554561913,0.0,0.0,0.0,0.0,0.00029374545556493104,0.0014244526391848922,-0.002777211833745241,1.0008013248443604,0.0,0.0,0.0,0.7282555103302002,1.4418728351593018,5.7808380126953125,-131.81568908691406,0
892.0670000000009,0.01435045525431633,0.013974545523524284,0.0002680835605133325,0.0,0.0,0.0,0.0,0.0015032433439046144,4.023880319437012e-05,-0.00021186894446145743,0.9983802437782288,0.0,0.0,0.0,0.728003978729248,1.4384090900421143,5.773528099060059,-131.77017211914062,0
901.969000000001,0.014483598060905933,0.0139999995008111,0.0003545070649124682,0.0,0.0,0.0,0.0,0.0006069746450521052,-0.0010301322909072042,-0.0018320626113563776,0.9979889988899231,0.0,0.0,0.0,0.7359949350357056,1.4383211135864258,5.798440933227539,-133.21653747558594,0
911.8880000000008,0.014466878026723862,0.013953455723822117,0.00028962534270249307,0.0,0.0,0.0,0.0,0.003064167220145464,0.005269917659461498,-0.0006889608921483159,0.9964426755905151,0.0,0.0,0.0,0.7273584008216858,1.4371572732925415,5.800199508666992,-131.65330505371094,0
921.7960000000003,0.014490235596895218,0.014046097174286842,0.0003687317075673491,0.0,0.0,0.0,0.0,0.005333574954420328,0.0020466691348701715,-0.0003370970953255892,0.9978871941566467,0.0,0.0,0.0,0.7350839376449585,1.4507601261138916,5.802369594573975,-133.05165100097656,0
931.723,0.014476731419563293,0.014020483009517193,0.00030556455021724105,0.0,0.0,0.0,0.0,-0.0029001368675380945,-0.004055819474160671,-7.758588617434725e-05,0.9991612434387207,0.0,0.0,0.0,0.7284506559371948,1.4430962800979614,5.802121162414551,-131.85101318359375,0
941.6260000000002,0.01449634414166212,0.014087229035794735,0.00036593188997358084,0.0,0.0,0.0,0.0,0.003458596533164382,0.00042602853500284255,0.0019505926175042987,0.999909520149231,0.0,0.0,0.0,0.7388641834259033,1.4647904634475708,5.810030460357666,-133.7358856201172,0
951.5390000000007,0.014514466747641563,0.014073736034333706,0.0002626842469908297,0.0,0.0,0.0,0.0,-0.0009516957798041403,-0.0018372186459600925,0.0035998632665723562,0.9993907809257507,0.0,0.0,0.0,0.7394009828567505,1.4552288055419922,5.805965423583984,-133.83303833007812,0
961.4400000000005,0.01450777892023325,0.014093702659010887,0.0002869022428058088,0.0,0.0,0.0,0.0,0.0002858372463379055,0.00027806966681964695,0.0035023095551878214,0.9986419677734375,0.0,0.0,0.0,0.7389369606971741,1.4567480087280273,5.803075790405273,-133.7490692138672,0
971.3600000000006,0.014510886743664742,0.014067788608372211,0.00019408373918849975,0.0,0.0,0.0,0.0,-0.0015028276247903705,0.0001303117023780942,0.0009653961751610041,0.9979923367500305,0.0,0.0,0.0,0.7328383326530457,1.4583607912063599,5.808042049407959,-132.64520263671875,0
981.264000000001,0.01452240813523531,0.01416012179106474,0.0002534210216253996,0.0,0.0,0.0,0.0,0.00018049872596748173,-0.0016498155891895294,-4.8198140575550497e-05,0.9986081123352051,0.0,0.0,0.0,0.7396140694618225,1.481836199760437,5.815267086029053,-133.87161254882812,0
991.1939999999995,0.014521535485982895,0.014158721081912518,0.00017140845011454076,0.0,0.0,0.0,0.0,-0.0018350010504946113,-0.0005626823985949159,0.0011659812880679965,0.9973568320274353,0.0,0.0,0.0,0.7384157776832581,1.4825493097305298,5.816767692565918,-133.6547393798828,0
1001.0879999999997,0.014475127682089806,0.014212817884981632,0.00019010422693099827,0.0,0.0,0.0,0.0,-0.0008305371156893671,0.0011793721932917833,0.0025029706303030252,0.9984860420227051,0.0,0.0,0.0,0.7386177182197571,1.4853379726409912,5.813533782958984,-133.69126892089844,0
1011.0079999999998,0.01442627888172865,0.014167525805532932,0.00015236029867082834,0.0,0.0,0.0,0.0,0.0019796332344412804,-0.00048266732483170927,0.0004809616366401315,0.9990418553352356,0.0,0.0,0.0,0.7383278012275696,1.4884963035583496,5.802551746368408,-133.6387939453125,0
1020.9130000000005,0.01448909379541874,0.014164794236421585,0.00017556363309267908,0.0,0.0,0.0,0.0,-0.00012796689406968653,-0.0028710090555250645,0.0021208899561315775,0.9975330233573914,0.0,0.0,0.0,0.7374763488769531,1.4811573028564453,5.799723148345947,-133.4846954345703,0
1030.8310000000001,0.014426378533244133,0.014088810421526432,0.00014425853441935033,0.0,0.0,0.0,0.0,-0.00017034287157002836,-0.00014715752331539989,-0.000581391213927418,0.9993359446525574,0.0,0.0,0.0,0.7376717329025269,1.4839513301849365,5.796687602996826,-133.52005004882812,0
1040.7350000000006,0.014430040493607521,0.01410372368991375,0.00016143033280968666,0.0,0.0,0.0,0.0,-0.0031231313478201628,-0.001016880152747035,-0.000577017548494041,0.9991243481636047,0.0,0.0,0.0,0.7363162040710449,1.4831105470657349,5.79325532913208,-133.2747039794922,0
1050.6579999999994,0.014396307058632374,0.014090991578996181,0.0001099978107959032,0.0,0.0,0.0,0.0,-0.0008971642819233239,-0.0002648904046509415,9.119556489167735e-05,0.9985743761062622,0.0,0.0,0.0,0.7346850037574768,1.4884754419326782,5.79734992980957,-132.9794464111328,0
1060.563,0.014475798234343529,0.014113197103142738,0.00015621107013430446,0.0,0.0,0.0,0.0,0.0010561867384240031,0.0011173280654475093,-0.0027845557779073715,1.0000998973846436,0.0,0.0,0.0,0.7348380088806152,1.4897842407226562,5.79790735244751,-133.0071258544922,0
1070.482,0.014420819468796253,0.014050508849322796,0.0001156805592472665,0.0,0.0,0.0,0.0,-0.0004332131356932223,-0.0020195473916828632,-2.290261363668833e-05,0.9999287128448486,0.0,0.0,0.0,0.7333723902702332,1.4887741804122925,5.784287452697754,-132.7418670654297,0
1080.3819999999996,0.014484248124063015,0.014087147079408169,0.00016796853742562234,0.0,0.0,0.0,0.0,-0.0017726909136399627,0.0029245191253721714,0.0030821727123111486,0.9994086027145386,0.0,0.0,0.0,0.7320286631584167,1.4897695779800415,5.782520771026611,-132.49864196777344,0
1090.3050000000003,0.014388461597263813,0.013993277214467525,0.0001720194995868951,0.0,0.0,0.0,0.0,0.001363186864182353,0.0009726861608214676,0.0011738250032067299,1.0010719299316406,0.0,0.0,0.0,0.7324748635292053,1.4914073944091797,5.773547172546387,-132.57940673828125,0
1100.2060000000001,0.01441421639174223,0.014075571671128273,0.00024361982650589198,0.0,0.0,0.0,0.0,-0.0007831237162463367,-0.006550001446157694,-0.0004173963679932058,1.000390887260437,0.0,0.0,0.0,0.7410309910774231,1.501814603805542,5.776882648468018,-134.12808227539062,0
1110.1229999999996,0.014383498579263687,0.014055076986551285,0.0001884532830445096,0.0,0.0,0.0,0.0,-0.0012412619544193149,0.00238624750636518,0.0025329573545604944,1.000397801399231,0.0,0.0,0.0,0.7336243987083435,1.5007988214492798,5.786308288574219,-132.7874755859375,0
1120.0290000000005,0.014401460066437721,0.014063043519854546,0.00022369429643731564,0.0,0.0,0.0,0.0,-0.002252818550914526,0.00036095461109653115,0.003308636602014303,0.9998431205749512,0.0,0.0,0.0,0.7336016893386841,1.499903678894043,5.774044513702393,-132.7833709716797,0
1129.9529999999995,0.014348394237458706,0.014006134122610092,0.0001856739108916372,0.0,0.0,0.0,0.0,0.001278783893212676,-0.0018741488456726074,-0.0012565823271870613,0.998779296875,0.0,0.0,0.0,0.7338979244232178,1.5041080713272095,5.767993450164795,-132.83697509765625,0
1139.853000000001,0.014424595050513744,0.014034110121428967,0.0002543047594372183,0.0,0.0,0.0,0.0,0.0015544997295364738,0.0028369391802698374,-0.002007724018767476,0.999215841293335,0.0,0.0,0.0,0.7314173579216003,1.49982488155365,5.759237289428711,-132.38800048828125,0
1149.7700000000004,0.014405312947928905,0.014032681472599506,0.00019425924983806908,0.0,0.0,0.0,0.0,0.003666427917778492,0.0006180163472890854,-0.004507643170654774,0.9990087747573853,0.0,0.0,0.0,0.7309011816978455,1.4947446584701538,5.745663166046143,-132.29457092285156,0
1159.6779999999999,0.014421192929148674,0.014108967036008835,0.00026279594749212265,0.0,0.0,0.0,0.0,0.0007886420353315771,-0.0033171719405800104,0.00115302880294621,0.9993274211883545,0.0,0.0,0.0,0.736769437789917,1.5033797025680542,5.753947734832764,-133.35675048828125,0
1169.6049999999996,0.014383435249328613,0.014046692289412022,0.0002062377316178754,0.0,0.0,0.0,0.0,-0.00134960375726223,-0.0017687303479760885,0.0005278451135382056,0.9995269179344177,0.0,0.0,0.0,0.7371988296508789,1.5000345706939697,5.749695777893066,-133.4344482421875,0
1179.5030000000006,0.014415103010833263,0.014055413194000721,0.0002462280972395092,0.0,0.0,0.0,0.0,0.00041342483018524945,-0.0004361393512226641,-0.005219684913754463,0.9988228678703308,0.0,0.0,0.0,0.7354574799537659,1.5019701719284058,5.747971057891846,-133.1192626953125,0
1189.4189999999999,0.014390096068382263,0.01403537392616272,0.00018857838585972786,0.0,0.0,0.0,0.0,0.002737222006544471,0.0048552569933235645,0.00032162273419089615,0.9994887113571167,0.0,0.0,0.0,0.7267817258834839,1.5069655179977417,5.752248287200928,-131.54893493652344,0
1199.3330000000005,0.01438851933926344,0.01409020647406578,0.00023832677106838673,0.0,0.0,0.0,0.0,0.0056120045483112335,0.0007292883237823844,0.001098909298889339,1.000649333000183,0.0,0.0,0.0,0.7268701195716858,1.503023386001587,5.7386393547058105,-131.56492614746094,0
1209.246000000001,0.014398169703781605,0.014094292186200619,0.0001368574012303725,0.0,0.0,0.0,0.0,0.00019844231428578496,0.00044160199468024075,-0.0013806845527142286,1.0005240440368652,0.0,0.0,0.0,0.7266921997070312,1.4898420572280884,5.7308669090271,-131.53273010253906,0
1219.148000000001,0.014403820969164371,0.014194312505424023,0.0002053895586868748,0.0,0.0,0.0,0.0,-0.002501425566151738,0.002159727271646261,0.0026097428053617477,0.9989691972732544,0.0,0.0,0.0,0.7347163558006287,1.508754014968872,5.72605562210083,-132.985107421875,0
1229.0650000000005,0.014356845989823341,0.014134575612843037,0.00016081015928648412,0.0,0.0,0.0,0.0,-0.0018161202315241098,-8.227822399931028e-05,-0.0024768407456576824,0.9988549947738647,0.0,0.0,0.0,0.733622670173645,1.5136148929595947,5.712984561920166,-132.7871551513672,0
1238.973,0.014471153728663921,0.014127852395176888,0.00021953042596578598,0.0,0.0,0.0,0.0,-0.0011843147221952677,-0.0015325755812227726,-0.0006476138951256871,0.9993100166320801,0.0,0.0,0.0,0.7320660948753357,1.5114907026290894,5.705604553222656,-132.5054168701172,0
1248.889000000001,0.014429014176130295,0.014078362844884396,0.00017629924695938826,0.0,0.0,0.0,0.0,0.0025439001619815826,0.0004714674723800272,-0.003272103611379862,0.9990469217300415,0.0,0.0,0.0,0.7313597798347473,1.5080673694610596,5.70112419128418,-132.37757873535156,0
1258.795,0.014535225927829742,0.014087432995438576,0.00024088297504931688,0.0,0.0,0.0,0.0,0.001410342170856893,-0.0017288728849962354,-0.00450121657922864,1.0006181001663208,0.0,0.0,0.0,0.738423228263855,1.5079816579818726,5.718225002288818,-133.6560821533203,0
1268.710000000001,0.014458308927714825,0.013969928957521915,0.00022784278553444892,0.0,0.0,0.0,0.0,-0.0016235285438597202,-0.0014226367929950356,-0.001214057905599475,1.0011787414550781,0.0,0.0,0.0,0.7371404767036438,1.5046051740646362,5.715899467468262,-133.42388916015625,0
1278.6200000000008,0.014473591931164265,0.014022108167409897,0.0002866476424969733,0.0,0.0,0.0,0.0,0.0012487404746934772,0.0015288438880816102,-0.00035410121199674904,0.9982780814170837,0.0,0.0,0.0,0.7352176308631897,1.5074492692947388,5.70641565322876,-133.07583618164062,0
1288.5310000000009,0.014419928193092346,0.01393139734864235,0.00025477164308540523,0.0,0.0,0.0,0.0,0.0020947076845914125,-0.0006248047575354576,-0.002675715135410428,0.9992974996566772,0.0,0.0,0.0,0.7351970672607422,1.506262183189392,5.700009346008301,-133.07211303710938,0
1298.4449999999997,0.014453462325036526,0.0139898881316185,0.0003233045572414994,0.0,0.0,0.0,0.0,-0.0008609055657871068,-0.005347094964236021,-3.749489405890927e-05,1.0013114213943481,0.0,0.0,0.0,0.7334166765213013,1.5036989450454712,5.6882710456848145,-132.74986267089844,0
1308.3610000000008,0.014373427256941795,0.013900668360292912,0.00033222383353859186,0.0,0.0,0.0,0.0,-8.051140321185812e-05,-0.003419911488890648,0.0045478735119104385,0.9985882043838501,0.0,0.0,0.0,0.7333207130432129,1.5034592151641846,5.693141460418701,-132.7324981689453,0
1318.2669999999998,0.014439829625189304,0.014007031917572021,0.00044156116200610995,0.0,0.0,0.0,0.0,0.0003420356661081314,-0.0017574223456904292,0.0025188077706843615,0.9999163150787354,0.0,0.0,0.0,0.7401250004768372,1.529695987701416,5.716513633728027,-133.96409606933594,0
1328.1779999999999,0.01442124042659998,0.013955991715192795,0.0003884806646965444,0.0,0.0,0.0,0.0,-0.003069845028221607,-0.0014683661283925176,-0.0004221216950099915,0.9997323155403137,0.0,0.0,0.0,0.7395360469818115,1.5238370895385742,5.7195611000061035,-133.85748291015625,0
1338.0920000000006,0.014492664486169815,0.013976944610476494,0.0004597802762873471,0.0,0.0,0.0,0.0,0.004355631303042173,0.0035836058668792248,0.0011999610578641295,1.0008862018585205,0.0,0.0,0.0,0.7455476522445679,1.5334481000900269,5.733484745025635,-134.9456024169922,0
1348.0069999999996,0.014468013308942318,0.013929635286331177,0.0004184140416327864,0.0,0.0,0.0,0.0,-0.00200203200802207,-0.006491767708212137,0.002142057754099369,1.0002070665359497,0.0,0.0,0.0,0.7452819347381592,1.5236177444458008,5.7294135093688965,-134.89752197265625,0
1357.9140000000007,0.014464996755123138,0.013965058140456676,0.0004732979869004339,0.0,0.0,0.0,0.0,-0.0008331582648679614,-0.002502928487956524,-0.0006105075008235872,0.9992877244949341,0.0,0.0,0.0,0.7453202605247498,1.5276991128921509,5.738081455230713,-134.9044647216797,0
1367.83,0.014498556032776833,0.014012911356985569,0.00038621120620518923,0.0,0.0,0.0,0.0,8.224189514294267e-05,-7.771284799673595e-06,-0.001105187344364822,1.001120686531067,0.0,0.0,0.0,0.7443898320198059,1.5237232446670532,5.733356475830078,-134.7360382080078,0
1377.7389999999996,0.01451400388032198,0.014068728312849998,0.00045057680108584464,0.0,0.0,0.0,0.0,0.0014864709228277206,-0.0001569801679579541,-0.0006983669009059668,1.000815510749817,0.0,0.0,0.0,0.7514528632164001,1.5349522829055786,5.746288776397705,-136.0144500732422,0
1387.6499999999996,0.014488627202808857,0.014028663747012615,0.00040979994810186327,0.0,0.0,0.0,0.0,-7.948287384351715e-05,0.0001867065002443269,0.0010208995081484318,1.0003594160079956,0.0,0.0,0.0,0.7438891530036926,1.5311007499694824,5.7422943115234375,-134.64541625976562,0
1397.5609999999997,0.014436550438404083,0.014042218215763569,0.0004380768514238298,0.0,0.0,0.0,0.0,-0.0003683857212308794,-0.0010361116146668792,-0.0011194392573088408,0.9998846650123596,0.0,0.0,0.0,0.7434186339378357,1.523484230041504,5.7366204261779785,-134.56024169921875,0
1407.4740000000002,0.014429360628128052,0.014021086506545544,0.00037590478314086795,0.0,0.0,0.0,0.0,-0.0010808785445988178,-0.0016971769509837031,0.00199598609469831,0.998892068862915,0.0,0.0,0.0,0.734155535697937,1.526685357093811,5.74217414855957,-132.8836212158203,0
1417.3850000000002,0.014375935308635235,0.014083058573305607,0.0004212085623294115,0.0,0.0,0.0,0.0,0.0017718373565003276,-0.0017955383518710732,0.0004839251923840493,0.9979816675186157,0.0,0.0,0.0,0.7395806312561035,1.5407984256744385,5.738104343414307,-133.8655548095703,0
1427.299000000001,0.014381530694663525,0.014082444831728935,0.0003417684347368777,0.0,0.0,0.0,0.0,0.000659117940813303,1.1181736226717476e-05,0.0018312835600227118,1.0005611181259155,0.0,0.0,0.0,0.7395192384719849,1.5398577451705933,5.736663341522217,-133.85446166992188,0
1437.2080000000005,0.014388173818588257,0.014110930263996124,0.0003853756352327764,0.0,0.0,0.0,0.0,0.0006610026466660202,0.000595053774304688,0.0028666199650615454,0.9998320937156677,0.0,0.0,0.0,0.7398167848587036,1.5373777151107788,5.730635643005371,-133.90830993652344,0
1447.1219999999994,0.014402906410396099,0.014101613312959671,0.00028281097183935344,0.0,0.0,0.0,0.0,0.0029560343828052282,-0.0003664374817162752,-0.0026065954007208347,0.9994078874588013,0.0,0.0,0.0,0.7400690913200378,1.5349676609039307,5.724578380584717,-133.9539794921875,0
1457.0329999999994,0.014356501400470734,0.014130623079836369,0.0003041101444978267,0.0,0.0,0.0,0.0,-0.0020299891475588083,-0.0015393682988360524,-0.0016525128157809377,0.9978188276290894,0.0,0.0,0.0,0.7392972111701965,1.532723069190979,5.723952293395996,-133.8142547607422,0
1466.9439999999995,0.014338001608848572,0.014117029495537281,0.0002346772380406037,0.0,0.0,0.0,0.0,-0.0013517617480829358,-0.003398820059373975,-0.0035513166803866625,1.0000941753387451,0.0,0.0,0.0,0.7390343546867371,1.536618709564209,5.722877502441406,-133.7666778564453,0
1476.8559999999998,0.014414100907742977,0.014107625931501389,0.0002737033646553755,0.0,0.0,0.0,0.0,-0.00013848573144059628,-0.0026717630680650473,0.003172175493091345,1.0006901025772095,0.0,0.0,0.0,0.7381424903869629,1.5374834537506104,5.718878746032715,-133.60525512695312,0
1486.7800000000007,0.014414090663194656,0.014130786992609501,0.00019109885033685714,0.0,0.0,0.0,0.0,0.0017304641660302877,-0.002595115453004837,-0.007395307067781687,1.0005934238433838,0.0,0.0,0.0,0.7380431890487671,1.5387208461761475,5.7165751457214355,-133.5872802734375,0
1496.687,0.01440267264842987,0.014175319112837315,0.0002272456040373072,0.0,0.0,0.0,0.0,0.0005633144173771143,0.0009044180624186993,0.005959659814834595,1.000691294670105,0.0,0.0,0.0,0.7409313917160034,1.5451128482818604,5.725044250488281,-134.11004638671875,0
1506.6000000000004,0.014348512515425682,0.014087499119341373,0.00017812846635933965,0.0,0.0,0.0,0.0,-0.0014839429641142488,-0.0005533081130124629,0.0029598011169582605,0.998813807964325,0.0,0.0,0.0,0.7424962520599365,1.54121994972229,5.721992492675781,-134.39328002929688,0
1516.5059999999994,0.014383717440068722,0.014140181243419647,0.00023766854428686202,0.0,0.0,0.0,0.0,0.0005719127948395908,-0.004280981607735157,0.0003784213913604617,0.9981863498687744,0.0,0.0,0.0,0.7480857968330383,1.554166555404663,5.72910213470459,-135.40501403808594,0
1526.4210000000003,0.014299621805548668,0.014049788005650043,0.00023353073629550636,0.0,0.0,0.0,0.0,-0.002223470015451312,-0.0006699025398120284,0.002794642001390457,0.9985578656196594,0.0,0.0,0.0,0.7467701435089111,1.552180528640747,5.726927280426025,-135.16688537597656,0
1536.3270000000011,0.01441692654043436,0.014061879366636276,0.00030233096913434565,0.0,0.0,0.0,0.0,-0.0016978818457573652,-0.001198020065203309,-0.0013032343704253435,0.9989358186721802,0.0,0.0,0.0,0.7466175556182861,1.5523892641067505,5.720647811889648,-135.13926696777344,0
1546.2389999999996,0.014356639236211777,0.013982761651277542,0.0002724462538026273,0.0,0.0,0.0,0.0,0.0004645349981728941,0.0007116984343156219,0.0005209976225160062,0.9993802309036255,0.0,0.0,0.0,0.7450544834136963,1.5539735555648804,5.718100547790527,-134.85633850097656,0
1556.1560000000009,0.014424796216189861,0.014065947383642197,0.0003629863203968853,0.0,0.0,0.0,0.0,0.0022435837890952826,-0.0014731183182448149,0.0002253162965644151,0.9988511800765991,0.0,0.0,0.0,0.7514168620109558,1.5662693977355957,5.722569942474365,-136.0079345703125,0
1566.062,0.014401101507246494,0.01402981486171484,0.00030295984470285475,0.0,0.0,0.0,0.0,0.001241457648575306,-8.948660979513079e-05,0.0016292543150484562,1.0008958578109741,0.0,0.0,0.0,0.7425215244293213,1.5571650266647339,5.719125747680664,-134.39785766601562,0
1575.9750000000004,0.014423036947846413,0.014055944047868252,0.00034994410816580057,0.0,0.0,0.0,0.0,-0.00020009209401905537,-0.0016031027771532536,-0.00019252768834121525,0.998232364654541,0.0,0.0,0.0,0.742914080619812,1.551160454750061,5.711096286773682,-134.46893310546875,0
1585.8870000000006,0.014375056140124798,0.0139920087531209,0.00031046077492646873,0.0,0.0,0.0,0.0,-0.0012423924636095762,0.000220131769310683,-0.0020357829052954912,0.9980341792106628,0.0,0.0,0.0,0.7420960068702698,1.5505988597869873,5.710118770599365,-134.3208465576172,0
1595.8050000000003,0.014401598833501339,0.014024964533746243,0.00036151488893665373,0.0,0.0,0.0,0.0,0.0002583542373031378,-0.002655149670317769,0.0002852524339687079,0.9976106286048889,0.0,0.0,0.0,0.7411537170410156,1.5536587238311768,5.703282356262207,-134.15028381347656,0
1605.710000000001,0.014388542622327805,0.014019649475812912,0.0002916100202128291,0.0,0.0,0.0,0.0,0.0011758513282984495,-0.001227971981279552,-0.0005247140070423484,0.9992485046386719,0.0,0.0,0.0,0.733830988407135,1.5588643550872803,5.711784839630127,-132.82485961914062,0
1615.6219999999994,0.014466365799307823,0.014043967239558697,0.0003513583797030151,0.0,0.0,0.0,0.0,0.00015118731244001538,-0.003351908177137375,0.001866432256065309,0.999096155166626,0.0,0.0,0.0,0.7330681085586548,1.5537606477737427,5.7090911865234375,-132.68678283691406,0
1625.5339999999997,0.014409305527806282,0.013973251916468143,0.0003233302850276232,0.0,0.0,0.0,0.0,-0.0038195736706256866,0.0011857260251417756,0.00233511277474463,1.0007686614990234,0.0,0.0,0.0,0.7325655817985535,1.5534367561340332,5.710634231567383,-132.5958251953125,0
1635.4449999999997,0.0144339669495821,0.014062685891985893,0.0003983353672083467,0.0,0.0,0.0,0.0,0.0002567863557487726,0.0011719897156581283,0.0032905922271311283,1.0002027750015259,0.0,0.0,0.0,0.73871248960495,1.58002507686615,5.7190961837768555,-133.70843505859375,0
1645.3580000000002,0.014378843829035759,0.014018358662724495,0.0003787275345530361,0.0,0.0,0.0,0.0,-0.0008856725180521607,0.004492551553994417,-0.0017151501961052418,0.9999421834945679,0.0,0.0,0.0,0.7391582131385803,1.573014736175537,5.7140374183654785,-133.7891082763672,0
1655.273000000001,0.014429466798901558,0.014074797742068768,0.0004509251157287508,0.0,0.0,0.0,0.0,0.0005861063837073743,-0.002995377406477928,0.003865676699206233,1.000694751739502,0.0,0.0,0.0,0.7467004656791687,1.5815047025680542,5.717772006988525,-135.15428161621094,0
1665.1859999999997,0.014428718946874142,0.014061992056667805,0.000371769187040627,0.0,0.0,0.0,0.0,-0.0002710870758164674,-0.0010899915359914303,-0.0006136767915450037,1.0001932382583618,0.0,0.0,0.0,0.7473577857017517,1.5776413679122925,5.720526695251465,-135.2732391357422,0
1675.1010000000006,0.014444307424128056,0.014059755019843578,0.00040237634675577283,0.0,0.0,0.0,0.0,0.001419783802703023,-0.0032926590647548437,0.004887328017503023,0.9991955757141113,0.0,0.0,0.0,0.7460529804229736,1.5762821435928345,5.714881420135498,-135.03707885742188,0
1685.0079999999998,0.01443294808268547,0.014040006324648857,0.00033467644243501127,0.0,0.0,0.0,0.0,0.00422584917396307,0.001627725432626903,-0.0011041010729968548,0.9989824295043945,0.0,0.0,0.0,0.7466238737106323,1.573653221130371,5.715832233428955,-135.14039611816406,0
1694.9259999999995,0.014397723600268364,0.014093311503529549,0.00037208947469480336,0.0,0.0,0.0,0.0,-0.00020589574705809355,0.001177887781523168,0.0011162597220391035,1.0002011060714722,0.0,0.0,0.0,0.7519534826278687,1.5776499509811401,5.710751533508301,-136.10507202148438,0
1704.8279999999995,0.014384880661964417,0.014073639176785946,0.0002959313860628754,0.0,0.0,0.0,0.0,-0.0009722105460241437,-0.0014659266453236341,0.0004449266998562962,0.9961873888969421,0.0,0.0,0.0,0.7512148022651672,1.5795060396194458,5.697263240814209,-135.97137451171875,0
1714.7479999999996,0.01433295477181673,0.014117131009697914,0.0003184164233971387,0.0,0.0,0.0,0.0,0.0025817230343818665,0.002051122486591339,-0.003466204274445772,0.9975269436836243,0.0,0.0,0.0,0.7511216998100281,1.5805141925811768,5.698270320892334,-135.9545135498047,0
1724.6540000000005,0.014339364133775234,0.014116398058831692,0.00020819106430280954,0.0,0.0,0.0,0.0,-0.003685333300381899,0.0018083181930705905,0.0005638254806399345,0.9989255666732788,0.0,0.0,0.0,0.749873697757721,1.5747698545455933,5.688640594482422,-135.72862243652344,0
1734.5770000000011,0.014336290769279003,0.014153980650007725,0.00023443132522515953,0.0,0.0,0.0,0.0,0.00042153289541602135,0.0031107349786907434,0.0006248729187063873,0.9999085664749146,0.0,0.0,0.0,0.7489224076271057,1.5792547464370728,5.677828311920166,-135.5564422607422,0
1744.4750000000004,0.014304522424936295,0.014121145009994507,0.0001600945834070444,0.0,0.0,0.0,0.0,0.0006866285693831742,0.0018710976000875235,0.0025626434944570065,0.9986612200737,0.0,0.0,0.0,0.7477946281433105,1.5766171216964722,5.668379306793213,-135.35232543945312,0
1754.3899999999994,0.014344574883580208,0.014211335219442844,0.0002235854626633227,0.0,0.0,0.0,0.0,0.0018256886396557093,0.003436265280470252,-0.006680510938167572,1.0007222890853882,0.0,0.0,0.0,0.7481566667556763,1.5776265859603882,5.660209655761719,-135.41783142089844,0
1764.308000000001,0.014291907660663128,0.014149224385619164,0.0001667556061875075,0.0,0.0,0.0,0.0,-0.0014728205278515816,6.298654625425115e-05,0.0022245082072913647,1.0006707906723022,0.0,0.0,0.0,0.7453994154930115,1.5747286081314087,5.648890495300293,-134.9187774658203,0
1774.2299999999996,0.014364105649292469,0.01417392399162054,0.00021143518097233027,0.0,0.0,0.0,0.0,-0.0012106018839403987,-0.0033171630930155516,-0.0002450582105666399,0.9994708895683289,0.0,0.0,0.0,0.7514382600784302,1.5806255340576172,5.66146993637085,-136.01182556152344,0
1784.1229999999996,0.014311735518276691,0.014128388836979866,0.00016169770970009267,0.0,0.0,0.0,0.0,-0.0009253126918338239,0.00219711079262197,0.0022936624009162188,1.0019210577011108,0.0,0.0,0.0,0.750022292137146,1.580094575881958,5.661745071411133,-135.75552368164062,0
1794.0439999999999,0.014421519823372364,0.01419450156390667,0.00024073311942629516,0.0,0.0,0.0,0.0,0.0009272530442103744,-0.00024180661421269178,-0.003003213554620743,1.0015047788619995,0.0,0.0,0.0,0.7562827467918396,1.5946146249771118,5.682751655578613,-136.888671875,0
1803.9500000000007,0.014345768839120865,0.014114988967776299,0.00021753733744844794,0.0,0.0,0.0,0.0,-0.0004894391167908907,-0.0039562261663377285,0.001595683628693223,0.9999444484710693,0.0,0.0,0.0,0.7542327642440796,1.5966651439666748,5.676699161529541,-136.5176239013672,0
1813.8639999999996,0.014378798194229603,0.014154150150716305,0.0002670185349415988,0.0,0.0,0.0,0.0,-0.0014289901591837406,-0.0003673991304822266,0.003846933599561453,0.9978544116020203,0.0,0.0,0.0,0.7535769939422607,1.5954772233963013,5.672979831695557,-136.39894104003906,0
1823.773000000001,0.014287354424595833,0.014036617241799831,0.00025273230858147144,0.0,0.0,0.0,0.0,0.00024721442605368793,0.003047641832381487,0.0004472683067433536,0.9996345043182373,0.0,0.0,0.0,0.753040075302124,1.5974040031433105,5.6674418449401855,-136.30174255371094,0
1833.705,0.014437347650527954,0.014042413793504238,0.00032902313978411257,0.0,0.0,0.0,0.0,-0.0018984673079103231,-0.00501064769923687,0.003621490439400077,0.9988223910331726,0.0,0.0,0.0,0.7608537077903748,1.5933952331542969,5.6922712326049805,-137.71604919433594,0
1843.603000000001,0.01440612506121397,0.014027236960828304,0.00027616237639449537,0.0,0.0,0.0,0.0,0.0023932275362312794,0.0007518136408179998,-0.00045477368985302746,1.0002542734146118,0.0,0.0,0.0,0.761060357093811,1.5959935188293457,5.699282646179199,-137.75343322753906,0
1853.5239999999994,0.014421605505049229,0.014058745466172695,0.0003185449168086052,0.0,0.0,0.0,0.0,0.003123149275779724,0.0019530351273715496,-5.114396117278375e-05,0.9983991980552673,0.0,0.0,0.0,0.7597134113311768,1.588939905166626,5.693862438201904,-137.5096435546875,0
1863.4179999999997,0.014389660209417343,0.014042268507182598,0.00025946786627173424,0.0,0.0,0.0,0.0,-0.00012713637261185795,0.005414817947894335,0.0069609135389328,0.9983201622962952,0.0,0.0,0.0,0.7590500712394714,1.5806351900100708,5.686861038208008,-137.3895721435547,0
1873.3420000000006,0.014465291053056717,0.014061413705348969,0.00031454532290808856,0.0,0.0,0.0,0.0,0.0036325387191027403,-0.004042604938149452,-0.0013274826342239976,0.9983812570571899,0.0,0.0,0.0,0.7664227485656738,1.583977222442627,5.689110279083252,-138.7240447998047,0
1883.2530000000006,0.014430789276957512,0.014038180001080036,0.00025357442791573703,0.0,0.0,0.0,0.0,0.0013210210017859936,0.0017861585365608335,0.0030651527922600508,1.0000262260437012,0.0,0.0,0.0,0.7649091482162476,1.5744823217391968,5.690728187561035,-138.4500732421875,0
1893.1589999999997,0.014439396560192108,0.014073395170271397,0.00029157244716770947,0.0,0.0,0.0,0.0,0.00046962505439296365,0.003294860478490591,-0.005896984599530697,1.0013235807418823,0.0,0.0,0.0,0.7640416622161865,1.5690515041351318,5.680936813354492,-138.2930450439453,0
1903.0750000000007,0.014392192475497723,0.014038493856787682,0.0002428930893074721,0.0,0.0,0.0,0.0,-0.0038182788994163275,-0.0023561224807053804,0.004385852720588446,0.9987847208976746,0.0,0.0,0.0,0.7535451650619507,1.5654000043869019,5.680068492889404,-136.39317321777344,0
1912.996000000001,0.014368643052875996,0.014112653210759163,0.00029245903715491295,0.0,0.0,0.0,0.0,0.0034670440945774317,-0.0009206770337186754,-0.00041437361505813897,1.0000557899475098,0.0,0.0,0.0,0.753882646560669,1.568630337715149,5.6794562339782715,-136.4542694091797,0
1922.898000000001,0.01434235367923975,0.014091444201767445,0.00021431340428534895,0.0,0.0,0.0,0.0,0.0025777958799153566,0.0027851718477904797,-0.0014386080438271165,0.9986071586608887,0.0,0.0,0.0,0.7528071999549866,1.5592480897903442,5.680115222930908,-136.25961303710938,0
1932.8070000000007,0.014369879849255085,0.014141470193862915,0.0002663414925336838,0.0,0.0,0.0,0.0,0.000429029343649745,-0.004125753417611122,0.002716287039220333,0.997803270816803,0.0,0.0,0.0,0.7578837275505066,1.5579369068145752,5.6850666999816895,-137.17845153808594,0
1942.719000000001,0.014317977242171764,0.014096598140895367,0.00021463209122885019,0.0,0.0,0.0,0.0,0.0016896917950361967,-0.00016312678053509444,-0.0006128079257905483,0.9985209703445435,0.0,0.0,0.0,0.7518824338912964,1.5535995960235596,5.692519664764404,-136.09222412109375,0
1952.634,0.014366225339472294,0.01414388045668602,0.00027234264416620135,0.0,0.0,0.0,0.0,-0.00016157129721250385,0.0060818977653980255,0.000538965396117419,0.9978412985801697,0.0,0.0,0.0,0.7521176338195801,1.5502314567565918,5.696741580963135,-136.13479614257812,0
1962.5460000000003,0.014319720678031445,0.014103417284786701,0.00021276103507261723,0.0,0.0,0.0,0.0,-0.0034285602159798145,-0.0036301317159086466,-0.0019270017510280013,0.998764157295227,0.0,0.0,0.0,0.7448158264160156,1.5402085781097412,5.683379650115967,-134.81314086914062,0
1972.4560000000001,0.01436032634228468,0.014136156998574734,0.0002571112709119916,0.0,0.0,0.0,0.0,0.003133673220872879,0.0009371660999022424,0.0005165896727703512,0.9999086856842041,0.0,0.0,0.0,0.7501814961433411,1.5465128421783447,5.70319128036499,-135.78433227539062,0
1982.3670000000002,0.01433939952403307,0.014156822115182877,0.00018431134230922908,0.0,0.0,0.0,0.0,2.1468871636898257e-05,-0.0009378702961839736,0.0004188552557025105,0.9988592863082886,0.0,0.0,0.0,0.7494305968284607,1.5401922464370728,5.696526527404785,-135.64842224121094,0
1992.2810000000009,0.014375116676092148,0.014199045486748219,0.00022875895956531167,0.0,0.0,0.0,0.0,0.0015218508196994662,0.0022643732372671366,0.0016217021038755774,0.9993409514427185,0.0,0.0,0.0,0.7491614818572998,1.5415422916412354,5.70042085647583,-135.59971618652344,0
2002.196,0.014318890869617462,0.01413963083177805,0.00017843293608166277,0.0,0.0,0.0,0.0,-0.0021454321686178446,-0.00552669633179903,0.001953398808836937,1.0001074075698853,0.0,0.0,0.0,0.7487322688102722,1.5373109579086304,5.695008277893066,-135.52203369140625,0
2012.1090000000004,0.014367657713592052,0.014186251908540726,0.00022993686434347183,0.0,0.0,0.0,0.0,-0.003595061367377639,-0.002809729892760515,-0.0034452956169843674,1.0007927417755127,0.0,0.0,0.0,0.7481310963630676,1.5378249883651733,5.696315288543701,-135.4132080078125,0
2022.014000000001,0.014307941310107708,0.014120567589998245,0.000185953380423598,0.0,0.0,0.0,0.0,0.0006890148506499827,0.000363352766726166,2.1397781893028878e-05,0.9988412857055664,0.0,0.0,0.0,0.7471018433570862,1.5400876998901367,5.696124076843262,-135.22691345214844,0
2031.929,0.014426256529986858,0.014170399866998196,0.0002641227620188147,0.0,0.0,0.0,0.0,-0.002388052409514785,-0.0012284700060263276,3.3261836506426334e-05,0.9984779953956604,0.0,0.0,0.0,0.7538129687309265,1.5448745489120483,5.717682361602783,-136.441650390625,0
2041.8359999999993,0.014362694695591927,0.014114183373749256,0.0002333538286620751,0.0,0.0,0.0,0.0,-0.002452050568535924,0.005504744127392769,-0.001971672521904111,0.998901903629303,0.0,0.0,0.0,0.7467406988143921,1.5377429723739624,5.715592384338379,-135.1615447998047,0
2051.7530000000006,0.014440233819186687,0.014169851318001747,0.000304433488054201,0.0,0.0,0.0,0.0,-0.003226592903956771,-0.003703345311805606,0.00587863614782691,0.9987858533859253,0.0,0.0,0.0,0.7457025051116943,1.5372002124786377,5.7019147872924805,-134.9736328125,0
2061.657000000001,0.014384600333869457,0.014112702570855618,0.0002596631529740989,0.0,0.0,0.0,0.0,-0.00031093606958165765,0.0010595371713861823,0.0005083219730295241,1.0001581907272339,0.0,0.0,0.0,0.7462350130081177,1.5371463298797607,5.703507423400879,-135.07003784179688,0
2071.5689999999995,0.014379636384546757,0.014106768183410168,0.00027588935336098075,0.0,0.0,0.0,0.0,0.0026516513898968697,-0.00013864078209735453,-0.0007429546676576138,0.9998475313186646,0.0,0.0,0.0,0.745360255241394,1.5331242084503174,5.702811241149902,-134.9116973876953,0
2081.4789999999994,0.014346674084663391,0.014098486863076687,0.00020899891387671232,0.0,0.0,0.0,0.0,0.0001520895748399198,-0.0015589643735438585,-0.003238262142986059,0.9989462494850159,0.0,0.0,0.0,0.7450383305549622,1.524140477180481,5.694949626922607,-134.85342407226562,0
2091.397000000001,0.014426968060433865,0.014106661081314087,0.0002592308446764946,0.0,0.0,0.0,0.0,0.0010572905885055661,-0.00012916426931042224,0.0016509884735569358,0.9992678761482239,0.0,0.0,0.0,0.7430980801582336,1.524217963218689,5.689753532409668,-134.50221252441406,0
2101.304,0.014352140948176384,0.014047072269022465,0.00023685276391915977,0.0,0.0,0.0,0.0,0.00019941641949117184,0.004109551198780537,-0.0029984849970787764,0.9998651146888733,0.0,0.0,0.0,0.7433153986930847,1.5237327814102173,5.692814350128174,-134.5415496826172,0
2111.214,0.01440544705837965,0.01407545991241932,0.00029321169131435454,0.0,0.0,0.0,0.0,-0.002681625774130225,0.002020338550209999,-0.000284929818008095,1.0005589723587036,0.0,0.0,0.0,0.7414687275886536,1.5250070095062256,5.6852498054504395,-134.20730590820312,0
2121.130000000001,0.014333310537040234,0.014007095247507095,0.0002673414128366858,0.0,0.0,0.0,0.0,0.00013675734226126224,0.0021533286198973656,0.005183397326618433,1.001781702041626,0.0,0.0,0.0,0.7412318587303162,1.5207961797714233,5.678818702697754,-134.1644287109375,0
2131.0380000000005,0.014397670514881611,0.014030209742486477,0.0003273791226092726,0.0,0.0,0.0,0.0,0.0024846578016877174,0.0013589960290119052,0.0009527148795314133,1.0025827884674072,0.0,0.0,0.0,0.74125075340271,1.519230842590332,5.671861171722412,-134.16786193847656,0
2140.9539999999997,0.014325568452477455,0.013951296918094158,0.0003041844174731523,0.0,0.0,0.0,0.0,0.0009191402932628989,0.0005436398205347359,-0.00504077086225152,0.9999762773513794,0.0,0.0,0.0,0.7402848601341248,1.5167800188064575,5.661194324493408,-133.9930419921875,0
2150.861000000001,0.014251342043280602,0.013930438086390495,0.0003069272788707167,0.0,0.0,0.0,0.0,-0.0006174728623591363,-0.0003885704791173339,-0.0047847130335867405,0.9991945624351501,0.0,0.0,0.0,0.7384904026985168,1.5195643901824951,5.654970645904541,-133.66822814941406,0
