timestamp,stateEstimate.x,stateEstimate.y,stateEstimate.z,controller.cmd_thrust,controller.cmd_roll,controller.cmd_pitch,controller.cmd_yaw,controller.r_roll,controller.r_pitch,controller.r_yaw,controller.accelz,controller.actuatorThrust,controller.roll,controller.pitch,controller.yaw,controller.rollRate,controller.pitchRate,controller.yawRate,controller.ctr_yaw
0.0,-7.71744962548837e-05,-0.00019712824723683298,-0.00016033518477343023,0.0,0.0,0.0,0.0,-0.0009329882450401783,-0.00018022599397227168,0.002543962560594082,0.998684823513031,0.0,0.0,0.0,0.2540264129638672,2.1149630546569824,5.0018839836120605,-45.979286193847656,0
9.898999999999432,-0.00012956917635165155,-0.0001566885766806081,-0.00017705251229926944,0.0,0.0,0.0,0.0,-0.003311410779133439,0.0005288109532557428,0.004188818857073784,1.0003910064697266,0.0,0.0,0.0,0.25355178117752075,2.1096596717834473,4.99778938293457,-45.893375396728516,0
19.815999999998894,-8.442676335107535e-05,-0.00019572180463001132,-0.00014711955736856908,0.0,0.0,0.0,0.0,-0.001352326013147831,0.00013683937140740454,0.0022140946239233017,0.9995737671852112,0.0,0.0,0.0,0.2533951699733734,2.108170509338379,4.991903305053711,-45.865028381347656,0
29.722999999999956,-9.685684199212119e-05,-8.993615483632311e-05,-0.0001951249287230894,0.0,0.0,0.0,0.0,0.0005882977857254446,0.00311532081104815,-0.0008285153307951987,0.9991505742073059,0.0,0.0,0.0,0.2527746260166168,2.1070287227630615,4.981169700622559,-45.75271224975586,0
39.643999999998414,-8.83678367245011e-05,-0.00012959657760802656,-0.00017797738837543875,0.0,0.0,0.0,0.0,0.0023498698137700558,-0.00022666568111162633,0.0008255395805463195,0.9998750686645508,0.0,0.0,0.0,0.2529228925704956,2.1011240482330322,4.961684226989746,-45.77954864501953,0
49.54599999999846,-0.00015629487461410463,-0.0001254761591553688,-0.0001894601882668212,0.0,0.0,0.0,0.0,0.0021281177178025246,-0.005095961503684521,0.0032014555763453245,0.9991573691368103,0.0,0.0,0.0,0.2516443133354187,2.0930957794189453,4.950565338134766,-45.54812240600586,0
59.46499999999833,-9.825314191402867e-05,-0.00010627075243974105,-0.00012732989853248,0.0,0.0,0.0,0.0,0.0009602755890227854,0.0020301949698477983,-0.0012150389375165105,0.998969554901123,0.0,0.0,0.0,0.25230851769447327,2.0851948261260986,4.960750102996826,-45.66834259033203,0
69.37199999999939,-0.00015136257570702583,-6.108274101279676e-05,-0.00014018638466950506,0.0,0.0,0.0,0.0,-0.0016459530452266335,0.004332284443080425,0.00046032393584027886,0.9998164772987366,0.0,0.0,0.0,0.2516707181930542,2.0852766036987305,4.967080593109131,-45.55290222167969,0
79.29899999999907,-0.00010996809578500688,-9.056909038918093e-05,-0.00010279695561621338,0.0,0.0,0.0,0.0,-0.0026838742196559906,0.0013872828567400575,0.001076993066817522,0.999367892742157,0.0,0.0,0.0,0.2507844567298889,2.0780718326568604,4.952476978302002,-45.39248275756836,0
89.19700000000012,-0.0001640897971810773,-4.203743446851149e-05,-0.00011086861923104152,0.0,0.0,0.0,0.0,-0.002111426554620266,-0.006479627452790737,0.00041308082290925086,1.0001232624053955,0.0,0.0,0.0,0.2587217688560486,2.083190679550171,4.938755989074707,-46.829158782958984,0
99.12099999999919,-5.02933980897069e-05,-0.00013354053953662515,-7.92520004324615e-05,0.0,0.0,0.0,0.0,-0.0022861300967633724,-0.005009485874325037,-0.0006540887407027185,0.9980265498161316,0.0,0.0,0.0,0.2597305476665497,2.080976963043213,4.9472975730896,-47.01174545288086,0
109.02199999999903,-6.664593820460141e-05,-4.699073906522244e-05,-0.00012304936535656452,0.0,0.0,0.0,0.0,-0.0006886981427669525,0.004812011495232582,-0.003368980949744582,1.0005005598068237,0.0,0.0,0.0,0.2664840817451477,2.099614143371582,4.957827568054199,-48.23414993286133,0
118.95399999999972,-7.537745841545984e-05,-8.834453910822049e-05,-0.00010988448048010468,0.0,0.0,0.0,0.0,-0.0015029885107651353,-0.0007286355830729008,0.0013983836397528648,0.9998243451118469,0.0,0.0,0.0,0.2667514681816101,2.0989716053009033,4.959475994110107,-48.28255081176758,0
128.85299999999916,-0.00011425876436987892,-8.252199040725827e-05,-0.00015721848467364907,0.0,0.0,0.0,0.0,0.0004506934783421457,0.0029633415397256613,-0.0019318765262141824,0.9978882074356079,0.0,0.0,0.0,0.26646119356155396,2.1003286838531494,4.949558258056641,-48.23000717163086,0
138.76800000000003,-0.00012235878966748714,-0.00011906808504136279,-0.00014278289745561779,0.0,0.0,0.0,0.0,0.0007567171123810112,0.003742232918739319,-0.003129412420094013,0.9985278248786926,0.0,0.0,0.0,0.26572561264038086,2.097132921218872,4.945384502410889,-48.096858978271484,0
148.67499999999927,-0.0001346361095784232,-2.9255854315124452e-05,-0.00020010680600535125,0.0,0.0,0.0,0.0,-0.0008628354407846928,-0.0005240275640971959,-0.0022117693442851305,1.0007243156433105,0.0,0.0,0.0,0.27275198698043823,2.118867874145508,4.933024883270264,-49.368656158447266,0
158.59599999999955,-9.731420141179115e-05,-4.656700912164524e-05,-0.0001639790425542742,0.0,0.0,0.0,0.0,0.0002236622094642371,-0.004000217188149691,-0.0045821391977369785,1.000848650932312,0.0,0.0,0.0,0.27307578921318054,2.114006519317627,4.926918983459473,-49.42726135253906,0
168.503999999999,-0.00017143826698884368,-6.724896957166493e-05,-0.00017288012895733118,0.0,0.0,0.0,0.0,0.0008338804473169148,0.001571102999150753,-0.0039120144210755825,1.0017032623291016,0.0,0.0,0.0,0.2772805094718933,2.123188018798828,4.932236194610596,-50.188323974609375,0
178.41799999999967,-0.00013401660544332117,-8.588223136030138e-05,-0.00013192366168368608,0.0,0.0,0.0,0.0,0.001703155692666769,0.00023987956228666008,0.0038243234157562256,1.0015976428985596,0.0,0.0,0.0,0.27587810158729553,2.127915143966675,4.924515247344971,-49.934486389160156,0
188.32999999999993,-0.00018589530372992158,-8.191407687263563e-05,-0.00015984204947017133,0.0,0.0,0.0,0.0,0.0015170673141255975,0.0011223226319998503,-0.001755923731252551,1.0009433031082153,0.0,0.0,0.0,0.2749636471271515,2.1236116886138916,4.914306640625,-49.76896286010742,0
198.24399999999878,-0.00012466659245546907,-0.0001212454226333648,-0.00011862027895404026,0.0,0.0,0.0,0.0,0.0014212338719516993,-0.0031901353504508734,0.0006598900072276592,1.0004949569702148,0.0,0.0,0.0,0.2747587263584137,2.1229403018951416,4.904354095458984,-49.731876373291016,0
208.16499999999905,-0.00017476874927524477,-7.102829840732738e-05,-0.00012935645645484328,0.0,0.0,0.0,0.0,-0.0009457145933993161,-0.000777527573518455,6.154318543849513e-05,0.9985747337341309,0.0,0.0,0.0,0.2750132977962494,2.123701810836792,4.906707763671875,-49.7779541015625,0
218.07699999999932,-0.00012451031943783164,-0.00010923866648226976,-8.589909703005105e-05,0.0,0.0,0.0,0.0,0.004414079710841179,-2.7390566174290143e-05,0.0017719954485073686,0.9985150694847107,0.0,0.0,0.0,0.27422627806663513,2.119818925857544,4.905842304229736,-49.635501861572266,0
227.98199999999997,-0.00013366770872380584,-2.0159202904324047e-05,-0.00013717559340875596,0.0,0.0,0.0,0.0,0.0001980454399017617,0.0031576761975884438,-0.00039622638723813,1.0005276203155518,0.0,0.0,0.0,0.2806773781776428,2.1383142471313477,4.908493518829346,-50.80316162109375,0
237.89099999999962,-6.513316475320607e-05,-0.00013480050256475806,-0.00013010844122618437,0.0,0.0,0.0,0.0,0.0035454535391181707,-0.00012105052155675367,0.002976412884891033,1.0009236335754395,0.0,0.0,0.0,0.2815206050872803,2.1341826915740967,4.899508476257324,-50.95579528808594,0
247.80499999999847,-7.684419688303024e-05,-5.109808626002632e-05,-0.00018066546181216836,0.0,0.0,0.0,0.0,0.0016125664114952087,0.0011341782519593835,-0.0013254618970677257,0.9983528256416321,0.0,0.0,0.0,0.2808222770690918,2.1275713443756104,4.892240524291992,-50.82938766479492,0
257.71799999999894,-5.438998050522059e-05,-0.00012704638356808573,-0.0001733458775561303,0.0,0.0,0.0,0.0,0.0001459854538552463,-0.0008509582839906216,-0.000679593242239207,1.00084388256073,0.0,0.0,0.0,0.28072434663772583,2.1259098052978516,4.891458511352539,-50.81166458129883,0
267.6329999999998,-8.245365461334586e-05,-6.183700315887108e-05,-0.00021277909399941564,0.0,0.0,0.0,0.0,0.002767354715615511,0.002023335313424468,0.003374287160113454,0.9987140893936157,0.0,0.0,0.0,0.2796933054924011,2.1231162548065186,4.881134986877441,-50.62504959106445,0
277.5519999999997,-9.900481381919235e-05,-6.710550223942846e-05,-0.00018515628471504897,0.0,0.0,0.0,0.0,0.0023236938286572695,0.0006014271639287472,-0.0029353369027376175,0.9972917437553406,0.0,0.0,0.0,0.2794771194458008,2.1172561645507812,4.878637790679932,-50.58591842651367,0
287.46599999999853,-0.00014235544949769974,-5.3487965487875044e-05,-0.00022510629787575454,0.0,0.0,0.0,0.0,-0.0033805109560489655,0.0014485676074400544,0.003068158868700266,0.9996910095214844,0.0,0.0,0.0,0.27267464995384216,2.1275200843811035,4.877452373504639,-49.35465621948242,0
297.375,-6.443109305109829e-05,-5.5066389904823154e-05,-0.000170934057678096,0.0,0.0,0.0,0.0,0.000735638604965061,-0.002201271243393421,-0.003288564970716834,1.0006592273712158,0.0,0.0,0.0,0.27147969603538513,2.126413583755493,4.86831521987915,-49.138362884521484,0
307.28499999999985,-0.00010095532343257219,6.418164957722183e-06,-0.00020475879136938602,0.0,0.0,0.0,0.0,-0.0016210341127589345,-0.0004946119152009487,-0.0009370213956572115,0.9992099404335022,0.0,0.0,0.0,0.27159327268600464,2.1324565410614014,4.861739158630371,-49.15892028808594,0
317.1919999999991,-8.824226824799553e-05,-3.255422052461654e-05,-0.0001839829928940162,0.0,0.0,0.0,0.0,0.0005355288158170879,0.002145100384950638,-0.0009289311128668487,0.999701976776123,0.0,0.0,0.0,0.27023211121559143,2.1333274841308594,4.855685234069824,-48.91254806518555,0
327.11099999999897,-9.188845433527604e-05,6.848852353869006e-05,-0.0002507863100618124,0.0,0.0,0.0,0.0,-0.0009310638415627182,-0.0023442148230969906,0.006839501205831766,0.9995657205581665,0.0,0.0,0.0,0.27049487829208374,2.1289000511169434,4.859927177429199,-48.960113525390625,0
337.021999999999,-3.1369221687782556e-05,-4.203165372018702e-05,-0.0002560788707341999,0.0,0.0,0.0,0.0,0.0030412180349230766,-0.00041110636084340513,0.002012859331443906,1.0015652179718018,0.0,0.0,0.0,0.27055370807647705,2.131514310836792,4.863722801208496,-48.97075653076172,0
346.9339999999993,-0.00013488282274920493,2.376767952227965e-05,-0.00031662985566072166,0.0,0.0,0.0,0.0,8.359622006537393e-05,-0.0007417956367135048,-0.0002648895315360278,1.0011446475982666,0.0,0.0,0.0,0.2731664478778839,2.1265738010406494,4.853375434875488,-49.44367218017578,0
356.8399999999983,-0.00013488282274920493,2.376767952227965e-05,-0.00031662985566072166,0.0,0.0,0.0,0.0,0.0006585509399883449,-0.0007946926052682102,-0.0012065022019669414,0.9991036057472229,0.0,0.0,0.0,0.2731664478778839,2.1265738010406494,4.853375434875488,-49.44367218017578,0
366.7599999999984,-0.0002950061752926558,6.638987542828545e-06,-0.00033963823807425797,0.0,0.0,0.0,0.0,-0.0002491653722245246,-0.0012343662092462182,0.00047233758959919214,1.0001879930496216,0.0,0.0,0.0,0.28051042556762695,2.13202166557312,4.842779159545898,-50.772945404052734,0
376.6779999999999,-9.276276250602677e-05,-3.947727964259684e-05,-0.0002725956146605313,0.0,0.0,0.0,0.0,-0.0025910180993378162,0.0007930280989967287,-0.0023693223483860493,1.0007829666137695,0.0,0.0,0.0,0.2769273519515991,2.123405933380127,4.887221336364746,-50.1244010925293,0
386.5839999999989,-0.00022440345492213964,-3.6719662602990866e-05,-0.00029558324604295194,0.0,0.0,0.0,0.0,-0.0014379002386704087,0.0024749834556132555,0.0008740012417547405,1.0014680624008179,0.0,0.0,0.0,0.2825886309146881,2.1372485160827637,4.873863220214844,-51.14910125732422,0
396.4889999999996,-0.00010836909495992586,-2.5691533664939925e-05,-0.00024939177092164755,0.0,0.0,0.0,0.0,0.0023561310954391956,0.00075900973752141,0.0014275240246206522,0.9999738335609436,0.0,0.0,0.0,0.2825886309146881,2.1372485160827637,4.873863220214844,-51.14910125732422,0
406.4029999999984,-0.00016517149924766272,2.6700647595134797e-06,-0.00027116507408209145,0.0,0.0,0.0,0.0,-0.003239390905946493,0.0021056542173027992,-0.0009271883754990995,1.0014123916625977,0.0,0.0,0.0,0.2828656733036041,2.129545211791992,4.866818428039551,-51.199249267578125,0
416.3249999999989,-9.675716864876449e-05,-3.1462026527151465e-05,-0.0002216302527813241,0.0,0.0,0.0,0.0,-0.001815123949199915,-0.0011203807080164552,-0.0012261962983757257,1.0000358819961548,0.0,0.0,0.0,0.2818666696548462,2.1172244548797607,4.8595170974731445,-51.0184326171875,0
426.23199999999997,-0.00014191707305144519,4.451477707334561e-06,-0.00024404095893260092,0.0,0.0,0.0,0.0,-0.0002871737815439701,0.0021327161230146885,0.0005897421506233513,0.9989686608314514,0.0,0.0,0.0,0.28267380595207214,2.1185641288757324,4.8539204597473145,-51.164520263671875,0
436.14999999999964,-0.00022438264568336308,-2.556045728852041e-05,-0.00024115653650369495,0.0,0.0,0.0,0.0,-0.0012987785739824176,0.001371011370792985,-0.00052622240036726,0.9983883500099182,0.0,0.0,0.0,0.2820909321308136,2.118595600128174,4.847022533416748,-51.05902099609375,0
446.0589999999993,-0.00029436289332807064,-3.3087148040067405e-05,-0.0002540067653171718,0.0,0.0,0.0,0.0,-0.001762459403835237,0.00013343461614567786,0.0024224710650742054,0.9980081915855408,0.0,0.0,0.0,0.27222585678100586,2.1266531944274902,4.838632106781006,-49.27341842651367,0
455.96599999999853,-0.00012932458776049316,-0.00010383668995928019,-0.00015403845463879406,0.0,0.0,0.0,0.0,0.0025205661077052355,0.00161448260769248,-0.0023059581872075796,0.9989702701568604,0.0,0.0,0.0,0.26942673325538635,2.1222708225250244,4.882740497589111,-48.76677703857422,0
465.884,-0.00014899999951012433,-3.532895425450988e-05,-0.00019453882123343647,0.0,0.0,0.0,0.0,0.0018392556812614202,0.004891862627118826,-0.0019050375558435917,1.0014439821243286,0.0,0.0,0.0,0.2770138382911682,2.1412172317504883,4.903841972351074,-50.140052795410156,0
475.78499999999985,-6.815170490881428e-05,-0.00013447301171254367,-0.00017533553182147443,0.0,0.0,0.0,0.0,-0.0004315705446060747,0.002391241490840912,-0.0024728048592805862,1.0018101930618286,0.0,0.0,0.0,0.27647459506988525,2.1337013244628906,4.885707855224609,-50.042449951171875,0
485.7049999999999,-0.00012979171879123896,-0.00012905817129649222,-0.0001744460896588862,0.0,0.0,0.0,0.0,0.004401942249387503,0.004427555948495865,0.004156133625656366,0.998695969581604,0.0,0.0,0.0,0.2673284709453583,2.1426591873168945,4.863376617431641,-48.38698196411133,0
495.616,-0.0001056051260093227,-0.00012541784963104874,-0.0001140400127042085,0.0,0.0,0.0,0.0,0.0009903975296765566,-0.002202545991167426,0.001379910740070045,0.9991803765296936,0.0,0.0,0.0,0.2665118873119354,2.134788751602173,4.850250244140625,-48.23918151855469,0
505.53299999999945,-0.00011373837332939729,-3.570217813830823e-05,-0.0001607362792128697,0.0,0.0,0.0,0.0,0.00060521240811795,-0.00105182989500463,-0.0026681513991206884,1.000442624092102,0.0,0.0,0.0,0.2680898904800415,2.1336803436279297,4.8440775871276855,-48.524803161621094,0
515.4349999999995,-5.34018618054688e-05,-7.606006693094969e-05,-0.00011895400530193001,0.0,0.0,0.0,0.0,5.262534159555798e-06,-0.0011694991262629628,-0.0006176871247589588,1.0010162591934204,0.0,0.0,0.0,0.2678453326225281,2.125413179397583,4.842609405517578,-48.480533599853516,0
525.3549999999996,-8.715088915778324e-05,-6.573218706762418e-05,-0.00015708678984083235,0.0,0.0,0.0,0.0,-0.0017259842716157436,0.0007488541305065155,-0.0011182049056515098,1.0003169775009155,0.0,0.0,0.0,0.26831600069999695,2.1268372535705566,4.840376853942871,-48.565731048583984,0
535.2609999999986,-6.185345409903675e-05,-0.00013239165127743036,-0.00013837199367117137,0.0,0.0,0.0,0.0,-0.0007884746883064508,0.0008140837890096009,-0.0037406852934509516,1.0029743909835815,0.0,0.0,0.0,0.2680743932723999,2.1230099201202393,4.835566997528076,-48.52199935913086,0
545.1769999999997,-4.6213477617129683e-05,-4.297717532608658e-05,-0.00021840172121301293,0.0,0.0,0.0,0.0,0.0005382067756727338,-0.00035723153268918395,-0.0031408730428665876,1.0012638568878174,0.0,0.0,0.0,0.26761308312416077,2.125035285949707,4.830643653869629,-48.438499450683594,0
555.0839999999989,-5.464879359351471e-05,-4.480073039303534e-05,-0.00017933982599060982,0.0,0.0,0.0,0.0,0.0007347367354668677,-0.002384837483987212,-0.0018368633463978767,0.9980019927024841,0.0,0.0,0.0,0.265561044216156,2.1222033500671387,4.820039749145508,-48.067073822021484,0
564.9989999999998,-0.0001451572752557695,-0.00012048349162796512,-0.0001710870274109766,0.0,0.0,0.0,0.0,-0.00047567044384777546,-0.0008742875652387738,0.0005114570376463234,1.0018881559371948,0.0,0.0,0.0,0.26498281955718994,2.115586042404175,4.814842700958252,-47.96242141723633,0
574.9110000000001,-0.00012855792010668665,-0.00012268293357919902,-0.00011977705435128883,0.0,0.0,0.0,0.0,-0.0001987490541068837,0.0034031446557492018,-0.003842530306428671,1.0002312660217285,0.0,0.0,0.0,0.2644822299480438,2.110003709793091,4.816508769989014,-47.87181091308594,0
584.8269999999993,-0.00022900989279150963,-0.00019408810476306826,-9.474351099925116e-05,0.0,0.0,0.0,0.0,-0.0014503109268844128,-0.0018267878331243992,-0.0010185438441112638,1.0021806955337524,0.0,0.0,0.0,0.25600242614746094,2.1002955436706543,4.807902812957764,-46.33694839477539,0
594.7439999999988,-0.00020771102572325617,-0.00019682715355884284,-3.109498356934637e-05,0.0,0.0,0.0,0.0,0.0007400347967632115,0.0024880359414964914,0.0003518576268106699,1.0006176233291626,0.0,0.0,0.0,0.25524869561195374,2.0985333919525146,4.797484397888184,-46.200523376464844,0
604.6529999999984,-0.00022159474610816687,-0.00012885410978924483,-7.461942732334137e-05,0.0,0.0,0.0,0.0,0.000514190411195159,-0.001893486245535314,-0.0012903559254482388,0.998980700969696,0.0,0.0,0.0,0.2553659677505493,2.096979856491089,4.796473979949951,-46.22174835205078,0
614.5599999999995,-0.00015626527601853013,-0.0001634082436794415,-1.192408672068268e-05,0.0,0.0,0.0,0.0,-0.000590006704442203,-0.0017630320508033037,0.005885313730686903,1.0003571510314941,0.0,0.0,0.0,0.25485214591026306,2.0909371376037598,4.790566444396973,-46.128746032714844,0
624.4719999999998,-0.00015520540182478726,-0.00010417320299893618,-7.897542673163116e-05,0.0,0.0,0.0,0.0,-0.002738633658736944,-0.0030175941064953804,-0.0016798536526039243,1.0003175735473633,0.0,0.0,0.0,0.25503963232040405,2.08752179145813,4.7878031730651855,-46.16268539428711,0
634.3909999999996,-4.7955141781130806e-05,-0.00015601172344759107,-1.5214171071420424e-05,0.0,0.0,0.0,0.0,-0.0005722318310290575,0.0037322368007153273,0.0010438939789310098,1.0023480653762817,0.0,0.0,0.0,0.25527679920196533,2.085092782974243,4.78957462310791,-46.20561218261719,0
644.3079999999991,-5.1921662816312164e-05,-5.743249857914634e-05,-6.204930105013773e-05,0.0,0.0,0.0,0.0,-0.002128512831404805,0.0006125625222921371,3.110830220975913e-05,1.0018055438995361,0.0,0.0,0.0,0.26125362515449524,2.110833168029785,4.793663501739502,-47.28742218017578,0
654.2099999999991,-9.104250784730539e-05,-8.671567047713324e-05,-3.281452882220037e-05,0.0,0.0,0.0,0.0,0.0019240562105551362,0.0014630835503339767,-0.000549954129382968,0.9993985295295715,0.0,0.0,0.0,0.2621834874153137,2.103625774383545,4.795159339904785,-47.45573043823242,0
664.1279999999988,-8.212841203203425e-05,-2.208181193452674e-08,-0.00011190217628609389,0.0,0.0,0.0,0.0,0.0010728632332757115,0.0037624144461005926,-0.002338309772312641,1.0007635354995728,0.0,0.0,0.0,0.2615515887737274,2.0980746746063232,4.785061359405518,-47.34135818481445,0
674.0339999999997,-7.858719618525356e-05,-5.746149327023886e-05,-9.165310621028766e-05,0.0,0.0,0.0,0.0,-0.00017478337395004928,0.0045843482948839664,-0.000876310863532126,0.998487651348114,0.0,0.0,0.0,0.2618299126625061,2.0972304344177246,4.773293972015381,-47.3917350769043,0
683.9559999999983,-0.00020334759028628469,-9.804100045585074e-06,-0.0001263042213395238,0.0,0.0,0.0,0.0,-0.0015181268099695444,-0.005471555516123772,-0.0007581711979582906,0.9976478815078735,0.0,0.0,0.0,0.26056456565856934,2.092071056365967,4.743982791900635,-47.16270446777344,0
693.8589999999986,-7.682271098019555e-05,-5.502624117070809e-05,-0.00011045233986806124,0.0,0.0,0.0,0.0,-0.00027311110170558095,0.0019308713963255286,-0.006955623626708984,0.9996073842048645,0.0,0.0,0.0,0.26056456565856934,2.092071056365967,4.743982791900635,-47.16270446777344,0
703.780999999999,-0.00022662634728476405,-8.008030999917537e-05,-0.0001510837028035894,0.0,0.0,0.0,0.0,-0.0011461225803941488,0.002594115911051631,-0.001786175649613142,1.0002447366714478,0.0,0.0,0.0,0.2580299973487854,2.0828371047973633,4.7338433265686035,-46.70394515991211,0
713.6889999999985,-9.967706864699721e-05,-6.707569991704077e-05,-0.00010348887008149177,0.0,0.0,0.0,0.0,-0.0011822280939668417,-0.0009504234767518938,0.00034656544448807836,0.9972813129425049,0.0,0.0,0.0,0.2580299973487854,2.0828371047973633,4.7338433265686035,-46.70394515991211,0
723.6059999999998,-0.0002684113569557667,-9.382070857100189e-05,-0.00011709705722751096,0.0,0.0,0.0,0.0,0.00012024720490444452,-0.00479624280706048,-0.0049118404276669025,0.9964330196380615,0.0,0.0,0.0,0.2522718012332916,2.0862369537353516,4.73184871673584,-45.66169738769531,0
733.5149999999994,-0.00011471359903225675,-9.794862853595987e-05,-6.82325116940774e-05,0.0,0.0,0.0,0.0,0.002502359915524721,0.002325593028217554,-0.0016527118859812617,0.9999390244483948,0.0,0.0,0.0,0.2522718012332916,2.0862369537353516,4.73184871673584,-45.66169738769531,0
743.4309999999987,-0.00018258484487887472,-8.22708461782895e-05,-0.00010118797945324332,0.0,0.0,0.0,0.0,-0.00136081303935498,0.0030185580253601074,0.0005325302481651306,1.000612497329712,0.0,0.0,0.0,0.25206583738327026,2.0823893547058105,4.739909648895264,-45.62441635131836,0
753.3359999999993,-0.00011178211570950225,-0.00010446945088915527,-4.402729246066883e-05,0.0,0.0,0.0,0.0,0.0009307526634074748,0.0025096808094531298,-0.0010794573463499546,1.0034164190292358,0.0,0.0,0.0,0.25025928020477295,2.080226421356201,4.722017288208008,-45.297428131103516,0
763.259,-0.00018002469732891768,-0.00013374148693401366,-7.848621316952631e-05,0.0,0.0,0.0,0.0,0.00028470769757404923,0.0025913279969245195,0.0035765066277235746,1.0012959241867065,0.0,0.0,0.0,0.25075820088386536,2.0738327503204346,4.714573860168457,-45.387733459472656,0
773.1599999999999,-0.00012232022709213197,-0.00019138597417622805,-3.7596382753690705e-05,0.0,0.0,0.0,0.0,-0.00010663906869012862,0.0011171110672876239,-0.002729702042415738,1.000611662864685,0.0,0.0,0.0,0.2505837678909302,2.0700159072875977,4.710206031799316,-45.35615921020508,0
783.0889999999999,-0.0001257799449376762,-7.514313620049506e-05,-0.00010707900219131261,0.0,0.0,0.0,0.0,-0.0035330879036337137,-0.001263091922737658,-0.00044395416625775397,1.001347303390503,0.0,0.0,0.0,0.25494512915611267,2.0869154930114746,4.708301067352295,-46.14557647705078,0
792.9869999999992,-4.8841469833860174e-05,-0.00012668597628362477,-6.039225627318956e-05,0.0,0.0,0.0,0.0,-0.00024394181673415005,-0.0010985730914399028,0.004946765024214983,0.9991769790649414,0.0,0.0,0.0,0.2553957998752594,2.0839319229125977,4.690990447998047,-46.22714614868164,0
802.902,-8.499353134538978e-05,-8.866538701113313e-05,-0.0001102473252103664,0.0,0.0,0.0,0.0,-0.00011228882794966921,-0.0007504608947783709,0.001858340809121728,0.9989907741546631,0.0,0.0,0.0,0.2556692063808441,2.0808169841766357,4.693150520324707,-46.276634216308594,0
812.8089999999993,-8.319374319398776e-05,-0.00015656478353776038,-9.367187885800377e-05,0.0,0.0,0.0,0.0,-0.0005323457880876958,0.00704225804656744,-0.004179775714874268,0.998486340045929,0.0,0.0,0.0,0.25602707266807556,2.0762033462524414,4.688515663146973,-46.34141159057617,0
822.7249999999985,-0.00010367442155256867,-6.526036304421723e-05,-0.00015102056204341352,0.0,0.0,0.0,0.0,-8.973055810201913e-05,-0.003815575037151575,0.0014323206851258874,0.9999803304672241,0.0,0.0,0.0,0.25586777925491333,2.0743534564971924,4.686923027038574,-46.31257629394531,0
832.6349999999984,-0.00010467278480064124,-8.0213911132887e-05,-0.0001167143345810473,0.0,0.0,0.0,0.0,0.00176565523725003,0.001776395016349852,0.001728232018649578,0.9981808066368103,0.0,0.0,0.0,0.2553435266017914,2.0710062980651855,4.671443939208984,-46.217689514160156,0
842.5529999999999,-0.00013490105629898608,-2.9432123938022414e-07,-0.00017069144814740866,0.0,0.0,0.0,0.0,-0.00032487689168192446,-0.00047327543143182993,-9.082735778065398e-05,1.00008225440979,0.0,0.0,0.0,0.25587648153305054,2.0726749897003174,4.671721458435059,-46.314151763916016,0
852.4589999999989,-9.717731882119551e-05,-4.5831900933990255e-05,-0.0001392786216456443,0.0,0.0,0.0,0.0,0.0012916511623188853,0.00596635602414608,-0.0022918947506695986,0.9976505637168884,0.0,0.0,0.0,0.255683958530426,2.0698840618133545,4.666663646697998,-46.27930450439453,0
862.3809999999994,-0.00017694408597890288,-5.527720713871531e-05,-0.00015527497453149408,0.0,0.0,0.0,0.0,0.001066607073880732,-0.0008968929178081453,-0.0035242221783846617,0.99878990650177,0.0,0.0,0.0,0.25522586703300476,2.067810535430908,4.656454086303711,-46.19639205932617,0
872.2839999999997,-0.00012794515350833535,-8.49838470458053e-05,-0.00011216186976525933,0.0,0.0,0.0,0.0,0.0008404093096032739,0.0015149695100262761,-0.002695053117349744,1.0000537633895874,0.0,0.0,0.0,0.254747211933136,2.067558765411377,4.64406681060791,-46.1097526550293,0
882.2149999999983,-0.00020132500503677875,-9.489122749073431e-05,-0.00013751689402852207,0.0,0.0,0.0,0.0,-0.00011417280620662495,-0.002363498555496335,-0.0016805501654744148,0.9996241927146912,0.0,0.0,0.0,0.2541174590587616,2.0590381622314453,4.639461040496826,-45.995765686035156,0
892.1099999999988,-0.000156187335960567,-0.0001455118617741391,-0.00010650775220710784,0.0,0.0,0.0,0.0,0.0018826432060450315,-0.0012695828918367624,-0.0012163636274635792,1.0005781650543213,0.0,0.0,0.0,0.2537529468536377,2.0594117641448975,4.634631633758545,-45.929786682128906,0
902.0379999999986,-0.00020800177298951894,-0.00010651820048224181,-0.0001407358213327825,0.0,0.0,0.0,0.0,0.0030733707826584578,-0.0015960299642756581,0.0002686820225790143,1.0004751682281494,0.0,0.0,0.0,0.24627462029457092,2.072613000869751,4.640722751617432,-44.57619857788086,0
911.9380000000001,-0.00017410475993528962,-8.669727685628459e-05,-7.771223317831755e-05,0.0,0.0,0.0,0.0,0.0008932703058235347,-0.0011422630632296205,0.0029232336673885584,1.0004278421401978,0.0,0.0,0.0,0.24465930461883545,2.0740878582000732,4.633259296417236,-44.28382110595703,0
921.857,-0.00022198108490556479,-6.224826211109757e-05,-0.00012140649050706998,0.0,0.0,0.0,0.0,0.0011485578725114465,0.003409666707739234,0.004804297350347042,0.9991115927696228,0.0,0.0,0.0,0.23853300511837006,2.0800132751464844,4.641870021820068,-43.17494583129883,0
931.759,-0.00013839695020578802,-0.00010012126585934311,-6.552832928718999e-05,0.0,0.0,0.0,0.0,0.0022119469940662384,0.004139901604503393,0.0006368471658788621,0.9987286925315857,0.0,0.0,0.0,0.24033379554748535,2.075852155685425,4.631964683532715,-43.500892639160156,0
941.6799999999985,-0.00019533226441126317,-8.602217712905258e-05,-9.782848792383447e-05,0.0,0.0,0.0,0.0,-0.000526732241269201,-0.0008264235220849514,-0.0022545866668224335,0.9998290538787842,0.0,0.0,0.0,0.2393612116575241,2.0698840618133545,4.630650520324707,-43.32485580444336,0
951.5839999999989,-0.00012985964713152498,-0.00011516158701851964,-4.331824675318785e-05,0.0,0.0,0.0,0.0,0.004244677256792784,0.0014470324385911226,-0.0004096482880413532,1.0012550354003906,0.0,0.0,0.0,0.2389378845691681,2.0583012104034424,4.619724750518799,-43.24822998046875,0
961.5029999999988,-0.00017718369781505316,-8.323000656673685e-05,-7.745363109279424e-05,0.0,0.0,0.0,0.0,-0.0008440734236501157,-0.0033950619399547577,0.0001433900761185214,1.0000436305999756,0.0,0.0,0.0,0.23905977606773376,2.0527219772338867,4.6055989265441895,-43.27029800415039,0
971.4089999999997,-0.0001273073721677065,-0.0001449776318622753,-4.862820787820965e-05,0.0,0.0,0.0,0.0,-0.00048400848754681647,0.005140641704201698,0.0013850050745531917,0.9990757703781128,0.0,0.0,0.0,0.23990854620933533,2.0501203536987305,4.616630554199219,-43.423927307128906,0
981.3339999999989,-0.00017115933587774634,-0.00011009933950845152,-8.492940833093598e-05,0.0,0.0,0.0,0.0,0.0007697711116634309,-0.0046364846639335155,1.0417666999273933e-05,0.9993497729301453,0.0,0.0,0.0,0.23426160216331482,2.0656845569610596,4.625423431396484,-42.401817321777344,0
991.235999999999,-0.00014141567226033658,-0.0001396733132423833,-4.1608411265769973e-05,0.0,0.0,0.0,0.0,0.00585105549544096,0.005219561979174614,-0.0032526955474168062,1.0007439851760864,0.0,0.0,0.0,0.23357641696929932,2.056941270828247,4.619226455688477,-42.277793884277344,0
1001.1569999999992,-0.00024804004351608455,-0.00010735983960330486,-0.00011552540672710165,0.0,0.0,0.0,0.0,-0.0028905565850436687,0.0014909637393429875,0.005206012632697821,0.9993273019790649,0.0,0.0,0.0,0.23770055174827576,2.0594072341918945,4.626504898071289,-43.02427673339844,0
1011.0679999999993,-0.00010978434147546068,-0.00013592359027825296,-8.51609293022193e-05,0.0,0.0,0.0,0.0,-0.00029968968010507524,-0.001294790068641305,0.0004771459207404405,1.0001580715179443,0.0,0.0,0.0,0.23770055174827576,2.0594072341918945,4.626504898071289,-43.02427673339844,0
1020.9849999999988,-0.00012542186595965177,-3.746049333130941e-05,-0.00014676929276902229,0.0,0.0,0.0,0.0,0.001275639166124165,0.0018919659778475761,-0.0005956066306680441,1.0019596815109253,0.0,0.0,0.0,0.23898069560527802,2.060819149017334,4.617177486419678,-43.255977630615234,0
1030.8909999999996,-5.565554238273762e-05,-0.00014064693823456764,-0.00013643063721247017,0.0,0.0,0.0,0.0,0.001046326127834618,0.0008025013958103955,-0.002968649612739682,0.9995326995849609,0.0,0.0,0.0,0.23930825293064117,2.0557470321655273,4.621174335479736,-43.31526565551758,0
1040.8049999999985,-9.545047942083329e-05,-9.988900274038315e-05,-0.00018560864555183798,0.0,0.0,0.0,0.0,-0.0011077449889853597,0.00023130129557102919,0.0007396902656182647,0.9978885650634766,0.0,0.0,0.0,0.23314209282398224,2.0610523223876953,4.616086483001709,-42.199180603027344,0
1050.7189999999991,-9.642756776884198e-05,-0.00013107326230965555,-0.00016073505685199052,0.0,0.0,0.0,0.0,-0.0003703288675751537,-0.003941693808883429,0.0022998973727226257,1.0003448724746704,0.0,0.0,0.0,0.23183779418468475,2.0563254356384277,4.604677677154541,-41.963104248046875,0
1060.6329999999998,-0.00014390877913683653,-8.094257646007463e-05,-0.00021782609110232443,0.0,0.0,0.0,0.0,5.5924032494658604e-05,0.00015702989185228944,0.00047858842299319804,1.0009182691574097,0.0,0.0,0.0,0.22519662976264954,2.071539878845215,4.617881774902344,-40.76103973388672,0
1070.5469999999987,-0.00024162104818969965,-0.0001115196937462315,-0.00022568665735889226,0.0,0.0,0.0,0.0,-0.0025301806163042784,-0.005758597981184721,0.0021457893308252096,1.0007095336914062,0.0,0.0,0.0,0.22462116181850433,2.072556734085083,4.606868743896484,-40.65687942504883,0
1080.4529999999995,-0.00032007452682591975,-0.0001317418209509924,-0.00026367403916083276,0.0,0.0,0.0,0.0,-0.0008081385749392211,-0.0028504047077149153,0.004426578059792519,0.9979654550552368,0.0,0.0,0.0,0.22386285662651062,2.0715765953063965,4.606961250305176,-40.51961898803711,0
1090.3689999999988,-0.000183704134542495,-0.00020595008390955627,-0.00016372004756703973,0.0,0.0,0.0,0.0,0.0008252551779150963,0.004027504939585924,-1.4212637324817479e-06,0.9967312216758728,0.0,0.0,0.0,0.22980165481567383,2.0671398639678955,4.667215824127197,-41.59455871582031,0
1100.2829999999994,-0.0002466465230099857,-0.000138121671625413,-0.00017401532386429608,0.0,0.0,0.0,0.0,-0.0003873922396451235,-0.0006964979693293571,0.0024039007257670164,0.9966185688972473,0.0,0.0,0.0,0.23768070340156555,2.0818982124328613,4.6555609703063965,-43.02067947387695,0
1110.1970000000001,-0.00019323309243191034,-0.0001914810563903302,-0.00013264204608276486,0.0,0.0,0.0,0.0,0.0014727598754689097,0.0003199093625880778,0.002435144269838929,0.999814510345459,0.0,0.0,0.0,0.23798269033432007,2.077316999435425,4.648615837097168,-43.075340270996094,0
1120.1029999999992,-0.00026582006830722094,-0.00021746641141362488,-0.00017231889069080353,0.0,0.0,0.0,0.0,-0.00151833426207304,-0.0003865085309371352,-0.0002903807326219976,1.0005667209625244,0.0,0.0,0.0,0.23867587745189667,2.0729422569274902,4.6416015625,-43.200809478759766,0
1130.018,-0.0002230597019661218,-0.00018400349654257298,-9.356259397463873e-05,0.0,0.0,0.0,0.0,0.002914966084063053,-0.00111823296174407,0.0007163776899687946,0.9989947080612183,0.0,0.0,0.0,0.2379724681377411,2.068568229675293,4.6348419189453125,-43.073490142822266,0
1139.932999999999,-0.0002901175757870078,-0.0001941441441886127,-0.00013494276208803058,0.0,0.0,0.0,0.0,-0.0010016588494181633,0.0003866365004796535,0.0029058491345494986,1.000258445739746,0.0,0.0,0.0,0.2379826158285141,2.0616049766540527,4.638344764709473,-43.07532501220703,0
1149.8449999999993,-0.00020721633336506784,-0.00018006586469709873,-5.22781592735555e-05,0.0,0.0,0.0,0.0,0.001938287285156548,0.0012918931897729635,0.0010770056396722794,1.001473307609558,0.0,0.0,0.0,0.2379269003868103,2.0580883026123047,4.626766681671143,-43.06524658203125,0
1159.7609999999986,-0.00026058353250846267,-0.00014339083281811327,-9.533832781016827e-05,0.0,0.0,0.0,0.0,0.004053319338709116,0.0006866996991448104,0.00242782523855567,1.0012420415878296,0.0,0.0,0.0,0.22897501289844513,2.0684385299682617,4.623950481414795,-41.4449348449707,0
1169.673999999999,-0.00024239049525931478,-0.00016468562535010278,-4.815252759726718e-05,0.0,0.0,0.0,0.0,-0.0016147142741829157,0.0016093460144475102,0.0013954286696389318,0.9995982050895691,0.0,0.0,0.0,0.22940997779369354,2.0546138286590576,4.625119209289551,-41.52366256713867,0
1179.589,-0.00025683833518996835,-6.36643817415461e-05,-0.00012114466517232358,0.0,0.0,0.0,0.0,0.0002533305378165096,-0.0004770213272422552,-0.003286594059318304,1.0016275644302368,0.0,0.0,0.0,0.2357645034790039,2.0724713802337646,4.626715183258057,-42.67384338378906,0
1189.4979999999996,-0.00024297671916428953,-0.00013530174328479916,-0.00010642812412697822,0.0,0.0,0.0,0.0,-0.0003684216644614935,-0.0013717273250222206,0.0025989317800849676,1.0001331567764282,0.0,0.0,0.0,0.23424166440963745,2.0766284465789795,4.625875473022461,-42.39820861816406,0
1199.4039999999986,-0.00032004929380491376,-0.00016174258780665696,-0.000138116956804879,0.0,0.0,0.0,0.0,-0.0014084993163123727,-0.003129528136923909,-0.00047070891014300287,0.9983195662498474,0.0,0.0,0.0,0.2342693954706192,2.0740134716033936,4.619689464569092,-42.40322494506836,0
1209.3199999999997,-0.0004227003955747932,-0.00019448860257398337,-0.0001380248722853139,0.0,0.0,0.0,0.0,-0.0015954755945131183,0.0010276694083586335,-0.002105803694576025,0.9992613792419434,0.0,0.0,0.0,0.23298940062522888,2.075742721557617,4.6173906326293945,-42.171546936035156,0
1219.2329999999984,-0.0004442190984264016,-0.00012407510075718164,-0.00022880177129991353,0.0,0.0,0.0,0.0,0.002451934153214097,-0.0012368856696411967,-0.0007867700769566,0.9988042712211609,0.0,0.0,0.0,0.23172642290592194,2.070549249649048,4.61285924911499,-41.94293975830078,0
1229.143,-0.00025352294323965907,-0.00017216074047610164,-9.832334035309032e-05,0.0,0.0,0.0,0.0,-0.002319527789950371,0.0037562197539955378,-0.0034835615660995245,0.999305009841919,0.0,0.0,0.0,0.2358788400888443,2.0585665702819824,4.668517589569092,-42.69453811645508,0
1239.0549999999985,-0.00025155386538244784,-4.801451359526254e-05,-0.00017498953093308955,0.0,0.0,0.0,0.0,0.0015521536115556955,0.0035383179783821106,-0.0019312275107949972,1.0007764101028442,0.0,0.0,0.0,0.24211564660072327,2.0863025188446045,4.671144485473633,-43.82341384887695,0
1248.9709999999995,-0.00019706055172719061,-9.308340668212622e-05,-0.00013861425395589322,0.0,0.0,0.0,0.0,-0.001366739976219833,-0.003315755631774664,-0.0006655772449448705,0.9979631900787354,0.0,0.0,0.0,0.2414601892232895,2.080420970916748,4.6567912101745605,-43.704776763916016,0
1258.8859999999986,-0.00022291354252956808,-1.1522539352881722e-05,-0.0001922515220940113,0.0,0.0,0.0,0.0,-0.0008922031265683472,-0.002254190854728222,-0.0013276127865538,0.9981325268745422,0.0,0.0,0.0,0.24193041026592255,2.074293375015259,4.660147190093994,-43.78989028930664,0
1268.7959999999985,-0.00017858788487501442,-5.498460086528212e-05,-0.00016221360419876873,0.0,0.0,0.0,0.0,0.002228827215731144,-0.0028392893727868795,0.0026703483890742064,1.0011078119277954,0.0,0.0,0.0,0.24067023396492004,2.069139242172241,4.665211200714111,-43.56179428100586,0
1278.705,-0.00022275178343988955,-8.270577382063493e-06,-0.00020863871031906456,0.0,0.0,0.0,0.0,0.0007373199332505465,0.0018737063510343432,0.0028879623860120773,1.0014631748199463,0.0,0.0,0.0,0.24148735404014587,2.0715808868408203,4.656833171844482,-43.709693908691406,0
1288.6179999999986,-0.00013172184117138386,-0.00011858748621307313,-0.00020000414224341512,0.0,0.0,0.0,0.0,-0.0013547418639063835,0.0009320037206634879,-0.0018061285372823477,1.001996397972107,0.0,0.0,0.0,0.24158789217472076,2.0668766498565674,4.655351161956787,-43.72789001464844,0
1298.5299999999988,-0.00014773794100619853,-3.547862434061244e-05,-0.0002714453439693898,0.0,0.0,0.0,0.0,-0.0023739030584692955,-9.647228580433875e-05,0.004076838027685881,0.9999234080314636,0.0,0.0,0.0,0.24038083851337433,2.0690412521362305,4.650013446807861,-43.50940704345703,0
1308.4389999999985,-0.00011768705735448748,-0.00012412753130774945,-0.00027300845249556005,0.0,0.0,0.0,0.0,0.0023853254970163107,0.003508232766762376,-0.002962120110169053,1.0013306140899658,0.0,0.0,0.0,0.24083293974399567,2.0726318359375,4.638361930847168,-43.59123992919922,0
1318.3599999999988,-0.0001493962772656232,-5.218857040745206e-05,-0.0003290984604973346,0.0,0.0,0.0,0.0,-0.0007615905487909913,-0.0034345355816185474,0.0009917475981637836,1.0003931522369385,0.0,0.0,0.0,0.24725331366062164,2.0846965312957764,4.637101650238037,-44.75334167480469,0
1328.268,-0.00011286145308986306,-0.00012276740744709969,-0.0003185723617207259,0.0,0.0,0.0,0.0,-0.0004684183222707361,-0.0004525367694441229,0.0008254687418229878,0.9980078339576721,0.0,0.0,0.0,0.24752599000930786,2.0801520347595215,4.635548114776611,-44.80270004272461,0
1338.1729999999989,-0.0001496504119131714,-4.50272491434589e-05,-0.0003713498590514064,0.0,0.0,0.0,0.0,-0.0003667190030682832,-0.0006408930639736354,-0.0023976066149771214,1.00029718875885,0.0,0.0,0.0,0.24615831673145294,2.0776567459106445,4.637241363525391,-44.55514907836914,0
1348.0899999999983,-9.57220618147403e-05,-7.357233698712662e-05,-0.00033492333022877574,0.0,0.0,0.0,0.0,0.0002234457788290456,0.0024390295147895813,-0.0012972793774679303,1.0003138780593872,0.0,0.0,0.0,0.24621734023094177,2.074669122695923,4.6365203857421875,-44.565826416015625,0
1358.0009999999984,-0.00018518783326726407,-4.950445145368576e-05,-0.000333938020048663,0.0,0.0,0.0,0.0,0.002293272176757455,-0.0028636467177420855,0.0008580924477428198,1.0009994506835938,0.0,0.0,0.0,0.255818635225296,2.0758988857269287,4.636168956756592,-46.303680419921875,0
1367.9179999999997,-0.00014689871750306338,-0.00011299256584607065,-0.0003131797129753977,0.0,0.0,0.0,0.0,-0.0004072474257554859,-0.0006869878270663321,0.0004790489037986845,0.99962317943573,0.0,0.0,0.0,0.25625041127204895,2.0712549686431885,4.634677886962891,-46.381832122802734,0
1377.8220000000001,-0.00026891790912486613,-0.00014894681225996464,-0.00028613058384507895,0.0,0.0,0.0,0.0,-0.000537555490154773,0.0011848415015265346,-0.0033011389896273613,0.9985143542289734,0.0,0.0,0.0,0.25733664631843567,2.063288450241089,4.626867294311523,-46.57844924926758,0
1387.744999999999,-0.00022076595632825047,-0.00014519915566779673,-0.00021453959925565869,0.0,0.0,0.0,0.0,0.0018894857494160533,-0.006871890742331743,-0.003280772129073739,1.0002105236053467,0.0,0.0,0.0,0.2564288079738617,2.054445266723633,4.619624614715576,-46.41412353515625,0
1397.6479999999992,-0.0003124678914900869,-0.00015422738215420395,-0.00021798854868393391,0.0,0.0,0.0,0.0,0.0027061691507697105,-0.0002719778276514262,-0.0024365128483623266,0.998054563999176,0.0,0.0,0.0,0.2573244869709015,2.0539848804473877,4.623819828033447,-46.57624053955078,0
1407.5609999999997,-0.0002751080901362002,-0.00012034121027681977,-0.00013053098518867046,0.0,0.0,0.0,0.0,0.001730036223307252,0.0008720460464246571,-0.003620897652581334,1.000506043434143,0.0,0.0,0.0,0.2565843164920807,2.0448780059814453,4.625648021697998,-46.44226837158203,0
1417.4739999999983,-0.000354324234649539,-0.00012576431618072093,-0.00015178082685451955,0.0,0.0,0.0,0.0,0.0023914051707834005,-0.0006321855471469462,0.002847804455086589,1.0014060735702515,0.0,0.0,0.0,0.25584888458251953,2.0397493839263916,4.618767261505127,-46.30915832519531,0
1427.3869999999988,-0.00024283508537337184,-0.00017385254614055157,-7.824206841178238e-05,0.0,0.0,0.0,0.0,0.0012511392123997211,-0.0042410665191709995,-0.001488371635787189,1.000243067741394,0.0,0.0,0.0,0.2560114562511444,2.0398824214935303,4.618578910827637,-46.33858108520508,0
1437.3019999999997,-0.00030048261396586895,-0.00010971977462759241,-9.717648208606988e-05,0.0,0.0,0.0,0.0,0.002294815145432949,0.0002870702010113746,-0.0034035120625048876,1.0009599924087524,0.0,0.0,0.0,0.2564851641654968,2.032702684402466,4.624165058135986,-46.424320220947266,0
1447.2119999999995,-0.0004076030454598367,-0.00014862927491776645,-8.592127414885908e-05,0.0,0.0,0.0,0.0,-0.0006284096743911505,0.0030007115565240383,-0.0002546139294281602,0.9996300339698792,0.0,0.0,0.0,0.2553318440914154,2.02875018119812,4.616281986236572,-46.215572357177734,0
1457.1209999999992,-0.0004621894913725555,-0.00011370592983439565,-0.00013494766608346254,0.0,0.0,0.0,0.0,0.0008747014217078686,-0.001924090669490397,-0.0035559278912842274,0.999000072479248,0.0,0.0,0.0,0.25564008951187134,2.0323193073272705,4.604918479919434,-46.2713623046875,0
1467.0369999999984,-0.00025344130699522793,-0.00021173576533328742,6.150852641439997e-06,0.0,0.0,0.0,0.0,-0.00403868593275547,0.0032390160486102104,-0.001698221080005169,1.0006005764007568,0.0,0.0,0.0,0.25600311160087585,2.011814594268799,4.681784152984619,-46.337074279785156,0
1476.946,-0.00025612858007662,-0.00013590004527941346,-7.745317998342216e-05,0.0,0.0,0.0,0.0,-0.0030250740237534046,-0.004723560065031052,-0.0008532353676855564,1.0003801584243774,0.0,0.0,0.0,0.2643715739250183,2.0363543033599854,4.690821170806885,-47.851783752441406,0
1486.8589999999986,-0.000201828486751765,-0.00019225510186515749,-2.409690569038503e-05,0.0,0.0,0.0,0.0,0.0004256433167029172,0.001237592427060008,-0.0028536373283714056,0.9982386827468872,0.0,0.0,0.0,0.2635948956012726,2.0372087955474854,4.692951679229736,-47.71120071411133,0
1496.7729999999992,-0.00019873993005603552,-7.658160757273436e-05,-9.665465768193826e-05,0.0,0.0,0.0,0.0,-0.0017588359769433737,-0.0013742443406954408,-0.002996328053995967,1.0003057718276978,0.0,0.0,0.0,0.270234614610672,2.065002202987671,4.705849647521973,-48.913002014160156,0
1506.6839999999993,-0.00018602432101033628,-0.00011087185703217983,-5.130350109538995e-05,0.0,0.0,0.0,0.0,-0.002675296738743782,-0.005943989381194115,-0.0017471802420914173,0.9986292719841003,0.0,0.0,0.0,0.26933354139328003,2.063669443130493,4.697599411010742,-48.74990463256836,0
1516.5959999999995,-0.00024681523791514337,-0.0001271366054425016,-8.064656867645681e-05,0.0,0.0,0.0,0.0,0.0026941236574202776,0.0029404230881482363,0.003064630785956979,0.9999189972877502,0.0,0.0,0.0,0.2679406404495239,2.0651330947875977,4.70758056640625,-48.49778366088867,0
1526.5149999999994,-0.0002229231467936188,-0.0001561430108267814,-2.98576160275843e-05,0.0,0.0,0.0,0.0,-0.0006286865100264549,0.00030395385692827404,-4.7508721763733774e-05,0.9999440312385559,0.0,0.0,0.0,0.2671915590763092,2.056688070297241,4.710986614227295,-48.362205505371094,0
1536.4209999999985,-0.0002661055768840015,-0.00012639796477742493,-6.990469410084188e-05,0.0,0.0,0.0,0.0,-4.450372580322437e-05,0.006659408565610647,-0.002155502326786518,0.9998345971107483,0.0,0.0,0.0,0.26725316047668457,2.0561704635620117,4.705411434173584,-48.37335205078125,0
1546.3359999999993,-0.0002219910966232419,-0.00016815855633467436,-1.9042669009650126e-05,0.0,0.0,0.0,0.0,0.002935336669906974,-0.001258509699255228,-0.0007808649679645896,0.9999879002571106,0.0,0.0,0.0,0.2669107913970947,2.044238328933716,4.700823783874512,-48.31138229370117,0
1556.2459999999992,-0.0002711678098421544,-0.00017635078984312713,-6.729429878760129e-05,0.0,0.0,0.0,0.0,0.0006632270524278283,0.001092410646378994,-0.002090633613988757,1.0012811422348022,0.0,0.0,0.0,0.2668895125389099,2.03580379486084,4.6918768882751465,-48.307533264160156,0
1566.1599999999999,-0.00024285873223561794,-0.0002087913453578949,-1.6728299669921398e-05,0.0,0.0,0.0,0.0,0.001644200412556529,0.0036221526097506285,-0.0011503285495564342,1.0000724792480469,0.0,0.0,0.0,0.26610106229782104,2.035691261291504,4.68303918838501,-48.16482162475586,0
1576.071,-0.00020514156494755298,-6.993623537709936e-05,-0.00014223711332306266,0.0,0.0,0.0,0.0,0.0024503131862729788,0.00010596975334919989,0.002469105878844857,0.998464047908783,0.0,0.0,0.0,0.2664598822593689,2.028897762298584,4.676118850708008,-48.22977066040039,0
1585.9879999999994,-0.0002025906287599355,-0.00010425772052258253,-0.00011032236216124147,0.0,0.0,0.0,0.0,0.0014475876232609153,0.00173651531804353,-0.000862711516674608,0.9975126385688782,0.0,0.0,0.0,0.2662774920463562,2.021181344985962,4.666946887969971,-48.196754455566406,0
1595.8999999999996,-0.00024629096151329577,-7.787140202708542e-05,-0.00016822667384985834,0.0,0.0,0.0,0.0,0.0001362352486466989,-0.0011471594916656613,0.0024001598358154297,0.9983002543449402,0.0,0.0,0.0,0.2576358914375305,2.029694080352783,4.660680770874023,-46.632606506347656,0
1605.8089999999993,-0.00016072619473561645,-0.00018994120182469487,-0.00015341147081926465,0.0,0.0,0.0,0.0,0.0007854877621866763,-0.0031738888937979937,0.0018881381256505847,1.0024946928024292,0.0,0.0,0.0,0.2584605813026428,2.026031255722046,4.6646552085876465,-46.78187942504883,0
1615.7209999999995,-0.00019685833831317723,-0.00010668554023141041,-0.0002075533411698416,0.0,0.0,0.0,0.0,-0.0021269593853503466,-0.0012828392209485173,-0.00044231757055968046,1.0018590688705444,0.0,0.0,0.0,0.25853243470191956,2.017840623855591,4.666069984436035,-46.794883728027344,0
1625.634,-0.0001966006529983133,-0.00012174730363767594,-0.00016929314006119967,0.0,0.0,0.0,0.0,-0.0009133162093348801,-0.004243830684572458,0.001083595328964293,0.9984564185142517,0.0,0.0,0.0,0.25799059867858887,2.020566940307617,4.673659324645996,-46.69681167602539,0
1635.5459999999985,-0.0002117190888384357,-3.8994188798824325e-05,-0.00025457044830545783,0.0,0.0,0.0,0.0,0.0008482033153995872,0.0031760900747030973,-0.0032602311111986637,0.9976038336753845,0.0,0.0,0.0,0.2565067410469055,2.0220894813537598,4.672036170959473,-46.428226470947266,0
1645.4609999999993,-0.0001341257302556187,3.2182422728510574e-05,-0.00028594816103577614,0.0,0.0,0.0,0.0,-0.00199761800467968,-0.0022888833191245794,0.0010522353695705533,0.9988266229629517,0.0,0.0,0.0,0.2559299170970917,2.0182735919952393,4.6663384437561035,-46.323822021484375,0
1655.3809999999994,-0.000233384664170444,-1.1718329915311188e-06,-0.0002986398176290095,0.0,0.0,0.0,0.0,-0.0014685739297419786,0.005427643656730652,-0.0015737115172669291,1.0008455514907837,0.0,0.0,0.0,0.2559327483177185,2.015652894973755,4.674342155456543,-46.32433319091797,0
1665.2879999999986,-0.00012623611837625504,-3.687562275445089e-05,-0.00028076296439394355,0.0,0.0,0.0,0.0,0.004126313608139753,0.0014068979071453214,-0.0014654846163466573,0.9998251795768738,0.0,0.0,0.0,0.24619466066360474,2.021324396133423,4.666649341583252,-44.56172561645508,0
1675.1970000000001,-0.0002273515856359154,-7.433428254444152e-05,-0.000291474221739918,0.0,0.0,0.0,0.0,-0.0015702785458415747,0.0006622977089136839,0.0018151290714740753,0.9996418356895447,0.0,0.0,0.0,0.24643564224243164,2.0171806812286377,4.658683776855469,-44.60533905029297,0
1685.1119999999992,-0.00015701357915531844,-9.736670108395629e-06,-0.00028323722654022276,0.0,0.0,0.0,0.0,0.0013810601085424423,-0.002566778101027012,0.0036686942912638187,0.9987044930458069,0.0,0.0,0.0,0.246466264128685,2.014697551727295,4.653668403625488,-44.61088180541992,0
1695.0239999999994,-0.0001207027307827957,-4.9206693802261725e-05,-0.0002552187070250511,0.0,0.0,0.0,0.0,-0.0009502063039690256,-0.004268354270607233,0.0015149378450587392,0.9992783069610596,0.0,0.0,0.0,0.2464180290699005,2.013489007949829,4.652801036834717,-44.60215377807617,0
1704.9339999999993,-0.0002255379076814279,-7.033943256828934e-05,-0.00025466771330684423,0.0,0.0,0.0,0.0,-0.0012771149631589651,-0.000605544715654105,-0.0006736969226039946,1.0002267360687256,0.0,0.0,0.0,0.2461412250995636,2.0134358406066895,4.661927700042725,-44.55205535888672,0
1714.8509999999987,-0.00013146187120582908,-0.0001033739245031029,-0.0002021127293119207,0.0,0.0,0.0,0.0,0.0010218253592029214,0.004217070993036032,-0.00516186747699976,1.000529408454895,0.0,0.0,0.0,0.24754472076892853,2.0169949531555176,4.670925140380859,-44.806087493896484,0
1724.7609999999986,-0.000220721703954041,-0.00010351205855840817,-0.00021029506751801819,0.0,0.0,0.0,0.0,0.0037080198526382446,0.004233523737639189,-0.00083274079952389,0.9989712238311768,0.0,0.0,0.0,0.246670663356781,2.012969493865967,4.656874656677246,-44.64787673950195,0
1734.6799999999985,-0.00014873417967464775,-0.00011493476631585509,-0.00014458670921158046,0.0,0.0,0.0,0.0,0.002437539165839553,0.0009737291838973761,0.0025641759857535362,1.0010398626327515,0.0,0.0,0.0,0.2459271103143692,2.007542133331299,4.638153553009033,-44.5132942199707,0
1744.5959999999995,-0.00022039038594812155,-0.00010528410348342732,-0.00017022501560859382,0.0,0.0,0.0,0.0,0.0035549479071050882,0.000699311844073236,0.0006094899144954979,1.0013959407806396,0.0,0.0,0.0,0.24545802175998688,2.002842903137207,4.631742000579834,-44.42839050292969,0
1754.5,-9.935876732924953e-05,-0.0001964206458069384,-0.00012677517952397466,0.0,0.0,0.0,0.0,-0.0002545443712733686,-0.0018444942543283105,0.0002497334498912096,0.9996524453163147,0.0,0.0,0.0,0.24608327448368073,2.0001204013824463,4.623871326446533,-44.54156494140625,0
1764.411,-0.0001705539907561615,-0.00020213982497807592,-0.00014942068082746118,0.0,0.0,0.0,0.0,-0.00024921679869294167,0.003394522937014699,0.0017544225556775928,1.0001311302185059,0.0,0.0,0.0,0.24605192244052887,1.9931962490081787,4.622660160064697,-44.535884857177734,0
1774.3239999999987,-0.0002728104591369629,-0.0002413557085674256,-0.00014558107068296522,0.0,0.0,0.0,0.0,-0.0019124390091747046,-0.00436005461961031,0.0005535554955713451,0.9997580051422119,0.0,0.0,0.0,0.2470284253358841,1.984863519668579,4.619341850280762,-44.71263885498047,0
1784.2339999999986,-0.000358832796337083,-0.00022625098063144833,-0.00015448658086825162,0.0,0.0,0.0,0.0,-0.0018390301847830415,-0.001271841349080205,-0.0013492528814822435,0.9988287687301636,0.0,0.0,0.0,0.24192602932453156,1.9988110065460205,4.620182037353516,-43.78909683227539,0
1794.1489999999994,-0.00018159797764383256,-0.00028704421129077673,-1.7051825125236064e-05,0.0,0.0,0.0,0.0,0.0014524947619065642,0.004455165006220341,-0.0009348022285848856,0.9986862540245056,0.0,0.0,0.0,0.24255281686782837,1.9932861328125,4.685006141662598,-43.90254592895508,0
1804.0589999999993,-0.00024348325678147376,-0.00027259596390649676,-2.770212449831888e-05,0.0,0.0,0.0,0.0,-0.0015830014599487185,-0.006791302002966404,0.00016024459910113364,1.0000461339950562,0.0,0.0,0.0,0.23251032829284668,2.002281904220581,4.6819748878479,-42.08483123779297,0
1813.9709999999995,-0.0003375397063791752,-0.0003099332971032709,-1.797498407540843e-05,0.0,0.0,0.0,0.0,-0.0005062812706455588,-0.00234856060706079,0.0006654279422946274,1.0007357597351074,0.0,0.0,0.0,0.2306937426328659,1.9996479749679565,4.677663326263428,-41.75602722167969,0
1823.887999999999,-0.00035616071545518935,-0.00023374476586468518,-9.300877718487754e-05,0.0,0.0,0.0,0.0,-0.0017053033225238323,-0.00031704659340903163,-0.00011550922499736771,0.999191164970398,0.0,0.0,0.0,0.22329282760620117,2.034414768218994,4.710789203643799,-40.41644287109375,0
1833.7999999999993,-0.00016930181300267577,-0.00031928287353366613,2.140424112440087e-05,0.0,0.0,0.0,0.0,-0.00011055131471948698,0.0014476035721600056,-0.0017927723238244653,0.9982401132583618,0.0,0.0,0.0,0.22529160976409912,2.027406930923462,4.775394916534424,-40.778228759765625,0
1843.7149999999983,-9.403972217114642e-05,-0.00011158457346027717,-0.00011576616088859737,0.0,0.0,0.0,0.0,0.0004557909269351512,-0.0017124384175986052,0.0006880965665914118,1.0004881620407104,0.0,0.0,0.0,0.23113791644573212,2.070023536682129,4.805738925933838,-41.836421966552734,0
1853.6219999999994,-4.038911356474273e-05,-0.00014717975864186883,-7.232451025629416e-05,0.0,0.0,0.0,0.0,0.00030959906871430576,-0.0015000446001067758,0.004768182057887316,0.9986404180526733,0.0,0.0,0.0,0.23027843236923218,2.063159942626953,4.79454231262207,-41.68085861206055,0
1863.5339999999997,-4.897477265330963e-05,-5.0886228564195335e-05,-0.00012772608897648752,0.0,0.0,0.0,0.0,-0.0002494226791895926,0.0007869546534493566,0.0015961109893396497,0.9989088177680969,0.0,0.0,0.0,0.22410064935684204,2.0794382095336914,4.801855564117432,-40.562660217285156,0
1873.446,-3.691582242026925e-05,-0.00013529203715734184,-0.00013252839562483132,0.0,0.0,0.0,0.0,0.00208736932836473,-4.110621375730261e-05,-0.0016761751612648368,0.9994080662727356,0.0,0.0,0.0,0.2227650284767151,2.0777082443237305,4.798637866973877,-40.3209114074707,0
1883.3639999999996,-3.561183621059172e-05,-5.025424252380617e-05,-0.0002162887540180236,0.0,0.0,0.0,0.0,-0.0005359402857720852,-0.000711138709448278,0.002018276136368513,0.9997673034667969,0.0,0.0,0.0,0.22953855991363525,2.0928564071655273,4.796042442321777,-41.546932220458984,0
1893.2729999999992,-9.254151518689469e-05,-4.0599621570436284e-05,-0.00020322446653153747,0.0,0.0,0.0,0.0,-0.002418594667688012,0.0005145900067873299,-0.0025652756448835135,0.9998674988746643,0.0,0.0,0.0,0.22930055856704712,2.089017152786255,4.7859673500061035,-41.50386047363281,0
1903.1839999999993,-0.0001362406910629943,-2.4994385967147537e-05,-0.00025242107221856713,0.0,0.0,0.0,0.0,0.0012919994769617915,-0.0009703512187115848,0.00066135119413957,0.9986821413040161,0.0,0.0,0.0,0.22893735766410828,2.0857443809509277,4.7773027420043945,-41.438114166259766,0
1913.0959999999995,-9.082657197723165e-05,-6.593699799850583e-05,-0.00023433960450347513,0.0,0.0,0.0,0.0,0.001129945507273078,-0.002355947159230709,0.0008027502335608006,1.0003561973571777,0.0,0.0,0.0,0.2284829467535019,2.073362350463867,4.765661239624023,-41.35586929321289,0
1923.009,-0.0001481705257901922,-3.220556027372368e-05,-0.00026024726685136557,0.0,0.0,0.0,0.0,0.0003816083481069654,-3.304597385067609e-06,-0.0018670550780370831,0.9975523948669434,0.0,0.0,0.0,0.2365552932024002,2.0835838317871094,4.772312164306641,-42.816978454589844,0
1932.9209999999985,-9.798473911359906e-05,-5.9541973314480856e-05,-0.00023446524573955685,0.0,0.0,0.0,0.0,0.00036647130036726594,-0.0013058420736342669,0.00023582144058309495,0.9975654482841492,0.0,0.0,0.0,0.2354881316423416,2.0802555084228516,4.775349140167236,-42.623817443847656,0
1942.8409999999985,-0.00015465413162019104,-1.440244977857219e-05,-0.00026344324578531086,0.0,0.0,0.0,0.0,0.0005791569128632545,0.0033688447438180447,0.00023143748694565147,1.0006790161132812,0.0,0.0,0.0,0.24159477651119232,2.096412181854248,4.774764060974121,-43.7291374206543,0
1952.7469999999994,-0.00021944311447441578,-6.799828406656161e-05,-0.0002546062460169196,0.0,0.0,0.0,0.0,-0.0025858941953629255,-0.005960822571069002,-0.004023764282464981,0.9973445534706116,0.0,0.0,0.0,0.2427956610918045,2.0919172763824463,4.7595744132995605,-43.94649887084961,0
1962.6589999999997,-0.000191582425031811,-3.684590046759695e-05,-0.000283129425952211,0.0,0.0,0.0,0.0,0.001360508380457759,-0.0066072274930775166,-0.00017274878337047994,0.9977200627326965,0.0,0.0,0.0,0.23642225563526154,2.099273681640625,4.763751029968262,-42.79289627075195,0
1972.5720000000001,-0.00020415696781128645,-8.031715697143227e-05,-0.00025437038857489824,0.0,0.0,0.0,0.0,0.0018512156093493104,-0.002111162059009075,0.0007217890815809369,0.9991087317466736,0.0,0.0,0.0,0.23533420264720917,2.1006925106048584,4.77549409866333,-42.5959587097168,0
1982.4869999999992,-0.00017271381511818618,-6.734325779689243e-06,-0.0002734506851993501,0.0,0.0,0.0,0.0,-0.0007141079404391348,-0.0016507689142599702,-0.0031702453270554543,0.9986804127693176,0.0,0.0,0.0,0.2416214495897293,2.1134538650512695,4.779989719390869,-43.73396682739258,0
1992.396999999999,-0.00016033124120440334,-6.0925682191736996e-05,-0.0002439713425701484,0.0,0.0,0.0,0.0,0.00351608544588089,0.0036987720523029566,-0.0002965687890537083,0.9982537627220154,0.0,0.0,0.0,0.24025706946849823,2.1011905670166016,4.771648406982422,-43.48701095581055,0
2002.3149999999987,-0.0001346222561551258,-3.153365105390549e-05,-0.0002707005478441715,0.0,0.0,0.0,0.0,0.0006586918607354164,-0.0024882785510271788,0.0004604313289746642,1.0002716779708862,0.0,0.0,0.0,0.24025706946849823,2.1011905670166016,4.771648406982422,-43.48701095581055,0
2012.2219999999998,-0.00018960380111820996,-8.572153456043452e-05,-0.0002594769175630063,0.0,0.0,0.0,0.0,0.0003595362650230527,0.0005125720053911209,0.0012054179096594453,0.9993946552276611,0.0,0.0,0.0,0.2400488257408142,2.0881829261779785,4.76147985458374,-43.44931411743164,0
2022.143,-0.00015911555965431035,-2.481955561961513e-05,-0.00028189216391183436,0.0,0.0,0.0,0.0,-0.0002705131482798606,-0.0021676772739738226,0.0028943747747689486,1.0008809566497803,0.0,0.0,0.0,0.2400488257408142,2.0881829261779785,4.76147985458374,-43.44931411743164,0
2032.0469999999987,-1.567254184919875e-05,-0.00010885305528063327,-0.00025029366952367127,0.0,0.0,0.0,0.0,-0.0021903899032622576,-0.0006356189260259271,0.0025298045948147774,1.0006685256958008,0.0,0.0,0.0,0.24056020379066467,2.0847411155700684,4.762775897979736,-43.54187774658203,0
2041.9699999999993,-0.00010870635014725849,-0.00013248702452983707,-0.00024168798699975014,0.0,0.0,0.0,0.0,0.0027476476971060038,0.0014147115871310234,-0.0004330362717155367,1.0010844469070435,0.0,0.0,0.0,0.23959925770759583,2.0874903202056885,4.756222248077393,-43.367942810058594,0
2051.877999999999,-4.258699118508957e-05,-0.00014452077448368073,-0.00018952821847051382,0.0,0.0,0.0,0.0,0.001446624519303441,0.0013732581865042448,-0.0016218414530158043,1.0008488893508911,0.0,0.0,0.0,0.2399042248725891,2.075420379638672,4.752494812011719,-43.42314529418945,0
2061.794,-0.00012128872913308442,-0.00014491639740299433,-0.00018644172814674675,0.0,0.0,0.0,0.0,-0.00039010902401059866,-0.0019078523619100451,-0.0012453575618565083,1.0012338161468506,0.0,0.0,0.0,0.24021127820014954,2.068333864212036,4.748332977294922,-43.478721618652344,0
2071.6989999999987,-5.1727747631957754e-05,-0.0001545990671729669,-0.00012596622400451452,0.0,0.0,0.0,0.0,0.0015984979690983891,0.0008714365540072322,-0.002990816719830036,1.0002225637435913,0.0,0.0,0.0,0.23965325951576233,2.070640802383423,4.744643688201904,-43.377716064453125,0
2081.6169999999984,-0.00010710925562307239,-0.00013089549611322582,-0.00013605528511106968,0.0,0.0,0.0,0.0,-0.004956431221216917,-0.005046608857810497,0.001027385820634663,0.9992706775665283,0.0,0.0,0.0,0.2386595755815506,2.067328453063965,4.734469890594482,-43.19785690307617,0
2091.520999999999,-7.672857464058325e-05,-0.00019458448514342308,-0.00011218676809221506,0.0,0.0,0.0,0.0,-0.0018327434081584215,-0.002725407248362899,-0.004596669226884842,1.0010608434677124,0.0,0.0,0.0,0.23765461146831512,2.0757534503936768,4.736015319824219,-43.01595687866211,0
2101.4479999999985,-9.855305688688532e-05,-0.00013395804853644222,-0.0001605468860361725,0.0,0.0,0.0,0.0,-0.001272610854357481,6.261520320549607e-05,0.000476034329039976,0.9997825026512146,0.0,0.0,0.0,0.24567988514900208,2.089979887008667,4.749690055847168,-44.46854782104492,0
