timestamp,stateEstimate.x,stateEstimate.y,stateEstimate.z,controller.cmd_thrust,controller.cmd_roll,controller.cmd_pitch,controller.cmd_yaw,controller.r_roll,controller.r_pitch,controller.r_yaw,controller.accelz,controller.actuatorThrust,controller.roll,controller.pitch,controller.yaw,controller.rollRate,controller.pitchRate,controller.yawRate,controller.ctr_yaw
0.0,-0.019538499414920807,-0.027209732681512833,0.0009054927504621446,0.0,0.0,0.0,0.0,0.0014181542210280895,0.0013663980644196272,-0.0020081643015146255,1.000370740890503,0.0,0.0,0.0,7.053042411804199,0.8562590479850769,4.757966995239258,-1276.61474609375,0
9.90099999999984,-0.019504526630043983,-0.02723728120326996,0.0009213982848450541,0.0,0.0,0.0,0.0,0.00047165967407636344,-0.0027643386274576187,-0.0003323471755720675,1.001113772392273,0.0,0.0,0.0,7.052127838134766,0.8491368293762207,4.7645955085754395,-1276.44921875,0
19.811999999999898,-0.019506439566612244,-0.02719911001622677,0.0009094670531339943,0.0,0.0,0.0,0.0,0.00019951585272792727,0.008222511038184166,-0.0006951578543521464,1.0007038116455078,0.0,0.0,0.0,7.062318325042725,0.8596415519714355,4.7643866539001465,-1278.293701171875,0
29.721999999999753,-0.019488435238599777,-0.02725977636873722,0.0008862555841915309,0.0,0.0,0.0,0.0,0.0037350058555603027,-0.0028757224790751934,-0.0014006030978634953,0.9979958534240723,0.0,0.0,0.0,7.054449558258057,0.8609098792076111,4.743712425231934,-1276.869384765625,0
39.63699999999881,-0.01951918937265873,-0.02727443166077137,0.0008868656004779041,0.0,0.0,0.0,0.0,0.0025979143101722,0.0019383149920031428,-0.0017981159035116434,0.9988727569580078,0.0,0.0,0.0,7.046173572540283,0.8551673293113708,4.742244243621826,-1275.3714599609375,0
49.547999999998865,-0.019475966691970825,-0.027281668037176132,0.0009221688378602266,0.0,0.0,0.0,0.0,-2.1797717636218295e-05,0.0022226781584322453,0.0011540570994839072,0.9990129470825195,0.0,0.0,0.0,7.046902179718018,0.8534340262413025,4.742300510406494,-1275.503173828125,0
59.45599999999831,-0.01950797252357006,-0.027294732630252838,0.0009233818273060024,0.0,0.0,0.0,0.0,-0.0005048646708019078,0.0013722206931561232,0.001922887284308672,1.0018774271011353,0.0,0.0,0.0,7.039546489715576,0.8505262732505798,4.737295150756836,-1274.1719970703125,0
69.36799999999857,-0.01952761970460415,-0.027303416281938553,0.0009327658917754889,0.0,0.0,0.0,0.0,-0.001152559882029891,0.0005748834810219705,-0.0026261259336024523,1.0013924837112427,0.0,0.0,0.0,7.039104461669922,0.848493754863739,4.736049652099609,-1274.091796875,0
79.28699999999844,-0.019564995542168617,-0.027314666658639908,0.000936061842367053,0.0,0.0,0.0,0.0,-0.005683757830411196,-0.0013367269420996308,0.0035723531618714333,0.9997240304946899,0.0,0.0,0.0,7.031920909881592,0.8517775535583496,4.7267680168151855,-1272.7916259765625,0
89.1909999999989,-0.019509032368659973,-0.027317197993397713,0.0009730057790875435,0.0,0.0,0.0,0.0,0.00029126633307896554,0.0024356709327548742,-0.002346594352275133,1.0011417865753174,0.0,0.0,0.0,7.034190654754639,0.8604884147644043,4.740273952484131,-1273.2025146484375,0
99.10399999999936,-0.01954641565680504,-0.027327267453074455,0.0009801433188840747,0.0,0.0,0.0,0.0,0.00024407666933257133,0.002290071453899145,-0.0007001464837230742,1.0021660327911377,0.0,0.0,0.0,7.027006149291992,0.8617774248123169,4.728991985321045,-1271.9019775390625,0
109.0119999999988,-0.019512007012963295,-0.027333205565810204,0.0010094479657709599,0.0,0.0,0.0,0.0,-0.0008064779685810208,0.0030477114487439394,0.005910586100071669,1.001915693283081,0.0,0.0,0.0,7.019779682159424,0.8616448044776917,4.716305255889893,-1270.593994140625,0
118.92799999999988,-0.0195195060223341,-0.02728094719350338,0.001024455763399601,0.0,0.0,0.0,0.0,-0.0028154319152235985,-0.0018565882928669453,0.0010822371114045382,1.0011417865753174,0.0,0.0,0.0,7.0306172370910645,0.8808619976043701,4.716237545013428,-1272.5556640625,0
128.84099999999853,-0.019541218876838684,-0.02728281170129776,0.0010474444134160876,0.0,0.0,0.0,0.0,2.753438093350269e-05,0.0004845325311180204,0.0010021096095442772,1.0016326904296875,0.0,0.0,0.0,7.037252426147461,0.8813697099685669,4.723331928253174,-1273.756591796875,0
138.75099999999838,-0.019578414037823677,-0.02728496864438057,0.0010643622372299433,0.0,0.0,0.0,0.0,0.001310258056037128,0.0009989314712584019,0.002572799799963832,1.0018000602722168,0.0,0.0,0.0,7.03126335144043,0.8821391463279724,4.713620185852051,-1272.6727294921875,0
148.65999999999985,-0.019612254574894905,-0.02729840576648712,0.0010694301454350352,0.0,0.0,0.0,0.0,-0.002494491869583726,0.00044760614400729537,-0.0008402473176829517,1.001517653465271,0.0,0.0,0.0,7.035403251647949,0.8785279393196106,4.7077836990356445,-1273.421875,0
158.5699999999997,-0.0196219515055418,-0.027239108458161354,0.0010885510127991438,0.0,0.0,0.0,0.0,0.0016159581718966365,0.0017897100187838078,-0.002705597085878253,1.0000669956207275,0.0,0.0,0.0,7.042855262756348,0.8961352109909058,4.7118611335754395,-1274.770751953125,0
168.48299999999836,-0.01952410861849785,-0.02730175107717514,0.0011290265247225761,0.0,0.0,0.0,0.0,-0.0005085338489152491,0.0016532342415302992,-0.002235436113551259,0.9986077547073364,0.0,0.0,0.0,7.04206657409668,0.8711492419242859,4.720358848571777,-1274.6280517578125,0
178.39999999999964,-0.019565440714359283,-0.027305223047733307,0.0011516211088746786,0.0,0.0,0.0,0.0,-0.0009160893969237804,0.00010135978664038703,-0.0031449703965336084,1.0016803741455078,0.0,0.0,0.0,7.035500526428223,0.8670138120651245,4.7164626121521,-1273.4395751953125,0
188.30399999999827,-0.01957102306187153,-0.02732658199965954,0.0011670851381495595,0.0,0.0,0.0,0.0,0.0013338043354451656,0.002891217591241002,0.0023772986605763435,1.0004593133926392,0.0,0.0,0.0,7.039628028869629,0.8612335324287415,4.714654922485352,-1274.1866455078125,0
198.21499999999833,-0.01961289718747139,-0.027332397177815437,0.0011900051031261683,0.0,0.0,0.0,0.0,0.0005356304463930428,0.002254267456009984,-0.0036875721998512745,1.0010067224502563,0.0,0.0,0.0,7.032522678375244,0.8540298938751221,4.704775333404541,-1272.900634765625,0
208.1319999999996,-0.019559253007173538,-0.0273366030305624,0.0012423365842550993,0.0,0.0,0.0,0.0,7.51944025978446e-05,-0.000344746105838567,-0.0008758692420087755,1.000738501548767,0.0,0.0,0.0,7.0254387855529785,0.8524169325828552,4.695998668670654,-1271.6182861328125,0
218.03899999999885,-0.019599677994847298,-0.02734382264316082,0.0012689961586147547,0.0,0.0,0.0,0.0,-0.0026204518508166075,0.005905308295041323,-0.0018679596250876784,0.9999710917472839,0.0,0.0,0.0,7.018280029296875,0.8492624759674072,4.6939849853515625,-1270.3226318359375,0
227.95299999999952,-0.01960083097219467,-0.02735721319913864,0.0012984646018594503,0.0,0.0,0.0,0.0,0.00014118659601081163,0.00023648820933885872,-0.0005994809907861054,1.0011717081069946,0.0,0.0,0.0,7.022194862365723,0.8394120931625366,4.6964945793151855,-1271.03125,0
237.86099999999897,-0.019536489620804787,-0.027201324701309204,0.0011478252708911896,0.0,0.0,0.0,0.0,0.0042637791484594345,0.001075158128514886,0.00034859514562413096,0.9983903765678406,0.0,0.0,0.0,7.0287089347839355,0.8806232213973999,4.708567142486572,-1272.210205078125,0
247.78999999999905,-0.019547782838344574,-0.027199001982808113,0.0011866295244544744,0.0,0.0,0.0,0.0,-0.001575419562868774,0.0017263920744881034,-0.0017934918869286776,0.9988468885421753,0.0,0.0,0.0,7.029405117034912,0.8735522627830505,4.704697132110596,-1272.3363037109375,0
257.6829999999991,-0.019541338086128235,-0.027133449912071228,0.0011476143263280392,0.0,0.0,0.0,0.0,0.0023564829025417566,0.00427467143163085,-0.004005910828709602,0.9987763166427612,0.0,0.0,0.0,7.040771007537842,0.889961838722229,4.711559772491455,-1274.3934326171875,0
267.60399999999936,-0.019511912018060684,-0.027184369042515755,0.001151787000708282,0.0,0.0,0.0,0.0,-0.0003124093054793775,-0.003047447418794036,0.00043331770575605333,1.0007002353668213,0.0,0.0,0.0,7.033288955688477,0.8794606328010559,4.693758964538574,-1273.0391845703125,0
277.5069999999996,-0.01954999379813671,-0.027188695967197418,0.0011661648750305176,0.0,0.0,0.0,0.0,-0.00022424101189244539,0.000542596448212862,0.002746524289250374,0.9988833069801331,0.0,0.0,0.0,7.026097774505615,0.8795097470283508,4.687139987945557,-1271.7376708984375,0
287.42399999999907,-0.019483450800180435,-0.027254227548837662,0.0011558705009520054,0.0,0.0,0.0,0.0,-0.0006902673630975187,0.0013910941779613495,-0.000988485524430871,0.999887228012085,0.0,0.0,0.0,7.026845932006836,0.8652725219726562,4.6987810134887695,-1271.8731689453125,0
297.3329999999987,-0.019519604742527008,-0.027264418080449104,0.0011673349654302,0.0,0.0,0.0,0.0,0.0013384106568992138,0.0006356838275678456,0.0027309067081660032,1.0011889934539795,0.0,0.0,0.0,7.019550323486328,0.8640756607055664,4.689974784851074,-1270.552490234375,0
307.25,-0.01949968747794628,-0.027331842109560966,0.0011199782602488995,0.0,0.0,0.0,0.0,-0.0004293023666832596,-0.002329126000404358,-0.0009148981189355254,1.0005366802215576,0.0,0.0,0.0,7.022737503051758,0.8408889770507812,4.689875602722168,-1271.1295166015625,0
317.1529999999984,-0.019536904990673065,-0.02734857052564621,0.0011277880985289812,0.0,0.0,0.0,0.0,0.0002551996731199324,0.0013393546687439084,-0.00041403021896257997,1.0006237030029297,0.0,0.0,0.0,7.016395568847656,0.8416481018066406,4.686895847320557,-1269.9815673828125,0
327.0749999999989,-0.019464949145913124,-0.027394378557801247,0.001118241110816598,0.0,0.0,0.0,0.0,0.001286196755245328,-0.001939058885909617,0.0013480324996635318,0.9994531869888306,0.0,0.0,0.0,7.01885461807251,0.8283476233482361,4.7112250328063965,-1270.4267578125,0
336.98199999999997,-0.019499646499753,-0.027415035292506218,0.0011255370918661356,0.0,0.0,0.0,0.0,0.0021978600416332483,0.0018359676469117403,-0.000720917887520045,1.0002069473266602,0.0,0.0,0.0,7.0124993324279785,0.8216331005096436,4.708794593811035,-1269.2762451171875,0
346.90200000000004,-0.019493751227855682,-0.027453847229480743,0.001116906525567174,0.0,0.0,0.0,0.0,-0.0024859842378646135,-8.546716708224267e-05,-0.0033141006715595722,1.0008630752563477,0.0,0.0,0.0,7.013110637664795,0.8099018335342407,4.703812599182129,-1269.386962890625,0
356.79799999999886,-0.019530000165104866,-0.02747834473848343,0.0011237419676035643,0.0,0.0,0.0,0.0,-0.002201167866587639,-0.000714915688149631,-0.00039679312612861395,1.0006165504455566,0.0,0.0,0.0,7.00548791885376,0.8094069957733154,4.694777965545654,-1268.00732421875,0
366.72099999999955,-0.019570080563426018,-0.02750396728515625,0.0011310551781207323,0.0,0.0,0.0,0.0,0.0007529724971391261,0.0023422720842063427,-0.003938739653676748,0.9992665648460388,0.0,0.0,0.0,7.006401062011719,0.8079620599746704,4.685952663421631,-1268.172607421875,0
376.6269999999986,-0.019612006843090057,-0.027525806799530983,0.001139306928962469,0.0,0.0,0.0,0.0,-0.0007363256881944835,-0.0022627052385360003,-0.0002091898932121694,1.000636100769043,0.0,0.0,0.0,6.99917459487915,0.8052252531051636,4.676206111907959,-1266.864501953125,0
386.53999999999905,-0.019631491973996162,-0.0275332760065794,0.0011777293402701616,0.0,0.0,0.0,0.0,-0.0004128319560550153,0.0019036702578887343,-0.0024451909121125937,1.0009876489639282,0.0,0.0,0.0,7.003343105316162,0.8130794763565063,4.683376312255859,-1267.6190185546875,0
396.4439999999995,-0.01967606134712696,-0.027553783729672432,0.00118865049444139,0.0,0.0,0.0,0.0,0.0013948573032394052,-0.002577809151262045,-0.0006833155639469624,1.0019729137420654,0.0,0.0,0.0,6.995646953582764,0.8136692643165588,4.674263000488281,-1266.22607421875,0
406.3709999999992,-0.019685624167323112,-0.02755453810095787,0.0012450432404875755,0.0,0.0,0.0,0.0,-0.001600925112143159,-0.004151924978941679,0.002486766781657934,1.0011152029037476,0.0,0.0,0.0,7.001581192016602,0.8174190521240234,4.687343597412109,-1267.3001708984375,0
416.26800000000003,-0.019731415435671806,-0.02757280133664608,0.0012625274248421192,0.0,0.0,0.0,0.0,-0.0010013746796175838,0.0008478261879645288,-0.0028320373967289925,1.001205325126648,0.0,0.0,0.0,6.995434761047363,0.8145260810852051,4.684159278869629,-1266.187744140625,0
426.1879999999983,-0.019760839641094208,-0.02757016196846962,0.0013209143653512,0.0,0.0,0.0,0.0,-0.0010436703450977802,0.002185909543186426,-0.0006363882566802204,1.001485824584961,0.0,0.0,0.0,6.99819278717041,0.8253998756408691,4.691822528839111,-1266.686767578125,0
436.09499999999935,-0.019745226949453354,-0.02758171781897545,0.0013908116379752755,0.0,0.0,0.0,0.0,-0.0024205390363931656,-0.0016894283471629024,-0.0008542837458662689,1.0000813007354736,0.0,0.0,0.0,7.001564979553223,0.8228853940963745,4.715079307556152,-1267.2972412109375,0
446.0139999999992,-0.019639426842331886,-0.02728470414876938,0.0010647526942193508,0.0,0.0,0.0,0.0,-0.004017599858343601,0.0009137216839008033,-0.0026928919833153486,1.002258062362671,0.0,0.0,0.0,7.004543304443359,0.8905133605003357,4.7484846115112305,-1267.8363037109375,0
455.91799999999967,-0.019647672772407532,-0.02728179655969143,0.001118512824177742,0.0,0.0,0.0,0.0,0.0025269449688494205,0.004492985550314188,-0.0005568047636188567,1.001497507095337,0.0,0.0,0.0,7.005887031555176,0.8907582759857178,4.742590427398682,-1268.0794677734375,0
465.8299999999999,-0.019688988104462624,-0.02728264592587948,0.0011387496488168836,0.0,0.0,0.0,0.0,0.0006451268563978374,-5.643446638714522e-05,-0.004144912585616112,1.000446081161499,0.0,0.0,0.0,6.998706817626953,0.8908113241195679,4.7296881675720215,-1266.7799072265625,0
475.73699999999917,-0.019664820283651352,-0.027301445603370667,0.0011596893891692162,0.0,0.0,0.0,0.0,-0.0021173208951950073,-0.004279003012925386,0.004157240502536297,1.0006468296051025,0.0,0.0,0.0,7.000532627105713,0.8795789480209351,4.732746124267578,-1267.1103515625,0
485.66199999999844,-0.01962302438914776,-0.027176331728696823,0.001051480881869793,0.0,0.0,0.0,0.0,0.003444527043029666,-0.0007529989234171808,-0.0035095259081572294,1.0039421319961548,0.0,0.0,0.0,7.00617790222168,0.9096441268920898,4.748834133148193,-1268.1322021484375,0
495.5649999999987,-0.019485412165522575,-0.027249379083514214,0.0010948319686576724,0.0,0.0,0.0,0.0,-0.0011645110789686441,0.003920141141861677,7.868331886129454e-05,1.001058578491211,0.0,0.0,0.0,7.009575366973877,0.8833304047584534,4.776575088500977,-1268.7471923828125,0
505.47699999999895,-0.019479336217045784,-0.02718048170208931,0.0010685682063922286,0.0,0.0,0.0,0.0,-0.001510273665189743,-0.00039784095133654773,-0.002426011487841606,1.0002820491790771,0.0,0.0,0.0,7.022952556610107,0.8952279090881348,4.770471096038818,-1271.1683349609375,0
515.3909999999996,-0.01939767226576805,-0.02726009488105774,0.0010799369774758816,0.0,0.0,0.0,0.0,-0.004547163378447294,-0.0027495587710291147,0.0006259708316065371,1.0018422603607178,0.0,0.0,0.0,7.028379440307617,0.8844283223152161,4.771596431732178,-1272.150634765625,0
525.3099999999995,-0.019433164969086647,-0.02726081572473049,0.0010993564501404762,0.0,0.0,0.0,0.0,0.0019483815412968397,-0.00036414965870790184,0.0036427658051252365,1.0016535520553589,0.0,0.0,0.0,7.021042346954346,0.8870324492454529,4.775184631347656,-1270.8226318359375,0
535.2049999999999,-0.019438182935118675,-0.02731850929558277,0.0010756630217656493,0.0,0.0,0.0,0.0,-0.0003111894184257835,0.002613530494272709,-0.002196718705818057,0.9983989000320435,0.0,0.0,0.0,7.022721767425537,0.8693944215774536,4.774685382843018,-1271.1265869140625,0
545.1309999999994,-0.019477350637316704,-0.02732381597161293,0.0010938361519947648,0.0,0.0,0.0,0.0,-0.0020873851608484983,-0.005325127858668566,0.0007817976293154061,0.9982608556747437,0.0,0.0,0.0,7.0149312019348145,0.8703077435493469,4.763132572174072,-1269.7164306640625,0
555.0279999999984,-0.01946284994482994,-0.027338922023773193,0.0011120080016553402,0.0,0.0,0.0,0.0,0.0006280412781052291,0.0030272281728684902,-0.0007923443336039782,0.9990047812461853,0.0,0.0,0.0,7.01670503616333,0.8638496398925781,4.769783973693848,-1270.03759765625,0
564.9509999999991,-0.019504889845848083,-0.02734513208270073,0.0011276649311184883,0.0,0.0,0.0,0.0,0.001605815952643752,0.0002802700619213283,0.00038322628824971616,1.001505732536316,0.0,0.0,0.0,7.009232521057129,0.8599368929862976,4.776176929473877,-1268.68505859375,0
574.8509999999987,-0.019577059894800186,-0.027346812188625336,0.0011447957949712873,0.0,0.0,0.0,0.0,-0.0007058216142468154,0.0012426234316080809,-0.0021343394182622433,1.0007635354995728,0.0,0.0,0.0,7.013298034667969,0.8624943494796753,4.762134075164795,-1269.4210205078125,0
584.7669999999998,-0.01952347159385681,-0.02719980478286743,0.0010211147600784898,0.0,0.0,0.0,0.0,-0.0028021682519465685,0.0011204865295439959,0.004305861424654722,1.0007357597351074,0.0,0.0,0.0,7.031168460845947,0.8993398547172546,4.7714433670043945,-1272.6553955078125,0
594.6759999999995,-0.01945120468735695,-0.02724216692149639,0.0010496822651475668,0.0,0.0,0.0,0.0,-5.900431642658077e-05,-0.00348621211014688,-5.638306538457982e-05,1.0020679235458374,0.0,0.0,0.0,7.0330729484558105,0.8912084698677063,4.783405780792236,-1273.000244140625,0
604.6039999999994,-0.019493987783789635,-0.02724304236471653,0.001061892369762063,0.0,0.0,0.0,0.0,-0.001753208227455616,0.0014220563462004066,-0.003379311878234148,1.000293254852295,0.0,0.0,0.0,7.025765895843506,0.8913697600364685,4.777187824249268,-1271.677490234375,0
614.4959999999992,-0.019493456929922104,-0.027269460260868073,0.001060121925547719,0.0,0.0,0.0,0.0,0.0008413429604843259,-9.082793985726312e-05,-0.0022733532823622227,0.9995921850204468,0.0,0.0,0.0,7.027939796447754,0.8813401460647583,4.775881767272949,-1272.071044921875,0
624.4139999999989,-0.019537663087248802,-0.027274364605545998,0.0010731769725680351,0.0,0.0,0.0,0.0,-0.002718359464779496,-0.0006344613502733409,2.8738730506461252e-08,0.9996127486228943,0.0,0.0,0.0,7.020022869110107,0.8848956227302551,4.758545875549316,-1270.6380615234375,0
634.3199999999997,-0.019575338810682297,-0.027293257415294647,0.001069522462785244,0.0,0.0,0.0,0.0,-0.004356528166681528,0.00020284450147300959,0.0014923865674063563,1.0014318227767944,0.0,0.0,0.0,7.025238513946533,0.8779248595237732,4.774387836456299,-1271.5821533203125,0
644.2399999999998,-0.019551673904061317,-0.027192845940589905,0.000994152738712728,0.0,0.0,0.0,0.0,0.0009358421084471047,-0.0005575136747211218,-0.00019994436297565699,1.0003626346588135,0.0,0.0,0.0,7.039133548736572,0.908072292804718,4.7889790534973145,-1274.0970458984375,0
654.143,-0.01952224224805832,-0.02721654251217842,0.0010196876246482134,0.0,0.0,0.0,0.0,0.0035741899628192186,-0.000835166429169476,-0.0017332049319520593,1.0006861686706543,0.0,0.0,0.0,7.039552688598633,0.9026752710342407,4.7958502769470215,-1274.1729736328125,0
664.0619999999999,-0.019533777609467506,-0.027167098596692085,0.0010063855443149805,0.0,0.0,0.0,0.0,-0.0008662737091071904,0.004407067783176899,0.004784287419170141,0.9998307824134827,0.0,0.0,0.0,7.045778751373291,0.9093456864356995,4.7965569496154785,-1275.2999267578125,0
673.9669999999987,-0.019507672637701035,-0.027207938954234123,0.001020482974126935,0.0,0.0,0.0,0.0,0.0039026779122650623,-0.006608482450246811,-0.0019064187072217464,0.999704122543335,0.0,0.0,0.0,7.046288967132568,0.8958562016487122,4.79204797744751,-1275.3922119140625,0
683.884,-0.01955210231244564,-0.027215927839279175,0.0010301748989149928,0.0,0.0,0.0,0.0,0.0014627844793722034,0.0009201966458931565,-0.0009803781285881996,1.000538945198059,0.0,0.0,0.0,7.039466381072998,0.8952763676643372,4.792563438415527,-1274.1573486328125,0
693.7919999999995,-0.019529150798916817,-0.027253076434135437,0.001033844775520265,0.0,0.0,0.0,0.0,0.0020902736578136683,-0.002168759237974882,0.002442701952531934,0.9995977878570557,0.0,0.0,0.0,7.044332504272461,0.8826255798339844,4.799198627471924,-1275.0380859375,0
703.7079999999987,-0.019575946033000946,-0.027261923998594284,0.001043377909809351,0.0,0.0,0.0,0.0,0.0007511573494412005,-0.003152186283841729,0.0013282238505780697,1.0008236169815063,0.0,0.0,0.0,7.037827491760254,0.8782309293746948,4.787077903747559,-1273.8607177734375,0
713.6099999999988,-0.019481878727674484,-0.027290232479572296,0.0010600982932373881,0.0,0.0,0.0,0.0,-0.0003549762477632612,0.004233047366142273,0.002735869027674198,1.0005779266357422,0.0,0.0,0.0,7.037751197814941,0.8697200417518616,4.814647197723389,-1273.8470458984375,0
723.5349999999999,-0.01952257938683033,-0.027300093322992325,0.0010710007045418024,0.0,0.0,0.0,0.0,-0.000339803344104439,-0.0003053137625101954,0.002032907446846366,1.0010727643966675,0.0,0.0,0.0,7.030830383300781,0.8671978116035461,4.802711486816406,-1272.59423828125,0
733.4319999999989,-0.019515251740813255,-0.02733875811100006,0.001051211729645729,0.0,0.0,0.0,0.0,0.0010706953471526504,-0.0022523736115545034,0.001916728913784027,1.0018863677978516,0.0,0.0,0.0,7.0304999351501465,0.8496272563934326,4.812460422515869,-1272.534423828125,0
743.357,-0.01955648511648178,-0.027352409437298775,0.0010609983000904322,0.0,0.0,0.0,0.0,0.0013670914340764284,0.004803072661161423,-1.1928043022635393e-05,1.0015008449554443,0.0,0.0,0.0,7.024784564971924,0.8445190787315369,4.803397178649902,-1271.4998779296875,0
753.2559999999994,-0.019507652148604393,-0.02737267129123211,0.0010841572657227516,0.0,0.0,0.0,0.0,-0.0007722068694420159,-0.002518666908144951,-0.003953706007450819,0.9992360472679138,0.0,0.0,0.0,7.023915767669678,0.8304935097694397,4.813640117645264,-1271.3426513671875,0
763.1749999999993,-0.019467629492282867,-0.027255821973085403,0.000983649049885571,0.0,0.0,0.0,0.0,0.0019047666573897004,-0.0003544024657458067,0.00024625682272017,0.998252809047699,0.0,0.0,0.0,7.033085823059082,0.8650195598602295,4.83296537399292,-1273.00244140625,0
773.0839999999989,-0.019439509138464928,-0.027282552793622017,0.0010121110826730728,0.0,0.0,0.0,0.0,-0.002926419721916318,-0.002841005567461252,0.0031758835539221764,1.0003629922866821,0.0,0.0,0.0,7.035295486450195,0.8569956421852112,4.84748649597168,-1273.4024658203125,0
783.0009999999984,-0.019478948786854744,-0.027292653918266296,0.0010208144085481763,0.0,0.0,0.0,0.0,-0.0007903285440988839,0.004196661524474621,-0.0017621397273615003,1.0007696151733398,0.0,0.0,0.0,7.0294928550720215,0.8568708896636963,4.846770286560059,-1272.352294921875,0
792.9009999999998,-0.019556092098355293,-0.027290331199765205,0.001033975393511355,0.0,0.0,0.0,0.0,0.0020430991426110268,4.320816515246406e-05,-0.0002790696744341403,0.9994034171104431,0.0,0.0,0.0,7.031276702880859,0.8661038875579834,4.839259624481201,-1272.675048828125,0
802.8219999999983,-0.019601551815867424,-0.027301177382469177,0.001043984666466713,0.0,0.0,0.0,0.0,-0.0009059114381670952,0.0032469723373651505,-7.340827869484201e-05,0.9998816251754761,0.0,0.0,0.0,7.023818016052246,0.8641544580459595,4.839896202087402,-1271.3250732421875,0
812.7279999999992,-0.019566139206290245,-0.027323976159095764,0.001061243237927556,0.0,0.0,0.0,0.0,0.0017443235265091062,0.0021694975439459085,0.0006124932551756501,1.0018237829208374,0.0,0.0,0.0,7.026987075805664,0.856647253036499,4.852705478668213,-1271.8985595703125,0
822.6479999999992,-0.019526410847902298,-0.027205033227801323,0.0009619385236874223,0.0,0.0,0.0,0.0,-0.00019209393940400332,0.0009486490744166076,0.002678884891793132,1.002822995185852,0.0,0.0,0.0,7.048485279083252,0.8915236592292786,4.866324424743652,-1275.789794921875,0
832.5499999999993,-0.019452126696705818,-0.027249043807387352,0.000994809903204441,0.0,0.0,0.0,0.0,0.0018789860187098384,-0.0026953548658639193,0.00014996221580076963,1.0015569925308228,0.0,0.0,0.0,7.0516228675842285,0.8704075217247009,4.866833686828613,-1276.3577880859375,0
842.4689999999991,-0.019441964104771614,-0.027161473408341408,0.000995307695120573,0.0,0.0,0.0,0.0,0.001781143480911851,-7.636741793248802e-05,0.002093763090670109,1.0021694898605347,0.0,0.0,0.0,7.06443452835083,0.8860822916030884,4.875770568847656,-1278.6767578125,0
852.3719999999994,-0.019455794245004654,-0.02720494382083416,0.0009841369464993477,0.0,0.0,0.0,0.0,0.00031061525805853307,0.0024968856014311314,-0.00424331845715642,1.0020116567611694,0.0,0.0,0.0,7.068232536315918,0.8773723244667053,4.879887104034424,-1279.3642578125,0
862.2919999999995,-0.019496001303195953,-0.027213290333747864,0.0009978823363780975,0.0,0.0,0.0,0.0,-0.0012949744705110788,-0.0035226161126047373,0.005328722298145294,1.0008331537246704,0.0,0.0,0.0,7.05943489074707,0.8728475570678711,4.870359420776367,-1277.771728515625,0
872.1929999999993,-0.01948985643684864,-0.027239376679062843,0.001012917491607368,0.0,0.0,0.0,0.0,0.00015360552060883492,-0.003986774478107691,0.00582145107910037,0.9991014003753662,0.0,0.0,0.0,7.063506126403809,0.8693715333938599,4.880997180938721,-1278.5086669921875,0
882.1129999999994,-0.01953078620135784,-0.027250371873378754,0.0010289978235960007,0.0,0.0,0.0,0.0,-0.00087553117191419,0.0045760395005345345,-0.003525187261402607,1.0019868612289429,0.0,0.0,0.0,7.057872295379639,0.8715757131576538,4.886783123016357,-1277.489013671875,0
892.0159999999996,-0.019521335139870644,-0.027282264083623886,0.0010325979674234986,0.0,0.0,0.0,0.0,0.0006581879570148885,0.0003344006254337728,-0.0007030647830106318,1.0016014575958252,0.0,0.0,0.0,7.059421062469482,0.864806592464447,4.885735511779785,-1277.7694091796875,0
901.9379999999983,-0.01954016648232937,-0.02725556492805481,0.0010548626305535436,0.0,0.0,0.0,0.0,-0.0030005299486219883,0.00018404031288810074,-0.002188674872741103,1.000411868095398,0.0,0.0,0.0,7.059467792510986,0.8730781078338623,4.870153903961182,-1277.7777099609375,0
911.8439999999991,-0.019476065412163734,-0.027307886630296707,0.001092701917514205,0.0,0.0,0.0,0.0,0.0018036884721368551,0.0036033266223967075,0.0024146800860762596,0.9993650913238525,0.0,0.0,0.0,7.062522888183594,0.8642793893814087,4.880209445953369,-1278.3306884765625,0
921.759,-0.019514955580234528,-0.027325889095664024,0.0011130899656563997,0.0,0.0,0.0,0.0,0.0020734842400997877,0.0032616397365927696,-0.0008245920180343091,1.002434253692627,0.0,0.0,0.0,7.055868148803711,0.8635206818580627,4.872178554534912,-1277.126220703125,0
931.6610000000001,-0.019536281004548073,-0.027345575392246246,0.001138813327997923,0.0,0.0,0.0,0.0,-0.0032657496631145477,-0.002978829899802804,0.0018201771890744567,0.9989522695541382,0.0,0.0,0.0,7.048494338989258,0.8565267324447632,4.873794078826904,-1275.79150390625,0
941.5929999999989,-0.01957745850086212,-0.02736496925354004,0.0011610251385718584,0.0,0.0,0.0,0.0,0.004099832382053137,0.0043632034212350845,0.0025997257325798273,0.9992018342018127,0.0,0.0,0.0,7.043020725250244,0.8523916006088257,4.8643717765808105,-1274.80078125,0
951.4839999999986,-0.01956726796925068,-0.02739168517291546,0.0011874092742800713,0.0,0.0,0.0,0.0,8.03901202743873e-05,0.0028815048281103373,0.0013733330415561795,0.9984035491943359,0.0,0.0,0.0,7.049038887023926,0.8456292152404785,4.864574432373047,-1275.8900146484375,0
961.4119999999984,-0.019607989117503166,-0.027413466945290565,0.0012093784753233194,0.0,0.0,0.0,0.0,0.0002783469099085778,0.005822415463626385,-0.0025897060986608267,0.9995394349098206,0.0,0.0,0.0,7.041181564331055,0.8437542915344238,4.855556964874268,-1274.4677734375,0
971.3089999999993,-0.019556108862161636,-0.027446070685982704,0.0012349807657301426,0.0,0.0,0.0,0.0,0.0011738402536138892,-0.001372025697492063,0.0012434552190825343,0.9967220425605774,0.0,0.0,0.0,7.043692588806152,0.8320751786231995,4.867121696472168,-1274.92236328125,0
981.232,-0.019594991579651833,-0.027470190078020096,0.0012548681115731597,0.0,0.0,0.0,0.0,0.0021066563203930855,-0.00011640247248578817,-0.0004990088636986911,0.9971405863761902,0.0,0.0,0.0,7.035487651824951,0.8305138349533081,4.854068756103516,-1273.4371337890625,0
991.1299999999992,-0.019556717947125435,-0.027497408911585808,0.0012865561293438077,0.0,0.0,0.0,0.0,-0.0014842019882053137,0.0018482045270502567,0.0010656020604074001,1.0012773275375366,0.0,0.0,0.0,7.039106369018555,0.8236585259437561,4.877237319946289,-1274.0921630859375,0
1001.0519999999997,-0.019593684002757072,-0.027524098753929138,0.0013029046822339296,0.0,0.0,0.0,0.0,-0.003900740761309862,0.002585799666121602,0.0034910254180431366,0.9997768402099609,0.0,0.0,0.0,7.031458854675293,0.8244278430938721,4.867666244506836,-1272.7080078125,0
1010.9519999999993,-0.019620539620518684,-0.027555115520954132,0.001320711919106543,0.0,0.0,0.0,0.0,-0.00013082996883895248,-0.0009472105302847922,-0.002789449179545045,0.9990373253822327,0.0,0.0,0.0,7.0366363525390625,0.8202946782112122,4.857043743133545,-1273.645263671875,0
1020.8759999999984,-0.019659750163555145,-0.027584724128246307,0.001337719615548849,0.0,0.0,0.0,0.0,-0.0005440739332698286,0.0021863742731511593,-0.0014309188118204474,0.9996709227561951,0.0,0.0,0.0,7.030946254730225,0.8236499428749084,4.854676723480225,-1272.615234375,0
1030.7789999999986,-0.01965937949717045,-0.02759808488190174,0.0013913069851696491,0.0,0.0,0.0,0.0,0.004991316236555576,0.0019476476591080427,0.002148826839402318,0.9997140765190125,0.0,0.0,0.0,7.032780170440674,0.8237717747688293,4.858000755310059,-1272.9471435546875,0
1040.6939999999995,-0.019698094576597214,-0.02762770466506481,0.00141044519841671,0.0,0.0,0.0,0.0,0.00046711915638297796,-0.002212355611845851,0.0004736004921142012,1.0004140138626099,0.0,0.0,0.0,7.026250839233398,0.8216102719306946,4.855161666870117,-1271.765380859375,0
1050.598,-0.01970074325799942,-0.02766433171927929,0.0014392805751413107,0.0,0.0,0.0,0.0,-0.0002727077517192811,0.0003592498251236975,0.0009126865188591182,0.9989290237426758,0.0,0.0,0.0,7.031276702880859,0.8121436834335327,4.8675689697265625,-1272.675048828125,0
1060.5259999999998,-0.019739562645554543,-0.027697667479515076,0.0014592332299798727,0.0,0.0,0.0,0.0,0.002438010647892952,0.001268534455448389,0.001170254428870976,0.9981355667114258,0.0,0.0,0.0,7.023950576782227,0.8116426467895508,4.856655597686768,-1271.3489990234375,0
1070.4259999999995,-0.019737932831048965,-0.027752209454774857,0.0014814302558079362,0.0,0.0,0.0,0.0,-0.0013361021410673857,-0.0023682669270783663,0.0009344021091237664,1.0002321004867554,0.0,0.0,0.0,7.017693042755127,0.8152931332588196,4.852133274078369,-1270.2164306640625,0
1080.3499999999985,-0.01954655349254608,-0.027327511459589005,0.000956971081905067,0.0,0.0,0.0,0.0,-0.0005200053565204144,0.005231206305325031,-0.0010043432703241706,1.0015075206756592,0.0,0.0,0.0,7.022139549255371,0.9107134342193604,4.886847019195557,-1271.021240234375,0
1090.244999999999,-0.01957646757364273,-0.027343185618519783,0.0009536939905956388,0.0,0.0,0.0,0.0,0.0008408270659856498,-0.0014680586755275726,0.002713710768148303,1.0006859302520752,0.0,0.0,0.0,7.014490127563477,0.9073892831802368,4.8822221755981445,-1269.6365966796875,0
1100.17,-0.019578861072659492,-0.027296001091599464,0.0009561931365169585,0.0,0.0,0.0,0.0,0.001027622609399259,-0.00017869389557745308,0.0014539026888087392,1.0019623041152954,0.0,0.0,0.0,7.019568920135498,0.9278355240821838,4.87283992767334,-1270.555908203125,0
1110.066999999999,-0.019650230184197426,-0.02731950208544731,0.0009603069629520178,0.0,0.0,0.0,0.0,0.0011221348540857434,-0.00488554872572422,0.0017929229652509093,1.0006605386734009,0.0,0.0,0.0,7.0056681632995605,0.9251325130462646,4.8670172691345215,-1268.0399169921875,0
1119.9879999999994,-0.019650230184197426,-0.02731950208544731,0.0009603069629520178,0.0,0.0,0.0,0.0,-0.0060776774771511555,0.0017632889794185758,0.0025493912398815155,1.000135898590088,0.0,0.0,0.0,7.0056681632995605,0.9251325130462646,4.8670172691345215,-1268.0399169921875,0
1129.8899999999994,-0.019732510671019554,-0.02734563499689102,0.000968420528806746,0.0,0.0,0.0,0.0,-0.003071804065257311,0.002431312343105674,-0.0003896872512996197,1.0004031658172607,0.0,0.0,0.0,6.991823673248291,0.9279379844665527,4.85577917098999,-1265.5340576171875,0
1139.8089999999993,-0.019732510671019554,-0.02734563499689102,0.000968420528806746,0.0,0.0,0.0,0.0,0.00046442518942058086,0.0011599399149417877,0.0003512602124828845,0.9998023509979248,0.0,0.0,0.0,6.991823673248291,0.9279379844665527,4.85577917098999,-1265.5340576171875,0
1149.714,-0.019781870767474174,-0.027358338236808777,0.000973216665443033,0.0,0.0,0.0,0.0,-0.0019347226480022073,0.004833354149013758,0.002667867112904787,1.00252103805542,0.0,0.0,0.0,6.984837532043457,0.9290294051170349,4.852698802947998,-1264.26953125,0
1159.6329999999998,-0.019828103482723236,-0.02737019769847393,0.000978116295300424,0.0,0.0,0.0,0.0,0.0002662851184140891,-0.0015024009626358747,0.0019677479285746813,1.001760721206665,0.0,0.0,0.0,6.97905969619751,0.9369218945503235,4.843196392059326,-1263.2237548828125,0
1169.5479999999989,-0.01987583562731743,-0.02738218940794468,0.000985227758064866,0.0,0.0,0.0,0.0,0.002396235242486,-0.0037865315098315477,0.002647056709975004,1.0000643730163574,0.0,0.0,0.0,6.972953796386719,0.9285038709640503,4.832101821899414,-1262.1185302734375,0
1179.4579999999987,-0.019925951957702637,-0.027393389493227005,0.0009943072218447924,0.0,0.0,0.0,0.0,-0.0010932409204542637,-0.002228926168754697,0.0032469728030264378,1.0000263452529907,0.0,0.0,0.0,6.965259552001953,0.9312607645988464,4.829529762268066,-1260.725830078125,0
1189.3599999999988,-0.019977837800979614,-0.02740459330379963,0.0010038220789283514,0.0,0.0,0.0,0.0,-0.0013531717704609036,0.004167978186160326,0.000570119300391525,0.9996976256370544,0.0,0.0,0.0,6.95909309387207,0.9276286959648132,4.829213619232178,-1259.609619140625,0
1199.277,-0.020030857995152473,-0.02741752751171589,0.0010133872274309397,0.0,0.0,0.0,0.0,0.002833153121173382,0.0028402062598615885,-0.006002807058393955,1.0014045238494873,0.0,0.0,0.0,6.952550888061523,0.9282952547073364,4.813873291015625,-1258.4256591796875,0
1209.1839999999993,-0.020085105672478676,-0.02743219956755638,0.0010232322383672,0.0,0.0,0.0,0.0,-1.9991568478872068e-05,-0.00047847817768342793,0.00217567291110754,1.002297043800354,0.0,0.0,0.0,6.945537567138672,0.9252951145172119,4.794660568237305,-1257.1561279296875,0
1219.1039999999994,-0.020140405744314194,-0.027446676045656204,0.0010339475702494383,0.0,0.0,0.0,0.0,-0.0002845736453309655,-0.0031525015365332365,0.002126112813130021,1.0015922784805298,0.0,0.0,0.0,6.937677383422852,0.9215969443321228,4.784425735473633,-1255.7335205078125,0
1229.0069999999996,-0.020197033882141113,-0.027460213750600815,0.0010466104140505195,0.0,0.0,0.0,0.0,-0.002363910200074315,0.0001367387012578547,-0.0017400019569322467,0.9999580383300781,0.0,0.0,0.0,6.930093765258789,0.9135351181030273,4.778309345245361,-1254.36083984375,0
1238.9249999999993,-0.02025592513382435,-0.027473723515868187,0.0010610106401145458,0.0,0.0,0.0,0.0,6.113832205301151e-05,0.003995184320956469,0.0004656628880184144,1.001170039176941,0.0,0.0,0.0,6.923800468444824,0.9197723269462585,4.776280879974365,-1253.2216796875,0
1248.8269999999993,-0.020317206159234047,-0.027488049119710922,0.0010759927099570632,0.0,0.0,0.0,0.0,-0.0039033652283251286,-0.004957736469805241,0.0003865643229801208,1.0039888620376587,0.0,0.0,0.0,6.916914463043213,0.9242136478424072,4.770035266876221,-1251.9752197265625,0
1258.75,-0.020000608637928963,-0.027012130245566368,0.0008835075423121452,0.0,0.0,0.0,0.0,0.002533619524911046,0.00031481616315431893,0.0002928574103862047,1.0011223554611206,0.0,0.0,0.0,6.937171936035156,1.0255537033081055,4.866815567016602,-1255.6419677734375,0
1268.6509999999998,-0.020044688135385513,-0.027002200484275818,0.0008941796841099858,0.0,0.0,0.0,0.0,-0.002816526684910059,-0.000813861028291285,0.0006950286915525794,1.0008926391601562,0.0,0.0,0.0,6.929593563079834,1.023694396018982,4.872643947601318,-1254.270263671875,0
1278.5699999999997,-0.019952047616243362,-0.02683011256158352,0.0008353386074304581,0.0,0.0,0.0,0.0,-0.0014151041395962238,0.003064608434215188,-0.0008384307730011642,1.0003482103347778,0.0,0.0,0.0,6.9504547119140625,1.0498853921890259,4.904074668884277,-1258.0462646484375,0
1288.473,-0.0199908260256052,-0.02681083232164383,0.0008454621420241892,0.0,0.0,0.0,0.0,-0.0028304471634328365,0.003467082278802991,-0.00337423593737185,1.000877022743225,0.0,0.0,0.0,6.944812774658203,1.0537184476852417,4.897159576416016,-1257.02490234375,0
1298.3859999999986,-0.020031098276376724,-0.026791507378220558,0.0008564139134250581,0.0,0.0,0.0,0.0,0.0006730210734531283,-0.004423077683895826,-0.00042259247857145965,1.000564455986023,0.0,0.0,0.0,6.9382524490356445,1.0542200803756714,4.893069267272949,-1255.8375244140625,0
1308.3019999999997,-0.020073140040040016,-0.026772938668727875,0.0008681791368871927,0.0,0.0,0.0,0.0,0.001321481540799141,-0.001916530542075634,0.002326707821339369,1.0013576745986938,0.0,0.0,0.0,6.931257724761963,1.0541239976882935,4.8850555419921875,-1254.5714111328125,0
1318.2169999999987,-0.02011607214808464,-0.026754828169941902,0.0008809444843791425,0.0,0.0,0.0,0.0,0.0010993971955031157,0.0007470602868124843,-9.656499605625868e-05,0.9988958239555359,0.0,0.0,0.0,6.923026084899902,1.049080491065979,4.887334823608398,-1253.08154296875,0
1328.125,-0.01949765533208847,-0.027156386524438858,0.0011199959553778172,0.0,0.0,0.0,0.0,-0.0030776585917919874,0.00156465417239815,0.00013298112025950104,0.9979057908058167,0.0,0.0,0.0,6.938379764556885,0.9522036910057068,4.989600658416748,-1255.860595703125,0
1338.0369999999984,-0.019512610509991646,-0.027154047042131424,0.001137344865128398,0.0,0.0,0.0,0.0,-0.00019966352556366473,-0.00042421711259521544,-0.002191555919125676,0.999878466129303,0.0,0.0,0.0,6.932844161987305,0.9457842111587524,4.9846415519714355,-1254.858642578125,0
1347.946,-0.019527727738022804,-0.027150746434926987,0.001153263496235013,0.0,0.0,0.0,0.0,-0.00033918695407919586,-0.0019701558630913496,0.003652335610240698,0.9997218251228333,0.0,0.0,0.0,6.9259724617004395,0.9439563751220703,4.984355926513672,-1253.61474609375,0
1357.8679999999986,-0.01954326406121254,-0.02714759297668934,0.0011683842167258263,0.0,0.0,0.0,0.0,0.004356426652520895,0.005253627896308899,0.00026522920234128833,1.002451777458191,0.0,0.0,0.0,6.919373989105225,0.9455143809318542,4.975044250488281,-1252.42041015625,0
1367.7639999999992,-0.019558832049369812,-0.027145490050315857,0.0011839757207781076,0.0,0.0,0.0,0.0,0.002187206642702222,0.003381883492693305,-0.0009013401577249169,1.0013948678970337,0.0,0.0,0.0,6.913054943084717,0.9424437284469604,4.971088886260986,-1251.276611328125,0
1377.6889999999985,-0.019574400037527084,-0.027145031839609146,0.0012014401145279408,0.0,0.0,0.0,0.0,-0.0007254108786582947,0.0011923090787604451,0.004263611976057291,1.0010792016983032,0.0,0.0,0.0,6.905939102172852,0.9322208762168884,4.955958843231201,-1249.98876953125,0
1387.5879999999997,-0.019460169598460197,-0.02725508064031601,0.0011675911955535412,0.0,0.0,0.0,0.0,0.001071843085810542,0.002563284710049629,0.004419130738824606,1.000898003578186,0.0,0.0,0.0,6.920070648193359,0.8865423798561096,4.970663547515869,-1252.5465087890625,0
1397.512999999999,-0.019469494000077248,-0.027261659502983093,0.0011837681522592902,0.0,0.0,0.0,0.0,-0.0005615103873424232,-0.0034068471286445856,5.681891707354225e-05,1.0012928247451782,0.0,0.0,0.0,6.914288520812988,0.8862219452857971,4.976657867431641,-1251.4998779296875,0
1407.4099999999999,-0.01948026940226555,-0.027307234704494476,0.001136557199060917,0.0,0.0,0.0,0.0,-0.0009432602673768997,0.0011304725194349885,-0.0011086218291893601,1.000888466835022,0.0,0.0,0.0,6.930263519287109,0.8677573204040527,4.972018241882324,-1254.3914794921875,0
1417.3349999999991,-0.019493468105793,-0.027315614745020866,0.0011513017816469073,0.0,0.0,0.0,0.0,-0.002522972645238042,-0.0008970904746092856,-0.0005027865990996361,1.000132441520691,0.0,0.0,0.0,6.9234113693237305,0.8677876591682434,4.971928596496582,-1253.1512451171875,0
1427.2379999999994,-0.01950875110924244,-0.027323301881551743,0.0011668778024613857,0.0,0.0,0.0,0.0,-0.0043489644303917885,0.0005988952470943332,-0.0015589758986607194,0.9999992251396179,0.0,0.0,0.0,6.915807247161865,0.8691689968109131,4.963020324707031,-1251.77490234375,0
1437.1539999999986,-0.01952597312629223,-0.02732984349131584,0.001182917389087379,0.0,0.0,0.0,0.0,0.0014927717857062817,-0.005353568121790886,0.0037588346749544144,0.9998807311058044,0.0,0.0,0.0,6.909284591674805,0.8694456219673157,4.955870151519775,-1250.59423828125,0
1447.0639999999985,-0.0195651613175869,-0.02734268084168434,0.0012152409180998802,0.0,0.0,0.0,0.0,-0.0001378828164888546,0.004964740481227636,0.001636662520468235,0.9998146891593933,0.0,0.0,0.0,6.897200584411621,0.8687177896499634,4.9519782066345215,-1248.406982421875,0
1456.9779999999992,-0.0195651613175869,-0.02734268084168434,0.0012152409180998802,0.0,0.0,0.0,0.0,0.0037788557820022106,0.0005805048276670277,-0.002048961818218231,0.9991989731788635,0.0,0.0,0.0,6.897200584411621,0.8687177896499634,4.9519782066345215,-1248.406982421875,0
1466.8919999999998,-0.01960870809853077,-0.027357283979654312,0.0012470618821680546,0.0,0.0,0.0,0.0,-0.0013436502777040005,0.0028220834210515022,0.00119209592230618,1.0019358396530151,0.0,0.0,0.0,6.8843302726745605,0.8643121123313904,4.942107677459717,-1246.0775146484375,0
1476.7929999999997,-0.01960870809853077,-0.027357283979654312,0.0012470618821680546,0.0,0.0,0.0,0.0,0.004219936206936836,0.002308296738192439,-0.0004790025413967669,0.9998371601104736,0.0,0.0,0.0,6.8843302726745605,0.8643121123313904,4.942107677459717,-1246.0775146484375,0
1486.708999999999,-0.019634781405329704,-0.027366776019334793,0.0012656955514103174,0.0,0.0,0.0,0.0,-0.0002286929084220901,-0.0013491481076925993,0.0030143868643790483,1.000768780708313,0.0,0.0,0.0,6.878061771392822,0.8656330108642578,4.936032295227051,-1244.9429931640625,0
1496.6179999999986,-0.019660046324133873,-0.027376295998692513,0.001283717341721058,0.0,0.0,0.0,0.0,-6.833082443336025e-05,-0.0007090534782037139,-0.00038686039624735713,1.0016467571258545,0.0,0.0,0.0,6.871273517608643,0.8605780005455017,4.926021575927734,-1243.7142333984375,0
1506.5389999999989,-0.019687321037054062,-0.027386251837015152,0.0013025002554059029,0.0,0.0,0.0,0.0,-0.004030982498079538,0.007869169116020203,-0.0004281093133613467,1.0031405687332153,0.0,0.0,0.0,6.86585807800293,0.8629454970359802,4.924931049346924,-1242.7340087890625,0
1516.4429999999993,-0.019716018810868263,-0.027396615594625473,0.001323106698691845,0.0,0.0,0.0,0.0,0.001331670442596078,0.0006829132325947285,0.00013511997531168163,0.9982061386108398,0.0,0.0,0.0,6.858902931213379,0.8614700436592102,4.915604114532471,-1241.47509765625,0
1526.360999999999,-0.01970059983432293,-0.027483250945806503,0.0012837089598178864,0.0,0.0,0.0,0.0,0.0019437356386333704,-0.0021458540577441454,0.0010812764521688223,1.0006836652755737,0.0,0.0,0.0,6.883610725402832,0.8312277793884277,4.921749591827393,-1245.947265625,0
1536.2579999999998,-0.019727174192667007,-0.02749817818403244,0.0013017607852816582,0.0,0.0,0.0,0.0,-0.0018222542712464929,-0.0019108849810436368,-0.003927954472601414,1.0006592273712158,0.0,0.0,0.0,6.876680850982666,0.8296132683753967,4.918323993682861,-1244.6929931640625,0
1546.182999999999,-0.019684582948684692,-0.027532972395420074,0.001334687229245901,0.0,0.0,0.0,0.0,0.002659515244886279,0.002478092908859253,0.0010986918350681663,1.0000200271606445,0.0,0.0,0.0,6.892550945281982,0.8196488618850708,4.9425530433654785,-1247.5655517578125,0
1556.083999999999,-0.01970788463950157,-0.02754841186106205,0.0013545434921979904,0.0,0.0,0.0,0.0,-0.00021572971309069544,0.0033263075165450573,0.00180025992449373,0.9999151825904846,0.0,0.0,0.0,6.885219097137451,0.8138988614082336,4.928570747375488,-1246.23828125,0
1566.0069999999996,-0.019692426547408104,-0.02758103795349598,0.0013816729187965393,0.0,0.0,0.0,0.0,0.0006526747019961476,-0.0017868181457743049,0.0030167431104928255,1.0009685754776,0.0,0.0,0.0,6.902031898498535,0.7993494868278503,4.938206672668457,-1249.2816162109375,0
1575.9049999999988,-0.019714349880814552,-0.027598651126027107,0.0014017911162227392,0.0,0.0,0.0,0.0,0.002514959080144763,-0.002115091308951378,0.0025055892765522003,1.0007485151290894,0.0,0.0,0.0,6.89581823348999,0.7964436411857605,4.933777332305908,-1248.15673828125,0
1585.8289999999997,-0.019707778468728065,-0.02764848992228508,0.0014210251392796636,0.0,0.0,0.0,0.0,0.002988093765452504,0.0036575861740857363,0.0040165432728827,1.0000447034835815,0.0,0.0,0.0,6.91630744934082,0.7800868153572083,4.941612720489502,-1251.8653564453125,0
1595.7279999999992,-0.019730890169739723,-0.02767093852162361,0.0014425236731767654,0.0,0.0,0.0,0.0,0.001971931429579854,-0.004895016085356474,-0.0024696507025510073,1.0001718997955322,0.0,0.0,0.0,6.909701347351074,0.7733634114265442,4.929558753967285,-1250.669677734375,0
1605.661,-0.019721219316124916,-0.0277208611369133,0.001465153181925416,0.0,0.0,0.0,0.0,-0.0012018054258078337,0.0007447385578416288,0.002327508060261607,1.0009732246398926,0.0,0.0,0.0,6.925713062286377,0.753945529460907,4.937711238861084,-1253.56787109375,0
1615.5559999999987,-0.019555704668164253,-0.027324434369802475,0.001006850739941001,0.0,0.0,0.0,0.0,-0.0021285046823322773,0.00259058247320354,-0.0028762067668139935,1.0019515752792358,0.0,0.0,0.0,6.94564962387085,0.8118022680282593,4.97217321395874,-1257.176513671875,0
1625.4699999999993,-0.019495557993650436,-0.02735210210084915,0.0010452091228216887,0.0,0.0,0.0,0.0,0.0014465064741671085,0.0004697520053014159,-0.0042222654446959496,0.9995220303535461,0.0,0.0,0.0,6.952450752258301,0.8009682297706604,4.973743438720703,-1258.4073486328125,0
1635.3769999999986,-0.019510086625814438,-0.027362395077943802,0.0010583354160189629,0.0,0.0,0.0,0.0,0.0003223971289116889,0.00014310867118183523,-0.0012334530474618077,0.9999984502792358,0.0,0.0,0.0,6.9452314376831055,0.8019625544548035,4.970363140106201,-1257.1007080078125,0
1645.3049999999985,-0.01948302425444126,-0.027372537180781364,0.0010949955321848392,0.0,0.0,0.0,0.0,0.0007622059201821685,0.0009744841954670846,0.003941294737160206,1.0012848377227783,0.0,0.0,0.0,6.95682954788208,0.7965525984764099,4.966968059539795,-1259.199951171875,0
1655.196,-0.019497042521834373,-0.027384035289287567,0.0011103765573352575,0.0,0.0,0.0,0.0,-0.0021379939280450344,0.00027973990654572845,0.0028156409971415997,1.0014621019363403,0.0,0.0,0.0,6.951135635375977,0.7939185500144958,4.955431938171387,-1258.1693115234375,0
1665.119999999999,-0.019525695592164993,-0.02739344723522663,0.001130737829953432,0.0,0.0,0.0,0.0,0.0007099939393810928,0.0014223327161744237,0.001779531012289226,0.9969162940979004,0.0,0.0,0.0,6.960466384887695,0.7973276376724243,4.948555946350098,-1259.8582763671875,0
1675.0279999999984,-0.01946498639881611,-0.027279436588287354,0.001029496779665351,0.0,0.0,0.0,0.0,0.0004054388264194131,0.0007301466539502144,0.0015788465971127152,1.000746488571167,0.0,0.0,0.0,6.9703497886657715,0.8247690796852112,4.9489641189575195,-1261.647216796875,0
1684.9449999999997,-0.01944575086236,-0.02729211375117302,0.0010596998035907745,0.0,0.0,0.0,0.0,-0.0012521601747721434,-0.001595519483089447,0.0033297757618129253,1.0018633604049683,0.0,0.0,0.0,6.982303619384766,0.8170201778411865,4.948674201965332,-1263.810791015625,0
1694.8409999999985,-0.01946236379444599,-0.027300165966153145,0.001073695719242096,0.0,0.0,0.0,0.0,0.0007079037022776902,0.0015110279200598598,-0.0009009527857415378,1.0015696287155151,0.0,0.0,0.0,6.975583553314209,0.8194631934165955,4.938327312469482,-1262.594482421875,0
1704.7649999999994,-0.019499095156788826,-0.027294056490063667,0.0011014915071427822,0.0,0.0,0.0,0.0,-0.0003317743830848485,-0.0032890161965042353,-0.001842711353674531,0.999801754951477,0.0,0.0,0.0,6.978240489959717,0.8198835849761963,4.929945945739746,-1263.0753173828125,0
1714.664999999999,-0.019519135355949402,-0.02730248123407364,0.0011193332029506564,0.0,0.0,0.0,0.0,-0.003906442318111658,0.004723194055259228,0.0014387756818905473,0.9996978044509888,0.0,0.0,0.0,6.970981597900391,0.8221675753593445,4.927175998687744,-1261.7615966796875,0
1724.583999999999,-0.01957848109304905,-0.027310412377119064,0.0011291193077340722,0.0,0.0,0.0,0.0,-0.0004505142569541931,0.0022397462744265795,-0.004493395332247019,0.9997420310974121,0.0,0.0,0.0,6.975541114807129,0.8319836854934692,4.907584190368652,-1262.5867919921875,0
1734.4899999999998,-0.019597694277763367,-0.027324112132191658,0.0011438862420618534,0.0,0.0,0.0,0.0,0.00044401930063031614,0.005726827774196863,-0.0008481229306198657,0.9994009137153625,0.0,0.0,0.0,6.981000900268555,0.8347545266151428,4.908490180969238,-1263.574951171875,0
1744.4189999999999,-0.019623015075922012,-0.027337495237588882,0.001160209532827139,0.0,0.0,0.0,0.0,-0.002152459928765893,-0.005043036304414272,0.001069384510628879,0.9995663166046143,0.0,0.0,0.0,6.973202705383301,0.8319116234779358,4.88479471206665,-1262.1634521484375,0
1754.3109999999997,-0.019535508006811142,-0.02727443166077137,0.0011199134169146419,0.0,0.0,0.0,0.0,-0.00043950171675533056,-0.0035778412129729986,-0.00015042781888041645,0.9997262954711914,0.0,0.0,0.0,6.99662446975708,0.8494725227355957,4.910528659820557,-1266.4029541015625,0
1764.2329999999984,-0.019560866057872772,-0.027283521369099617,0.0011335955932736397,0.0,0.0,0.0,0.0,0.0029039597138762474,0.00019551489094737917,0.00013765199400950223,0.9993710517883301,0.0,0.0,0.0,6.989154815673828,0.8527380228042603,4.918038368225098,-1265.0509033203125,0
1774.134,-0.019541718065738678,-0.027299657464027405,0.0011554000666365027,0.0,0.0,0.0,0.0,0.000178488960955292,0.001439505023881793,0.0002961236168630421,1.0001068115234375,0.0,0.0,0.0,6.996798992156982,0.8474031090736389,4.9260334968566895,-1266.4346923828125,0
1784.0539999999983,-0.019568759948015213,-0.02731027640402317,0.0011688267113640904,0.0,0.0,0.0,0.0,0.00444659311324358,0.0017081602709367871,-0.0012698615901172161,0.9993776679039001,0.0,0.0,0.0,6.990091323852539,0.8392013907432556,4.9152679443359375,-1265.220458984375,0
1793.9569999999985,-0.019520893692970276,-0.02731996960937977,0.0011472937185317278,0.0,0.0,0.0,0.0,-0.0015139564638957381,-0.007146044634282589,0.000507461663801223,0.9994940161705017,0.0,0.0,0.0,7.012588024139404,0.8327764868736267,4.920000076293945,-1269.29248046875,0
1803.8759999999984,-0.019545694813132286,-0.02733239345252514,0.0011577301193028688,0.0,0.0,0.0,0.0,0.0017691920511424541,-0.0011912067420780659,0.0033822408877313137,1.0007708072662354,0.0,0.0,0.0,7.006324291229248,0.8312808275222778,4.9294304847717285,-1268.15869140625,0
1813.7869999999984,-0.01948922500014305,-0.027367178350687027,0.0011744351359084249,0.0,0.0,0.0,0.0,-0.0006112102419137955,-0.0009938247967511415,-0.00015186132804956287,1.000403881072998,0.0,0.0,0.0,7.012320518493652,0.8202956914901733,4.9286346435546875,-1269.2440185546875,0
1823.7059999999983,-0.019512655213475227,-0.027384242042899132,0.0011856048367917538,0.0,0.0,0.0,0.0,0.0021818955428898335,-0.001884442288428545,0.0004938298952765763,0.998721182346344,0.0,0.0,0.0,7.005366325378418,0.8208484649658203,4.926817893981934,-1267.9853515625,0
1833.6039999999994,-0.01953527331352234,-0.027394406497478485,0.0012073194375261664,0.0,0.0,0.0,0.0,0.00010612174810376018,0.0007093666354194283,9.878761193249375e-05,0.9983950257301331,0.0,0.0,0.0,7.007785797119141,0.8236772418022156,4.922943115234375,-1268.4232177734375,0
1843.5249999999996,-0.019560249522328377,-0.02741161733865738,0.0012180159101262689,0.0,0.0,0.0,0.0,0.0007102613453753293,3.297412331448868e-05,-0.0025641208048909903,0.9992141723632812,0.0,0.0,0.0,7.000030994415283,0.818449854850769,4.915940761566162,-1267.0196533203125,0
1853.4279999999999,-0.019527675583958626,-0.02736152894794941,0.0011657379800453782,0.0,0.0,0.0,0.0,-0.003197220154106617,0.0009144513169303536,0.001223187893629074,1.0008548498153687,0.0,0.0,0.0,7.0187602043151855,0.8316678404808044,4.922022819519043,-1270.4095458984375,0
1863.3449999999993,-0.019552942365407944,-0.027380207553505898,0.001171969110146165,0.0,0.0,0.0,0.0,0.00021666284010279924,-0.0001589734310982749,0.001872045686468482,0.9996967911720276,0.0,0.0,0.0,7.0129194259643555,0.8406220078468323,4.92127799987793,-1269.352294921875,0
1873.253999999999,-0.01950807496905327,-0.02741299755871296,0.0011915076756849885,0.0,0.0,0.0,0.0,-0.0013775830157101154,-0.004006609786301851,0.0025914153084158897,0.9979187846183777,0.0,0.0,0.0,7.017144203186035,0.833217442035675,4.92090368270874,-1270.1171875,0
1883.1679999999997,-0.019534898921847343,-0.027436932548880577,0.001198607380501926,0.0,0.0,0.0,0.0,-0.0006069205701351166,-0.0003912045795004815,0.0020885502453893423,0.9991456866264343,0.0,0.0,0.0,7.010637283325195,0.8362393379211426,4.930805206298828,-1268.9393310546875,0
1893.075999999999,-0.01952344737946987,-0.02747751586139202,0.001193222007714212,0.0,0.0,0.0,0.0,0.0021747907157987356,-0.001552413566969335,-0.0036639312747865915,1.0026607513427734,0.0,0.0,0.0,7.016402244567871,0.8244304656982422,4.937687397003174,-1269.9827880859375,0
1902.9869999999992,-0.01955219730734825,-0.027505196630954742,0.0011978098191320896,0.0,0.0,0.0,0.0,-0.0005318819894455373,-0.0025985653046518564,0.0009503902401775122,1.0019989013671875,0.0,0.0,0.0,7.00811243057251,0.8203794956207275,4.932470798492432,-1268.482421875,0
1912.9049999999988,-0.019585182890295982,-0.02751152403652668,0.0012425539316609502,0.0,0.0,0.0,0.0,-0.002476194640621543,-0.00474075973033905,-0.00044434715528041124,1.0006541013717651,0.0,0.0,0.0,7.014337539672852,0.8382949829101562,4.927788734436035,-1269.609130859375,0
1922.812,-0.01961554028093815,-0.027541033923625946,0.0012542994227260351,0.0,0.0,0.0,0.0,0.00047676730901002884,-0.0005862028920091689,0.0033090144861489534,1.001556396484375,0.0,0.0,0.0,7.007141590118408,0.839402437210083,4.929441928863525,-1268.3065185546875,0
1932.7259999999987,-0.019636858254671097,-0.02755925804376602,0.0012925247428938746,0.0,0.0,0.0,0.0,-0.0020876016933470964,-0.0022792480885982513,-0.002363763516768813,0.9994300007820129,0.0,0.0,0.0,7.013347625732422,0.8463391065597534,4.926581382751465,-1269.4298095703125,0
1942.6359999999986,-0.019669247791171074,-0.027589017525315285,0.0013082900550216436,0.0,0.0,0.0,0.0,0.003554383758455515,0.0014511867193505168,-0.0012038713321089745,1.0008147954940796,0.0,0.0,0.0,7.005470275878906,0.8482294678688049,4.923161029815674,-1268.0040283203125,0
1952.5479999999989,-0.019709641113877296,-0.027597026899456978,0.0013619748642668128,0.0,0.0,0.0,0.0,0.0003588105028029531,-0.004657391924411058,-0.004034788813441992,1.000040054321289,0.0,0.0,0.0,7.007387161254883,0.8540909290313721,4.915010452270508,-1268.3509521484375,0
1962.4599999999991,-0.019743502140045166,-0.027625737711787224,0.0013818275183439255,0.0,0.0,0.0,0.0,0.0077207377180457115,-0.001241606893017888,0.004144206643104553,1.000615119934082,0.0,0.0,0.0,6.999947547912598,0.8529634475708008,4.913815975189209,-1267.00439453125,0
1972.3669999999984,-0.019723983481526375,-0.027636757120490074,0.0014532057102769613,0.0,0.0,0.0,0.0,-0.0003084602940361947,0.003110315650701523,-0.0018014219822362065,0.9998652935028076,0.0,0.0,0.0,7.003861904144287,0.8515528440475464,4.922215461730957,-1267.712890625,0
1982.2789999999986,-0.01975562982261181,-0.027664607390761375,0.0014783402439206839,0.0,0.0,0.0,0.0,0.0004803108749911189,-0.002298288280144334,0.0004008726682513952,1.0009169578552246,0.0,0.0,0.0,6.997109413146973,0.8506463766098022,4.913568496704102,-1266.49072265625,0
1992.190999999999,-0.01974276266992092,-0.0276853796094656,0.0015397940296679735,0.0,0.0,0.0,0.0,-0.00033710358547978103,0.0035501252859830856,0.0006834457744844258,1.0010966062545776,0.0,0.0,0.0,6.999252796173096,0.850688636302948,4.931441783905029,-1266.878662109375,0
2002.1029999999992,-0.019773580133914948,-0.027715591713786125,0.0015690666623413563,0.0,0.0,0.0,0.0,-0.0011194940889254212,-0.0012462849263101816,0.0014262694166973233,1.0003775358200073,0.0,0.0,0.0,6.99296760559082,0.8496782183647156,4.91472053527832,-1265.7410888671875,0
2012.012999999999,-0.019734233617782593,-0.027757372707128525,0.001633364474400878,0.0,0.0,0.0,0.0,0.00027517866692505777,-0.0010341925080865622,0.0021636360324919224,1.0002822875976562,0.0,0.0,0.0,6.997881889343262,0.8410323262214661,4.9415459632873535,-1266.630615234375,0
2021.9229999999989,-0.01976129598915577,-0.02779136411845684,0.0016667854506522417,0.0,0.0,0.0,0.0,0.00014551957428921014,-0.0014794685412198305,-0.0037786790635436773,1.0018926858901978,0.0,0.0,0.0,6.991872787475586,0.8417481184005737,4.924034118652344,-1265.54296875,0
2031.8359999999993,-0.019496645778417587,-0.02743419259786606,0.0012411014176905155,0.0,0.0,0.0,0.0,0.002049199305474758,-0.004733373410999775,-0.0015186374075710773,1.0018949508666992,0.0,0.0,0.0,7.01457405090332,0.9048221111297607,4.978141784667969,-1269.65185546875,0
2041.7439999999988,-0.019514519721269608,-0.027453700080513954,0.0012597013264894485,0.0,0.0,0.0,0.0,0.0005708938697353005,-0.0032928099390119314,-0.0009939480805769563,0.9994866251945496,0.0,0.0,0.0,7.008256912231445,0.9002341032028198,4.985058307647705,-1268.5084228515625,0
2051.655999999999,-0.019505590200424194,-0.027478262782096863,0.0012861303985118866,0.0,0.0,0.0,0.0,0.00026196660473942757,-0.0026111959014087915,-0.0008374078897759318,0.9996297955513,0.0,0.0,0.0,7.013244152069092,0.8925302624702454,4.992258548736572,-1269.4111328125,0
2061.5699999999997,-0.019524002447724342,-0.02750023454427719,0.0013063669903203845,0.0,0.0,0.0,0.0,-0.0021514936815947294,-0.00037752249045297503,-0.002277137478813529,0.9986122250556946,0.0,0.0,0.0,7.006301403045654,0.8948100209236145,5.000604152679443,-1268.154541015625,0
2071.4789999999994,-0.019493136554956436,-0.027422040700912476,0.0011935858055949211,0.0,0.0,0.0,0.0,-0.00024229625705629587,-0.0005587911000475287,0.0028945005033165216,0.9994249939918518,0.0,0.0,0.0,7.03017520904541,0.9241651296615601,4.998739719390869,-1272.4755859375,0
2081.3939999999984,-0.019512414932250977,-0.027438411489129066,0.0012064054608345032,0.0,0.0,0.0,0.0,0.0004176514921709895,8.893125777831301e-05,0.0010797202121466398,0.9997626543045044,0.0,0.0,0.0,7.024395942687988,0.9280272722244263,5.003279685974121,-1271.4295654296875,0
2091.2999999999993,-0.019490761682391167,-0.027462245896458626,0.0012247138656675816,0.0,0.0,0.0,0.0,-0.0013106056721881032,-0.00012195429007988423,0.0006732003530487418,0.9996498823165894,0.0,0.0,0.0,7.024570941925049,0.9237615466117859,5.000207424163818,-1271.46142578125,0
2101.218999999999,-0.019511574879288673,-0.027479080483317375,0.0012369985925033689,0.0,0.0,0.0,0.0,-0.0019416785798966885,-0.003413318656384945,0.0005858438671566546,1.0017653703689575,0.0,0.0,0.0,7.017905235290527,0.9235429167747498,4.997328281402588,-1270.2547607421875,0
2111.1229999999996,-0.019520895555615425,-0.02749193273484707,0.0012606863165274262,0.0,0.0,0.0,0.0,0.0018297577043995261,0.0006396042299456894,-0.0010579620720818639,1.0000627040863037,0.0,0.0,0.0,7.020364761352539,0.9269437789916992,5.0039520263671875,-1270.699951171875,0
2121.0409999999993,-0.01954672485589981,-0.02750866673886776,0.0012755095958709717,0.0,0.0,0.0,0.0,0.0008286499069072306,0.0011125118471682072,0.0027634031139314175,1.0010942220687866,0.0,0.0,0.0,7.013340950012207,0.9253984093666077,5.002044677734375,-1269.4287109375,0
2130.9489999999987,-0.01952451653778553,-0.027521124109625816,0.0013093198649585247,0.0,0.0,0.0,0.0,0.0001353399857180193,-0.0006872519152238965,0.0038270249497145414,0.999549925327301,0.0,0.0,0.0,7.020244121551514,0.9295902252197266,5.006477355957031,-1270.6781005859375,0
2140.861999999999,-0.019550824537873268,-0.027537891641259193,0.0013270550407469273,0.0,0.0,0.0,0.0,1.484078495650465e-07,-0.0017880139639601111,0.0009064790210686624,1.0017575025558472,0.0,0.0,0.0,7.014453411102295,0.9298660159111023,5.007794380187988,-1269.6300048828125,0
2150.7689999999984,-0.01959824189543724,-0.027541153132915497,0.001366768148727715,0.0,0.0,0.0,0.0,-0.002782651921734214,-0.0009170583798550069,0.001959698973223567,0.9999797344207764,0.0,0.0,0.0,7.014947414398193,0.9322707056999207,4.988778114318848,-1269.719482421875,0
2160.681999999999,-0.019625548273324966,-0.027557797729969025,0.0013884666841477156,0.0,0.0,0.0,0.0,0.001301236916333437,0.0016557372873649001,0.0007297889678739011,0.9987369179725647,0.0,0.0,0.0,7.008995532989502,0.9325645565986633,4.986945152282715,-1268.64208984375,0
