timestamp,stateEstimate.x,stateEstimate.y,stateEstimate.z,controller.cmd_thrust,controller.cmd_roll,controller.cmd_pitch,controller.cmd_yaw,controller.r_roll,controller.r_pitch,controller.r_yaw,controller.accelz,controller.actuatorThrust,controller.roll,controller.pitch,controller.yaw,controller.rollRate,controller.pitchRate,controller.yawRate,controller.ctr_yaw
0.0,-0.009565845131874084,-0.022218963131308556,0.0008072030614130199,0.0,0.0,0.0,0.0,-0.0002648901136126369,2.184552067774348e-05,0.000726015365216881,1.000727653503418,0.0,0.0,0.0,-5.109081268310547,1.0059677362442017,3.0873847007751465,924.7538452148438,0
9.902000000000044,-0.009619045071303844,-0.022228064015507698,0.0007991790771484375,0.0,0.0,0.0,0.0,-0.0007397836889140308,0.004047744907438755,-0.0005319538176991045,1.0000290870666504,0.0,0.0,0.0,-5.099365711212158,1.0024269819259644,3.0835719108581543,922.9953002929688,0
19.8229999999985,-0.009619045071303844,-0.022228064015507698,0.0007991790771484375,0.0,0.0,0.0,0.0,0.001056314562447369,-0.004468824714422226,-0.0024315472692251205,1.0000600814819336,0.0,0.0,0.0,-5.099365711212158,1.0024269819259644,3.0835719108581543,922.9953002929688,0
29.72599999999875,-0.009646154008805752,-0.022251516580581665,0.0007850417750887573,0.0,0.0,0.0,0.0,-0.0017558197723701596,0.002002591034397483,-0.00014657317660748959,1.000841498374939,0.0,0.0,0.0,-5.08942174911499,1.0079938173294067,3.072420597076416,921.1954956054688,0
39.65899999999965,-0.009646154008805752,-0.022251516580581665,0.0007850417750887573,0.0,0.0,0.0,0.0,-0.0008291868143714964,-0.000498657173011452,-0.002852040808647871,0.9989520907402039,0.0,0.0,0.0,-5.08942174911499,1.0079938173294067,3.072420597076416,921.1954956054688,0
49.55499999999847,-0.009583985432982445,-0.022295501083135605,0.0007598274387419224,0.0,0.0,0.0,0.0,0.000601539621129632,0.0005236697616055608,-0.00030503919697366655,1.0000550746917725,0.0,0.0,0.0,-5.09108304977417,0.9864996671676636,3.100743532180786,921.4962158203125,0
59.472999999999956,-0.009648219682276249,-0.02234579809010029,0.0008621035376563668,0.0,0.0,0.0,0.0,-0.0007729906938038766,-0.004693601280450821,0.0008795725298114121,0.9996557235717773,0.0,0.0,0.0,-5.093452453613281,0.9841047525405884,3.0843820571899414,921.925048828125,0
69.378999999999,-0.009643161669373512,-0.022400112822651863,0.0008381839143112302,0.0,0.0,0.0,0.0,-0.0021894406527280807,-0.0011141888098791242,0.0025488571263849735,0.9997307658195496,0.0,0.0,0.0,-5.088343620300293,0.9865029454231262,3.096123456954956,921.0003662109375,0
79.29799999999886,-0.009634553454816341,-0.022357307374477386,0.0008314406150020659,0.0,0.0,0.0,0.0,-0.0028035605791956186,0.002399359829723835,0.0012522154720500112,0.9999008178710938,0.0,0.0,0.0,-5.091897010803223,1.0076385736465454,3.1032395362854004,921.6435546875,0
89.20399999999972,-0.00959214847534895,-0.022407347336411476,0.0008386711706407368,0.0,0.0,0.0,0.0,-0.0006437210249714553,-0.00020193782984279096,1.3491076970240101e-05,1.0000331401824951,0.0,0.0,0.0,-5.095563888549805,1.0048452615737915,3.119105100631714,922.30712890625,0
99.12099999999919,-0.009666375815868378,-0.022473832592368126,0.0009256421471945941,0.0,0.0,0.0,0.0,-0.0016604048432782292,0.0009100913885049522,-0.00030466055613942444,1.0016674995422363,0.0,0.0,0.0,-5.090882301330566,1.004433274269104,3.116194248199463,921.4597778320312,0
109.02399999999943,-0.009705077856779099,-0.022471686825156212,0.0009458137210458517,0.0,0.0,0.0,0.0,-0.0020512305200099945,-0.0024458523839712143,0.002314762445166707,1.0018829107284546,0.0,0.0,0.0,-5.08621072769165,1.0036262273788452,3.1032631397247314,920.6142578125,0
118.9409999999989,-0.009699538350105286,-0.02242894656956196,0.0009550558752380311,0.0,0.0,0.0,0.0,0.0009448048658668995,-0.003585983533412218,-0.002621967112645507,1.0012168884277344,0.0,0.0,0.0,-5.108483791351318,1.0195668935775757,3.102231740951538,924.6456298828125,0
128.84799999999996,-0.009667287580668926,-0.022454820573329926,0.0009928148938342929,0.0,0.0,0.0,0.0,-0.005226550158113241,-2.8689290047623217e-05,-0.0028674141503870487,0.9992057085037231,0.0,0.0,0.0,-5.103663921356201,1.0142979621887207,3.1054673194885254,923.7733154296875,0
138.7609999999986,-0.009693313390016556,-0.02246968448162079,0.0010096728801727295,0.0,0.0,0.0,0.0,0.0004011198761872947,-0.0008102256688289344,0.0004529222205746919,1.0015414953231812,0.0,0.0,0.0,-5.1003851890563965,1.018250823020935,3.097952127456665,923.1798095703125,0
148.67499999999927,-0.009721008129417896,-0.02249637246131897,0.001017355709336698,0.0,0.0,0.0,0.0,-0.0005617948481813073,0.0013238717801868916,-0.0013199542881920934,1.0013294219970703,0.0,0.0,0.0,-5.095110893249512,1.0241949558258057,3.1031317710876465,922.2252807617188,0
158.58399999999892,-0.00965119432657957,-0.022370582446455956,0.0009601497440598905,0.0,0.0,0.0,0.0,-9.613799920771271e-05,-0.0001273301022592932,0.0016273087821900845,1.001293659210205,0.0,0.0,0.0,-5.10618782043457,1.0588711500167847,3.1113059520721436,924.2301635742188,0
168.49499999999898,-0.009621141478419304,-0.022416889667510986,0.0009713763138279319,0.0,0.0,0.0,0.0,0.0019595520570874214,-0.004759223200380802,-0.001014713547192514,0.9993380904197693,0.0,0.0,0.0,-5.101828098297119,1.0661472082138062,3.0981059074401855,923.4409790039062,0
178.40399999999863,-0.009561841376125813,-0.022312652319669724,0.000911691109649837,0.0,0.0,0.0,0.0,-0.000983308651484549,-0.0028172163292765617,0.0013820910826325417,1.0012699365615845,0.0,0.0,0.0,-5.112247467041016,1.0878528356552124,3.1150858402252197,925.3269653320312,0
188.3109999999997,-0.009622112847864628,-0.022326456382870674,0.000895011005923152,0.0,0.0,0.0,0.0,-0.0009288713335990906,-0.0011173761449754238,0.002132115885615349,1.0008889436721802,0.0,0.0,0.0,-5.107187271118164,1.0967270135879517,3.1219003200531006,924.4110107421875,0
198.22400000000016,-0.009579703211784363,-0.02223493717610836,0.0008557258406654,0.0,0.0,0.0,0.0,-0.001916074543260038,-0.005032016895711422,0.0040494585409760475,1.0006425380706787,0.0,0.0,0.0,-5.117339611053467,1.1197867393493652,3.137115240097046,926.2486572265625,0
208.13500000000022,-0.009560429491102695,-0.02227243408560753,0.0008575652027502656,0.0,0.0,0.0,0.0,0.0010114435572177172,-0.001295349677093327,-0.002112319692969322,0.9983605742454529,0.0,0.0,0.0,-5.11082649230957,1.1179966926574707,3.138963460922241,925.0697631835938,0
218.04699999999866,-0.009508474729955196,-0.02216707170009613,0.0008121487917378545,0.0,0.0,0.0,0.0,0.0013725478202104568,0.00013491908612195402,-0.0031338396947830915,0.9975225329399109,0.0,0.0,0.0,-5.1043596267700195,1.1132177114486694,3.1382174491882324,923.8992309570312,0
227.95999999999913,-0.009508347138762474,-0.022199340164661407,0.0007985184784047306,0.0,0.0,0.0,0.0,7.628122693859041e-05,-0.0029457842465490103,0.0019363431492820382,1.0004003047943115,0.0,0.0,0.0,-5.099615097045898,1.1115652322769165,3.1374130249023438,923.0404663085938,0
237.87099999999919,-0.009510637260973454,-0.022159582003951073,0.0008046686416491866,0.0,0.0,0.0,0.0,0.0027146637439727783,-0.0018258079653605819,0.0010944608366116881,0.9994008541107178,0.0,0.0,0.0,-5.095481872558594,1.1071468591690063,3.1318540573120117,922.2922973632812,0
247.78699999999844,-0.00950371753424406,-0.022201165556907654,0.0007803122280165553,0.0,0.0,0.0,0.0,-0.0003300643293187022,0.0020013274624943733,0.00287041487172246,0.9993329048156738,0.0,0.0,0.0,-5.0917205810546875,1.0993788242340088,3.129854917526245,921.6115112304688,0
257.7019999999993,-0.009535091929137707,-0.02219785936176777,0.0008166873594745994,0.0,0.0,0.0,0.0,-0.0007337786955758929,-0.0019306179601699114,-0.002857132349163294,0.9998412132263184,0.0,0.0,0.0,-5.101999759674072,1.0977154970169067,3.1183249950408936,923.4721069335938,0
267.6080000000002,-0.009519046172499657,-0.02227068692445755,0.0007761234883219004,0.0,0.0,0.0,0.0,-0.0009584347135387361,-0.0015648927073925734,0.0021411138586699963,1.000137448310852,0.0,0.0,0.0,-5.096871852874756,1.0976712703704834,3.1099095344543457,922.5439453125,0
277.52299999999923,-0.009538108482956886,-0.022245772182941437,0.0008067393209785223,0.0,0.0,0.0,0.0,0.00038837926695123315,-0.0012254639295861125,-0.0021248585544526577,1.0004208087921143,0.0,0.0,0.0,-5.10397481918335,1.1075314283370972,3.1102447509765625,923.82958984375,0
287.4359999999997,-0.00949662085622549,-0.022313613444566727,0.0007857984164729714,0.0,0.0,0.0,0.0,0.0011513857170939445,-0.0014993305085226893,0.0035492388997226954,1.0002425909042358,0.0,0.0,0.0,-5.09918737411499,1.1081544160842896,3.104576826095581,922.9630737304688,0
297.34399999999914,-0.009529936127364635,-0.02231188677251339,0.0008189899381250143,0.0,0.0,0.0,0.0,-0.0007082603988237679,0.001698385109193623,-0.0027520093135535717,0.9995405673980713,0.0,0.0,0.0,-5.100993633270264,1.1125986576080322,3.1040828227996826,923.2899169921875,0
307.2519999999986,-0.00958560872823,-0.02234313264489174,0.000779845635406673,0.0,0.0,0.0,0.0,0.00030079332645982504,-0.005393235944211483,0.00211751158349216,0.9992552399635315,0.0,0.0,0.0,-5.095490455627441,1.112393856048584,3.098329544067383,922.2938842773438,0
317.17199999999866,-0.009609336964786053,-0.022318964824080467,0.0008067238377407193,0.0,0.0,0.0,0.0,-3.9693793951300904e-05,-0.0013829466188326478,0.001439804444089532,1.000733733177185,0.0,0.0,0.0,-5.091424942016602,1.1106696128845215,3.101562738418579,921.5580444335938,0
327.0739999999987,-0.009559004567563534,-0.022363660857081413,0.0008071386837400496,0.0,0.0,0.0,0.0,0.0008893250487744808,0.0018214551964774728,-0.002030635252594948,0.9993483424186707,0.0,0.0,0.0,-5.094274997711182,1.1076054573059082,3.126345157623291,922.073974609375,0
336.98599999999897,-0.009561448357999325,-0.022296719253063202,0.0008369193528778851,0.0,0.0,0.0,0.0,-0.0013209637254476547,-0.0015128124505281448,-0.0001247328909812495,0.9995061159133911,0.0,0.0,0.0,-5.095648765563965,1.1146904230117798,3.123241662979126,922.3225708007812,0
346.896999999999,-0.009596184827387333,-0.02229209430515766,0.0008428702712990344,0.0,0.0,0.0,0.0,0.00055629329290241,0.004752649459987879,0.0005900198011659086,1.00063955783844,0.0,0.0,0.0,-5.0918402671813965,1.1104217767715454,3.1206488609313965,921.6331787109375,0
356.8089999999993,-0.009633004665374756,-0.022323930636048317,0.000899271690286696,0.0,0.0,0.0,0.0,-0.0012856923276558518,-0.00031182882958091795,0.0009316026698797941,1.0002306699752808,0.0,0.0,0.0,-5.10909366607666,1.1071051359176636,3.114464521408081,924.7560424804688,0
366.71999999999935,-0.009645207785069942,-0.022330952808260918,0.0009269724832847714,0.0,0.0,0.0,0.0,0.0006003497983328998,0.001825751387514174,-3.486909554339945e-05,0.9991260766983032,0.0,0.0,0.0,-5.104668140411377,1.099912166595459,3.1094729900360107,923.955078125,0
376.6319999999996,-0.009648808278143406,-0.022312434390187263,0.0009617424220778048,0.0,0.0,0.0,0.0,-0.00019405767670832574,-0.0008694204152561724,0.0029759244062006474,1.000773549079895,0.0,0.0,0.0,-5.113893032073975,1.10589599609375,3.108046293258667,925.6248168945312,0
386.54699999999866,-0.009658360853791237,-0.022347701713442802,0.0009781019762158394,0.0,0.0,0.0,0.0,0.0013046786189079285,0.0032582301646471024,0.00316414562985301,1.001243233680725,0.0,0.0,0.0,-5.105274200439453,1.0962728261947632,3.094320297241211,924.0647583007812,0
396.4549999999999,-0.009635621681809425,-0.02230818383395672,0.0009723699185997248,0.0,0.0,0.0,0.0,0.000200344598852098,0.0029070971067994833,0.0008184114121831954,1.0000337362289429,0.0,0.0,0.0,-5.105274200439453,1.0962728261947632,3.094320297241211,924.0647583007812,0
406.3739999999998,-0.009670902043581009,-0.022301364690065384,0.0009840514976531267,0.0,0.0,0.0,0.0,-0.00031285444856621325,0.00415335688740015,0.0025469432584941387,1.001822829246521,0.0,0.0,0.0,-5.0989227294921875,1.0922218561172485,3.0749354362487793,922.9151000976562,0
416.28799999999865,-0.009704225696623325,-0.022294389083981514,0.0009958348236978054,0.0,0.0,0.0,0.0,-0.0005388864665292203,0.0036976374685764313,-0.0015475397231057286,1.000712513923645,0.0,0.0,0.0,-5.092844486236572,1.087752103805542,3.067718744277954,921.8150024414062,0
426.1929999999993,-0.009636939503252506,-0.022376181557774544,0.0009877884294837713,0.0,0.0,0.0,0.0,-0.001327041070908308,-0.00038745347410440445,-0.001134188729338348,0.9999264478683472,0.0,0.0,0.0,-5.0872273445129395,1.0852241516113281,3.053224563598633,920.7982788085938,0
436.11199999999917,-0.009626016020774841,-0.022320419549942017,0.0009614609880372882,0.0,0.0,0.0,0.0,-0.0017479310045018792,-0.000980221084319055,-0.00011324421939207241,0.9989908933639526,0.0,0.0,0.0,-5.10614013671875,1.1008660793304443,3.053480625152588,924.2215576171875,0
446.012999999999,-0.009643795900046825,-0.022310471162199974,0.000980320735834539,0.0,0.0,0.0,0.0,-0.0004810875398106873,-0.0012788430321961641,-0.0007052457076497376,0.9986659288406372,0.0,0.0,0.0,-5.100765705108643,1.102097988128662,3.048767328262329,923.248779296875,0
455.9359999999997,-0.009630653075873852,-0.022232752293348312,0.0009697715868242085,0.0,0.0,0.0,0.0,0.0007702261791564524,0.0013268530601635575,0.005559395533055067,0.999281108379364,0.0,0.0,0.0,-5.114084720611572,1.131342887878418,3.059150218963623,925.6595458984375,0
465.84499999999935,-0.0096048042178154,-0.022245081141591072,0.0009875709656625986,0.0,0.0,0.0,0.0,-0.0010735590476542711,-0.001789596164599061,-0.0021875889506191015,1.0009005069732666,0.0,0.0,0.0,-5.107629299163818,1.1325088739395142,3.0608041286468506,924.490966796875,0
475.753999999999,-0.009583643637597561,-0.022158656269311905,0.0009579454199410975,0.0,0.0,0.0,0.0,0.0007441018242388964,-0.001902571297250688,-0.0005571827059611678,1.0026777982711792,0.0,0.0,0.0,-5.11107063293457,1.154762625694275,3.062079906463623,925.1139526367188,0
485.6769999999997,-0.009597228839993477,-0.022218024358153343,0.0009073290275409818,0.0,0.0,0.0,0.0,-0.0030335315968841314,-0.002663226332515478,-8.310593693749979e-05,0.9988961219787598,0.0,0.0,0.0,-5.107158660888672,1.1575630903244019,3.059321165084839,924.4058227539062,0
495.5799999999999,-0.009642079472541809,-0.022215798497200012,0.0009358099778182805,0.0,0.0,0.0,0.0,0.0009943365585058928,0.0057826656848192215,-0.0029743844643235207,0.9971929788589478,0.0,0.0,0.0,-5.10992956161499,1.1536321640014648,3.0620927810668945,924.9074096679688,0
505.5029999999988,-0.009576735086739063,-0.022280123084783554,0.0009257191559299827,0.0,0.0,0.0,0.0,-0.0007291228394024074,0.0038629318587481976,0.0004957408527843654,0.9976656436920166,0.0,0.0,0.0,-5.106369495391846,1.158444881439209,3.052046298980713,924.2630004882812,0
515.4129999999986,-0.009603946469724178,-0.022255441173911095,0.0009425745811313391,0.0,0.0,0.0,0.0,0.0006714838091284037,0.001006815116852522,-0.004762258380651474,0.997276246547699,0.0,0.0,0.0,-5.108913898468018,1.151167869567871,3.0436620712280273,924.7235717773438,0
525.3209999999999,-0.009548523463308811,-0.022337760776281357,0.0009090622770600021,0.0,0.0,0.0,0.0,0.0024149050004780293,0.00032174415537156165,0.0008240903844125569,0.9996603727340698,0.0,0.0,0.0,-5.10524845123291,1.1485530138015747,3.03507924079895,924.06005859375,0
535.241,-0.009564557112753391,-0.022293465211987495,0.0009201903594657779,0.0,0.0,0.0,0.0,0.0005301152705214918,-0.0026044088881462812,0.003701338777318597,1.0009440183639526,0.0,0.0,0.0,-5.108800411224365,1.1524922847747803,3.037755250930786,924.7030639648438,0
545.143,-0.009558302350342274,-0.022319084033370018,0.0009003297309391201,0.0,0.0,0.0,0.0,0.003632331732660532,0.0014637417625635862,-0.002741259289905429,0.9992780685424805,0.0,0.0,0.0,-5.103907585144043,1.148490071296692,3.0313804149627686,923.8174438476562,0
555.0619999999999,-0.009584716521203518,-0.022302130237221718,0.0008939915569499135,0.0,0.0,0.0,0.0,0.0015402123099192977,-0.005079090129584074,-1.6540416254429147e-05,1.000698447227478,0.0,0.0,0.0,-5.098625183105469,1.1473424434661865,3.028386354446411,922.8612670898438,0
564.9689999999991,-0.009571367874741554,-0.022318797186017036,0.000873774173669517,0.0,0.0,0.0,0.0,0.0012666058028116822,-0.0038062455132603645,0.0013217234518378973,1.0015156269073486,0.0,0.0,0.0,-5.09398889541626,1.1339303255081177,3.021688938140869,922.0221557617188,0
574.8670000000002,-0.009597180411219597,-0.02230054885149002,0.0008669577655382454,0.0,0.0,0.0,0.0,-0.0006522005423903465,0.0020442912355065346,-0.0021199979819357395,1.0006873607635498,0.0,0.0,0.0,-5.08859920501709,1.135504126548767,3.032926082611084,921.046630859375,0
584.7819999999992,-0.009578036144375801,-0.022303039208054543,0.0008509382605552673,0.0,0.0,0.0,0.0,0.0028387531638145447,0.004080888815224171,-0.0018082023598253727,1.00011146068573,0.0,0.0,0.0,-5.083887577056885,1.1365764141082764,3.030698776245117,920.1937866210938,0
594.6899999999987,-0.009583034552633762,-0.022240053862333298,0.0008518716786056757,0.0,0.0,0.0,0.0,-0.00042319437488913536,-0.0001865329104475677,-0.002065695822238922,0.9980464577674866,0.0,0.0,0.0,-5.089636325836182,1.159320592880249,3.019360303878784,921.234375,0
604.6129999999994,-0.009562063962221146,-0.02225303463637829,0.000838791427668184,0.0,0.0,0.0,0.0,0.0033701949287205935,-0.002277601044625044,0.0013104168465361,0.9984243512153625,0.0,0.0,0.0,-5.0850934982299805,1.156190276145935,3.0191848278045654,920.4120483398438,0
614.5159999999996,-0.00960349477827549,-0.022248340770602226,0.0008705458603799343,0.0,0.0,0.0,0.0,-0.003330482402816415,-0.004495111759752035,-0.002296349499374628,1.001896619796753,0.0,0.0,0.0,-5.08771276473999,1.1490821838378906,3.008896827697754,920.8861694335938,0
624.4290000000001,-0.00961663294583559,-0.022260649129748344,0.0008417955250479281,0.0,0.0,0.0,0.0,-0.0003610728890635073,7.498083141399547e-05,0.0022154839243739843,1.001325011253357,0.0,0.0,0.0,-5.082626819610596,1.1498407125473022,3.004997491836548,919.965576171875,0
634.3449999999993,-0.00959859974682331,-0.022156136110424995,0.0008179033757187426,0.0,0.0,0.0,0.0,-0.00015201486530713737,0.0014603143790736794,-0.0010907077230513096,1.0009714365005493,0.0,0.0,0.0,-5.077077865600586,1.1553585529327393,3.010568857192993,918.961181640625,0
644.2609999999986,-0.009623603895306587,-0.02214439958333969,0.0007999181980267167,0.0,0.0,0.0,0.0,-0.0027931774966418743,0.003004588419571519,0.0005607379716821015,1.0018880367279053,0.0,0.0,0.0,-5.072267055511475,1.155285120010376,3.006310224533081,918.0903930664062,0
654.1669999999995,-0.009622156620025635,-0.022067930549383163,0.0007975517655722797,0.0,0.0,0.0,0.0,-7.177706606853462e-07,-0.00461333803832531,0.0001427551469532773,1.0020140409469604,0.0,0.0,0.0,-5.072981357574463,1.1663706302642822,3.005791425704956,918.2196655273438,0
664.0789999999997,-0.009616686031222343,-0.02208716794848442,0.0007712453370913863,0.0,0.0,0.0,0.0,-0.0024844275321811438,0.00040079475729726255,-0.0015138681046664715,1.0007922649383545,0.0,0.0,0.0,-5.069868564605713,1.1664897203445435,3.0066332817077637,917.65625,0
673.9959999999992,-0.009678817354142666,-0.022099561989307404,0.0008156845578923821,0.0,0.0,0.0,0.0,0.0014341286150738597,-0.0013321920996531844,-0.0005266875959932804,1.0003074407577515,0.0,0.0,0.0,-5.076600551605225,1.16655433177948,2.994727373123169,918.874755859375,0
683.8989999999994,-0.009586487896740437,-0.022153660655021667,0.0008154765819199383,0.0,0.0,0.0,0.0,-0.00347643974237144,-0.005057959351688623,-0.000937394448556006,0.9999985694885254,0.0,0.0,0.0,-5.071274757385254,1.1606414318084717,2.999784231185913,917.9108276367188,0
693.8130000000001,-0.009607815183699131,-0.022131813690066338,0.0008165414328686893,0.0,0.0,0.0,0.0,0.0024207609239965677,-0.0035983610432595015,-0.002311704447492957,1.0006073713302612,0.0,0.0,0.0,-5.066987037658691,1.1688755750656128,3.002574920654297,917.1347045898438,0
703.726999999999,-0.009612170048058033,-0.022180648520588875,0.0007673166692256927,0.0,0.0,0.0,0.0,-0.0007334803813137114,-0.002704539569094777,-0.0020873737521469593,1.0007983446121216,0.0,0.0,0.0,-5.062366962432861,1.1670938730239868,3.006028175354004,916.2985229492188,0
713.6350000000002,-0.009614239446818829,-0.022117599844932556,0.0007740393630228937,0.0,0.0,0.0,0.0,0.0005255935247987509,-0.0006538409506902099,-0.0020306154619902372,1.0003477334976196,0.0,0.0,0.0,-5.056493282318115,1.1690841913223267,3.0104284286499023,915.2353515625,0
723.5469999999987,-0.009560980834066868,-0.022158434614539146,0.0007580044330097735,0.0,0.0,0.0,0.0,0.0026767731178551912,0.0015225192764773965,0.0008829424623399973,1.0004674196243286,0.0,0.0,0.0,-5.061774253845215,1.158754587173462,3.017566204071045,916.1912231445312,0
733.4629999999997,-0.009623505175113678,-0.022177621722221375,0.0008204450132325292,0.0,0.0,0.0,0.0,0.0029901391826570034,-0.0037296058144420385,-0.0013849223032593727,0.9998260736465454,0.0,0.0,0.0,-5.061685085296631,1.1451445817947388,3.0002331733703613,916.1751098632812,0
743.384,-0.00951838493347168,-0.02225949801504612,0.0008096256060525775,0.0,0.0,0.0,0.0,-1.7692405890556984e-05,0.0006436255644075572,-0.0032929186709225178,1.0000977516174316,0.0,0.0,0.0,-5.062727451324463,1.1243680715560913,3.0201456546783447,916.3637084960938,0
753.2889999999989,-0.009542238898575306,-0.022245008498430252,0.0008113094954751432,0.0,0.0,0.0,0.0,0.00014343290240503848,0.0013859214959666133,-0.002766301389783621,1.0000462532043457,0.0,0.0,0.0,-5.057436943054199,1.1234915256500244,3.0202410221099854,915.4061279296875,0
763.1989999999987,-0.009468401782214642,-0.022303970530629158,0.0007798549486324191,0.0,0.0,0.0,0.0,-0.002380648860707879,0.0024147951044142246,-0.001509124063886702,1.0001167058944702,0.0,0.0,0.0,-5.0627241134643555,1.1046591997146606,3.041027069091797,916.3630981445312,0
773.1099999999988,-0.009491821750998497,-0.022277094423770905,0.0008251344552263618,0.0,0.0,0.0,0.0,0.0010891155106946826,-0.00313626229763031,0.0003441779990680516,0.9995466470718384,0.0,0.0,0.0,-5.071903705596924,1.1174484491348267,3.0335090160369873,918.0245971679688,0
783.0169999999998,-0.009511253796517849,-0.022304220125079155,0.0007932281005196273,0.0,0.0,0.0,0.0,-0.004264411516487598,-0.003344887401908636,-0.002593086566776037,1.0011568069458008,0.0,0.0,0.0,-5.067318439483643,1.117889404296875,3.0364115238189697,917.1947631835938,0
792.9309999999987,-0.0095062842592597,-0.022235434502363205,0.0008009477169252932,0.0,0.0,0.0,0.0,-0.0008552503422833979,-0.002725976752117276,-4.8130143113667145e-05,1.001538634300232,0.0,0.0,0.0,-5.063647747039795,1.1208685636520386,3.0376980304718018,916.5303344726562,0
802.8349999999991,-0.009574968367815018,-0.02222682721912861,0.000772522238548845,0.0,0.0,0.0,0.0,-0.002295271260663867,-0.00130593276116997,0.00010305541945854202,1.0015069246292114,0.0,0.0,0.0,-5.064327716827393,1.1235575675964355,3.0193397998809814,916.6534423828125,0
812.7549999999992,-0.00960480235517025,-0.02219751849770546,0.0008091945783235133,0.0,0.0,0.0,0.0,-0.0018035250250250101,-0.0038146930746734142,-9.601958299754187e-05,1.0010383129119873,0.0,0.0,0.0,-5.0783538818359375,1.130576491355896,3.023118257522583,919.192138671875,0
822.6659999999993,-0.009631192311644554,-0.022213656455278397,0.0007880605407990515,0.0,0.0,0.0,0.0,0.004205695819109678,0.0027989388909190893,0.0038685924373567104,1.0013933181762695,0.0,0.0,0.0,-5.073297500610352,1.1353845596313477,3.0264780521392822,918.2769165039062,0
832.5769999999993,-0.009658752009272575,-0.022173961624503136,0.0008272101986221969,0.0,0.0,0.0,0.0,0.0027093267999589443,0.0009471405646763742,-0.00042622105684131384,1.0004605054855347,0.0,0.0,0.0,-5.078644275665283,1.1278071403503418,3.020420551300049,919.2446899414062,0
842.482,-0.009633480571210384,-0.022219790145754814,0.0008099209517240524,0.0,0.0,0.0,0.0,-0.0013431285042315722,0.001594232046045363,-0.0029179358389228582,1.0019862651824951,0.0,0.0,0.0,-5.073103427886963,1.1189162731170654,3.0164337158203125,918.2417602539062,0
852.3989999999994,-0.009678127244114876,-0.022222336381673813,0.0008342915098182857,0.0,0.0,0.0,0.0,-0.0012530351523309946,-0.0009435389656573534,-0.0006442276062443852,1.0008846521377563,0.0,0.0,0.0,-5.089211940765381,1.1181519031524658,3.0025269985198975,921.1575317382812,0
862.3089999999993,-0.009709091857075691,-0.022201796993613243,0.0008441443205811083,0.0,0.0,0.0,0.0,-0.00039764639222994447,0.001818629913032055,-0.0007482813089154661,1.0020647048950195,0.0,0.0,0.0,-5.08381986618042,1.1181813478469849,3.0123891830444336,920.1815795898438,0
872.223,-0.00974118523299694,-0.022180570289492607,0.0008555284002795815,0.0,0.0,0.0,0.0,-0.00034990234416909516,0.0012521884636953473,-7.673115760553628e-05,0.9994100332260132,0.0,0.0,0.0,-5.078192234039307,1.114153265953064,3.0035488605499268,919.1629028320312,0
882.125,-0.009644373320043087,-0.022241396829485893,0.0008698990568518639,0.0,0.0,0.0,0.0,-0.0017629570793360472,-0.004345029592514038,0.003711953992024064,1.00081467628479,0.0,0.0,0.0,-5.077932357788086,1.0921308994293213,3.0321836471557617,919.1158447265625,0
892.0409999999993,-0.009631823748350143,-0.022167164832353592,0.0008518836693838239,0.0,0.0,0.0,0.0,0.0007974588079378009,0.005703874863684177,0.001635856693610549,1.0007245540618896,0.0,0.0,0.0,-5.079333305358887,1.1117215156555176,3.033992052078247,919.369384765625,0
901.9459999999999,-0.009571011178195477,-0.02222209796309471,0.0008429689914919436,0.0,0.0,0.0,0.0,-0.0005525427404791117,2.4415310690528713e-05,0.0002887518494389951,0.9977077841758728,0.0,0.0,0.0,-5.073889255523682,1.1138771772384644,3.028136968612671,918.3840942382812,0
911.869999999999,-0.009599541313946247,-0.022195778787136078,0.0008895508362911642,0.0,0.0,0.0,0.0,-0.0007929840357974172,-0.0016010167310014367,0.0026318796444684267,0.9986833930015564,0.0,0.0,0.0,-5.086426258087158,1.1225106716156006,3.033555507659912,920.6532592773438,0
921.7739999999994,-0.009618774056434631,-0.022228987887501717,0.000859602412674576,0.0,0.0,0.0,0.0,-0.00019533338490873575,0.0011006830027326941,0.0017200566362589598,1.000557780265808,0.0,0.0,0.0,-5.082108497619629,1.1208770275115967,3.0216639041900635,919.871826171875,0
931.6859999999997,-0.009619529359042645,-0.022179411724209785,0.0008440055535174906,0.0,0.0,0.0,0.0,0.0020276950672268867,0.0028802615124732256,-0.0041256132535636425,1.0013253688812256,0.0,0.0,0.0,-5.085188388824463,1.1317757368087769,3.017960548400879,920.42919921875,0
941.5919999999987,-0.009579772129654884,-0.022220268845558167,0.0008373912423849106,0.0,0.0,0.0,0.0,-0.0029130405746400356,-0.005067707039415836,0.001136635197326541,0.9992254972457886,0.0,0.0,0.0,-5.080244541168213,1.131306767463684,3.012331247329712,919.5343017578125,0
951.5119999999988,-0.009570450522005558,-0.022142630070447922,0.0008398281061090529,0.0,0.0,0.0,0.0,-0.00028600258519873023,-0.0015409040497615933,-0.0022913592401891947,1.0003278255462646,0.0,0.0,0.0,-5.083652496337891,1.148389458656311,3.0183794498443604,920.1512451171875,0
961.4179999999997,-0.009568225592374802,-0.022178608924150467,0.000815965177025646,0.0,0.0,0.0,0.0,-0.0008535271044820547,0.0034748478792607784,-0.0011402033269405365,1.000321865081787,0.0,0.0,0.0,-5.0796332359313965,1.1542686223983765,3.018606662750244,919.4236450195312,0
971.3349999999991,-0.009592032060027122,-0.02216171845793724,0.0008191174129024148,0.0,0.0,0.0,0.0,-0.0004254169762134552,0.0023845871910452843,0.001881296280771494,1.0016999244689941,0.0,0.0,0.0,-5.074565887451172,1.162608027458191,3.004680633544922,918.5064697265625,0
981.2379999999994,-0.00953030213713646,-0.022227415814995766,0.0007812340627424419,0.0,0.0,0.0,0.0,0.0036428971216082573,0.004998635035008192,-0.0003738015948329121,1.00177800655365,0.0,0.0,0.0,-5.075197219848633,1.1371124982833862,3.020232915878296,918.6207275390625,0
991.1610000000001,-0.009559023194015026,-0.022203220054507256,0.0008303899667225778,0.0,0.0,0.0,0.0,0.0002748637634795159,0.002148127881810069,-0.002150097396224737,0.999443769454956,0.0,0.0,0.0,-5.079527378082275,1.1387773752212524,3.0057761669158936,919.4046020507812,0
1001.0630000000001,-0.009485254064202309,-0.02226315811276436,0.0008213907713070512,0.0,0.0,0.0,0.0,-0.0016133575700223446,0.0014621518785133958,-0.001222726539708674,1.000050663948059,0.0,0.0,0.0,-5.0807576179504395,1.1200060844421387,3.002948045730591,919.627197265625,0
1010.9839999999986,-0.009525030851364136,-0.02225128933787346,0.0008817699272185564,0.0,0.0,0.0,0.0,0.0003450852818787098,0.0023723337799310684,-0.0018868664046749473,1.0019314289093018,0.0,0.0,0.0,-5.085827350616455,1.1207876205444336,2.992884635925293,920.5448608398438,0
1020.8850000000002,-0.00953428354114294,-0.0222584567964077,0.0008773791487328708,0.0,0.0,0.0,0.0,-4.640638508135453e-05,0.002743420423939824,-9.04870976228267e-05,1.0024211406707764,0.0,0.0,0.0,-5.0797882080078125,1.1233224868774414,2.984326124191284,919.4517822265625,0
1030.8069999999989,-0.009574507363140583,-0.02225355990231037,0.0009211527649313211,0.0,0.0,0.0,0.0,-0.00022402984905056655,0.0006089824018999934,-0.0014929519966244698,0.9991952180862427,0.0,0.0,0.0,-5.0816850662231445,1.1156139373779297,2.9742226600646973,919.795166015625,0
1040.7069999999985,-0.009598832577466965,-0.02223488688468933,0.0009355081128887832,0.0,0.0,0.0,0.0,0.0021570399403572083,0.003527320921421051,0.0008009777520783246,0.9985878467559814,0.0,0.0,0.0,-5.075510501861572,1.1168577671051025,2.963003396987915,918.677490234375,0
1050.625,-0.009625672362744808,-0.022198975086212158,0.0009745697025209665,0.0,0.0,0.0,0.0,-0.0023267315700650215,0.0006701431702822447,-0.002740996889770031,0.9995887279510498,0.0,0.0,0.0,-5.079462051391602,1.1199047565460205,2.9584732055664062,919.3927001953125,0
1060.5319999999992,-0.009589195251464844,-0.02227020636200905,0.0009462484158575535,0.0,0.0,0.0,0.0,-0.0009553360287100077,-0.0013658871175721288,-0.003526341402903199,1.0010786056518555,0.0,0.0,0.0,-5.076343536376953,1.1156598329544067,2.959186315536499,918.8282470703125,0
1070.4529999999995,-0.009565391577780247,-0.022178461775183678,0.0009318754309788346,0.0,0.0,0.0,0.0,-0.0012783135753124952,-0.00159343087580055,-0.0013560086954385042,1.0005228519439697,0.0,0.0,0.0,-5.078158378601074,1.134058952331543,2.9684908390045166,919.15673828125,0
1080.3559999999998,-0.009590626694262028,-0.02221584878861904,0.0008883718401193619,0.0,0.0,0.0,0.0,-0.005519289057701826,-0.0016294065862894058,0.00021560824825428426,1.0004209280014038,0.0,0.0,0.0,-5.078359127044678,1.1233705282211304,2.9758355617523193,919.1930541992188,0
1090.2699999999986,-0.00957600586116314,-0.022137951105833054,0.0008734689909033477,0.0,0.0,0.0,0.0,0.0002175758418161422,-0.00098924501799047,0.0037098578177392483,0.9997014999389648,0.0,0.0,0.0,-5.0854082107543945,1.1407241821289062,2.975504159927368,920.4690551757812,0
1100.187,-0.00953671708703041,-0.02219042181968689,0.0008532449719496071,0.0,0.0,0.0,0.0,-0.0014477571239694953,-0.0025195234920829535,-0.0003856381226796657,1.0001025199890137,0.0,0.0,0.0,-5.079659938812256,1.1484565734863281,2.9785075187683105,919.4285278320312,0
1110.092999999999,-0.009541570208966732,-0.02213052473962307,0.000860486354213208,0.0,0.0,0.0,0.0,-0.0001426622475264594,-0.00012019638234050944,-0.0014306968078017235,1.0013307332992554,0.0,0.0,0.0,-5.075347900390625,1.1482387781143188,2.9706735610961914,918.6480712890625,0
1120.0019999999986,-0.009555472992360592,-0.02213408425450325,0.0007960618822835386,0.0,0.0,0.0,0.0,-0.001481819897890091,-0.003797137411311269,0.0014037160435691476,1.003389835357666,0.0,0.0,0.0,-5.082334518432617,1.158628225326538,2.9787707328796387,919.9127197265625,0
1129.9169999999995,-0.009581850841641426,-0.02211534045636654,0.0007963510579429567,0.0,0.0,0.0,0.0,0.0020953293424099684,-0.001520367688499391,-0.0006253093015402555,1.0020911693572998,0.0,0.0,0.0,-5.07749605178833,1.1594507694244385,2.9740355014801025,919.0368041992188,0
1139.8310000000001,-0.009580300189554691,-0.02211185358464718,0.0007771630771458149,0.0,0.0,0.0,0.0,0.0020775182638317347,-0.0028392288368195295,0.00341508025303483,1.0001873970031738,0.0,0.0,0.0,-5.087613105773926,1.1654521226882935,2.982866048812866,920.8681030273438,0
1149.735999999999,-0.009607408195734024,-0.02209281735122204,0.0007803606567904353,0.0,0.0,0.0,0.0,0.0005969757912680507,-0.001639898749999702,-0.002284868387505412,1.0017167329788208,0.0,0.0,0.0,-5.082120418548584,1.1606515645980835,2.9829280376434326,919.8739624023438,0
1159.6619999999984,-0.009589767083525658,-0.02215534821152687,0.0008117536781355739,0.0,0.0,0.0,0.0,0.002089977264404297,0.001777426339685917,-0.0009453088277950883,0.9996471405029297,0.0,0.0,0.0,-5.10127067565918,1.1634129285812378,2.9714603424072266,923.3401489257812,0
1169.5589999999993,-0.009614878334105015,-0.022138433530926704,0.0008186681079678237,0.0,0.0,0.0,0.0,-0.003369486890733242,-0.0023740986362099648,0.003616885282099247,1.0009257793426514,0.0,0.0,0.0,-5.096561908721924,1.1578501462936401,2.9598331451416016,922.48779296875,0
1179.4719999999998,-0.009595552459359169,-0.02222544699907303,0.0008337920298799872,0.0,0.0,0.0,0.0,0.0009705041302368045,-0.0011047424050047994,0.00240776757709682,1.0003938674926758,0.0,0.0,0.0,-5.109464645385742,1.1476774215698242,2.956329107284546,924.8232421875,0
1189.387999999999,-0.009622507728636265,-0.02220769412815571,0.0008423768449574709,0.0,0.0,0.0,0.0,0.002279822714626789,0.0006696923519484699,0.0027663528453558683,1.000266194343567,0.0,0.0,0.0,-5.105314254760742,1.1453524827957153,2.951262950897217,924.072021484375,0
1199.2969999999987,-0.009634907357394695,-0.022237112745642662,0.0008228399674408138,0.0,0.0,0.0,0.0,0.0011021038517355919,0.0018670078134164214,0.0018255782779306173,1.0023850202560425,0.0,0.0,0.0,-5.1058173179626465,1.1347790956497192,2.966125011444092,924.1630249023438,0
1209.2109999999993,-0.009665116667747498,-0.022218462079763412,0.0008307716343551874,0.0,0.0,0.0,0.0,-0.0005085577722638845,-0.0018579716561362147,0.002592577366158366,1.002747654914856,0.0,0.0,0.0,-5.101180076599121,1.125425934791565,2.9562065601348877,923.3236694335938,0
1219.1170000000002,-0.009592278860509396,-0.022277865558862686,0.0008099121623672545,0.0,0.0,0.0,0.0,0.0001907032128656283,0.004698200151324272,-0.000904330110643059,1.003170371055603,0.0,0.0,0.0,-5.09598445892334,1.1244866847991943,2.9502811431884766,922.3833618164062,0
1229.0279999999984,-0.009621651843190193,-0.022260788828134537,0.0008198526338674128,0.0,0.0,0.0,0.0,-9.179001062875614e-05,0.005505060777068138,-0.001750011695548892,0.9989116191864014,0.0,0.0,0.0,-5.090137481689453,1.113587737083435,2.9411516189575195,921.3250122070312,0
1238.9429999999993,-0.009564264677464962,-0.022261781617999077,0.0008199936710298061,0.0,0.0,0.0,0.0,0.00047772825928404927,0.0012455952819436789,-0.0007773612160235643,0.999252438545227,0.0,0.0,0.0,-5.107387542724609,1.133247971534729,2.924135684967041,924.447265625,0
1248.8529999999992,-0.009592304937541485,-0.02224418893456459,0.0008309940458275378,0.0,0.0,0.0,0.0,-0.0019081062637269497,-0.0006916617858223617,-0.0009932097746059299,1.000230073928833,0.0,0.0,0.0,-5.1023640632629395,1.1281144618988037,2.920274257659912,923.5380249023438,0
1258.7659999999996,-0.009626176208257675,-0.022287487983703613,0.0009034486720338464,0.0,0.0,0.0,0.0,0.0018110197270289063,0.0019897157326340675,0.0028186871204525232,1.0022014379501343,0.0,0.0,0.0,-5.123669624328613,1.1181095838546753,2.923217296600342,927.3944091796875,0
1268.6749999999993,-0.009655050002038479,-0.02227175049483776,0.0009186687530018389,0.0,0.0,0.0,0.0,0.0012620924971997738,8.112845534924418e-05,3.1064839276950806e-05,1.001664638519287,0.0,0.0,0.0,-5.117709636688232,1.1130684614181519,2.9194436073303223,926.3156127929688,0
1278.5859999999993,-0.009633454494178295,-0.022289104759693146,0.0009357587550766766,0.0,0.0,0.0,0.0,0.002353003714233637,-0.0007079825736582279,-3.113671118626371e-05,0.9987795352935791,0.0,0.0,0.0,-5.111961841583252,1.1044001579284668,2.913200855255127,925.2752685546875,0
1288.4969999999994,-0.009660966694355011,-0.02227296493947506,0.0009538629092276096,0.0,0.0,0.0,0.0,-0.0031644264236092567,0.000631582282949239,-0.001541784149594605,1.0005836486816406,0.0,0.0,0.0,-5.10782527923584,1.0980745553970337,2.9110286235809326,924.5265502929688,0
1298.4099999999999,-0.009591307491064072,-0.022246388718485832,0.000959500961471349,0.0,0.0,0.0,0.0,0.002169206039980054,0.002121701603755355,0.0010634573409333825,1.001521110534668,0.0,0.0,0.0,-5.116923809051514,1.1108570098876953,2.909675121307373,926.17333984375,0
1308.321,-0.009617800824344158,-0.022226011380553246,0.0009770586621016264,0.0,0.0,0.0,0.0,-0.003997031599283218,0.0027403279673308134,-0.0021178568713366985,1.0022703409194946,0.0,0.0,0.0,-5.111298561096191,1.1202201843261719,2.907066583633423,925.1551513671875,0
1318.241,-0.009557139128446579,-0.022203713655471802,0.0009428046178072691,0.0,0.0,0.0,0.0,-0.0008911496261134744,0.001627009129151702,0.0013331797672435641,0.9996280670166016,0.0,0.0,0.0,-5.105051040649414,1.115841269493103,2.901308536529541,924.0243530273438,0
1328.1439999999984,-0.009582863189280033,-0.022178998216986656,0.0009594415314495564,0.0,0.0,0.0,0.0,-0.0010459779296070337,0.0015923702158033848,0.0033236609306186438,1.0005651712417603,0.0,0.0,0.0,-5.099595069885254,1.1279628276824951,2.8943989276885986,923.036865234375,0
1338.0639999999985,-0.009541010484099388,-0.022158067673444748,0.0009351573535241187,0.0,0.0,0.0,0.0,0.0015786680160090327,0.0022333560045808554,0.0007339125731959939,1.000553011894226,0.0,0.0,0.0,-5.102285861968994,1.1465123891830444,2.888547658920288,923.5238647460938,0
1347.9719999999998,-0.009565191343426704,-0.022130373865365982,0.0009496714337728918,0.0,0.0,0.0,0.0,0.0011621699668467045,0.0019749721977859735,0.000999415758997202,1.0011043548583984,0.0,0.0,0.0,-5.096664905548096,1.1437509059906006,2.8888750076293945,922.5064697265625,0
1357.8859999999986,-0.009543298743665218,-0.022167610004544258,0.00091139180585742,0.0,0.0,0.0,0.0,0.0007527540437877178,0.0006325250724330544,-0.0029982570558786392,0.9994018077850342,0.0,0.0,0.0,-5.091451644897461,1.1392329931259155,2.885403633117676,921.5628662109375,0
1367.7919999999995,-0.009568244218826294,-0.0221388079226017,0.0009228664566762745,0.0,0.0,0.0,0.0,0.0015776508953422308,0.0019321859581395984,0.0014278958551585674,1.0051679611206055,0.0,0.0,0.0,-5.086173057556152,1.1400271654129028,2.884112596511841,920.6074829101562,0
1377.7109999999993,-0.009503374807536602,-0.022096117958426476,0.0008825960103422403,0.0,0.0,0.0,0.0,-0.0004530818259809166,5.312517532729544e-05,-0.0007947268313728273,1.0026084184646606,0.0,0.0,0.0,-5.107403755187988,1.1421842575073242,2.8914785385131836,924.4501953125,0
1387.6139999999996,-0.009525821544229984,-0.022062772884964943,0.0008949604816734791,0.0,0.0,0.0,0.0,-0.0002382540114922449,-0.002985207363963127,-0.0029159935656934977,0.9999966025352478,0.0,0.0,0.0,-5.1025710105896,1.142945647239685,2.887479305267334,923.5755004882812,0
1397.5339999999997,-0.0095554543659091,-0.022179991006851196,0.0009026146144606173,0.0,0.0,0.0,0.0,-0.003287926781922579,-0.00013832135300617665,-0.005590758286416531,0.9993798136711121,0.0,0.0,0.0,-5.103311538696289,1.1333284378051758,2.8896915912628174,923.7095947265625,0
1407.4389999999985,-0.009581377729773521,-0.022149940952658653,0.0009168792166747153,0.0,0.0,0.0,0.0,0.0001875338493846357,1.0535959518165328e-05,-0.0008582330192439258,0.9988300800323486,0.0,0.0,0.0,-5.097959995269775,1.1362059116363525,2.883592367172241,922.740966796875,0
1417.3599999999988,-0.009650444611907005,-0.022248482331633568,0.0009565774817019701,0.0,0.0,0.0,0.0,-0.0030021104030311108,0.0020007467828691006,0.00024803297128528357,1.0005378723144531,0.0,0.0,0.0,-5.107878684997559,1.1198410987854004,2.8766534328460693,924.5361938476562,0
1427.2659999999996,-0.009684162214398384,-0.022220538929104805,0.0009713468025438488,0.0,0.0,0.0,0.0,0.0015730401501059532,0.002907512243837118,-0.0018173714634031057,1.0012680292129517,0.0,0.0,0.0,-5.102357387542725,1.133980631828308,2.8760478496551514,923.5368041992188,0
1437.182999999999,-0.00966225378215313,-0.022257031872868538,0.0009341522818431258,0.0,0.0,0.0,0.0,-0.0018542881589382887,-0.003299097064882517,0.0008405853877775371,1.0008124113082886,0.0,0.0,0.0,-5.108217716217041,1.1399950981140137,2.8722779750823975,924.5974731445312,0
1447.0879999999997,-0.00969841331243515,-0.022230057045817375,0.0009460188448429108,0.0,0.0,0.0,0.0,0.0023267469368875027,0.001316496985964477,-0.003915069624781609,1.0004568099975586,0.0,0.0,0.0,-5.103837013244629,1.1443730592727661,2.8704187870025635,923.8046875,0
1457.0049999999992,-0.009639419615268707,-0.022256536409258842,0.000955340510699898,0.0,0.0,0.0,0.0,-0.0005771979922428727,0.0024753855541348457,-0.002715054899454117,1.00099778175354,0.0,0.0,0.0,-5.106627464294434,1.1478344202041626,2.8716132640838623,924.3097534179688,0
1466.9069999999992,-0.009675636887550354,-0.02222679927945137,0.0009682226227596402,0.0,0.0,0.0,0.0,-0.0017309343675151467,0.0001540091761853546,-0.004923470318317413,0.9997028708457947,0.0,0.0,0.0,-5.101387977600098,1.146864652633667,2.85194993019104,923.3613891601562,0
1476.8310000000001,-0.009571410715579987,-0.0222318097949028,0.000933048315346241,0.0,0.0,0.0,0.0,0.0005091750645078719,-0.003169091185554862,0.0015495242550969124,1.0002858638763428,0.0,0.0,0.0,-5.098246097564697,1.1439406871795654,2.83380126953125,922.792724609375,0
1486.7309999999998,-0.009559853002429008,-0.022273719310760498,0.0009113840060308576,0.0,0.0,0.0,0.0,-0.0004310818330850452,0.006882841698825359,0.0011626434279605746,0.9983302354812622,0.0,0.0,0.0,-5.092466831207275,1.1468572616577148,2.834620237350464,921.7467041015625,0
1496.6549999999988,-0.009595848619937897,-0.022244688123464584,0.0009177250321954489,0.0,0.0,0.0,0.0,-0.0020076269283890724,0.002420158591121435,-0.00010445784573676065,1.0002272129058838,0.0,0.0,0.0,-5.087076187133789,1.1493148803710938,2.840419292449951,920.77099609375,0
1506.5529999999999,-0.009592020884156227,-0.022304486483335495,0.0008660862222313881,0.0,0.0,0.0,0.0,0.00043090953840874135,0.0004723723395727575,-0.0019694173242896795,0.9990449547767639,0.0,0.0,0.0,-5.082270622253418,1.1505131721496582,2.817953586578369,919.9011840820312,0
1516.4830000000002,-0.009575294330716133,-0.02220197767019272,0.0008314760052599013,0.0,0.0,0.0,0.0,-0.0025331948418170214,-0.00422799214720726,-0.00122429511975497,0.9994691014289856,0.0,0.0,0.0,-5.085324764251709,1.1738215684890747,2.814826011657715,920.4539794921875,0
1526.3769999999986,-0.009536653757095337,-0.022227101027965546,0.0008182706078514457,0.0,0.0,0.0,0.0,-0.0044428580440580845,-0.0049268766306340694,0.004901091568171978,0.9992386698722839,0.0,0.0,0.0,-5.081035614013672,1.1721187829971313,2.8290436267852783,919.677490234375,0
1536.2979999999989,-0.009541982784867287,-0.022145019844174385,0.0008154389797709882,0.0,0.0,0.0,0.0,0.001930929603986442,0.00587052945047617,-0.0032595277298241854,1.000502109527588,0.0,0.0,0.0,-5.082820415496826,1.1898759603500366,2.828559398651123,920.0006713867188,0
1546.205,-0.009518769569694996,-0.022188793867826462,0.0007787389331497252,0.0,0.0,0.0,0.0,0.0005383390234783292,0.0015628625405952334,0.002169220242649317,1.001926302909851,0.0,0.0,0.0,-5.077500820159912,1.1930644512176514,2.8312909603118896,919.0377197265625,0
1556.1219999999994,-0.009582500904798508,-0.022191159427165985,0.000816205283626914,0.0,0.0,0.0,0.0,-0.0011075950460508466,-0.0009255419718101621,-0.0015218394109979272,1.0021785497665405,0.0,0.0,0.0,-5.079455375671387,1.186560869216919,2.8146555423736572,919.3914794921875,0
1566.0249999999996,-0.00958339311182499,-0.022197335958480835,0.0007991354214027524,0.0,0.0,0.0,0.0,0.00046305940486490726,0.0051085022278130054,-0.006323844660073519,0.9994044899940491,0.0,0.0,0.0,-5.070966720581055,1.182870864868164,2.801668405532837,917.85498046875,0
1575.9479999999985,-0.00958339311182499,-0.022197335958480835,0.0007991354214027524,0.0,0.0,0.0,0.0,-0.0013198400847613811,-0.000944380706641823,-0.002853916957974434,0.9970947504043579,0.0,0.0,0.0,-5.070966720581055,1.182870864868164,2.801668405532837,917.85498046875,0
1585.8469999999998,-0.009557866491377354,-0.022213399410247803,0.0007806702051311731,0.0,0.0,0.0,0.0,-0.0010654059005901217,0.0007730335928499699,0.003743962850421667,0.997661292552948,0.0,0.0,0.0,-5.072053909301758,1.1673787832260132,2.812882900238037,918.0518188476562,0
1595.7709999999988,-0.009625784121453762,-0.02222546562552452,0.0008278246968984604,0.0,0.0,0.0,0.0,0.0010324951726943254,0.0032776896841824055,-0.003550166729837656,1.0008399486541748,0.0,0.0,0.0,-5.075310707092285,1.1636199951171875,2.802398920059204,918.6412963867188,0
1605.67,-0.009588818065822124,-0.02223511040210724,0.0008314537117257714,0.0,0.0,0.0,0.0,0.0015034069074317813,0.0004496704204939306,-0.0019612570758908987,1.0016933679580688,0.0,0.0,0.0,-5.0776238441467285,1.153056263923645,2.815915584564209,919.0599975585938,0
1615.5859999999993,-0.009632485918700695,-0.022214815020561218,0.000849720963742584,0.0,0.0,0.0,0.0,0.001685142982751131,0.002678337972611189,5.936078741797246e-05,1.0017116069793701,0.0,0.0,0.0,-5.081820964813232,1.1493659019470215,2.8057456016540527,919.8197021484375,0
1625.4929999999986,-0.00963509175926447,-0.022244151681661606,0.0008252802072092891,0.0,0.0,0.0,0.0,-0.0015437962720170617,-0.0014580171555280685,-0.0013831643154844642,1.0021060705184937,0.0,0.0,0.0,-5.076960563659668,1.1408518552780151,2.7891125679016113,918.9400024414062,0
1635.423999999999,-0.009659645147621632,-0.02219126746058464,0.0008390459115616977,0.0,0.0,0.0,0.0,-0.0002884893910959363,0.0015243961242958903,0.0025330884382128716,1.0009995698928833,0.0,0.0,0.0,-5.087488174438477,1.1500369310379028,2.789804697036743,920.845458984375,0
1645.3149999999987,-0.009696921333670616,-0.022166326642036438,0.0008424614206887782,0.0,0.0,0.0,0.0,0.0030684671364724636,-0.0007497472688555717,-0.0009444403112865984,0.9999866485595703,0.0,0.0,0.0,-5.083339214324951,1.1510134935379028,2.7834184169769287,920.0945434570312,0
1655.2339999999986,-0.009698821231722832,-0.022056857123970985,0.0008514069486409426,0.0,0.0,0.0,0.0,0.0003721499815583229,0.003809504210948944,-0.0014419793151319027,0.9989083409309387,0.0,0.0,0.0,-5.09033203125,1.1721208095550537,2.786257028579712,921.3602905273438,0
1665.143,-0.009735082276165485,-0.02202555164694786,0.0008566980250179768,0.0,0.0,0.0,0.0,-0.0009576272568665445,-0.0004511136212386191,0.0014424974797293544,0.9994073510169983,0.0,0.0,0.0,-5.084726333618164,1.1710996627807617,2.7821223735809326,920.3455810546875,0
1675.0699999999997,-0.009810551069676876,-0.021962620317935944,0.0008659710874781013,0.0,0.0,0.0,0.0,-0.0008437304641120136,0.002127527492120862,0.0017046050634235144,0.9988890290260315,0.0,0.0,0.0,-5.074651718139648,1.1715997457504272,2.767014265060425,918.5220336914062,0
1684.9659999999985,-0.009810551069676876,-0.021962620317935944,0.0008659710874781013,0.0,0.0,0.0,0.0,0.0014490116154775023,0.0001935317413881421,-0.002925881650298834,1.001050353050232,0.0,0.0,0.0,-5.074651718139648,1.1715997457504272,2.767014265060425,918.5220336914062,0
1694.8899999999994,-0.009890060871839523,-0.0218982957303524,0.000874281395226717,0.0,0.0,0.0,0.0,0.0014739041216671467,0.004303163383156061,-0.001044204575009644,1.0028226375579834,0.0,0.0,0.0,-5.065905570983887,1.1716657876968384,2.766587734222412,916.93896484375,0
1704.7879999999986,-0.009890060871839523,-0.0218982957303524,0.000874281395226717,0.0,0.0,0.0,0.0,0.0012209889246150851,0.002137334318831563,-0.0006826092139817774,1.0030736923217773,0.0,0.0,0.0,-5.065905570983887,1.1716657876968384,2.766587734222412,916.93896484375,0
1714.7119999999995,-0.009981710463762283,-0.021834781393408775,0.0008911351324059069,0.0,0.0,0.0,0.0,-0.005321179050952196,0.00023869401775300503,0.0010626415023580194,1.0020697116851807,0.0,0.0,0.0,-5.056686878204346,1.1706616878509521,2.7425754070281982,915.2703857421875,0
1724.6080000000002,-0.009981710463762283,-0.021834781393408775,0.0008911351324059069,0.0,0.0,0.0,0.0,0.00040130902198143303,-0.0014957997482270002,-0.00344660272821784,1.0020297765731812,0.0,0.0,0.0,-5.056686878204346,1.1706616878509521,2.7425754070281982,915.2703857421875,0
1734.5259999999998,-0.010085174813866615,-0.02176792547106743,0.0009170718840323389,0.0,0.0,0.0,0.0,0.001917805871926248,-0.0027915521059185266,0.0011989008635282516,1.001071572303772,0.0,0.0,0.0,-5.045928478240967,1.178051471710205,2.7409355640411377,913.3230590820312,0
1744.4309999999987,-0.010085174813866615,-0.02176792547106743,0.0009170718840323389,0.0,0.0,0.0,0.0,0.0008502898272126913,0.002510408405214548,0.001284312573261559,0.9994257092475891,0.0,0.0,0.0,-5.045928478240967,1.178051471710205,2.7409355640411377,913.3230590820312,0
1754.3539999999994,-0.01014290563762188,-0.021729858592152596,0.0009333966299891472,0.0,0.0,0.0,0.0,-0.0008853838662616909,0.00017839230713434517,-0.0013427227968350053,1.0014467239379883,0.0,0.0,0.0,-5.039673328399658,1.1754461526870728,2.750007152557373,912.1908569335938,0
1764.2649999999994,-0.010196172632277012,-0.02169417403638363,0.0009484475012868643,0.0,0.0,0.0,0.0,-0.0020621607545763254,-0.001293852343223989,-0.0004897367325611413,0.9995698928833008,0.0,0.0,0.0,-5.03427267074585,1.1675394773483276,2.751838445663452,911.21337890625,0
1774.1819999999989,-0.010250633582472801,-0.021658025681972504,0.0009641705546528101,0.0,0.0,0.0,0.0,0.001144715934060514,0.003250336740165949,-3.265368286520243e-05,0.9993346333503723,0.0,0.0,0.0,-5.030090808868408,1.1711304187774658,2.752500057220459,910.4564208984375,0
1784.0779999999995,-0.010305637493729591,-0.0216212160885334,0.0009800667176023126,0.0,0.0,0.0,0.0,0.002374453004449606,0.004357349127531052,-0.003537436481565237,0.9999694228172302,0.0,0.0,0.0,-5.025258541107178,1.169470191001892,2.7450578212738037,909.581787109375,0
1794.0029999999988,-0.010361051186919212,-0.021584223955869675,0.0009955663699656725,0.0,0.0,0.0,0.0,-0.0002068372705252841,0.003143958281725645,-0.0029351830016821623,1.0012770891189575,0.0,0.0,0.0,-5.019780158996582,1.172239065170288,2.7374887466430664,908.590087890625,0
1803.9009999999998,-0.010416680946946144,-0.021547505632042885,0.0010112645104527473,0.0,0.0,0.0,0.0,-0.005143407732248306,0.006260824389755726,-0.004771050531417131,1.0001071691513062,0.0,0.0,0.0,-5.015650272369385,1.1670417785644531,2.7185513973236084,907.8426513671875,0
1813.8269999999993,-0.010472721420228481,-0.021510731428861618,0.0010276641696691513,0.0,0.0,0.0,0.0,0.004248364362865686,6.5556387198739685e-06,-0.00046843619202263653,1.0007539987564087,0.0,0.0,0.0,-5.01151704788208,1.1696714162826538,2.71003794670105,907.094482421875,0
1823.7249999999985,-0.010529727675020695,-0.02147332951426506,0.001044719247147441,0.0,0.0,0.0,0.0,-0.002474309178069234,0.00011977802932960913,-0.0010381429456174374,1.0003083944320679,0.0,0.0,0.0,-5.006307601928711,1.167983889579773,2.7011053562164307,906.151611328125,0
1833.6499999999996,-0.010588041506707668,-0.021434236317873,0.0010621899273246527,0.0,0.0,0.0,0.0,-0.00450806925073266,-0.0017890724120661616,-0.0011420624796301126,1.0005403757095337,0.0,0.0,0.0,-5.001277446746826,1.164040446281433,2.6993446350097656,905.2412109375,0
1843.5479999999989,-0.010647935792803764,-0.02139274589717388,0.0010800911113619804,0.0,0.0,0.0,0.0,-0.0005949371843598783,0.0030717025510966778,4.974474904884119e-06,1.001049280166626,0.0,0.0,0.0,-4.996368885040283,1.1605943441390991,2.704180955886841,904.3527221679688,0
1853.467999999999,-0.010709154419600964,-0.021349282935261726,0.0010987515561282635,0.0,0.0,0.0,0.0,-0.001497479504905641,0.0033653888385742903,-0.001487828092649579,0.996923565864563,0.0,0.0,0.0,-4.991898059844971,1.1657288074493408,2.705265760421753,903.5435791015625,0
1863.3709999999992,-0.010771789588034153,-0.02130499668419361,0.0011178071144968271,0.0,0.0,0.0,0.0,0.0006394361844286323,0.0014399453066289425,-0.002899474697187543,0.999133825302124,0.0,0.0,0.0,-4.98677921295166,1.1597446203231812,2.70265531539917,902.6168823242188,0
1873.2969999999987,-0.010836693458259106,-0.02126060053706169,0.0011352940928190947,0.0,0.0,0.0,0.0,-0.0007944944663904607,-0.006987087428569794,0.0018895139219239354,1.0008342266082764,0.0,0.0,0.0,-4.9825310707092285,1.160485863685608,2.6856796741485596,901.8480224609375,0
1883.1949999999997,-0.009576917625963688,-0.02222175896167755,0.0008493458153679967,0.0,0.0,0.0,0.0,0.004828164353966713,-0.00048068672185763717,-0.005259247031062841,1.0007880926132202,0.0,0.0,0.0,-4.991355895996094,1.0027347803115845,2.9346745014190674,903.4453125,0
1893.1139999999996,-0.009586804546415806,-0.022219985723495483,0.0008519222610630095,0.0,0.0,0.0,0.0,-0.0006621708162128925,0.0021989145316183567,-0.002860724925994873,1.00080144405365,0.0,0.0,0.0,-4.984610557556152,1.0056922435760498,2.942915439605713,902.2244262695312,0
1903.018,-0.009611853398382664,-0.022269509732723236,0.0008054400095716119,0.0,0.0,0.0,0.0,-0.00098459143191576,-0.0022359942086040974,-0.0010425681248307228,0.9990087151527405,0.0,0.0,0.0,-4.991941452026367,0.9845400452613831,2.931091785430908,903.5513916015625,0
1912.938,-0.00962243601679802,-0.022269267588853836,0.0008070123731158674,0.0,0.0,0.0,0.0,0.0006305167335085571,0.0010347324423491955,0.0016585587291046977,0.999677300453186,0.0,0.0,0.0,-4.987285137176514,0.988153338432312,2.9165127277374268,902.7084350585938,0
1922.8459999999995,-0.00963792484253645,-0.02228623814880848,0.0007896699826233089,0.0,0.0,0.0,0.0,-0.002017723396420479,-0.0011743202339857817,-0.002211156766861677,1.0000834465026855,0.0,0.0,0.0,-4.989437103271484,0.9806134104728699,2.922668933868408,903.0980834960938,0
1932.762999999999,-0.009651579894125462,-0.022287806496024132,0.0007897637551650405,0.0,0.0,0.0,0.0,0.0010454682633280754,-0.0033082603476941586,-0.0009958610171452165,0.9994221925735474,0.0,0.0,0.0,-4.984512805938721,0.9802997708320618,2.913989543914795,902.206787109375,0
1942.6629999999986,-0.009660132229328156,-0.022307738661766052,0.0007780514424666762,0.0,0.0,0.0,0.0,0.0009412355720996857,-1.3926545761933085e-05,0.00045966560719534755,1.0006920099258423,0.0,0.0,0.0,-4.989226818084717,0.9755281805992126,2.9218711853027344,903.0599365234375,0
1952.583999999999,-0.009675596840679646,-0.02231147140264511,0.0007771579548716545,0.0,0.0,0.0,0.0,-0.001045738230459392,0.001919539412483573,0.0017353483708575368,1.0013622045516968,0.0,0.0,0.0,-4.984520435333252,0.9786365628242493,2.9212393760681152,902.2080688476562,0
1962.491,-0.009677921421825886,-0.022293783724308014,0.0007874299772083759,0.0,0.0,0.0,0.0,6.298638618318364e-05,-0.0018667341209948063,0.0020497911609709263,1.0013666152954102,0.0,0.0,0.0,-4.986675262451172,0.9826555252075195,2.922635316848755,902.5980834960938,0
1972.411,-0.009693591855466366,-0.022298453375697136,0.0007898469339124858,0.0,0.0,0.0,0.0,-0.00029642635490745306,0.00011143930896651,0.000767284189350903,1.0002602338790894,0.0,0.0,0.0,-4.980688095092773,0.9841030240058899,2.919583797454834,901.5144653320312,0
1982.313,-0.009656629525125027,-0.022297393530607224,0.0007842154009267688,0.0,0.0,0.0,0.0,6.889024007250555e-06,-0.0038576587103307247,-0.0038819042965769768,1.0007550716400146,0.0,0.0,0.0,-4.982956886291504,0.978330135345459,2.939134359359741,901.9251098632812,0
1992.2309999999998,-0.009670102037489414,-0.02230188064277172,0.0007895422750152647,0.0,0.0,0.0,0.0,-0.001032999367453158,0.001367567921988666,-0.0013871102128177881,1.0002795457839966,0.0,0.0,0.0,-4.9785871505737305,0.9796101450920105,2.9330015182495117,901.1341552734375,0
2002.1329999999998,-0.009684771299362183,-0.02230607531964779,0.0007955238106660545,0.0,0.0,0.0,0.0,-0.0011873382609337568,0.0007308442145586014,-0.006452970672398806,0.9999219179153442,0.0,0.0,0.0,-4.974551677703857,0.9773960113525391,2.9390714168548584,900.4036865234375,0
2012.057999999999,-0.009717135690152645,-0.022312134504318237,0.0008077060920186341,0.0,0.0,0.0,0.0,-0.000743197335395962,-0.003845599014312029,0.001116632716730237,0.9985373616218567,0.0,0.0,0.0,-4.965693473815918,0.9791262745857239,2.9263017177581787,898.8004760742188,0
2021.9560000000001,-0.009717135690152645,-0.022312134504318237,0.0008077060920186341,0.0,0.0,0.0,0.0,0.002367868321016431,0.004135179333388805,-0.0017170258797705173,0.9986701607704163,0.0,0.0,0.0,-4.965693473815918,0.9791262745857239,2.9263017177581787,898.8004760742188,0
2031.8850000000002,-0.009754483588039875,-0.022315924987196922,0.0008174444083124399,0.0,0.0,0.0,0.0,-0.002970040077343583,-0.0007743867463432252,0.0038750579115003347,1.000367283821106,0.0,0.0,0.0,-4.9573974609375,0.9734922647476196,2.923645496368408,897.298828125,0
2041.7789999999986,-0.009754483588039875,-0.022315924987196922,0.0008174444083124399,0.0,0.0,0.0,0.0,-0.003059937385842204,-0.0032162421848624945,0.002166392281651497,0.9998838901519775,0.0,0.0,0.0,-4.9573974609375,0.9734922647476196,2.923645496368408,897.298828125,0
2051.700999999999,-0.009798957966268063,-0.022316964343190193,0.0008269824320450425,0.0,0.0,0.0,0.0,-0.0014751756098121405,-0.002967609791085124,-0.003116205334663391,1.000165581703186,0.0,0.0,0.0,-4.946639060974121,0.977179765701294,2.9280953407287598,895.3514404296875,0
2061.611999999999,-0.009699752554297447,-0.022336537018418312,0.0008059078827500343,0.0,0.0,0.0,0.0,-0.001623024931177497,0.0033325126860290766,-0.00016387543291784823,1.0012723207473755,0.0,0.0,0.0,-4.959906101226807,0.9638815522193909,2.971848487854004,897.7529296875,0
2071.521999999999,-0.009716902859508991,-0.022341052070260048,0.0008110567578114569,0.0,0.0,0.0,0.0,-0.0005766124813817441,-0.0008732458809390664,-0.003920391201972961,0.9999591112136841,0.0,0.0,0.0,-4.956024646759033,0.9704264998435974,2.9621779918670654,897.05029296875,0
2081.428,-0.009679790586233139,-0.022344214841723442,0.0008122017025016248,0.0,0.0,0.0,0.0,-0.000686493469402194,0.0036817952059209347,-0.0008690028334967792,0.9990584850311279,0.0,0.0,0.0,-4.965239524841309,0.9665502309799194,2.980175495147705,898.71826171875,0
2091.348,-0.009657958522439003,-0.022232726216316223,0.0007467939285561442,0.0,0.0,0.0,0.0,0.0018498147837817669,7.022902718745172e-05,0.0011826297268271446,0.9993053078651428,0.0,0.0,0.0,-5.008255481719971,0.9897337555885315,2.97635555267334,906.5042724609375,0
2101.253999999999,-0.00963502749800682,-0.022249095141887665,0.0007487200200557709,0.0,0.0,0.0,0.0,0.00012886257900390774,0.001069778809323907,-0.0036118747666478157,0.9977800250053406,0.0,0.0,0.0,-5.015023231506348,0.9851734638214111,2.970433235168457,907.7291870117188,0
2111.1809999999987,-0.009634721092879772,-0.02222450077533722,0.0007724466850049794,0.0,0.0,0.0,0.0,0.0018598082242533565,-0.004631485790014267,-0.001530376961454749,0.9988753795623779,0.0,0.0,0.0,-5.037560939788818,0.9993254542350769,2.968169927597046,911.8084716796875,0
2121.0739999999987,-0.009616800583899021,-0.022247090935707092,0.0007715363171882927,0.0,0.0,0.0,0.0,-1.0919418855337426e-05,0.0008716353331692517,-0.0024884450249373913,0.9996016621589661,0.0,0.0,0.0,-5.04152774810791,0.990160346031189,2.9662623405456543,912.5264892578125,0
2131.002999999999,-0.009592536836862564,-0.02218598686158657,0.0007489756681025028,0.0,0.0,0.0,0.0,-0.0021246601827442646,0.0010087001137435436,0.00021527527133002877,1.000871181488037,0.0,0.0,0.0,-5.0614094734191895,0.9969514012336731,2.9693870544433594,916.1251831054688,0
2140.896999999999,-0.009594166651368141,-0.022202009335160255,0.0007386372308246791,0.0,0.0,0.0,0.0,0.0007908482803031802,-0.0022526620887219906,0.0007168704178184271,1.0015805959701538,0.0,0.0,0.0,-5.068091869354248,0.9909908175468445,2.9624574184417725,917.3347778320312,0
2150.8199999999997,-0.009608413092792034,-0.022194989025592804,0.0007413638522848487,0.0,0.0,0.0,0.0,-0.0006432767258957028,-0.00045996380504220724,-0.0015911017544567585,1.0006985664367676,0.0,0.0,0.0,-5.062053203582764,0.9900373220443726,2.9661078453063965,916.2416381835938,0
2160.7219999999998,-0.009565940126776695,-0.02221534587442875,0.000740502611733973,0.0,0.0,0.0,0.0,0.0010101957013830543,-0.0016044832300394773,0.0008297140593640506,1.0008596181869507,0.0,0.0,0.0,-5.056546688079834,0.9894957542419434,2.9733023643493652,915.2450561523438,0
