timestamp,stateEstimate.x,stateEstimate.y,stateEstimate.z,controller.cmd_thrust,controller.cmd_roll,controller.cmd_pitch,controller.cmd_yaw,controller.r_roll,controller.r_pitch,controller.r_yaw,controller.accelz,controller.actuatorThrust,controller.roll,controller.pitch,controller.yaw,controller.rollRate,controller.pitchRate,controller.yawRate,controller.ctr_yaw
0.0,-0.0019774758256971836,-0.004269937053322792,0.00060530990594998,0.0,0.0,0.0,0.0,-0.0017354966839775443,-0.002334879944100976,-0.002895284676924348,1.002263069152832,0.0,0.0,0.0,11.189526557922363,0.7339423894882202,4.335455417633057,-2025.32666015625,0
9.915999999999258,-0.001956014893949032,-0.004332524724304676,0.0005798458587378263,0.0,0.0,0.0,0.0,0.0026097481604665518,-0.002412923611700535,0.0007934877066873014,0.9996299743652344,0.0,0.0,0.0,11.187178611755371,0.7211924195289612,4.337296009063721,-2024.9014892578125,0
19.82300000000032,-0.001985459355637431,-0.0043312981724739075,0.0005904803401790559,0.0,0.0,0.0,0.0,-0.0008566971519030631,0.0028827949427068233,-0.001051838742569089,0.9986189603805542,0.0,0.0,0.0,11.176703453063965,0.7168281674385071,4.343442916870117,-2023.0054931640625,0
29.743000000000393,-0.001975512132048607,-0.004370404873043299,0.0005736052989959717,0.0,0.0,0.0,0.0,-0.0005778850754722953,0.004031292628496885,-0.002248343313112855,0.9999927878379822,0.0,0.0,0.0,11.17492961883545,0.708820104598999,4.336217403411865,-2022.6844482421875,0
39.65099999999984,-0.0020025938283652067,-0.0043717036023736,0.0005806799163110554,0.0,0.0,0.0,0.0,0.0018252967856824398,0.0013541316147893667,0.0045029595494270325,1.0016204118728638,0.0,0.0,0.0,11.162943840026855,0.7097156047821045,4.320932388305664,-2020.5150146484375,0
49.5630000000001,-0.001976215047761798,-0.0043809968046844006,0.0005923483986407518,0.0,0.0,0.0,0.0,0.003985200077295303,0.0032626441679894924,-0.0004815759602934122,1.001206874847412,0.0,0.0,0.0,11.160478591918945,0.7006421685218811,4.321678161621094,-2020.0689697265625,0
59.46700000000055,-0.0019146247068420053,-0.004237386863678694,0.000547070347238332,0.0,0.0,0.0,0.0,-0.004362117033451796,-0.0017361827194690704,0.0018090502126142383,1.0006060600280762,0.0,0.0,0.0,11.176070213317871,0.7297547459602356,4.3308796882629395,-2022.890869140625,0
69.39300000000003,-0.0019203211413696408,-0.0042628031224012375,0.0005296273739077151,0.0,0.0,0.0,0.0,0.0009856154210865498,4.8964880988933146e-05,0.00019703860743902624,0.9998977184295654,0.0,0.0,0.0,11.171231269836426,0.7310223579406738,4.326291561126709,-2022.0150146484375,0
79.29099999999926,-0.0019474666332826018,-0.00426033278927207,0.0005357596674002707,0.0,0.0,0.0,0.0,7.828175148461014e-05,-0.0016587470890954137,-0.001870334381237626,0.9993331432342529,0.0,0.0,0.0,11.160579681396484,0.7330681085586548,4.321368217468262,-2020.087158203125,0
89.21099999999933,-0.0019869161769747734,-0.004279760178178549,0.0005131913349032402,0.0,0.0,0.0,0.0,0.002405772218480706,0.0029624816961586475,-0.0021434426307678223,1.0004327297210693,0.0,0.0,0.0,11.155436515808105,0.7292191982269287,4.314663410186768,-2019.1561279296875,0
99.11999999999898,-0.001988148782402277,-0.004217608366161585,0.0005241297767497599,0.0,0.0,0.0,0.0,0.00042519590351730585,-0.001000168384052813,0.0026031264569610357,1.0023951530456543,0.0,0.0,0.0,11.16328239440918,0.7380744218826294,4.316198348999023,-2020.576416015625,0
109.03600000000006,-0.0019543732050806284,-0.004267590586096048,0.0005059093818999827,0.0,0.0,0.0,0.0,-0.001965216128155589,-0.000785224896389991,0.0011385930702090263,1.0010360479354858,0.0,0.0,0.0,11.1641263961792,0.7208157181739807,4.323375225067139,-2020.7291259765625,0
118.94700000000012,-0.0019747193437069654,-0.004220678471028805,0.0005532634677365422,0.0,0.0,0.0,0.0,0.0018740061204880476,-0.0007895547896623611,0.0013651851331815124,1.0017422437667847,0.0,0.0,0.0,11.17856502532959,0.7324193120002747,4.323236465454102,-2023.342529296875,0
128.85900000000038,-0.0019633788615465164,-0.00427443441003561,0.0005258424207568169,0.0,0.0,0.0,0.0,-0.0030529506038874388,-0.002701816149055958,0.0001431919663446024,0.999504804611206,0.0,0.0,0.0,11.182146072387695,0.7169820666313171,4.320237159729004,-2023.99072265625,0
138.76100000000042,-0.0019689537584781647,-0.00419188616797328,0.0005750181735493243,0.0,0.0,0.0,0.0,-0.003137785941362381,-0.0019169467268511653,-0.0020341549534350634,0.9994527697563171,0.0,0.0,0.0,11.190289497375488,0.7363064885139465,4.324151039123535,-2025.464599609375,0
148.6820000000007,-0.0019591888412833214,-0.0042265416122972965,0.0005663649644702673,0.0,0.0,0.0,0.0,-0.0002432576147839427,0.0006504022749140859,-0.0018057003617286682,1.000163197517395,0.0,0.0,0.0,11.185330390930176,0.7346394658088684,4.327420234680176,-2024.5670166015625,0
158.58499999999913,-0.0019911909475922585,-0.004220322240144014,0.0005763430381193757,0.0,0.0,0.0,0.0,0.003376491367816925,-0.005340181291103363,-0.00332821742631495,0.999925971031189,0.0,0.0,0.0,11.174384117126465,0.7349329590797424,4.321452617645264,-2022.585693359375,0
168.50900000000001,-0.0019291313365101814,-0.004276629537343979,0.0005601289449259639,0.0,0.0,0.0,0.0,-6.782998389098793e-05,-0.0027659570332616568,0.00499016884714365,0.9999743700027466,0.0,0.0,0.0,11.175793647766113,0.7099247574806213,4.336442470550537,-2022.8409423828125,0
178.40899999999965,-0.0019375134725123644,-0.004213400650769472,0.0006033948739059269,0.0,0.0,0.0,0.0,0.0018934386316686869,-0.0017915494972839952,-0.0031099533662199974,1.0021342039108276,0.0,0.0,0.0,11.186060905456543,0.7221176624298096,4.340798377990723,-2024.69921875,0
188.32899999999972,-0.001954474952071905,-0.00424573989585042,0.000580165593419224,0.0,0.0,0.0,0.0,-0.002398915123194456,-0.0025969608686864376,-0.0024183806963264942,1.0021748542785645,0.0,0.0,0.0,11.173954963684082,0.7171587944030762,4.340168476104736,-2022.5079345703125,0
198.23699999999917,-0.0019834786653518677,-0.004239787347614765,0.0005915913498029113,0.0,0.0,0.0,0.0,-0.0005596131086349487,-0.002258228836581111,-0.0012007247423753142,1.0001164674758911,0.0,0.0,0.0,11.162376403808594,0.724571704864502,4.342940807342529,-2020.412353515625,0
208.15400000000045,-0.0019870155956596136,-0.004270263481885195,0.0005754316225647926,0.0,0.0,0.0,0.0,0.0022366971243172884,-0.0013790949014946818,0.001369279925711453,0.9995483160018921,0.0,0.0,0.0,11.159784317016602,0.7166393399238586,4.343597412109375,-2019.9432373046875,0
218.0560000000005,-0.001985616283491254,-0.00419911602512002,0.0006102867191657424,0.0,0.0,0.0,0.0,-0.0012600499903783202,0.00155742431525141,0.003584107616916299,1.0016862154006958,0.0,0.0,0.0,11.166513442993164,0.7304350137710571,4.349148273468018,-2021.1610107421875,0
227.98300000000017,-0.0019637462683022022,-0.004262770060449839,0.0005739997141063213,0.0,0.0,0.0,0.0,-0.0020561034325510263,-0.0018081386806443334,-0.0013308805646374822,1.0007621049880981,0.0,0.0,0.0,11.163881301879883,0.7140273451805115,4.341065883636475,-2020.6846923828125,0
237.878999999999,-0.0019897744059562683,-0.004257023334503174,0.000584496243391186,0.0,0.0,0.0,0.0,0.00045560288708657026,-0.0016653346829116344,-0.004598004277795553,0.9981496930122375,0.0,0.0,0.0,11.152923583984375,0.715818464756012,4.339571952819824,-2018.7012939453125,0
247.79999999999927,-0.001992845209315419,-0.0042993854731321335,0.0005510259652510285,0.0,0.0,0.0,0.0,-0.0015922236489132047,0.003464522073045373,-0.0020078569650650024,0.9986347556114197,0.0,0.0,0.0,11.152593612670898,0.6970759034156799,4.339158535003662,-2018.6416015625,0
257.70700000000033,-0.001972199184820056,-0.004202068317681551,0.0005683686467818916,0.0,0.0,0.0,0.0,0.004658698569983244,2.2724074369762093e-05,0.0008937898091971874,0.9998453259468079,0.0,0.0,0.0,11.163352966308594,0.7258179783821106,4.343707084655762,-2020.589111328125,0
267.6260000000002,-0.0019204599084332585,-0.0042639002203941345,0.0005438203806988895,0.0,0.0,0.0,0.0,0.0020240885205566883,-0.0004242043069098145,0.0042604547925293446,1.000023603439331,0.0,0.0,0.0,11.15319538116455,0.7212604284286499,4.340737342834473,-2018.750732421875,0
277.53000000000065,-0.001891734660603106,-0.004160082433372736,0.0005288645625114441,0.0,0.0,0.0,0.0,0.0005862685502506793,-0.0016630222089588642,0.00046996521996334195,0.9996418952941895,0.0,0.0,0.0,11.167405128479004,0.7322043180465698,4.350034236907959,-2021.322509765625,0
287.4499999999989,-0.0018946189666166902,-0.004208859987556934,0.0004791853716596961,0.0,0.0,0.0,0.0,0.0012080245651304722,-0.0015025181928649545,0.0016095422906801105,1.0005033016204834,0.0,0.0,0.0,11.168171882629395,0.713935375213623,4.349398612976074,-2021.4613037109375,0
297.35100000000057,-0.0018633080180734396,-0.004085437394678593,0.00048224590136669576,0.0,0.0,0.0,0.0,-0.0014269264647737145,-0.003912114538252354,-0.004940422251820564,1.0006402730941772,0.0,0.0,0.0,11.170588493347168,0.7242834568023682,4.361640453338623,-2021.8988037109375,0
307.27100000000064,-0.0018353464547544718,-0.004143351223319769,0.0004392943228594959,0.0,0.0,0.0,0.0,-0.0016647590091452003,0.002400255762040615,-0.002390035195276141,1.0021429061889648,0.0,0.0,0.0,11.168069839477539,0.7062224745750427,4.365823268890381,-2021.44287109375,0
317.1749999999993,-0.0018590866820886731,-0.004130289889872074,0.0004376157885417342,0.0,0.0,0.0,0.0,5.2248422434786335e-05,0.002325603039935231,0.0032820384949445724,1.0012954473495483,0.0,0.0,0.0,11.15562629699707,0.7029737234115601,4.3537917137146,-2019.1905517578125,0
327.09499999999935,-0.001883718534372747,-0.004170972388237715,0.0003871773951686919,0.0,0.0,0.0,0.0,-0.0011124399024993181,-0.0066286725923419,0.002481045899912715,1.0004363059997559,0.0,0.0,0.0,11.154616355895996,0.6865490078926086,4.341884613037109,-2019.0079345703125,0
336.9989999999998,-0.0019096368923783302,-0.004162117838859558,0.0003838395932689309,0.0,0.0,0.0,0.0,0.0018860693089663982,0.003089210484176874,-0.002500621834769845,0.9996944665908813,0.0,0.0,0.0,11.144209861755371,0.6876586675643921,4.3556060791015625,-2017.1241455078125,0
346.9210000000003,-0.0018937633140012622,-0.004196998663246632,0.0003409552446100861,0.0,0.0,0.0,0.0,-0.002498178742825985,0.0009812663774937391,0.0029024146497249603,0.9982134699821472,0.0,0.0,0.0,11.1396484375,0.6685361862182617,4.358600616455078,-2016.2984619140625,0
356.8220000000001,-0.0018739751540124416,-0.004098528530448675,0.0003481007879599929,0.0,0.0,0.0,0.0,-0.00029646692564710975,0.002484832890331745,0.0030530812218785286,0.9970229864120483,0.0,0.0,0.0,11.150289535522461,0.6978867650032043,4.374274253845215,-2018.224609375,0
366.7430000000004,-0.0018875631503760815,-0.004127294756472111,0.00029613953665830195,0.0,0.0,0.0,0.0,0.001404280075803399,-0.001899258466437459,-0.0008596112602390349,0.9968892335891724,0.0,0.0,0.0,11.150947570800781,0.6822994947433472,4.357713222503662,-2018.34375,0
376.64799999999923,-0.00194012769497931,-0.004116105381399393,0.00038401212077587843,0.0,0.0,0.0,0.0,0.001479760860092938,0.0008106259047053754,-0.00016617309302091599,0.9999720454216003,0.0,0.0,0.0,11.15941047668457,0.6826004385948181,4.34773063659668,-2019.87548828125,0
386.5799999999999,-0.001920448848977685,-0.004174666479229927,0.000335454911692068,0.0,0.0,0.0,0.0,-0.002206629142165184,-0.0024411343038082123,0.003047664649784565,0.9984260201454163,0.0,0.0,0.0,11.153402328491211,0.6662783026695251,4.343626022338867,-2018.7879638671875,0
396.47299999999996,-0.0019706743769347668,-0.004153577610850334,0.0004122386744711548,0.0,0.0,0.0,0.0,-0.0001906416000565514,-0.0031037097796797752,0.00021370744798332453,0.9989739656448364,0.0,0.0,0.0,11.162464141845703,0.6735835075378418,4.3371100425720215,-2020.42822265625,0
406.3899999999994,-0.001925791846588254,-0.0041822399944067,0.000412323628552258,0.0,0.0,0.0,0.0,-0.0007509203278459609,0.007020360790193081,0.0019361298764124513,1.0012255907058716,0.0,0.0,0.0,11.15159797668457,0.6739327311515808,4.337706565856934,-2018.46142578125,0
416.2999999999993,-0.0019640817772597075,-0.004147093277424574,0.0004687056061811745,0.0,0.0,0.0,0.0,0.0009367481106892228,-0.001240744604729116,6.457341805798933e-05,1.0003211498260498,0.0,0.0,0.0,11.162362098693848,0.6826260685920715,4.316728591918945,-2020.40966796875,0
426.21299999999974,-0.001946364063769579,-0.004176156595349312,0.0004539783694781363,0.0,0.0,0.0,0.0,-0.0015628779074177146,0.0027601225301623344,-0.0008446064894087613,1.000504493713379,0.0,0.0,0.0,11.151331901550293,0.6792896389961243,4.315511226654053,-2018.4132080078125,0
436.1209999999992,-0.0019799477886408567,-0.004130788147449493,0.000509278557728976,0.0,0.0,0.0,0.0,-0.0009998324094340205,0.0011884095147252083,0.003012146335095167,1.0010074377059937,0.0,0.0,0.0,11.154434204101562,0.6874855160713196,4.305601596832275,-2018.974853515625,0
446.03700000000026,-0.0019197745714336634,-0.004205383826047182,0.00048821233212947845,0.0,0.0,0.0,0.0,-0.0024072881788015366,0.0031740714330226183,-0.0008858197834342718,1.000710368156433,0.0,0.0,0.0,11.150094032287598,0.6675065755844116,4.306380271911621,-2018.189208984375,0
455.9419999999991,-0.0019635751377791166,-0.004179979208856821,0.0005511702038347721,0.0,0.0,0.0,0.0,1.019522733258782e-05,0.006233434192836285,-0.0021281130611896515,1.000910997390747,0.0,0.0,0.0,11.166696548461914,0.6741089820861816,4.289175033569336,-2021.1944580078125,0
465.8600000000006,-0.001959108980372548,-0.004223458003252745,0.0005293522262945771,0.0,0.0,0.0,0.0,0.0002819280489347875,0.0015626217937096953,0.0018846625462174416,1.0001105070114136,0.0,0.0,0.0,11.167115211486816,0.6666851043701172,4.279998779296875,-2021.27001953125,0
475.7649999999994,-0.001989740179851651,-0.004216217901557684,0.00053486751858145,0.0,0.0,0.0,0.0,-0.00012166008673375472,0.002647735644131899,-0.0007855560979805887,1.0020570755004883,0.0,0.0,0.0,11.157079696655273,0.659279465675354,4.275361061096191,-2019.45361328125,0
485.6939999999995,-0.0019900226034224033,-0.004242682829499245,0.0005194699042476714,0.0,0.0,0.0,0.0,0.0014173822710290551,0.0036379406228661537,0.002934180898591876,1.0013552904129028,0.0,0.0,0.0,11.154356002807617,0.6446223258972168,4.266019821166992,-2018.960693359375,0
495.59799999999996,-0.0019412471447139978,-0.004097849130630493,0.0004947088309563696,0.0,0.0,0.0,0.0,-0.00033772477763704956,0.003074487904086709,-0.003755682846531272,0.9994632005691528,0.0,0.0,0.0,11.161027908325195,0.6745994091033936,4.271962642669678,-2020.1683349609375,0
505.5079999999998,-0.0019026895752176642,-0.004166877828538418,0.0004567071737255901,0.0,0.0,0.0,0.0,0.002044810215011239,-0.002603227272629738,-0.0016795224510133266,0.9994615316390991,0.0,0.0,0.0,11.149147987365723,0.6736072897911072,4.261815071105957,-2018.01806640625,0
515.4120000000003,-0.0019331861985847354,-0.0041551748290658,0.0004579976957757026,0.0,0.0,0.0,0.0,-0.002631734125316143,-0.00036623142659664154,0.0025737329851835966,0.9999784231185913,0.0,0.0,0.0,11.137496948242188,0.6645890474319458,4.265499591827393,-2015.908935546875,0
525.3330000000005,-0.001942830509506166,-0.0041748699732124805,0.0004353379481472075,0.0,0.0,0.0,0.0,-0.0015142089687287807,0.001166140311397612,-0.0013921736972406507,0.9994128346443176,0.0,0.0,0.0,11.136222839355469,0.6527078747749329,4.261280059814453,-2015.6785888671875,0
535.241,-0.0019864672794938087,-0.00415448984131217,0.0004966968554072082,0.0,0.0,0.0,0.0,0.0008602570742368698,-0.0010086250258609653,-0.0012017057742923498,1.0002050399780273,0.0,0.0,0.0,11.146305084228516,0.6576778888702393,4.253911018371582,-2017.50341796875,0
545.1569999999992,-0.001951089478097856,-0.004209450446069241,0.00047223136061802506,0.0,0.0,0.0,0.0,-0.00401273462921381,-0.0021307056304067373,0.0015671700239181519,1.000520944595337,0.0,0.0,0.0,11.144637107849121,0.6392030119895935,4.257302761077881,-2017.2015380859375,0
555.0669999999991,-0.0019877837039530277,-0.004203715827316046,0.00047278142301365733,0.0,0.0,0.0,0.0,0.0003172697906848043,-0.007662954740226269,-0.0027157438453286886,0.9992310404777527,0.0,0.0,0.0,11.133953094482422,0.6416553854942322,4.259188652038574,-2015.267578125,0
564.982,-0.0019426678773015738,-0.004256428685039282,0.0004408224194776267,0.0,0.0,0.0,0.0,0.0017088829772546887,0.0008318523759953678,-0.0005996190011501312,1.0002192258834839,0.0,0.0,0.0,11.13000202178955,0.6164292693138123,4.279752731323242,-2014.5526123046875,0
574.8950000000004,-0.0019489978440105915,-0.004173958674073219,0.0004865903756581247,0.0,0.0,0.0,0.0,-0.002152350964024663,0.0009730726596899331,-0.000658659846521914,1.0003764629364014,0.0,0.0,0.0,11.145011901855469,0.6384190320968628,4.277426719665527,-2017.26953125,0
584.8109999999997,-0.001898447168059647,-0.004246764350682497,0.00044792701373808086,0.0,0.0,0.0,0.0,0.002231967868283391,0.0019217351218685508,-0.0020358418114483356,0.9987742304801941,0.0,0.0,0.0,11.140327453613281,0.6235288381576538,4.272160530090332,-2016.4215087890625,0
594.7139999999999,-0.0018811505287885666,-0.004133681301027536,0.00046094978461042047,0.0,0.0,0.0,0.0,0.00022733329387847334,-0.002456093207001686,0.0005908365128561854,1.002005696296692,0.0,0.0,0.0,11.155277252197266,0.6432260870933533,4.273503303527832,-2019.1273193359375,0
604.6299999999992,-0.001870440086349845,-0.0041806744411587715,0.0004264797898940742,0.0,0.0,0.0,0.0,0.0011742718052119017,0.004537507425993681,0.0009198904735967517,1.0016523599624634,0.0,0.0,0.0,11.153348922729492,0.6302119493484497,4.272919654846191,-2018.7783203125,0
614.539999999999,-0.0019211051985621452,-0.004160718526691198,0.0004987415159121156,0.0,0.0,0.0,0.0,-0.0030552067328244448,0.0007313616224564612,0.0013775895349681377,0.9998672008514404,0.0,0.0,0.0,11.16268253326416,0.6244142651557922,4.253964900970459,-2020.4676513671875,0
624.4509999999991,-0.0019278042018413544,-0.00422058766707778,0.0004525149997789413,0.0,0.0,0.0,0.0,0.003913545049726963,0.0018010352505370975,0.00036303201341070235,0.9986475110054016,0.0,0.0,0.0,11.16330337524414,0.6149483323097229,4.2466349601745605,-2020.5802001953125,0
634.366,-0.0019543017260730267,-0.004147516097873449,0.00052062509348616,0.0,0.0,0.0,0.0,0.00028149166610091925,-0.0003464066539891064,-0.00022869266103953123,1.001183032989502,0.0,0.0,0.0,11.183369636535645,0.6191918253898621,4.238193035125732,-2024.212158203125,0
644.2780000000002,-0.0019221518887206912,-0.004228648729622364,0.0004837055748794228,0.0,0.0,0.0,0.0,0.0022393325343728065,-0.002775910310447216,0.00420887628570199,1.0001245737075806,0.0,0.0,0.0,11.172650337219238,0.6188502907752991,4.235917091369629,-2022.2718505859375,0
654.1880000000001,-0.001944183255545795,-0.004158319905400276,0.0005409119767136872,0.0,0.0,0.0,0.0,-0.0075439224019646645,0.003265152219682932,0.001614054897800088,0.9980219006538391,0.0,0.0,0.0,11.182647705078125,0.6257469058036804,4.245306015014648,-2024.0814208984375,0
664.1000000000004,-0.0019991553854197264,-0.004189710598438978,0.0005021465476602316,0.0,0.0,0.0,0.0,0.005198840983211994,0.0032123439013957977,-0.0030636568553745747,0.9985642433166504,0.0,0.0,0.0,11.177997589111328,0.6315687298774719,4.225690841674805,-2023.23974609375,0
674.0069999999996,-0.0020652329549193382,-0.004172312095761299,0.000589983188547194,0.0,0.0,0.0,0.0,-0.0006608829717151821,-0.0012263311073184013,-0.0019859871827065945,1.0010707378387451,0.0,0.0,0.0,11.182967185974121,0.6252030730247498,4.210292816162109,-2024.1392822265625,0
683.9210000000003,-0.001970828976482153,-0.00427184859290719,0.000581118103582412,0.0,0.0,0.0,0.0,-3.0064344173297286e-05,0.004167116712778807,-0.0008963802247308195,1.0021235942840576,0.0,0.0,0.0,11.171676635742188,0.6256948113441467,4.207202911376953,-2022.0955810546875,0
693.8369999999995,-0.0020100006368011236,-0.004270822741091251,0.0005891633918508887,0.0,0.0,0.0,0.0,-0.0032196601387113333,-0.005565366242080927,0.00207298225723207,0.9997268319129944,0.0,0.0,0.0,11.160433769226074,0.6260281205177307,4.19146203994751,-2020.060791015625,0
703.75,-0.002050230046734214,-0.004271007142961025,0.0005984192248433828,0.0,0.0,0.0,0.0,0.0004564247792586684,0.005166838876903057,-0.0007745175389572978,1.0003650188446045,0.0,0.0,0.0,11.15051555633545,0.6305707693099976,4.195682525634766,-2018.2655029296875,0
713.6659999999993,-0.0020918662194162607,-0.004272741731256247,0.0006078861770220101,0.0,0.0,0.0,0.0,0.0003580812772270292,0.002642818493768573,-0.0022289135958999395,1.0012755393981934,0.0,0.0,0.0,11.139074325561523,0.6253944635391235,4.179782390594482,-2016.19482421875,0
723.5709999999999,-0.0020865504629909992,-0.004178653005510569,0.0006379543337970972,0.0,0.0,0.0,0.0,0.002898501232266426,0.0012411234201863408,0.002037813887000084,0.9988386034965515,0.0,0.0,0.0,11.156549453735352,0.6505140066146851,4.182563781738281,-2019.357666015625,0
733.4850000000006,-0.0021278064232319593,-0.004174279980361462,0.0006504844641312957,0.0,0.0,0.0,0.0,0.002578089712187648,0.003942093346267939,-0.0007239325204864144,1.0011087656021118,0.0,0.0,0.0,11.144723892211914,0.6455407738685608,4.17190408706665,-2017.2174072265625,0
743.3940000000002,-0.0020999363623559475,-0.0040434240363538265,0.0006570031400769949,0.0,0.0,0.0,0.0,0.0030609385576099157,-0.0021145837381482124,-0.0015097002033144236,1.0016590356826782,0.0,0.0,0.0,11.162408828735352,0.6730273962020874,4.186538219451904,-2020.418212890625,0
753.3169999999991,-0.0021374758798629045,-0.004028170369565487,0.0006705559208057821,0.0,0.0,0.0,0.0,-0.0023370760027319193,0.0006582195055671036,-0.0011487402953207493,0.999638557434082,0.0,0.0,0.0,11.150090217590332,0.673281729221344,4.182348251342773,-2018.1885986328125,0
763.2170000000006,-0.0021321403328329325,-0.00393326161429286,0.0006887311465106905,0.0,0.0,0.0,0.0,0.0022831829264760017,0.001566995750181377,-0.002096031326800585,0.9992063045501709,0.0,0.0,0.0,11.16647720336914,0.6965505480766296,4.196865558624268,-2021.1546630859375,0
773.1319999999996,-0.002168709645047784,-0.0039130267687141895,0.0007036334136500955,0.0,0.0,0.0,0.0,-0.00035916417255066335,0.0021304807160049677,-0.0003438869025558233,1.0000340938568115,0.0,0.0,0.0,11.155777931213379,0.6927693486213684,4.192721366882324,-2019.218017578125,0
783.039999999999,-0.0021599680185317993,-0.0038159191608428955,0.0007193218916654587,0.0,0.0,0.0,0.0,0.0014720236649736762,-0.00046590526471845806,-0.0017538113752380013,1.0009843111038208,0.0,0.0,0.0,11.170488357543945,0.7140983939170837,4.205392360687256,-2021.8807373046875,0
792.9539999999997,-0.002193134045228362,-0.003787894966080785,0.000734438537620008,0.0,0.0,0.0,0.0,-0.0024271931033581495,-0.0002981136494781822,0.0010705047752708197,0.9995667338371277,0.0,0.0,0.0,11.158695220947266,0.7087087631225586,4.200043678283691,-2019.7459716796875,0
802.8709999999992,-0.0021959508303552866,-0.0037410829681903124,0.0007222410058602691,0.0,0.0,0.0,0.0,0.0006645105313509703,-0.001759390695951879,0.003110449993982911,0.9998223781585693,0.0,0.0,0.0,11.177445411682129,0.7132602334022522,4.212717056274414,-2023.139892578125,0
812.7790000000005,-0.002226967364549637,-0.0037135675083845854,0.0007357287686318159,0.0,0.0,0.0,0.0,0.0009307441068813205,0.0007509709685109556,-0.0006545864744111896,0.9985963702201843,0.0,0.0,0.0,11.167780876159668,0.7102973461151123,4.206746578216553,-2021.390625,0
822.6900000000005,-0.0022276740055531263,-0.003674715291708708,0.0007129089790396392,0.0,0.0,0.0,0.0,-0.0037313455250114202,0.0016321140574291348,0.0027362939435988665,0.9989174604415894,0.0,0.0,0.0,11.183826446533203,0.7132588624954224,4.212497711181641,-2024.2947998046875,0
832.5990000000002,-0.0022571072913706303,-0.0036449632607400417,0.0007223383872769773,0.0,0.0,0.0,0.0,-0.0024270210415124893,-0.003897655289620161,0.00021323622786439955,0.9988455176353455,0.0,0.0,0.0,11.17306900024414,0.7131248712539673,4.208378314971924,-2022.3477783203125,0
842.5139999999992,-0.0022878609597682953,-0.0036146126221865416,0.0007306108600459993,0.0,0.0,0.0,0.0,0.003861660836264491,-0.0021435036323964596,-0.00034713814966380596,1.000647783279419,0.0,0.0,0.0,11.16257095336914,0.7141801118850708,4.2194366455078125,-2020.4476318359375,0
852.4279999999999,-0.002319922437891364,-0.0035840608179569244,0.0007382333278656006,0.0,0.0,0.0,0.0,0.003809833899140358,0.000793487939517945,-0.0007388084195554256,1.0007498264312744,0.0,0.0,0.0,11.151541709899902,0.7073468565940857,4.2198166847229,-2018.4512939453125,0
862.3369999999995,-0.002378583885729313,-0.003569662570953369,0.0007618622621521354,0.0,0.0,0.0,0.0,-0.0027445191517472267,-6.929873052285984e-05,-1.912501147671719e-06,1.0002400875091553,0.0,0.0,0.0,11.164225578308105,0.6961167454719543,4.209814548492432,-2020.7469482421875,0
872.2479999999996,-0.00241452525369823,-0.00353821343742311,0.0007716306135989726,0.0,0.0,0.0,0.0,-0.0011340045602992177,0.0016895388253033161,-0.0006079377490095794,0.9990597367286682,0.0,0.0,0.0,11.15353012084961,0.7004927396774292,4.209322929382324,-2018.81103515625,0
882.1509999999998,-0.0024680953938513994,-0.003585716476663947,0.0007212648633867502,0.0,0.0,0.0,0.0,-0.002633098978549242,0.0007472241995856166,0.003714828984811902,0.9978411197662354,0.0,0.0,0.0,11.165969848632812,0.677705705165863,4.194970607757568,-2021.0628662109375,0
892.0749999999989,-0.002508977660909295,-0.003559898817911744,0.0007265825406648219,0.0,0.0,0.0,0.0,0.001023959252052009,-0.001574155525304377,0.003209393937140703,0.9983810782432556,0.0,0.0,0.0,11.155982971191406,0.6840019822120667,4.184668064117432,-2019.255126953125,0
901.9750000000004,-0.0025512301363050938,-0.0035332210827618837,0.0007301379228010774,0.0,0.0,0.0,0.0,0.0005768767441622913,-0.0020620091818273067,-0.0005103814764879644,1.0010758638381958,0.0,0.0,0.0,11.145434379577637,0.6833369731903076,4.182030200958252,-2017.345703125,0
911.8940000000002,-0.0025952188298106194,-0.003506370587274432,0.000733048771508038,0.0,0.0,0.0,0.0,-0.0002741707139648497,0.0019609741866588593,0.0009599366458132863,1.0015565156936646,0.0,0.0,0.0,11.134749412536621,0.6847010254859924,4.166753768920898,-2015.4117431640625,0
921.8099999999995,-0.002640804275870323,-0.0034796916879713535,0.0007369880913756788,0.0,0.0,0.0,0.0,-0.0023438134230673313,-0.0026710908859968185,-0.0007593314512632787,1.0005359649658203,0.0,0.0,0.0,11.123546600341797,0.6779512763023376,4.157680034637451,-2013.384033203125,0
931.723,-0.0026880346704274416,-0.00345260719768703,0.000742180272936821,0.0,0.0,0.0,0.0,0.001081571914255619,0.0009374292567372322,-6.83189500705339e-05,1.000425100326538,0.0,0.0,0.0,11.1127347946167,0.6793596744537354,4.158308982849121,-2011.4271240234375,0
941.628999999999,-0.0019244457362219691,-0.004145384766161442,0.0007373840198852122,0.0,0.0,0.0,0.0,0.0022271855268627405,0.008995948359370232,0.003916910849511623,0.9988234639167786,0.0,0.0,0.0,11.114411354064941,0.49615979194641113,4.259245872497559,-2011.730712890625,0
951.5460000000003,-0.0019418189767748117,-0.004155208356678486,0.0007322501624003053,0.0,0.0,0.0,0.0,0.0008807301637716591,-0.0014432795578613877,-0.002881658961996436,0.998793363571167,0.0,0.0,0.0,11.103221893310547,0.49162137508392334,4.237997055053711,-2009.705322265625,0
961.4529999999995,-0.001944588148035109,-0.004234710708260536,0.0006184050580486655,0.0,0.0,0.0,0.0,-0.0008018764201551676,-0.009609290398657322,-0.0011635718401521444,0.9990659952163696,0.0,0.0,0.0,11.105992317199707,0.46703341603279114,4.22874116897583,-2010.206787109375,0
971.369999999999,-0.001965695060789585,-0.004247603006660938,0.0006052787648513913,0.0,0.0,0.0,0.0,-0.0003334989887662232,-0.0019196707289665937,0.0026921434327960014,0.9999668002128601,0.0,0.0,0.0,11.095046043395996,0.47783994674682617,4.247394561767578,-2008.2255859375,0
981.2710000000006,-0.00194749201182276,-0.004301316570490599,0.0005395336193032563,0.0,0.0,0.0,0.0,0.0007694575469940901,-8.600352157372981e-05,-0.0023575066588819027,0.9984737038612366,0.0,0.0,0.0,11.093182563781738,0.4610700011253357,4.250876426696777,-2007.8880615234375,0
991.1859999999997,-0.001969675999134779,-0.004312205594033003,0.0005221941974014044,0.0,0.0,0.0,0.0,0.0032138016540557146,0.001286052749492228,0.0026470788288861513,1.000135898590088,0.0,0.0,0.0,11.081584930419922,0.4645221531391144,4.256234645843506,-2005.7889404296875,0
1001.0939999999991,-0.0019431262044236064,-0.0043383268639445305,0.0004956226330250502,0.0,0.0,0.0,0.0,0.004362058360129595,0.004094735719263554,-0.00223548267967999,1.001443862915039,0.0,0.0,0.0,11.086847305297852,0.44837480783462524,4.252645969390869,-2006.741455078125,0
1011.0169999999998,-0.0019651756156235933,-0.004348584916442633,0.0004775907436851412,0.0,0.0,0.0,0.0,-0.002118505071848631,-0.00209327251650393,-0.0024372620973736048,1.0004805326461792,0.0,0.0,0.0,11.076143264770508,0.4483337998390198,4.2407050132751465,-2004.803955078125,0
1020.9220000000005,-0.0019501690985634923,-0.004366002511233091,0.00046454835683107376,0.0,0.0,0.0,0.0,-0.003135973820462823,-0.0024529253132641315,-0.0016984606627374887,0.9985207915306091,0.0,0.0,0.0,11.082137107849121,0.438148558139801,4.235454559326172,-2005.888916015625,0
1030.8330000000005,-0.0019724415615200996,-0.004379467107355595,0.00044806490768678486,0.0,0.0,0.0,0.0,0.004133815877139568,0.004448862746357918,-0.0004877667815890163,1.000364065170288,0.0,0.0,0.0,11.07095718383789,0.4400925636291504,4.2429938316345215,-2003.8653564453125,0
1040.7399999999998,-0.00197244668379426,-0.004393815994262695,0.00044040626380592585,0.0,0.0,0.0,0.0,0.0015349214663729072,0.00414460152387619,-0.001125152688473463,1.0023820400238037,0.0,0.0,0.0,11.070250511169434,0.4346728026866913,4.245824337005615,-2003.7373046875,0
1050.6630000000005,-0.0019936617463827133,-0.00440813135355711,0.00042505693272687495,0.0,0.0,0.0,0.0,-0.0008115294040180743,-1.3129490980645642e-05,-0.0030381151009351015,1.0011104345321655,0.0,0.0,0.0,11.058424949645996,0.4327203929424286,4.229396343231201,-2001.5970458984375,0
1060.565999999999,-0.0019831503741443157,-0.004424750804901123,0.00042194698471575975,0.0,0.0,0.0,0.0,-0.0001711571530904621,0.0047030397690832615,0.0027567974757403135,0.9998226761817932,0.0,0.0,0.0,11.05826473236084,0.4289936125278473,4.241838455200195,-2001.5679931640625,0
1070.485999999999,-0.0020013886969536543,-0.004440334625542164,0.0004105509433429688,0.0,0.0,0.0,0.0,-0.0007571461610496044,-0.0011238279985263944,-0.0003929119266103953,1.0007933378219604,0.0,0.0,0.0,11.047090530395508,0.4238855540752411,4.221689701080322,-1999.54541015625,0
1080.396999999999,-0.0020029849838465452,-0.004441732540726662,0.0004275323881302029,0.0,0.0,0.0,0.0,0.0013769192155450583,-0.0013656506780534983,0.0016124309040606022,1.0009297132492065,0.0,0.0,0.0,11.044605255126953,0.4310919940471649,4.230612277984619,-1999.095458984375,0
1090.3109999999997,-0.002022420521825552,-0.004456041380763054,0.0004196825029794127,0.0,0.0,0.0,0.0,0.00447887135669589,-0.002033843658864498,-0.002187893493101001,1.000712275505066,0.0,0.0,0.0,11.032832145690918,0.43109121918678284,4.22530460357666,-1996.9647216796875,0
1100.2129999999997,-0.002019885228946805,-0.004454157315194607,0.00044430114212445915,0.0,0.0,0.0,0.0,0.002187961945310235,0.003803863888606429,0.0008335876627825201,1.0007102489471436,0.0,0.0,0.0,11.03320026397705,0.43107694387435913,4.2340192794799805,-1997.0313720703125,0
1110.1280000000006,-0.002042278880253434,-0.004467773716896772,0.00044107218855060637,0.0,0.0,0.0,0.0,0.0033168753143399954,-0.001069769263267517,0.005333899520337582,1.0016084909439087,0.0,0.0,0.0,11.023033142089844,0.43259331583976746,4.221853256225586,-1995.19091796875,0
1120.036,-0.002051477087661624,-0.004459375515580177,0.0004783444164786488,0.0,0.0,0.0,0.0,0.0026302102487534285,-0.00046387355541810393,-0.0012017185799777508,1.0000261068344116,0.0,0.0,0.0,11.029304504394531,0.4409444034099579,4.217042446136475,-1996.3260498046875,0
1129.9580000000005,-0.002052407478913665,-0.0044632041826844215,0.0005088768666610122,0.0,0.0,0.0,0.0,-0.0004885269445367157,0.00033772678580135107,-0.0020023214165121317,0.9997302293777466,0.0,0.0,0.0,11.030008316040039,0.4354817271232605,4.225584506988525,-1996.4534912109375,0
1139.860999999999,-0.001960559980943799,-0.00422273064032197,0.0002981600700877607,0.0,0.0,0.0,0.0,0.003028001170605421,0.0019395177951082587,0.0016863254131749272,1.0020756721496582,0.0,0.0,0.0,11.053485870361328,0.4823538362979889,4.25215482711792,-2000.702880859375,0
1149.7759999999998,-0.0019584803376346827,-0.00423015421256423,0.00030549915391020477,0.0,0.0,0.0,0.0,-0.0005383905954658985,0.00020639276772271842,5.2706502174260095e-05,1.0005437135696411,0.0,0.0,0.0,11.055264472961426,0.47708627581596375,4.25199556350708,-2001.0247802734375,0
1159.688,-0.001984166447073221,-0.004221667535603046,0.000388741260394454,0.0,0.0,0.0,0.0,-0.0028342311270534992,-0.0028034441638737917,6.808433226979105e-06,0.9995912313461304,0.0,0.0,0.0,11.07496452331543,0.4847956597805023,4.250198841094971,-2004.590576171875,0
1169.607,-0.0019701982382684946,-0.004237821791321039,0.000400015152990818,0.0,0.0,0.0,0.0,-0.0014637041604146361,-0.0007108701393008232,0.0004868371179327369,0.9995090961456299,0.0,0.0,0.0,11.075793266296387,0.48824095726013184,4.24905252456665,-2004.7406005859375,0
1179.5049999999992,-0.0019903138745576143,-0.004208859987556934,0.00046157281030900776,0.0,0.0,0.0,0.0,0.0028838838916271925,-0.0027649421244859695,-0.000392865389585495,1.001136302947998,0.0,0.0,0.0,11.098462104797363,0.49477455019950867,4.244521617889404,-2008.8438720703125,0
1189.4230000000007,-0.001941623748280108,-0.0042548347264528275,0.0004758552531711757,0.0,0.0,0.0,0.0,0.0004999047960154712,0.00045112374937161803,-0.0010569582227617502,0.9991546869277954,0.0,0.0,0.0,11.096291542053223,0.48825058341026306,4.244815826416016,-2008.450927734375,0
1199.3359999999993,-0.0018869878258556128,-0.004254442639648914,0.0005156362894922495,0.0,0.0,0.0,0.0,-0.0006121884798631072,-0.0035667282063513994,0.0025076342280954123,1.0003622770309448,0.0,0.0,0.0,11.1080961227417,0.5010890960693359,4.247649669647217,-2010.5875244140625,0
1209.2610000000004,-0.0019129866268485785,-0.004260851535946131,0.0005308600375428796,0.0,0.0,0.0,0.0,-0.0002920856641139835,0.00231775245629251,-0.0049733929336071014,1.0012332201004028,0.0,0.0,0.0,11.097700119018555,0.500638484954834,4.246342658996582,-2008.7056884765625,0
1219.1550000000007,-0.0018742447718977928,-0.004235739819705486,0.0005114662926644087,0.0,0.0,0.0,0.0,5.8585334045346826e-05,-0.00019977705960627645,0.0012562721967697144,0.9985399842262268,0.0,0.0,0.0,11.134668350219727,0.5051628351211548,4.245238780975342,-2015.3970947265625,0
1229.075999999999,-0.0019055933225899935,-0.004243266303092241,0.0005250453250482678,0.0,0.0,0.0,0.0,0.0017031721072271466,0.001212135306559503,-0.0003306214639451355,0.997732937335968,0.0,0.0,0.0,11.123517036437988,0.5051344037055969,4.237271308898926,-2013.378662109375,0
1238.9779999999992,-0.0018914540996775031,-0.004287527874112129,0.0005491451593115926,0.0,0.0,0.0,0.0,0.0007836940931156278,-0.0013904322404414415,0.0022615198977291584,0.9979106783866882,0.0,0.0,0.0,11.143800735473633,0.4995984137058258,4.241327285766602,-2017.050048828125,0
1248.8989999999994,-0.0019250783370807767,-0.004297261126339436,0.0005600194563157856,0.0,0.0,0.0,0.0,-0.00014974123041611165,0.0027456986717879772,-0.0030288349371403456,0.9972810745239258,0.0,0.0,0.0,11.133062362670898,0.49675410985946655,4.232184410095215,-2015.1063232421875,0
1258.804,-0.001917172223329544,-0.004314999096095562,0.0005491297342814505,0.0,0.0,0.0,0.0,-0.004238336347043514,-0.0020263397600501776,0.002518222900107503,0.9990240931510925,0.0,0.0,0.0,11.167948722839355,0.4893384873867035,4.23253870010376,-2021.4208984375,0
1268.7219999999998,-0.0019548838026821613,-0.004326078575104475,0.0005539648118428886,0.0,0.0,0.0,0.0,-0.00150497502181679,0.00425806175917387,0.004111417103558779,0.9995558857917786,0.0,0.0,0.0,11.155807495117188,0.49237754940986633,4.221179485321045,-2019.2232666015625,0
1278.6299999999992,-0.0019119876669719815,-0.004215707071125507,0.0004927198751829565,0.0,0.0,0.0,0.0,-7.506207475671545e-05,-0.0026521505787968636,-0.000651210022624582,1.001214623451233,0.0,0.0,0.0,11.171995162963867,0.5070924162864685,4.22897481918335,-2022.1534423828125,0
1288.5470000000005,-0.0019524788949638605,-0.004224296193569899,0.0004913904122076929,0.0,0.0,0.0,0.0,-0.001013818196952343,0.0018695323960855603,0.0005219251615926623,1.000475287437439,0.0,0.0,0.0,11.16090202331543,0.49672845005989075,4.220278739929199,-2020.1455078125,0
1298.4529999999995,-0.0018918272107839584,-0.004203737713396549,0.00046775833470746875,0.0,0.0,0.0,0.0,0.0010450235567986965,0.0006610466516576707,-0.0025598141364753246,1.0004891157150269,0.0,0.0,0.0,11.171942710876465,0.5053801536560059,4.231229305267334,-2022.143798828125,0
1308.3670000000002,-0.0019327847985550761,-0.004216678440570831,0.0004661653656512499,0.0,0.0,0.0,0.0,-0.001047904253937304,-0.0005384645191952586,0.0011610197834670544,0.9982156753540039,0.0,0.0,0.0,11.161264419555664,0.5037472248077393,4.225929260253906,-2020.2110595703125,0
1318.277,-0.0018993857083842158,-0.004178578499704599,0.0004378316516522318,0.0,0.0,0.0,0.0,0.0019455966539680958,-0.00235591153614223,0.0004722540616057813,1.0007919073104858,0.0,0.0,0.0,11.170594215393066,0.5118176937103271,4.222903728485107,-2021.8997802734375,0
1328.2029999999995,-0.001942925387993455,-0.0041942656971514225,0.0004335228295531124,0.0,0.0,0.0,0.0,0.0011086130980402231,0.00031695986399427056,-0.00037998214247636497,0.9995054006576538,0.0,0.0,0.0,11.160274505615234,0.5095067620277405,4.225545406341553,-2020.031982421875,0
1338.1000000000004,-0.0019251629710197449,-0.004247784148901701,0.0004143191908951849,0.0,0.0,0.0,0.0,0.0012157992459833622,0.002266417257487774,-0.003712958190590143,0.9998001456260681,0.0,0.0,0.0,11.160006523132324,0.4879744052886963,4.2295403480529785,-2019.9833984375,0
1348.0139999999992,-0.0019696210511028767,-0.004267649259418249,0.00040863145841285586,0.0,0.0,0.0,0.0,0.0007347359205596149,0.0036787879653275013,-0.00031214082264341414,1.0021226406097412,0.0,0.0,0.0,11.14927864074707,0.48933348059654236,4.222592353820801,-2018.0416259765625,0
1357.923999999999,-0.002015105215832591,-0.00428947014734149,0.0004036856989841908,0.0,0.0,0.0,0.0,0.0018151507247239351,0.00045943254372105,0.0030479896813631058,0.9998576641082764,0.0,0.0,0.0,11.137505531311035,0.4804697632789612,4.209915637969971,-2015.91064453125,0
1367.842999999999,-0.002061736537143588,-0.004313538782298565,0.0004001207707915455,0.0,0.0,0.0,0.0,-0.004692059941589832,0.00239035626873374,0.0009817853569984436,0.9979295134544373,0.0,0.0,0.0,11.126795768737793,0.4822676181793213,4.209896087646484,-2013.9720458984375,0
1377.7430000000004,-0.0020151918288320303,-0.004176728427410126,0.0003770385810639709,0.0,0.0,0.0,0.0,0.0020640119910240173,0.0010853378335013986,-0.0017024921253323555,1.0000348091125488,0.0,0.0,0.0,11.141385078430176,0.5298540592193604,4.232635974884033,-2016.6129150390625,0
1387.6689999999999,-0.0020599570125341415,-0.0041918158531188965,0.00037265667924657464,0.0,0.0,0.0,0.0,-0.0007868246175348759,-0.002595219761133194,0.003452278207987547,0.9991790652275085,0.0,0.0,0.0,11.1295804977417,0.5318735837936401,4.225339889526367,-2014.4761962890625,0
1397.565999999999,-0.002105694729834795,-0.004205881617963314,0.00036775952321477234,0.0,0.0,0.0,0.0,0.0023924277629703283,-0.001180901424959302,0.00014859276416245848,0.9989571571350098,0.0,0.0,0.0,11.120016098022461,0.5342488884925842,4.213445663452148,-2012.7449951171875,0
1407.4899999999998,-0.0021527998615056276,-0.00422026589512825,0.0003624390810728073,0.0,0.0,0.0,0.0,0.001427301438525319,-0.0027630492113530636,0.0004035044985357672,1.002586841583252,0.0,0.0,0.0,11.109159469604492,0.532785177230835,4.2218852043151855,-2010.7799072265625,0
1417.3909999999996,-0.002201276831328869,-0.004236692097038031,0.0003572468413040042,0.0,0.0,0.0,0.0,-0.001712178927846253,-0.003179095219820738,-0.000911806127987802,1.0026130676269531,0.0,0.0,0.0,11.09848690032959,0.5299068689346313,4.222706317901611,-2008.8482666015625,0
1427.307999999999,-0.002250268356874585,-0.0042540221475064754,0.00035387882962822914,0.0,0.0,0.0,0.0,-0.001248824060894549,0.002436021575704217,-0.002896073507145047,0.999685525894165,0.0,0.0,0.0,11.087369918823242,0.5333131551742554,4.214457035064697,-2006.8359375,0
1437.214,-0.0022997998166829348,-0.004271256271749735,0.0003525344072841108,0.0,0.0,0.0,0.0,-0.0037312533240765333,-0.0016687833704054356,-0.001011870801448822,0.9972793459892273,0.0,0.0,0.0,11.076210975646973,0.5300647616386414,4.209967613220215,-2004.8162841796875,0
1447.1399999999994,-0.002351117553189397,-0.004289097152650356,0.0003508769441395998,0.0,0.0,0.0,0.0,0.0009119086316786706,-0.0003959530731663108,-0.003710682038217783,1.0008872747421265,0.0,0.0,0.0,11.065317153930664,0.5313724279403687,4.208575248718262,-2002.8443603515625,0
1457.039999999999,-0.0024055710528045893,-0.004308086354285479,0.00034775256062857807,0.0,0.0,0.0,0.0,0.0006556037697009742,-0.0029053674079477787,0.005341133568435907,1.0013391971588135,0.0,0.0,0.0,11.054253578186035,0.5240765810012817,4.206005573272705,-2000.8419189453125,0
1466.964,-0.002463394543156028,-0.004327746108174324,0.0003452716628089547,0.0,0.0,0.0,0.0,-7.502845983253792e-05,-0.0021200180053710938,-0.005189418792724609,0.9990929365158081,0.0,0.0,0.0,11.043628692626953,0.5281254649162292,4.200067043304443,-1998.918701171875,0
1476.860999999999,-0.0025229824241250753,-0.004347873851656914,0.00034380843862891197,0.0,0.0,0.0,0.0,-0.0017872535390779376,-0.0027888529002666473,-0.0009621959761716425,1.001756191253662,0.0,0.0,0.0,11.03310775756836,0.5232757329940796,4.20161247253418,-1997.0145263671875,0
1486.789999999999,-0.0025837102439254522,-0.004367972258478403,0.0003425771719776094,0.0,0.0,0.0,0.0,-0.001868533086962998,-8.522786083631217e-05,0.0024429813493043184,1.00263512134552,0.0,0.0,0.0,11.021504402160645,0.5316874980926514,4.206218719482422,-1994.914306640625,0
1496.6859999999997,-0.0024645410012453794,-0.003985220566391945,0.00042661555926315486,0.0,0.0,0.0,0.0,0.0034312396310269833,-0.0028392102103680372,-0.0025310232304036617,1.0025354623794556,0.0,0.0,0.0,11.040958404541016,0.6240943074226379,4.279553413391113,-1998.4354248046875,0
1506.601999999999,-0.0025177416391670704,-0.003979302477091551,0.0004346566565800458,0.0,0.0,0.0,0.0,-0.0014230619417503476,0.00011724189971573651,-0.0019573792815208435,1.002066731452942,0.0,0.0,0.0,11.029892921447754,0.6263052225112915,4.275412082672119,-1996.4326171875,0
1516.5120000000006,-0.0025719525292515755,-0.0039733597077429295,0.00044490271829999983,0.0,0.0,0.0,0.0,-0.0035734684206545353,0.0007240633713081479,-0.0006884207832626998,1.000113844871521,0.0,0.0,0.0,11.01904296875,0.626123309135437,4.270400524139404,-1994.4686279296875,0
1526.4359999999997,-0.00262619205750525,-0.003968270495533943,0.00045696270535700023,0.0,0.0,0.0,0.0,6.113223207648844e-05,0.0030463659204542637,0.003692107740789652,0.998762845993042,0.0,0.0,0.0,11.008759498596191,0.6274797916412354,4.262605667114258,-1992.6072998046875,0
1536.3330000000005,-0.002680037636309862,-0.00396460248157382,0.0004694339877460152,0.0,0.0,0.0,0.0,-0.00012181594502180815,0.0018428389448672533,-0.003819010453298688,0.9983697533607483,0.0,0.0,0.0,10.99808406829834,0.6274451017379761,4.251798152923584,-1990.6751708984375,0
1546.2510000000002,-0.0027341756504029036,-0.003963159862905741,0.00048102656728588045,0.0,0.0,0.0,0.0,0.0026847105473279953,-0.00236454326659441,0.0024303512182086706,1.0004292726516724,0.0,0.0,0.0,10.986756324768066,0.622702419757843,4.240564346313477,-1988.624755859375,0
1556.155999999999,-0.0027891804929822683,-0.003963894676417112,0.0004920541541650891,0.0,0.0,0.0,0.0,-0.003106753109022975,-0.00661756144836545,-0.0012195842573419213,1.0005155801773071,0.0,0.0,0.0,10.976028442382812,0.6236738562583923,4.235767841339111,-1986.68310546875,0
1566.08,-0.0028447373770177364,-0.003965336363762617,0.0005033648922108114,0.0,0.0,0.0,0.0,0.0015453408705070615,0.0007171372417360544,-0.00014236634888220578,1.0010170936584473,0.0,0.0,0.0,10.964006423950195,0.6209173202514648,4.230107307434082,-1984.507080078125,0
1575.9789999999994,-0.0029009354766458273,-0.003967194817960262,0.0005152668454684317,0.0,0.0,0.0,0.0,-0.00046978183672763407,0.0004206473531667143,-0.0043669212609529495,0.9997875690460205,0.0,0.0,0.0,10.952556610107422,0.6183375120162964,4.234799861907959,-1982.4344482421875,0
1585.9030000000002,-0.0029587573371827602,-0.00397037249058485,0.0005277797463349998,0.0,0.0,0.0,0.0,0.0007078205817379057,-0.0005779959610663354,0.006775293964892626,0.999983549118042,0.0,0.0,0.0,10.940591812133789,0.6194099187850952,4.2262396812438965,-1980.268798828125,0
1595.8070000000007,-0.0020495650824159384,-0.004571404308080673,0.0007659438415430486,0.0,0.0,0.0,0.0,-0.0010769674554467201,-0.00258651259355247,-0.0036244848743081093,0.9974439144134521,0.0,0.0,0.0,10.958036422729492,0.4766427278518677,4.379071235656738,-1983.4263916015625,0
1605.7250000000004,-0.0020661570597440004,-0.004603996407240629,0.0007839808822609484,0.0,0.0,0.0,0.0,0.001962637295946479,-0.0019077638862654567,-0.0015623098006471992,0.9986793398857117,0.0,0.0,0.0,10.94799518585205,0.48179811239242554,4.380455493927002,-1981.6090087890625,0
1615.6299999999992,-0.0020699985325336456,-0.004631886724382639,0.0008235445711761713,0.0,0.0,0.0,0.0,-0.0006823958246968687,0.002356223063543439,-0.001664901152253151,1.0004535913467407,0.0,0.0,0.0,10.957870483398438,0.4786825478076935,4.379133701324463,-1983.3963623046875,0
1625.548999999999,-0.002085718559101224,-0.004664972424507141,0.000839672633446753,0.0,0.0,0.0,0.0,-0.0005223795305937529,-0.003377037588506937,0.0013299275888130069,0.9986885786056519,0.0,0.0,0.0,10.94601058959961,0.47796085476875305,4.3779191970825195,-1981.24951171875,0
1635.4519999999993,-0.002101619029417634,-0.0046978481113910675,0.0008555541862733662,0.0,0.0,0.0,0.0,-0.0010084809036925435,0.0018211478600278497,-0.0002922292042057961,1.0004767179489136,0.0,0.0,0.0,10.935079574584961,0.47638145089149475,4.372605800628662,-1979.2711181640625,0
1645.3709999999992,-0.002118428936228156,-0.004730395972728729,0.0008710624533705413,0.0,0.0,0.0,0.0,0.003414238803088665,0.0006396853714250028,-0.0022504350636154413,1.0013400316238403,0.0,0.0,0.0,10.924098014831543,0.46955230832099915,4.369072914123535,-1977.283447265625,0
1655.2739999999994,-0.0021349384915083647,-0.004755652509629726,0.0009021533187478781,0.0,0.0,0.0,0.0,-0.0032227414194494486,0.001590278698131442,0.0019614752382040024,0.9998801946640015,0.0,0.0,0.0,10.941762924194336,0.46941885352134705,4.350599765777588,-1980.4808349609375,0
1665.199999999999,-0.002152565401047468,-0.004788523074239492,0.0009198638726957142,0.0,0.0,0.0,0.0,-0.0012481247540563345,-0.0016713723307475448,0.003491036593914032,0.9998961687088013,0.0,0.0,0.0,10.930580139160156,0.4682145416736603,4.346459865570068,-1978.456787109375,0
1675.0990000000002,-0.002170003019273281,-0.004792015999555588,0.0009787449380382895,0.0,0.0,0.0,0.0,-0.0004979611258022487,-0.004711683373898268,-0.0026946074794977903,1.0013419389724731,0.0,0.0,0.0,10.949480056762695,0.47877100110054016,4.3448710441589355,-1981.877685546875,0
1685.0239999999994,-0.0021872464567422867,-0.004825413692742586,0.001000227639451623,0.0,0.0,0.0,0.0,-0.0007674208609387279,0.0033127504866570234,-0.0005819266079925001,0.9999104738235474,0.0,0.0,0.0,10.938916206359863,0.4832846224308014,4.341593265533447,-1979.9656982421875,0
1694.9230000000007,-0.0021945983171463013,-0.0048524984158575535,0.0010389987146481872,0.0,0.0,0.0,0.0,0.0008357330807484686,-0.004733683541417122,0.0027462171856313944,1.0006760358810425,0.0,0.0,0.0,10.954708099365234,0.4815848171710968,4.3438262939453125,-1982.823974609375,0
1704.848,-0.002213139785453677,-0.004887303803116083,0.0010634360369294882,0.0,0.0,0.0,0.0,-0.0013090382562950253,-0.0004790689854416996,0.0019582093227654696,0.999411940574646,0.0,0.0,0.0,10.943740844726562,0.4794309139251709,4.326688289642334,-1980.8388671875,0
1714.7459999999992,-0.002221720525994897,-0.004915420897305012,0.0011014759074896574,0.0,0.0,0.0,0.0,0.0009703239193186164,0.0024246452376246452,-0.00031329135526902974,0.9985191226005554,0.0,0.0,0.0,10.959724426269531,0.48141488432884216,4.343738555908203,-1983.73193359375,0
1724.6669999999995,-0.0022418771404772997,-0.004949038848280907,0.0011271013645455241,0.0,0.0,0.0,0.0,-0.0007649050676263869,0.0016365799820050597,0.004182763863354921,1.0013822317123413,0.0,0.0,0.0,10.950434684753418,0.4815143048763275,4.337118625640869,-1982.050537109375,0
1734.571,-0.00226298114284873,-0.004982422571629286,0.0011521189007908106,0.0,0.0,0.0,0.0,0.00041622985736466944,-0.0005204133922234178,0.0019895504228770733,0.9992489218711853,0.0,0.0,0.0,10.940003395080566,0.48495161533355713,4.3350419998168945,-1980.162353515625,0
1744.4830000000002,-0.0022851473186165094,-0.005016177427023649,0.0011776459868997335,0.0,0.0,0.0,0.0,-0.0008574716048315167,0.0022365390323102474,-0.00029581179842352867,0.9992954730987549,0.0,0.0,0.0,10.928807258605957,0.4786219000816345,4.334295749664307,-1978.1358642578125,0
1754.393,-0.0023085426073521376,-0.005050471052527428,0.0012032883241772652,0.0,0.0,0.0,0.0,0.003485775785520673,-0.0017510208999738097,0.0014475135831162333,1.0005781650543213,0.0,0.0,0.0,10.918825149536133,0.478428453207016,4.3291730880737305,-1976.3289794921875,0
1764.3189999999995,-0.002332237781956792,-0.005084991455078125,0.0012282333336770535,0.0,0.0,0.0,0.0,0.0010600828099995852,-0.0012441646540537477,0.00224503455683589,0.9989586472511292,0.0,0.0,0.0,10.907160758972168,0.47664493322372437,4.324150562286377,-1974.2178955078125,0
1774.2189999999991,-0.002291396027430892,-0.00510227819904685,0.0012674112804234028,0.0,0.0,0.0,0.0,0.0021838867105543613,-0.003110854420810938,0.00283765303902328,1.0008485317230225,0.0,0.0,0.0,10.915384292602539,0.46903300285339355,4.346345901489258,-1975.706298828125,0
1784.1299999999992,-0.002309910487383604,-0.005137874279171228,0.0012948043877258897,0.0,0.0,0.0,0.0,-0.00043949432438239455,-0.0016704753506928682,-0.0007936247857287526,1.0012164115905762,0.0,0.0,0.0,10.905200004577637,0.46494677662849426,4.345040798187256,-1973.86279296875,0
1794.039999999999,-0.002318411832675338,-0.005108563229441643,0.001375136780552566,0.0,0.0,0.0,0.0,0.001216704142279923,-0.0017279175808653235,0.0011224824702367187,1.0005635023117065,0.0,0.0,0.0,10.922097206115723,0.4858078956604004,4.346080303192139,-1976.92138671875,0
1803.9529999999995,-0.0019117144402116537,-0.004222901072353125,0.00037353805964812636,0.0,0.0,0.0,0.0,-0.0011114696972072124,0.00010071065480588004,-0.0003063999756705016,0.9997290372848511,0.0,0.0,0.0,10.967138290405273,0.6075102090835571,4.441220283508301,-1985.0738525390625,0
1813.8639999999996,-0.001935487729497254,-0.004211861174553633,0.00038210817729122937,0.0,0.0,0.0,0.0,0.0041521270759403706,-0.002922903513535857,0.0010900541674345732,1.0003442764282227,0.0,0.0,0.0,10.968106269836426,0.6104350686073303,4.43481969833374,-1985.2490234375,0
1823.7759999999998,-0.0019488774705678225,-0.0041971816681325436,0.00047501965309493244,0.0,0.0,0.0,0.0,0.0022057844325900078,0.00044458144111558795,-0.0016532804584130645,1.0006529092788696,0.0,0.0,0.0,10.997101783752441,0.6109508275985718,4.428893089294434,-1990.4974365234375,0
1833.688,-0.0019262402784079313,-0.004209867678582668,0.00048056436935439706,0.0,0.0,0.0,0.0,-0.002507222816348076,-0.0029856357723474503,-0.000929011614061892,1.0003560781478882,0.0,0.0,0.0,11.001150131225586,0.6006544828414917,4.4246602058410645,-1991.22998046875,0
1843.6000000000004,-0.0018882938893511891,-0.004108064342290163,0.0004996014758944511,0.0,0.0,0.0,0.0,-0.003833616618067026,1.913938467623666e-05,-2.4112318897095975e-07,1.000911831855774,0.0,0.0,0.0,11.02993392944336,0.621117889881134,4.445067405700684,-1996.4400634765625,0
1853.5120000000006,-0.0019241947447881103,-0.004131047986447811,0.00046761403791606426,0.0,0.0,0.0,0.0,-0.0032390218693763018,-0.002721173455938697,0.0005759056657552719,1.0002989768981934,0.0,0.0,0.0,11.030951499938965,0.6150884628295898,4.43776273727417,-1996.6241455078125,0
1863.4249999999993,-0.0019491511629894376,-0.004113520495593548,0.00053679064149037,0.0,0.0,0.0,0.0,0.00019325476023368537,0.0028127175755798817,-0.0012740141246467829,1.000585675239563,0.0,0.0,0.0,11.054061889648438,0.6187813878059387,4.43516731262207,-2000.80712890625,0
1873.3349999999991,-0.0018857608083635569,-0.004188240505754948,0.0005267112865112722,0.0,0.0,0.0,0.0,-0.0005598274292424321,0.004301084671169519,0.003461686661466956,0.9996142983436584,0.0,0.0,0.0,11.057291984558105,0.6124740242958069,4.436040878295898,-2001.3917236328125,0
1883.2489999999998,-0.0018711448647081852,-0.004106828942894936,0.0005591217777691782,0.0,0.0,0.0,0.0,-0.0002524461015127599,0.0008078464306890965,-0.0014757285825908184,0.9992977380752563,0.0,0.0,0.0,11.082599639892578,0.6197367310523987,4.433727264404297,-2005.9725341796875,0
1893.1589999999997,-0.0018548669759184122,-0.004167106468230486,0.0005357888294383883,0.0,0.0,0.0,0.0,0.0007108170539140701,-0.0005424570990726352,0.0005206336500123143,0.9991816878318787,0.0,0.0,0.0,11.08403205871582,0.6086298823356628,4.4253315925598145,-2006.2318115234375,0
1903.0720000000001,-0.001871316460892558,-0.004161661025136709,0.0005502802086994052,0.0,0.0,0.0,0.0,0.003911027684807777,0.0009748185984790325,0.0011305884690955281,0.9985147714614868,0.0,0.0,0.0,11.07298469543457,0.6103876829147339,4.4166717529296875,-2004.232177734375,0
1912.982,-0.001876074937172234,-0.004220619797706604,0.0005082030547782779,0.0,0.0,0.0,0.0,-0.0025398016441613436,0.00011278197052888572,0.004067542031407356,1.0002015829086304,0.0,0.0,0.0,11.081131935119629,0.5933755040168762,4.408080577850342,-2005.70703125,0
1922.896999999999,-0.001891224179416895,-0.004188925959169865,0.0005635269917547703,0.0,0.0,0.0,0.0,-0.00013818216393701732,-0.00022396183339878917,-0.0016509182751178741,1.0021390914916992,0.0,0.0,0.0,11.092795372009277,0.5926876068115234,4.401060104370117,-2007.818115234375,0
1932.8089999999993,-0.0018722768872976303,-0.004238871857523918,0.0005415984778665006,0.0,0.0,0.0,0.0,-0.0006104568601585925,-0.003260549157857895,0.0023789326660335064,0.9991739392280579,0.0,0.0,0.0,11.099319458007812,0.5888370275497437,4.39542293548584,-2008.9990234375,0
1942.7199999999993,-0.0018893687520176172,-0.004240173846483231,0.0005511993076652288,0.0,0.0,0.0,0.0,0.0011747623793780804,-0.006267089396715164,0.007496942300349474,1.000064492225647,0.0,0.0,0.0,11.088214874267578,0.5880492925643921,4.394091606140137,-2006.9888916015625,0
1952.6299999999992,-0.0018614231375977397,-0.004272922873497009,0.0005417302600108087,0.0,0.0,0.0,0.0,-0.0019250154728069901,-0.000693132053129375,3.757443846552633e-05,1.0006120204925537,0.0,0.0,0.0,11.097990989685059,0.581041693687439,4.395192623138428,-2008.7584228515625,0
1962.5419999999995,-0.001861844677478075,-0.004222705494612455,0.0006012074882164598,0.0,0.0,0.0,0.0,0.0013553713215515018,0.0006316477083601058,0.0006098058656789362,1.001444935798645,0.0,0.0,0.0,11.126420021057129,0.5890695452690125,4.4048662185668945,-2013.9041748046875,0
1972.4539999999997,-0.0018603529315441847,-0.004265939816832542,0.000575154204852879,0.0,0.0,0.0,0.0,0.0014182969462126493,0.003129811491817236,0.0011531931813806295,0.9993765354156494,0.0,0.0,0.0,11.127673149108887,0.5780304670333862,4.396755218505859,-2014.1309814453125,0
1982.369999999999,-0.001880585215985775,-0.004267244599759579,0.0005864675622433424,0.0,0.0,0.0,0.0,-0.001969173550605774,-0.0019370552618056536,0.0012724660336971283,0.9991011023521423,0.0,0.0,0.0,11.11633586883545,0.5705338716506958,4.3855977058410645,-2012.078857421875,0
1992.2780000000002,-0.001921394607052207,-0.00431255204603076,0.0005396156338974833,0.0,0.0,0.0,0.0,0.0012865958269685507,0.002326199784874916,0.002732593100517988,1.0000568628311157,0.0,0.0,0.0,11.119648933410645,0.5581958889961243,4.372313499450684,-2012.6785888671875,0
2002.199999999999,-0.0019112012814730406,-0.004251977428793907,0.0005553406663239002,0.0,0.0,0.0,0.0,-0.00020250334637239575,0.003646506927907467,-8.351271389983594e-06,1.00017249584198,0.0,0.0,0.0,11.134921073913574,0.5793785452842712,4.383368015289307,-2015.44287109375,0
2012.1010000000006,-0.0019169219303876162,-0.004292715806514025,0.0005277682212181389,0.0,0.0,0.0,0.0,-0.00011518758401507512,-0.004789734724909067,0.0031135024037212133,0.9991446733474731,0.0,0.0,0.0,11.13756275177002,0.5614027976989746,4.3835978507995605,-2015.9208984375,0
2022.0210000000006,-0.0019415270071476698,-0.004297075793147087,0.0005316911265254021,0.0,0.0,0.0,0.0,-0.0020915442146360874,-0.00025470677064731717,-0.003391507314518094,0.9999437928199768,0.0,0.0,0.0,11.127362251281738,0.5640628933906555,4.376353740692139,-2014.0745849609375,0
2031.9259999999995,-0.0019528651610016823,-0.004308671224862337,0.0005296789458952844,0.0,0.0,0.0,0.0,0.0009047151543200016,0.0018490562215447426,0.0031110283453017473,0.9991402626037598,0.0,0.0,0.0,11.131972312927246,0.5660082697868347,4.376906394958496,-2014.9090576171875,0
2041.8449999999993,-0.001976650906726718,-0.0043137334287166595,0.0005322682554833591,0.0,0.0,0.0,0.0,0.0012876545079052448,0.0013489016564562917,-0.00036108255153521895,0.997628927230835,0.0,0.0,0.0,11.119529724121094,0.5599596500396729,4.37443733215332,-2012.656982421875,0
2051.749,-0.0019496101886034012,-0.004338984377682209,0.0005219838349148631,0.0,0.0,0.0,0.0,-0.00026845233514904976,0.002789256861433387,-0.0012324927374720573,0.9983863830566406,0.0,0.0,0.0,11.124404907226562,0.5482245683670044,4.373399257659912,-2013.5394287109375,0
2061.673999999999,-0.0018932943930849433,-0.004220281261950731,0.0004559476801659912,0.0,0.0,0.0,0.0,0.0035923821851611137,6.48192799417302e-05,0.0039198510348796844,0.9991506934165955,0.0,0.0,0.0,11.133218765258789,0.576123058795929,4.386740684509277,-2015.1346435546875,0
2071.5730000000003,-0.0018745490815490484,-0.0042455364018678665,0.00043863931205123663,0.0,0.0,0.0,0.0,-0.002103583887219429,-0.00045624052290804684,0.0018460748251527548,0.9974430799484253,0.0,0.0,0.0,11.123291969299316,0.5726866126060486,4.3776116371154785,-2013.337890625,0
2081.4969999999994,-0.0018549676751717925,-0.0041701411828398705,0.00042894386569969356,0.0,0.0,0.0,0.0,-0.0008334487210959196,-2.807555119943572e-06,0.002696387469768524,0.9995731711387634,0.0,0.0,0.0,11.137824058532715,0.5915736556053162,4.38029670715332,-2015.9681396484375,0
2091.3960000000006,-0.0018583592027425766,-0.0041976505890488625,0.00039746647235006094,0.0,0.0,0.0,0.0,0.0015496775740757585,-0.0002024285204242915,-0.0013832810800522566,1.0021077394485474,0.0,0.0,0.0,11.134312629699707,0.5872535109519958,4.369793891906738,-2015.332763671875,0
2101.3179999999993,-0.0018596412846818566,-0.00414512911811471,0.0004105975094716996,0.0,0.0,0.0,0.0,0.00015821591659914702,-0.0007706742035225034,-0.0030147526413202286,1.0016911029815674,0.0,0.0,0.0,11.14676284790039,0.5933015942573547,4.370569705963135,-2017.58642578125,0
2111.2199999999993,-0.00187508889939636,-0.004165230318903923,0.00038210980710573494,0.0,0.0,0.0,0.0,0.00023466427228413522,0.0014877798967063427,0.0024048076011240482,0.9991074204444885,0.0,0.0,0.0,11.146618843078613,0.5867973566055298,4.358510494232178,-2017.560302734375,0
2121.143,-0.001951331621967256,-0.00419163191691041,0.0004943055682815611,0.0,0.0,0.0,0.0,0.0007839243626222014,-0.0031197129283100367,-0.00016971875447779894,1.0001097917556763,0.0,0.0,0.0,11.155672073364258,0.5784965753555298,4.344922065734863,-2019.198974609375,0
2131.0429999999997,-0.0019805021584033966,-0.004218483809381723,0.00047238392289727926,0.0,0.0,0.0,0.0,-0.0029975157231092453,-7.381913746939972e-05,0.0005091919447295368,1.0017361640930176,0.0,0.0,0.0,11.146113395690918,0.5791317820549011,4.3497633934021,-2017.4688720703125,0
2140.964,-0.002000584499910474,-0.004179407376796007,0.000510279496666044,0.0,0.0,0.0,0.0,-0.0010542257223278284,0.0007111919694580138,0.0010560279479250312,1.0027607679367065,0.0,0.0,0.0,11.160396575927734,0.582939863204956,4.351407527923584,-2020.0540771484375,0
