timestamp,stateEstimate.x,stateEstimate.y,stateEstimate.z,controller.cmd_thrust,controller.cmd_roll,controller.cmd_pitch,controller.cmd_yaw,controller.r_roll,controller.r_pitch,controller.r_yaw,controller.accelz,controller.actuatorThrust,controller.roll,controller.pitch,controller.yaw,controller.rollRate,controller.pitchRate,controller.yawRate,controller.ctr_yaw
0.0,-0.004550304263830185,0.0007011221605353057,-0.0011005348060280085,0.0,0.0,0.0,0.0,0.0012244664831086993,0.0015563801862299442,0.0006352663622237742,1.0014958381652832,0.0,0.0,0.0,-21.705583572387695,-1.8450204133987427,2.9053399562835693,3928.753662109375,0
9.907999999999447,-0.004555723629891872,0.0007215369259938598,-0.0011115508386865258,0.0,0.0,0.0,0.0,-0.0007463327492587268,-0.0017281168838962913,0.00019767908088397235,1.0007898807525635,0.0,0.0,0.0,-21.683881759643555,-1.8475719690322876,2.8935658931732178,3924.825927734375,0
19.824000000000524,-0.0045625148341059685,0.0007428804528899491,-0.0011216448619961739,0.0,0.0,0.0,0.0,0.0017349023837596178,-0.007516910322010517,0.001023059943690896,1.0000317096710205,0.0,0.0,0.0,-21.662090301513672,-1.8452953100204468,2.9006192684173584,3920.881591796875,0
29.726999999998952,-0.004570192191749811,0.0007649902836419642,-0.0011307992972433567,0.0,0.0,0.0,0.0,0.00040348374750465155,0.0038934561889618635,0.0012509794905781746,0.9990611672401428,0.0,0.0,0.0,-21.640932083129883,-1.8414133787155151,2.8966169357299805,3917.052001953125,0
39.63799999999901,-0.004577898886054754,0.0007874200236983597,-0.0011398852802813053,0.0,0.0,0.0,0.0,0.0005936342640779912,-0.0027543073520064354,0.0014458901714533567,0.997154951095581,0.0,0.0,0.0,-21.619585037231445,-1.8420928716659546,2.8950719833374023,3913.18798828125,0
49.548000000000684,-0.004585576243698597,0.000810814555734396,-0.0011502604465931654,0.0,0.0,0.0,0.0,-0.0018249612767249346,-0.0029236997943371534,0.0003451345837675035,1.0011591911315918,0.0,0.0,0.0,-21.597192764282227,-1.8410584926605225,2.8888750076293945,3909.135009765625,0
59.47199999999975,-0.004593213554471731,0.0008359390194527805,-0.0011618840508162975,0.0,0.0,0.0,0.0,0.0025610788725316525,-0.0007160085951909423,-0.0007516019395552576,0.9990758895874023,0.0,0.0,0.0,-21.575658798217773,-1.8398933410644531,2.8857431411743164,3905.2373046875,0
69.37299999999959,-0.004601197317242622,0.000861728040035814,-0.0011738180182874203,0.0,0.0,0.0,0.0,0.0009784636786207557,-0.0006525240023620427,0.0010013668797910213,1.0004267692565918,0.0,0.0,0.0,-21.554399490356445,-1.8294647932052612,2.883674383163452,3901.389404296875,0
79.28600000000006,-0.00460986141115427,0.0008872902835719287,-0.0011858523357659578,0.0,0.0,0.0,0.0,-0.006089404691010714,0.0037980363704264164,-0.0022117155604064465,1.0009839534759521,0.0,0.0,0.0,-21.533048629760742,-1.8309110403060913,2.8819570541381836,3897.5244140625,0
89.20299999999952,-0.004618617240339518,0.0009129679528996348,-0.0011978629045188427,0.0,0.0,0.0,0.0,-0.0009012356167659163,-0.004910442046821117,0.0022890917025506496,1.0000253915786743,0.0,0.0,0.0,-21.5109806060791,-1.8260434865951538,2.8744425773620605,3893.530517578125,0
99.11700000000019,-0.004626556299626827,0.0009396489476785064,-0.0012096150312572718,0.0,0.0,0.0,0.0,0.0001800757017917931,-0.0011367740808054805,-0.0013473870931193233,1.0028612613677979,0.0,0.0,0.0,-21.49151611328125,-1.820622205734253,2.869471549987793,3890.00732421875,0
109.02599999999984,-0.004633392207324505,0.0009675518958829343,-0.0012205688981339335,0.0,0.0,0.0,0.0,-0.000289432326098904,0.002746601589024067,-0.0033247238025069237,1.0015456676483154,0.0,0.0,0.0,-21.46769905090332,-1.8206297159194946,2.8705544471740723,3885.696044921875,0
118.93000000000029,-0.004640389233827591,0.0009969656821340322,-0.0012294494081288576,0.0,0.0,0.0,0.0,0.0006325857830233872,-0.003562166588380933,0.00022621647804044187,1.0001308917999268,0.0,0.0,0.0,-21.447429656982422,-1.817601203918457,2.8631279468536377,3882.02734375,0
128.84499999999935,-0.004648176487535238,0.001028111088089645,-0.0012369189644232392,0.0,0.0,0.0,0.0,-0.000247974501689896,-0.0030697518959641457,0.0010961706284433603,1.0025733709335327,0.0,0.0,0.0,-21.4257869720459,-1.8136208057403564,2.8528246879577637,3878.110107421875,0
138.7479999999996,-0.004655728116631508,0.001059495727531612,-0.0012438666308298707,0.0,0.0,0.0,0.0,-0.000614951248280704,0.00460822694003582,-0.0006037961575202644,0.9997557401657104,0.0,0.0,0.0,-21.403831481933594,-1.8130829334259033,2.858515977859497,3874.135986328125,0
148.67300000000068,-0.004661981016397476,0.0010902489302679896,-0.0012494457187131047,0.0,0.0,0.0,0.0,-0.0023037621285766363,-0.002302541397511959,-0.004503308329731226,0.99919193983078,0.0,0.0,0.0,-21.381816864013672,-1.8115344047546387,2.850949764251709,3870.151611328125,0
158.5749999999989,-0.004666662774980068,0.0011209783842787147,-0.0012544267810881138,0.0,0.0,0.0,0.0,-0.0005170059157535434,0.0001845576480263844,0.0018811880145221949,1.0003355741500854,0.0,0.0,0.0,-21.361083984375,-1.8085427284240723,2.847355842590332,3866.3984375,0
168.4940000000006,-0.004670277703553438,0.0011516774538904428,-0.0012599043548107147,0.0,0.0,0.0,0.0,-0.0010156945791095495,0.0012201190693303943,0.0003440809668973088,0.9989346861839294,0.0,0.0,0.0,-21.34061050415039,-1.8091752529144287,2.8524506092071533,3862.693115234375,0
178.39600000000064,-0.00467345118522644,0.0011829497525468469,-0.0012653686571866274,0.0,0.0,0.0,0.0,-0.0012957473518326879,-0.0017538606189191341,0.0017465134151279926,0.9987322092056274,0.0,0.0,0.0,-21.31852912902832,-1.801569938659668,2.8510513305664062,3858.696044921875,0
188.3140000000003,-0.004676467273384333,0.0012163541978225112,-0.001271246001124382,0.0,0.0,0.0,0.0,0.0017738156020641327,-0.001815281924791634,0.005917191971093416,0.9981386065483093,0.0,0.0,0.0,-21.297096252441406,-1.8039765357971191,2.8553261756896973,3854.816650390625,0
198.21799999999894,-0.004679943900555372,0.001250531291589141,-0.001278612995520234,0.0,0.0,0.0,0.0,0.0011998977279290557,-0.0040702675469219685,0.00240855454467237,0.9996431469917297,0.0,0.0,0.0,-21.274829864501953,-1.7999176979064941,2.8612473011016846,3850.786376953125,0
208.14400000000023,-0.004684911109507084,0.0012845929013565183,-0.001287427730858326,0.0,0.0,0.0,0.0,-0.0016898640897125006,0.0010263473959639668,-0.0011638361029326916,1.0019903182983398,0.0,0.0,0.0,-21.253841400146484,-1.8026936054229736,2.8643131256103516,3846.9873046875,0
218.04099999999926,-0.004691575188189745,0.0013210125034675002,-0.001296167727559805,0.0,0.0,0.0,0.0,0.0021950334776192904,0.005048419814556837,-0.0013107705162838101,1.0002719163894653,0.0,0.0,0.0,-21.233068466186523,-1.7941964864730835,2.8609237670898438,3843.227783203125,0
227.95899999999892,-0.004699614364653826,0.0013603093102574348,-0.0013036802411079407,0.0,0.0,0.0,0.0,-0.001534207840450108,-0.0017466037534177303,-0.0031773776281625032,1.0017355680465698,0.0,0.0,0.0,-21.212472915649414,-1.7942897081375122,2.850925922393799,3839.5,0
237.86399999999958,-0.00470868032425642,0.0014009461738169193,-0.0013102568918839097,0.0,0.0,0.0,0.0,-0.0010591050377115607,-0.00403898861259222,-0.0005871045286767185,1.0005431175231934,0.0,0.0,0.0,-21.190425872802734,-1.7957658767700195,2.8537137508392334,3835.509521484375,0
247.79500000000007,-0.004469886422157288,0.00046885080519132316,-0.0008139408309943974,0.0,0.0,0.0,0.0,-0.0007942242664285004,-0.006106260698288679,-0.0006324790883809328,1.0003423690795898,0.0,0.0,0.0,-21.349117279052734,-1.8414902687072754,2.933537244796753,3864.23291015625,0
257.6880000000001,-0.0044674924574792385,0.00048701869673095644,-0.0008166452753357589,0.0,0.0,0.0,0.0,0.0032684423495084047,0.0037392342928797007,0.0010739740682765841,0.9995845556259155,0.0,0.0,0.0,-21.32921600341797,-1.8420931100845337,2.931608200073242,3860.630615234375,0
267.6100000000006,-0.004572414327412844,0.0001624111318960786,-0.0003899606235790998,0.0,0.0,0.0,0.0,-0.001864429796114564,0.0009705646079964936,0.004707004874944687,1.0006194114685059,0.0,0.0,0.0,-21.46411895751953,-1.8596160411834717,2.9434335231781006,3885.048095703125,0
277.5149999999994,-0.0045729936100542545,0.0001738046994432807,-0.00038846637471579015,0.0,0.0,0.0,0.0,0.0010323000606149435,0.0022409448865801096,0.004123150371015072,1.0023821592330933,0.0,0.0,0.0,-21.442663192749023,-1.8583037853240967,2.9334757328033447,3881.164794921875,0
287.4339999999993,-0.004715920891612768,-5.439452252176125e-06,-1.723963396216277e-05,0.0,0.0,0.0,0.0,0.002886230358853936,0.0013614156050607562,-0.0012383594876155257,1.0003910064697266,0.0,0.0,0.0,-21.56975746154785,-1.8591972589492798,2.9173381328582764,3904.1689453125,0
297.3349999999991,-0.004719872958958149,5.187729584577028e-06,-9.491961463936605e-06,0.0,0.0,0.0,0.0,-0.0013586580753326416,-0.001591375912539661,-0.0006034672260284424,0.9992846846580505,0.0,0.0,0.0,-21.547134399414062,-1.861167550086975,2.910512685775757,3900.07421875,0
307.2610000000004,-0.00466271722689271,9.828999463934451e-05,-0.00022480417101178318,0.0,0.0,0.0,0.0,-0.000842057284899056,0.0011889318702742457,-0.003189361421391368,0.9987231492996216,0.0,0.0,0.0,-21.638948440551758,-1.8556803464889526,2.927891254425049,3916.692626953125,0
317.15799999999945,-0.004664438311010599,0.00011172279482707381,-0.0002207328361691907,0.0,0.0,0.0,0.0,-0.001497154007665813,6.725627463310957e-05,0.0012258184142410755,0.9993420839309692,0.0,0.0,0.0,-21.617441177368164,-1.857503890991211,2.926677942276001,3912.799560546875,0
327.08100000000013,-0.004621102008968592,0.0002330178685951978,-0.0003828197659458965,0.0,0.0,0.0,0.0,0.0005648027290590107,-0.00020623195450752974,0.0017549411859363317,0.9982642531394958,0.0,0.0,0.0,-21.705373764038086,-1.8426315784454346,2.921452760696411,3928.7158203125,0
336.9840000000004,-0.004622080363333225,0.0002544861054047942,-0.0003820105630438775,0.0,0.0,0.0,0.0,-0.00011767898104153574,0.0030098052229732275,0.0028637663926929235,1.0000996589660645,0.0,0.0,0.0,-21.684709548950195,-1.8427571058273315,2.918656826019287,3924.9755859375,0
346.90599999999904,-0.004714476875960827,0.00010967538401018828,-9.334333299193531e-05,0.0,0.0,0.0,0.0,-0.00044881622307002544,0.0010628363816067576,-0.0029119164682924747,0.9990718364715576,0.0,0.0,0.0,-21.776020050048828,-1.8448426723480225,2.909787893295288,3941.5029296875,0
356.8109999999997,-0.004716602619737387,0.00013105293328408152,-9.172917634714395e-05,0.0,0.0,0.0,0.0,0.0008394186734221876,0.0007886183448135853,0.0022983714006841183,0.9979310035705566,0.0,0.0,0.0,-21.753156661987305,-1.8430455923080444,2.9043354988098145,3937.36474609375,0
366.72899999999936,-0.004654532298445702,0.0002661837206687778,-0.00029799967887811363,0.0,0.0,0.0,0.0,0.002372985938563943,0.0026630323845893145,0.0017909768503159285,0.9985241889953613,0.0,0.0,0.0,-21.826444625854492,-1.8340802192687988,2.905355930328369,3950.6298828125,0
376.6280000000006,-0.004720284603536129,0.00016441244224552065,-7.140234083635733e-05,0.0,0.0,0.0,0.0,-0.0004227495810482651,0.0013448577374219894,0.005544734187424183,0.9986932873725891,0.0,0.0,0.0,-21.90614891052246,-1.8383008241653442,2.89742374420166,3965.056396484375,0
386.5529999999999,-0.004722250625491142,0.00018665031529963017,-7.402686605928466e-05,0.0,0.0,0.0,0.0,-0.0023882812820374966,-0.0013504778034985065,-0.0037435933481901884,0.999261200428009,0.0,0.0,0.0,-21.88165855407715,-1.8406332731246948,2.8921217918395996,3960.623779296875,0
396.4539999999997,-0.004687551409006119,0.00025216551148332655,-0.00020255142590031028,0.0,0.0,0.0,0.0,-0.0028501220513135195,0.0033326984848827124,-0.0014839943032711744,1.0003145933151245,0.0,0.0,0.0,-21.929332733154297,-1.8435386419296265,2.9023635387420654,3969.2529296875,0
406.3739999999998,-0.004690366797149181,0.0002750027342699468,-0.0002089582267217338,0.0,0.0,0.0,0.0,0.0005668047233484685,-0.0021006318274885416,-0.008330285549163818,1.0005786418914795,0.0,0.0,0.0,-21.90816307067871,-1.8343933820724487,2.895587921142578,3965.4208984375,0
416.27900000000045,-0.004774777684360743,0.00013510645658243448,5.323647928889841e-05,0.0,0.0,0.0,0.0,-0.00083457789150998,0.0003069957601837814,0.0007062670192681253,1.0003242492675781,0.0,0.0,0.0,-21.97222900390625,-1.8445807695388794,2.890134572982788,3977.01708984375,0
426.2009999999991,-0.004778795875608921,0.00015476046246476471,4.8768139095045626e-05,0.0,0.0,0.0,0.0,-0.003963659983128309,-0.001312705921009183,-0.0008666898356750607,1.0020811557769775,0.0,0.0,0.0,-21.95071029663086,-1.8419667482376099,2.8878307342529297,3973.122314453125,0
436.10299999999916,-0.004687151405960321,0.0002680954057723284,-0.00020157513790763915,0.0,0.0,0.0,0.0,0.000132989211124368,-0.001194474403746426,-0.0003891390224453062,1.0003890991210938,0.0,0.0,0.0,-21.997507095336914,-1.8381412029266357,2.9125804901123047,3981.592529296875,0
446.0169999999998,-0.00468417489901185,0.0002859928354155272,-0.00020773959113284945,0.0,0.0,0.0,0.0,-0.0038551809266209602,0.0028880194295197725,-0.00328247994184494,0.9992253184318542,0.0,0.0,0.0,-21.976539611816406,-1.8302700519561768,2.9058520793914795,3977.79736328125,0
455.9300000000003,-0.0047669862397015095,8.19275010144338e-05,9.151727863354608e-05,0.0,0.0,0.0,0.0,-0.0012517273426055908,-0.0021589123643934727,0.0009065876365639269,1.0016508102416992,0.0,0.0,0.0,-22.027223587036133,-1.8506330251693726,2.921677589416504,3986.97119140625,0
465.84399999999914,-0.004765761084854603,9.553108975524083e-05,8.630763477412984e-05,0.0,0.0,0.0,0.0,0.0014918051892891526,-0.0023636184632778168,-0.0018266348633915186,1.0012143850326538,0.0,0.0,0.0,-22.005556106567383,-1.8488209247589111,2.9172277450561523,3983.04931640625,0
475.75,-0.00467916764318943,0.0002180747251259163,-0.00017692381516098976,0.0,0.0,0.0,0.0,-0.0001826669613365084,0.0017483836272731423,-0.0003005417820531875,0.9995921850204468,0.0,0.0,0.0,-22.049449920654297,-1.8379849195480347,2.9459898471832275,3990.994384765625,0
485.66599999999926,-0.00467741210013628,0.00023337302263826132,-0.0001831828849390149,0.0,0.0,0.0,0.0,-0.0025511831045150757,-0.0017389554996043444,-0.0003029755025636405,0.9994521737098694,0.0,0.0,0.0,-22.027679443359375,-1.8399927616119385,2.9468398094177246,3987.053466796875,0
495.5709999999999,-0.004711381159722805,0.00018498199642635882,-0.00011631794041022658,0.0,0.0,0.0,0.0,0.0010875193402171135,0.0058296737261116505,-0.004629537463188171,0.9993871450424194,0.0,0.0,0.0,-22.045246124267578,-1.8481327295303345,2.9402716159820557,3990.2333984375,0
505.4989999999998,-0.004711381159722805,0.00018498199642635882,-0.00011631794041022658,0.0,0.0,0.0,0.0,-0.0004790762031916529,0.0011178727727383375,0.0022932570427656174,1.0007182359695435,0.0,0.0,0.0,-22.045246124267578,-1.8481327295303345,2.9402716159820557,3990.2333984375,0
515.4040000000005,-0.004784960299730301,-7.659870607312769e-05,0.00014413784083444625,0.0,0.0,0.0,0.0,0.00018560329044703394,0.0006421200814656913,0.0014004955301061273,1.0010676383972168,0.0,0.0,0.0,-22.15597915649414,-1.8684333562850952,2.9452402591705322,4010.2763671875,0
525.3150000000005,-0.004782569594681263,-6.463087629526854e-05,0.00013636639050673693,0.0,0.0,0.0,0.0,0.002085158135741949,0.0006056372658349574,0.002179655944928527,1.0002329349517822,0.0,0.0,0.0,-22.13372802734375,-1.8698737621307373,2.9372386932373047,4006.248779296875,0
535.223,-0.0048272269777953625,-2.3907077775220387e-05,0.00013858082820661366,0.0,0.0,0.0,0.0,0.000424102385295555,0.00027572523686103523,-0.0021929857321083546,1.0013152360916138,0.0,0.0,0.0,-22.173511505126953,-1.8670668601989746,2.9295475482940674,4013.44970703125,0
545.1360000000004,-0.004824357107281685,-6.6613029048312455e-06,0.0001331238599959761,0.0,0.0,0.0,0.0,-7.983940304256976e-05,0.0012836181558668613,0.0012285140110179782,0.999657392501831,0.0,0.0,0.0,-22.15214729309082,-1.8691990375518799,2.919755697250366,4009.58251953125,0
555.039999999999,-0.004783357959240675,1.6661937479511835e-05,0.00014201707381289452,0.0,0.0,0.0,0.0,0.0010200339602306485,0.0007730520446784794,0.0009796866215765476,1.0001280307769775,0.0,0.0,0.0,-22.183534622192383,-1.8638356924057007,2.9213171005249023,4015.263916015625,0
564.9619999999995,-0.004781353287398815,3.682144597405568e-05,0.00013797784049529582,0.0,0.0,0.0,0.0,-0.00013113390014041215,0.002235681051388383,-0.0030694303568452597,0.9999002814292908,0.0,0.0,0.0,-22.160999298095703,-1.8668015003204346,2.921635150909424,4011.18505859375,0
574.8629999999994,-0.004780471324920654,4.932049341732636e-05,0.00012947736831847578,0.0,0.0,0.0,0.0,-0.0030374997295439243,-0.0021241353824734688,-0.0026073025073856115,1.000033974647522,0.0,0.0,0.0,-22.187498092651367,-1.8650684356689453,2.9181015491485596,4015.981201171875,0
584.7839999999997,-0.004782409872859716,6.613996083615348e-05,0.00012486676860135049,0.0,0.0,0.0,0.0,0.0003065235505346209,0.0002956793177872896,-0.004976640921086073,0.9994636178016663,0.0,0.0,0.0,-22.16584014892578,-1.85781729221344,2.9110820293426514,4012.0615234375,0
594.6880000000001,-0.0047423867508769035,5.655482891597785e-05,9.976835281122476e-05,0.0,0.0,0.0,0.0,-0.0011521069100126624,0.0014457039069384336,0.0009600349003449082,0.9994267821311951,0.0,0.0,0.0,-22.20113182067871,-1.8614685535430908,2.9202420711517334,4018.448974609375,0
604.6100000000006,-0.004743717610836029,7.377316796919331e-05,9.295348718296736e-05,0.0,0.0,0.0,0.0,-0.0013269184855744243,-0.00311271077953279,-0.0018018413102254272,1.0008702278137207,0.0,0.0,0.0,-22.179988861083984,-1.8623541593551636,2.910959005355835,4014.6220703125,0
614.5100000000002,-0.004751726519316435,8.500074181938544e-05,7.993435428943485e-05,0.0,0.0,0.0,0.0,-0.0001263551675947383,-0.0007323324680328369,-0.0007388211670331657,1.0028064250946045,0.0,0.0,0.0,-22.212635040283203,-1.8571068048477173,2.917815685272217,4020.53125,0
624.4290000000001,-0.0047538988292217255,0.0001047336554620415,7.378576265182346e-05,0.0,0.0,0.0,0.0,-0.000878675258718431,-0.0008482517441734672,-0.0017904400592669845,0.9997406601905823,0.0,0.0,0.0,-22.190658569335938,-1.8573518991470337,2.9220433235168457,4016.5537109375,0
634.3330000000005,-0.004763239063322544,0.00010775276314234361,5.582188532571308e-05,0.0,0.0,0.0,0.0,0.004517719149589539,-0.002556012710556388,0.0038422669749706984,1.001312017440796,0.0,0.0,0.0,-22.221837997436523,-1.857490062713623,2.9235665798187256,4022.197021484375,0
644.2649999999994,-0.004766424652189016,0.00012811971828341484,5.0743848987622187e-05,0.0,0.0,0.0,0.0,0.00012004443124169484,0.008291184902191162,-0.0043962798081338406,1.0032728910446167,0.0,0.0,0.0,-22.19888687133789,-1.8630632162094116,2.92187237739563,4018.04296875,0
654.1610000000001,-0.004761787131428719,0.0001353750703856349,4.124110273551196e-05,0.0,0.0,0.0,0.0,-0.0015066894702613354,-0.0012366557493805885,0.00031465146457776427,1.0006823539733887,0.0,0.0,0.0,-22.233715057373047,-1.866655945777893,2.9228243827819824,4024.346923828125,0
664.0849999999991,-0.004766517318785191,0.0001608832972124219,3.99843993363902e-05,0.0,0.0,0.0,0.0,-0.000806046649813652,-0.001979383174329996,0.0038200996350497007,1.0006368160247803,0.0,0.0,0.0,-22.210580825805664,-1.8616151809692383,2.925743341445923,4020.159423828125,0
673.9830000000002,-0.004771779291331768,0.0001578825176693499,2.6696759960032068e-05,0.0,0.0,0.0,0.0,-0.0011145666940137744,-0.002335112076252699,0.0008444386185146868,1.000328779220581,0.0,0.0,0.0,-22.240293502807617,-1.8700207471847534,2.9298129081726074,4025.537353515625,0
683.9069999999992,-0.004776609130203724,0.0001791832473827526,2.5988430934376083e-05,0.0,0.0,0.0,0.0,-0.0002632129762787372,-0.0013385231141000986,0.0033162026666104794,1.0011674165725708,0.0,0.0,0.0,-22.218231201171875,-1.8674288988113403,2.9346070289611816,4021.5439453125,0
693.8140000000003,-0.004747938830405474,0.0001695377577561885,1.5867208276176825e-05,0.0,0.0,0.0,0.0,-0.0016653630882501602,0.005769537296146154,0.0005775356548838317,1.0009078979492188,0.0,0.0,0.0,-22.24095344543457,-1.8673182725906372,2.961009979248047,4025.656982421875,0
703.7250000000004,-0.004749788902699947,0.0001878896146081388,1.550050001242198e-05,0.0,0.0,0.0,0.0,-0.001389263547025621,7.484701200155541e-05,-0.0013583330437541008,0.9973893165588379,0.0,0.0,0.0,-22.21940803527832,-1.8650970458984375,2.9521894454956055,4021.7568359375,0
713.6280000000006,-0.004754601512104273,0.00017686990031506866,1.1365365025994834e-05,0.0,0.0,0.0,0.0,0.003704321337863803,0.0016146395355463028,-0.0003209258720744401,0.9978941679000854,0.0,0.0,0.0,-22.2497615814209,-1.869339108467102,2.960758924484253,4027.2509765625,0
723.5509999999995,-0.004757219459861517,0.0001929833961185068,8.1251482697553e-06,0.0,0.0,0.0,0.0,-0.0021981317549943924,-0.0038685514591634274,-0.001252482645213604,1.000440239906311,0.0,0.0,0.0,-22.22687530517578,-1.8690834045410156,2.958787202835083,4023.10888671875,0
733.4529999999995,-0.004721217323094606,0.00014657416613772511,-1.5107379113032948e-05,0.0,0.0,0.0,0.0,0.000681790872476995,-0.006426986772567034,0.0027859120164066553,0.9998048543930054,0.0,0.0,0.0,-22.250822067260742,-1.886796474456787,2.992248773574829,4027.44287109375,0
743.3760000000002,-0.004720454569905996,0.00015789423196110874,-2.2419950255425647e-05,0.0,0.0,0.0,0.0,-0.002371162874624133,-0.004950655624270439,0.0011976404348388314,0.9979836344718933,0.0,0.0,0.0,-22.22756576538086,-1.8916444778442383,3.0055785179138184,4023.233642578125,0
753.2800000000007,-0.004733102396130562,0.00015165610238909721,-3.374753941898234e-05,0.0,0.0,0.0,0.0,-0.0008489864412695169,-0.0005771644064225256,-0.001035804976709187,1.0009114742279053,0.0,0.0,0.0,-22.25204086303711,-1.8848870992660522,3.0125346183776855,4027.663330078125,0
763.1949999999997,-0.004735230002552271,0.0001641258131712675,-4.3106952944071963e-05,0.0,0.0,0.0,0.0,0.0017579540144652128,-0.001566108432598412,0.0020187825430184603,0.9989449977874756,0.0,0.0,0.0,-22.228515625,-1.888368844985962,3.0132663249969482,4023.4052734375,0
773.0990000000002,-0.00470706494525075,0.00012446974869817495,-7.22698459867388e-05,0.0,0.0,0.0,0.0,-0.0031412721145898104,0.001866560080088675,-0.004353424534201622,1.0002766847610474,0.0,0.0,0.0,-22.24618148803711,-1.8974226713180542,3.0434114933013916,4026.602783203125,0
783.0300000000007,-0.0048288628458976746,-6.13168376730755e-05,8.872155740391463e-05,0.0,0.0,0.0,0.0,0.0030905050225555897,0.0005314237205311656,-0.0006399335688911378,0.9987118244171143,0.0,0.0,0.0,-22.283361434936523,-1.9258095026016235,3.041658639907837,4033.3330078125,0
792.9310000000005,-0.0048135980032384396,-8.282026828965172e-05,9.30402529775165e-05,0.0,0.0,0.0,0.0,-0.0023486316204071045,-0.0031941162887960672,-1.6140020306920633e-05,0.99892657995224,0.0,0.0,0.0,-22.305335998535156,-1.9266693592071533,3.0427496433258057,4037.31005859375,0
802.8429999999989,-0.004812491126358509,-8.058652747422457e-05,8.359766070498154e-05,0.0,0.0,0.0,0.0,0.0013393720146268606,0.005236225202679634,0.0014170989161357284,1.0021016597747803,0.0,0.0,0.0,-22.28278160095215,-1.9125362634658813,3.052190065383911,4033.22802734375,0
812.7510000000002,-0.004782331176102161,-0.00010595004278002307,7.462084613507614e-05,0.0,0.0,0.0,0.0,0.0006187543040141463,-0.00135394639801234,-0.0020242093596607447,1.0013949871063232,0.0,0.0,0.0,-22.29378318786621,-1.9184246063232422,3.0511415004730225,4035.218994140625,0
822.6730000000007,-0.004780000541359186,-0.00010510970605537295,6.638449121965095e-05,0.0,0.0,0.0,0.0,0.003774110460653901,-0.0011477426160126925,-0.0016276012174785137,1.000108242034912,0.0,0.0,0.0,-22.27248764038086,-1.915477991104126,3.0480852127075195,4031.364501953125,0
832.5709999999999,-0.00482490798458457,-0.00010233025386696681,5.501053237821907e-05,0.0,0.0,0.0,0.0,-0.0008218178991228342,-0.0003603090881370008,-0.0043190643191337585,0.9985038042068481,0.0,0.0,0.0,-22.29051399230957,-1.9214380979537964,3.037537097930908,4034.627685546875,0
842.4889999999996,-0.004824921954423189,-0.00010021532216342166,4.7159919631667435e-05,0.0,0.0,0.0,0.0,0.0025215046480298042,-0.0012395762605592608,0.0015069682849571109,0.9993204474449158,0.0,0.0,0.0,-22.269872665405273,-1.9162501096725464,3.0340025424957275,4030.890869140625,0
852.393,-0.004822814371436834,-9.040812437888235e-05,4.8424979468109086e-05,0.0,0.0,0.0,0.0,-0.0017732776468619704,0.003279296448454261,0.0012822934659197927,0.999252200126648,0.0,0.0,0.0,-22.29178810119629,-1.9152719974517822,3.033574342727661,4034.858154296875,0
862.3140000000003,-0.0048239994794130325,-8.817842171993107e-05,3.976062362198718e-05,0.0,0.0,0.0,0.0,-0.001958543201908469,0.0016619417583569884,0.003080331953242421,1.0001693964004517,0.0,0.0,0.0,-22.26930046081543,-1.9163601398468018,3.015727996826172,4030.787353515625,0
872.223,-0.004850158467888832,-5.56923114345409e-05,6.416895485017449e-05,0.0,0.0,0.0,0.0,-0.0012877865228801966,0.0025705823209136724,-0.002531923120841384,0.999570906162262,0.0,0.0,0.0,-22.29538917541504,-1.900985598564148,2.994863748550415,4035.510009765625,0
882.1280000000006,-0.004853759426623583,-5.189398507354781e-05,5.806337867397815e-05,0.0,0.0,0.0,0.0,-0.0005477226804941893,-0.006216718815267086,0.002240036381408572,0.9992071986198425,0.0,0.0,0.0,-22.274076461791992,-1.897986888885498,2.995413064956665,4031.65234375,0
892.0380000000005,-0.004881218541413546,-2.872503137041349e-05,6.948300870135427e-05,0.0,0.0,0.0,0.0,-0.0001418223255313933,0.003950722981244326,-0.0018490361981093884,0.9976149201393127,0.0,0.0,0.0,-22.28498077392578,-1.8821065425872803,2.9979376792907715,4033.626220703125,0
901.9670000000006,-0.004887295421212912,-2.2275722585618496e-05,6.318584200926125e-05,0.0,0.0,0.0,0.0,0.0018833643989637494,0.0015008914051577449,-0.0032670057844370604,0.9994173049926758,0.0,0.0,0.0,-22.263708114624023,-1.8837616443634033,2.979947566986084,4029.775390625,0
911.8680000000004,-0.004869907163083553,-5.297954430716345e-06,7.110663136700168e-05,0.0,0.0,0.0,0.0,-0.001427752198651433,0.0038157429080456495,0.00024130757083185017,1.0004451274871826,0.0,0.0,0.0,-22.279253005981445,-1.872748613357544,2.9772212505340576,4032.58935546875,0
921.7749999999996,-0.004875454120337963,2.719667008932447e-06,6.433291855501011e-05,0.0,0.0,0.0,0.0,-3.799173282459378e-05,-0.000532815873157233,-0.0005882796249352396,1.0010708570480347,0.0,0.0,0.0,-22.257272720336914,-1.873325228691101,2.968590021133423,4028.610595703125,0
931.6909999999989,-0.004876646678894758,1.4921854017302394e-05,6.373455107677728e-05,0.0,0.0,0.0,0.0,0.0009931003442034125,0.003172205062583089,0.003795505268499255,1.0002708435058594,0.0,0.0,0.0,-22.285507202148438,-1.8741446733474731,2.966926097869873,4033.72119140625,0
941.5990000000002,-0.0048804203979671,2.5122721126535907e-05,5.8651683502830565e-05,0.0,0.0,0.0,0.0,-0.0008744659135118127,0.0035454710014164448,0.0007395921857096255,1.0020321607589722,0.0,0.0,0.0,-22.263090133666992,-1.8751925230026245,2.962843656539917,4029.663818359375,0
951.5110000000004,-0.004868111573159695,3.26796762237791e-05,5.587870691670105e-05,0.0,0.0,0.0,0.0,0.0016135415062308311,0.0008488263702020049,-0.0014630898367613554,1.0000349283218384,0.0,0.0,0.0,-22.297529220581055,-1.8753135204315186,2.9645798206329346,4035.89697265625,0
961.4220000000005,-0.0048707230016589165,4.706109029939398e-05,5.256698204902932e-05,0.0,0.0,0.0,0.0,-0.00013015315926168114,0.0037004139740020037,-0.005021246615797281,0.9985230565071106,0.0,0.0,0.0,-22.275217056274414,-1.87089204788208,2.953733444213867,4031.858642578125,0
971.3339999999989,-0.0048407879658043385,5.410267476690933e-05,6.264495459618047e-05,0.0,0.0,0.0,0.0,0.001639635767787695,0.0018122807377949357,-0.0026355767622590065,1.0003196001052856,0.0,0.0,0.0,-22.299171447753906,-1.8657077550888062,2.9585535526275635,4036.1943359375,0
981.2510000000002,-0.004842089023441076,7.034892769297585e-05,5.941984272794798e-05,0.0,0.0,0.0,0.0,-0.0008426859858445823,0.0015767093282192945,-0.0012974468991160393,0.9990658760070801,0.0,0.0,0.0,-22.27741813659668,-1.866267204284668,2.9463043212890625,4032.257080078125,0
991.1610000000001,-0.004809602629393339,4.2991843656636775e-05,4.042927685077302e-05,0.0,0.0,0.0,0.0,0.0004981637466698885,0.0018771159229800105,0.0031266859732568264,0.9981871843338013,0.0,0.0,0.0,-22.29822540283203,-1.8704673051834106,2.962369680404663,4036.023193359375,0
1001.0810000000001,-0.004804110620170832,5.727147072320804e-05,3.395050225662999e-05,0.0,0.0,0.0,0.0,-0.00014181947335600853,-0.0013715345412492752,-0.0019056113669648767,0.9995458722114563,0.0,0.0,0.0,-22.27598762512207,-1.8709050416946411,2.9537277221679688,4031.998046875,0
1010.985999999999,-0.004783933516591787,4.250438360031694e-05,2.2435138816945255e-05,0.0,0.0,0.0,0.0,-0.00528667913749814,0.005171457305550575,6.982020568102598e-05,0.9996017217636108,0.0,0.0,0.0,-22.29939842224121,-1.880524754524231,2.9607551097869873,4036.2353515625,0
1020.896999999999,-0.0047759003937244415,5.550956848310307e-05,1.3458324247039855e-05,0.0,0.0,0.0,0.0,0.0006761259865015745,-7.015575101831928e-05,0.00549881299957633,0.99979567527771,0.0,0.0,0.0,-22.277172088623047,-1.8774853944778442,2.944169759750366,4032.212646484375,0
1030.8089999999993,-0.004760573618113995,3.776812081923708e-05,-4.168277428107103e-06,0.0,0.0,0.0,0.0,-0.00016502011567354202,0.003177852602675557,0.0015144309727475047,0.9993413686752319,0.0,0.0,0.0,-22.30155372619629,-1.8792475461959839,2.950326681137085,4036.625732421875,0
1040.7160000000003,-0.004753058310598135,4.957455166731961e-05,-1.52646371134324e-05,0.0,0.0,0.0,0.0,0.00212549464777112,0.00033000807161442935,-0.004423936363309622,0.9997425079345703,0.0,0.0,0.0,-22.279752731323242,-1.8851940631866455,2.9385244846343994,4032.6796875,0
1050.6270000000004,-0.004742491990327835,4.46528683823999e-05,-3.171844218741171e-05,0.0,0.0,0.0,0.0,-0.0020572091452777386,0.0020281036850064993,0.0028991710860282183,0.9983425736427307,0.0,0.0,0.0,-22.3054141998291,-1.8841241598129272,2.932586193084717,4037.32470703125,0
1060.5439999999999,-0.004733072128146887,5.522602441487834e-05,-4.461749267647974e-05,0.0,0.0,0.0,0.0,0.0004162690893281251,0.0018282464006915689,-0.0051443688571453094,0.9993035793304443,0.0,0.0,0.0,-22.282712936401367,-1.882411241531372,2.9265661239624023,4033.21533203125,0
1070.4529999999995,-0.004722840152680874,8.190029620891437e-05,-6.359224062180147e-05,0.0,0.0,0.0,0.0,-0.002652245806530118,0.0005835627671331167,0.0005070928018540144,0.9979158043861389,0.0,0.0,0.0,-22.297365188598633,-1.8744603395462036,2.9172873497009277,4035.867431640625,0
1080.3619999999992,-0.004711028188467026,9.560667240293697e-05,-7.85778320278041e-05,0.0,0.0,0.0,0.0,-0.0008519915863871574,5.394613981479779e-05,-0.0008798119961284101,0.9999876618385315,0.0,0.0,0.0,-22.27594757080078,-1.8672096729278564,2.913468360900879,4031.990966796875,0
1090.277,-0.004702394362539053,0.00012359359243419021,-0.0001008781255222857,0.0,0.0,0.0,0.0,-0.0009602258214727044,-0.0005743910442106426,-0.0004278843989595771,1.0010020732879639,0.0,0.0,0.0,-22.295333862304688,-1.860153317451477,2.902174711227417,4035.499755859375,0
1100.188,-0.004773504566401243,1.708316631265916e-05,-7.499575440306216e-05,0.0,0.0,0.0,0.0,0.00286483159288764,0.0005956740933470428,-0.0013584091793745756,1.001218557357788,0.0,0.0,0.0,-22.327756881713867,-1.877829909324646,2.9099910259246826,4041.368408203125,0
1110.0969999999998,-0.004758472088724375,3.0544728360837325e-05,-5.802915620733984e-05,0.0,0.0,0.0,0.0,-0.0014334004372358322,0.0018563863122835755,-6.930172094143927e-05,0.9992839694023132,0.0,0.0,0.0,-22.336746215820312,-1.871518611907959,2.9165871143341064,4042.99560546875,0
1120.0110000000004,-0.004743734374642372,4.209132748655975e-05,-7.244727748911828e-05,0.0,0.0,0.0,0.0,0.001009938307106495,0.0007180311949923635,0.0008692237897776067,0.998718798160553,0.0,0.0,0.0,-22.313634872436523,-1.8693684339523315,2.916600227355957,4038.8125,0
1129.9230000000007,-0.004721096716821194,3.4181848604930565e-05,-8.823195094009861e-05,0.0,0.0,0.0,0.0,-0.001083547598682344,0.002279494656249881,-0.0012516980059444904,0.9988011717796326,0.0,0.0,0.0,-22.328258514404297,-1.8705192804336548,2.9241294860839844,4041.459228515625,0
1139.833999999999,-0.004706547595560551,4.522433300735429e-05,-0.00010441717313369736,0.0,0.0,0.0,0.0,-0.00010253632353851572,0.0012393284123390913,-0.0018951328238472342,0.9999730587005615,0.0,0.0,0.0,-22.307836532592773,-1.8658618927001953,2.9093332290649414,4037.762939453125,0
1149.7549999999992,-0.004710892681032419,6.759344978490844e-05,-0.00011208210344193503,0.0,0.0,0.0,0.0,0.0030275501776486635,-0.0006848631892353296,0.0037324558943510056,0.9989365935325623,0.0,0.0,0.0,-22.320512771606445,-1.8596895933151245,2.903517723083496,4040.057373046875,0
1159.6669999999995,-0.004696161951869726,7.9351470049005e-05,-0.00012860030983574688,0.0,0.0,0.0,0.0,0.0008293453720398247,0.0023447952698916197,-0.004102241713553667,1.0000505447387695,0.0,0.0,0.0,-22.29762840270996,-1.8681265115737915,2.885746479034424,4035.915283203125,0
1169.5740000000005,-0.004723072983324528,7.635998917976394e-05,-0.0001626786106498912,0.0,0.0,0.0,0.0,0.0011237902799621224,-0.0029816417954862118,-0.002048974856734276,0.9998317360877991,0.0,0.0,0.0,-22.317405700683594,-1.8684239387512207,2.8766212463378906,4039.494873046875,0
1179.491,-0.004711143672466278,8.78970095072873e-05,-0.0001816870499169454,0.0,0.0,0.0,0.0,0.005103783681988716,-0.0015455159591510892,-0.00048037496162578464,0.998603880405426,0.0,0.0,0.0,-22.29642677307129,-1.8724578619003296,2.8703725337982178,4035.69775390625,0
1189.3919999999998,-0.004745283164083958,0.00011896557407453656,-0.00018372066551819444,0.0,0.0,0.0,0.0,-0.000268245319603011,0.0028770011849701405,-0.0032367678359150887,1.000152587890625,0.0,0.0,0.0,-22.321325302124023,-1.8709396123886108,2.860060930252075,4040.204345703125,0
1199.3150000000005,-0.004737637937068939,0.0001322120806435123,-0.00020235846750438213,0.0,0.0,0.0,0.0,0.0025520867202430964,7.554366311524063e-05,-0.0035754337441176176,1.0000195503234863,0.0,0.0,0.0,-22.29878807067871,-1.8695698976516724,2.8559951782226562,4036.125,0
1209.2170000000006,-0.004737768322229385,0.0001544411206850782,-0.00020957192464265972,0.0,0.0,0.0,0.0,0.0008456316427327693,0.0038562698755413294,0.001376906642690301,0.9996646642684937,0.0,0.0,0.0,-22.308839797973633,-1.864035964012146,2.8529062271118164,4037.9443359375,0
1219.134,-0.004904990084469318,-0.00013237805978860706,7.012882269918919e-05,0.0,0.0,0.0,0.0,0.0012147303204983473,-0.0009547907975502312,0.0003480715968180448,1.000883936882019,0.0,0.0,0.0,-22.33955955505371,-1.9251710176467896,2.8577218055725098,4043.504638671875,0
1229.0439999999999,-0.004904091823846102,-8.623539906693622e-05,0.00011730169353540987,0.0,0.0,0.0,0.0,-0.004364033229649067,-0.0033147851936519146,0.0014873833861202002,0.9989129900932312,0.0,0.0,0.0,-22.363676071166992,-1.9163615703582764,2.847848415374756,4047.8701171875,0
1238.955,-0.004904163535684347,-7.984726107679307e-05,0.00011642240860965103,0.0,0.0,0.0,0.0,0.0010380791500210762,0.0020215173717588186,0.0009723854018375278,0.9982918500900269,0.0,0.0,0.0,-22.34014320373535,-1.9083082675933838,2.840400457382202,4043.6103515625,0
1248.866,-0.004853423684835434,-5.6769727962091565e-05,0.00014934800856281072,0.0,0.0,0.0,0.0,0.00015231288853101432,-0.0015953180845826864,0.0009346674778498709,0.9984195828437805,0.0,0.0,0.0,-22.3519344329834,-1.9020946025848389,2.8586552143096924,4045.74462890625,0
1258.777,-0.004850579891353846,-4.671527858590707e-05,0.0001484315871493891,0.0,0.0,0.0,0.0,-0.002219882095232606,0.0046182614751160145,-0.004685295280069113,1.0007133483886719,0.0,0.0,0.0,-22.328975677490234,-1.9033325910568237,2.86116623878479,4041.589111328125,0
1268.687,-0.0047969818115234375,-7.242583524202928e-05,0.00013400756870396435,0.0,0.0,0.0,0.0,-0.001123086316511035,-0.004107298795133829,0.0011345864040777087,1.0021674633026123,0.0,0.0,0.0,-22.338308334350586,-1.897248387336731,2.8737082481384277,4043.278076171875,0
1278.6059999999998,-0.0047911107540130615,-6.294854392763227e-05,0.00013205021969042718,0.0,0.0,0.0,0.0,-0.0018922078888863325,0.00012724682164844126,0.0004804152122233063,1.0016403198242188,0.0,0.0,0.0,-22.31587028503418,-1.897229552268982,2.8720591068267822,4039.217041015625,0
1288.518,-0.004754573572427034,-5.493075150297955e-05,0.0001364352647215128,0.0,0.0,0.0,0.0,-0.0015262773958966136,-0.0023808677215129137,-0.0009482862078584731,0.9999679327011108,0.0,0.0,0.0,-22.333772659301758,-1.893320083618164,2.8768434524536133,4042.457275390625,0
1298.4349999999995,-0.0047460561618208885,-4.4452455767896026e-05,0.00013793102698400617,0.0,0.0,0.0,0.0,-0.0033739088103175163,-0.002521784510463476,0.001106246723793447,1.0014770030975342,0.0,0.0,0.0,-22.311317443847656,-1.8962022066116333,2.878309726715088,4038.392822265625,0
1308.3359999999993,-0.004734697751700878,-5.415651685325429e-05,0.00011798180639743805,0.0,0.0,0.0,0.0,-0.0007145857089199126,-0.0007132528116926551,-0.004381795879453421,1.0006791353225708,0.0,0.0,0.0,-22.322956085205078,-1.8911552429199219,2.891164541244507,4040.49951171875,0
1318.259,-0.004727920982986689,-4.391951370052993e-05,0.00011941225966438651,0.0,0.0,0.0,0.0,0.0005683963536284864,0.0038755950517952442,4.401646037877072e-06,1.0000286102294922,0.0,0.0,0.0,-22.301576614379883,-1.887831449508667,2.892972469329834,4036.630126953125,0
1328.1579999999994,-0.004718955140560865,-4.743107274407521e-05,0.00010253751679556444,0.0,0.0,0.0,0.0,-0.002607508795335889,-0.0019943206571042538,-0.0022257070522755384,0.9977582693099976,0.0,0.0,0.0,-22.313236236572266,-1.8807872533798218,2.909058094024658,4038.739990234375,0
1338.0779999999995,-0.004712461959570646,-3.7185309338383377e-05,0.00010242727148579434,0.0,0.0,0.0,0.0,0.004624572582542896,0.0004757767601404339,-0.003781889332458377,0.998041570186615,0.0,0.0,0.0,-22.292245864868164,-1.880266785621643,2.8992204666137695,4034.940673828125,0
1347.9830000000002,-0.004771777428686619,-1.5191189049801324e-05,0.00010163206025026739,0.0,0.0,0.0,0.0,-0.0003497186698950827,0.002819020999595523,0.0005183916073292494,1.0014374256134033,0.0,0.0,0.0,-22.315509796142578,-1.8833857774734497,2.882378578186035,4039.151611328125,0
1357.9040000000005,-0.0048099965788424015,-0.0001019049814203754,5.875847637071274e-05,0.0,0.0,0.0,0.0,0.0022250397596508265,-0.004274004139006138,-0.000973459507804364,0.9988043308258057,0.0,0.0,0.0,-22.347339630126953,-1.9028053283691406,2.8913488388061523,4044.912841796875,0
1367.8019999999997,-0.004803224932402372,-7.320087752304971e-05,0.00010554430627962574,0.0,0.0,0.0,0.0,-0.002603268250823021,-0.00512336241081357,0.001773386960849166,0.9988967180252075,0.0,0.0,0.0,-22.358186721801758,-1.8928200006484985,2.897346019744873,4046.876220703125,0
1377.7279999999992,-0.0048028165474534035,-6.669440335826948e-05,0.00010251445200992748,0.0,0.0,0.0,0.0,0.0010534317698329687,0.00021609844407066703,0.0015123245539143682,0.9990841746330261,0.0,0.0,0.0,-22.33478546142578,-1.8876625299453735,2.908283233642578,4042.640869140625,0
1387.6270000000004,-0.004816838074475527,-3.427900082897395e-05,0.0001161479958682321,0.0,0.0,0.0,0.0,-0.001916250097565353,-0.0007055255700834095,-0.0003712387406267226,0.9990978837013245,0.0,0.0,0.0,-22.35394287109375,-1.884795069694519,2.903968334197998,4046.108154296875,0
1397.5570000000007,-0.004813632927834988,-2.43026006501168e-05,0.00011268437810940668,0.0,0.0,0.0,0.0,-0.0026714210398495197,-0.004357196856290102,0.005001877434551716,0.9988799691200256,0.0,0.0,0.0,-22.332223892211914,-1.8822357654571533,2.91007137298584,4042.177001953125,0
1407.4539999999997,-0.004800578113645315,-3.771855574541405e-07,0.00012391609197948128,0.0,0.0,0.0,0.0,0.0003023938916157931,-3.089034362346865e-05,-0.0004675820528063923,1.0000859498977661,0.0,0.0,0.0,-22.34482765197754,-1.8696396350860596,2.9051406383514404,4044.458251953125,0
1417.378999999999,-0.0047954679466784,1.1407410056563094e-05,0.000119875228847377,0.0,0.0,0.0,0.0,0.0007562998216599226,-0.0028608813881874084,0.004543245770037174,0.9994755983352661,0.0,0.0,0.0,-22.322288513183594,-1.8645433187484741,2.905989646911621,4040.378662109375,0
1427.2749999999996,-0.004778104834258556,3.054567423532717e-05,0.00012364154099486768,0.0,0.0,0.0,0.0,-0.002452146727591753,-0.004716265480965376,0.0019476404413580894,0.9991042017936707,0.0,0.0,0.0,-22.337322235107422,-1.8621588945388794,2.912101984024048,4043.099609375,0
1437.1939999999995,-0.004770631901919842,4.449164407560602e-05,0.00011946359882131219,0.0,0.0,0.0,0.0,-0.0006500784074887633,0.007753750309348106,0.0005972433718852699,1.0006388425827026,0.0,0.0,0.0,-22.314231872558594,-1.851495623588562,2.914799213409424,4038.92041015625,0
1447.0969999999998,-0.0048034219071269035,5.215666169533506e-05,0.00010546642442932352,0.0,0.0,0.0,0.0,0.0012027625925838947,0.0016169651644304395,0.003592041553929448,0.9989838004112244,0.0,0.0,0.0,-22.334657669067383,-1.8581093549728394,2.895383358001709,4042.617431640625,0
1457.0149999999994,-0.004796451423317194,6.528646918013692e-05,0.00010018713510362431,0.0,0.0,0.0,0.0,0.0006060092709958553,-0.0028699194081127644,0.0006922206375747919,0.9983221292495728,0.0,0.0,0.0,-22.311410903930664,-1.8548121452331543,2.888960838317871,4038.409912109375,0
1466.9210000000003,-0.004784333985298872,6.555220898007974e-05,8.535795495845377e-05,0.0,0.0,0.0,0.0,-0.00046459477744065225,-0.0015268141869455576,-0.001246756175532937,0.9998328685760498,0.0,0.0,0.0,-22.331096649169922,-1.856223225593567,2.885549783706665,4041.972900390625,0
1476.8400000000001,-0.004777352791279554,7.516928599216044e-05,7.740303408354521e-05,0.0,0.0,0.0,0.0,-0.0019622226245701313,0.003619301598519087,-0.0012468654895201325,0.99946528673172,0.0,0.0,0.0,-22.308467864990234,-1.851250410079956,2.8942408561706543,4037.877197265625,0
1486.744999999999,-0.004728320054709911,5.216469435254112e-05,3.7366953620221466e-05,0.0,0.0,0.0,0.0,0.0007747903582639992,0.004595205187797546,-0.0003763057175092399,0.9998437762260437,0.0,0.0,0.0,-22.32481575012207,-1.8608171939849854,2.905038356781006,4040.836181640625,0
1496.6689999999999,-0.004720126278698444,6.0104281146777794e-05,2.6353947760071605e-05,0.0,0.0,0.0,0.0,-0.00046959452447481453,-0.003617918351665139,0.0012553983833640814,0.9993827939033508,0.0,0.0,0.0,-22.30245018005371,-1.8625050783157349,2.8818328380584717,4036.787841796875,0
1506.571,-0.0047281477600336075,5.4226373322308064e-05,-1.8325358723814134e-06,0.0,0.0,0.0,0.0,0.0009553407435305417,0.0027413538191467524,3.456052581896074e-05,1.001405954360962,0.0,0.0,0.0,-22.3270206451416,-1.8676286935806274,2.884768009185791,4041.235107421875,0
1516.4889999999996,-0.004719756077975035,6.316901999525726e-05,-1.4426112102228217e-05,0.0,0.0,0.0,0.0,0.0012398228282108903,0.0024446933530271053,-0.0005288943066261709,0.9999430775642395,0.0,0.0,0.0,-22.305076599121094,-1.8598010540008545,2.88073468208313,4037.263427734375,0
1526.3989999999994,-0.00469184061512351,4.724491009255871e-05,-5.675591091858223e-05,0.0,0.0,0.0,0.0,0.0024419152177870274,-4.997065116185695e-05,0.0024764961563050747,1.0008435249328613,0.0,0.0,0.0,-22.312931060791016,-1.8651454448699951,2.9004461765289307,4038.68505859375,0
1536.3109999999997,-0.00468035601079464,5.6849548855097964e-05,-7.0194284489844e-05,0.0,0.0,0.0,0.0,0.0008975103264674544,-0.0020526547450572252,0.00030206123483367264,1.0005384683609009,0.0,0.0,0.0,-22.291337966918945,-1.8677120208740234,2.883312225341797,4034.7763671875,0
1546.2160000000003,-0.0046914368867874146,6.189622217789292e-05,-9.389259503223002e-05,0.0,0.0,0.0,0.0,0.001747473725117743,0.004944555927067995,-0.003313075052574277,1.0003548860549927,0.0,0.0,0.0,-22.311641693115234,-1.8746252059936523,2.8792200088500977,4038.45166015625,0
1556.1350000000002,-0.00468209246173501,7.333140092669055e-05,-0.00010687555186450481,0.0,0.0,0.0,0.0,0.0009164825896732509,0.0010688172187656164,0.0009080757154151797,1.0001760721206665,0.0,0.0,0.0,-22.28922462463379,-1.8730406761169434,2.869896411895752,4034.39404296875,0
1566.0370000000003,-0.004661545157432556,7.311444642255083e-05,-0.00013665914593730122,0.0,0.0,0.0,0.0,0.0017900008242577314,0.004130950663238764,-0.0020693165715783834,0.9995715618133545,0.0,0.0,0.0,-22.307044982910156,-1.8763632774353027,2.8691606521606445,4037.619384765625,0
1575.949999999999,-0.004650611896067858,8.569509373046458e-05,-0.00015045689360704273,0.0,0.0,0.0,0.0,-0.00011381302465451881,-0.00012092343968106434,-0.00026349807740189135,0.9990987777709961,0.0,0.0,0.0,-22.284780502319336,-1.875352144241333,2.8601489067077637,4033.58984375,0
1585.866,-0.004664604552090168,8.865896234055981e-05,-0.0001881575444713235,0.0,0.0,0.0,0.0,-0.001493761665187776,0.0013455550651997328,-0.003195214783772826,0.9999590516090393,0.0,0.0,0.0,-22.305007934570312,-1.882577896118164,2.845417022705078,4037.2509765625,0
1595.7819999999992,-0.004654194228351116,0.00010257583926431835,-0.00020512330229394138,0.0,0.0,0.0,0.0,0.00016086858522612602,0.007153834216296673,-0.0060599735006690025,1.0016248226165771,0.0,0.0,0.0,-22.28375244140625,-1.8810615539550781,2.8326120376586914,4033.403564453125,0
1605.6839999999993,-0.004694553092122078,0.00014141293650027364,-0.00022949920094106346,0.0,0.0,0.0,0.0,-0.0007673113141208887,-0.004993872717022896,0.0005820481455884874,0.998526930809021,0.0,0.0,0.0,-22.30887794494629,-1.880069613456726,2.785919189453125,4037.951416015625,0
1615.6039999999994,-0.004690861329436302,0.00015862291911616921,-0.0002453256747685373,0.0,0.0,0.0,0.0,-0.00020005967235192657,-0.002634692005813122,-0.0001982794055948034,0.9976034164428711,0.0,0.0,0.0,-22.285823822021484,-1.885240077972412,2.775277853012085,4033.7783203125,0
1625.5110000000004,-0.004697485826909542,0.0001811665133573115,-0.0002535181411076337,0.0,0.0,0.0,0.0,0.0010226472513750196,0.0028182081878185272,-0.0026611138600856066,1.0003061294555664,0.0,0.0,0.0,-22.311189651489258,-1.8760032653808594,2.770531415939331,4038.369873046875,0
1635.423999999999,-0.004697796422988176,0.00020026785205118358,-0.0002714237489271909,0.0,0.0,0.0,0.0,-0.0002879653766285628,0.002533518010750413,0.0029124803841114044,1.0004420280456543,0.0,0.0,0.0,-22.289411544799805,-1.8737612962722778,2.7699179649353027,4034.427978515625,0
1645.3310000000001,-0.004703851882368326,0.00022147510026115924,-0.00028414709959179163,0.0,0.0,0.0,0.0,-0.001037067617289722,-0.0032590085174888372,0.0010839739115908742,0.9991158843040466,0.0,0.0,0.0,-22.318056106567383,-1.8724474906921387,2.7590315341949463,4039.612548828125,0
1655.2610000000004,-0.004711308516561985,0.00024198844039347023,-0.00030162191251292825,0.0,0.0,0.0,0.0,0.0026842080987989902,-0.0011964957229793072,-0.0015065452316775918,0.9997895359992981,0.0,0.0,0.0,-22.295026779174805,-1.8728358745574951,2.752868413925171,4035.4443359375,0
1665.1599999999999,-0.0047179232351481915,0.0002535732346586883,-0.0003122485941275954,0.0,0.0,0.0,0.0,-0.0017175116809085011,-0.00017067322914954275,-0.004110791254788637,1.0004854202270508,0.0,0.0,0.0,-22.31917953491211,-1.8724443912506104,2.7593116760253906,4039.815673828125,0
1675.0699999999997,-0.004727730993181467,0.0002723622019402683,-0.00033060842542909086,0.0,0.0,0.0,0.0,-0.0013865884393453598,-0.00013768603093922138,-0.0028953389264643192,0.9982692003250122,0.0,0.0,0.0,-22.2976131439209,-1.8764983415603638,2.7636566162109375,4035.912353515625,0
1684.985999999999,-0.004713079426437616,0.00028188101714476943,-0.0003353448410052806,0.0,0.0,0.0,0.0,-0.003481599036604166,0.0003834569070022553,-8.763667574385181e-05,0.9988876581192017,0.0,0.0,0.0,-22.32196807861328,-1.8764373064041138,2.783013105392456,4040.32080078125,0
1694.9040000000005,-0.004719254560768604,0.0003010467335116118,-0.00035391110577620566,0.0,0.0,0.0,0.0,-0.0034492784179747105,0.00012511199747677892,0.001276714843697846,0.999681830406189,0.0,0.0,0.0,-22.298675537109375,-1.8757551908493042,2.774965763092041,4036.1044921875,0
1704.8029999999999,-0.004694337956607342,0.0003212169394828379,-0.0003815285163000226,0.0,0.0,0.0,0.0,0.0005262538325041533,-0.00047268971684388816,-0.0027220132760703564,1.0011541843414307,0.0,0.0,0.0,-22.30991554260254,-1.8669079542160034,2.7932724952697754,4038.138916015625,0
1714.7129999999997,-0.004700662102550268,0.00034067544038407505,-0.0004012729914393276,0.0,0.0,0.0,0.0,0.0009725409909151495,0.0009941995376721025,-0.0014388468116521835,1.000988483428955,0.0,0.0,0.0,-22.28706932067871,-1.8573402166366577,2.7858057022094727,4034.00390625,0
1724.6270000000004,-0.00466978270560503,0.00035541201941668987,-0.00042703276267275214,0.0,0.0,0.0,0.0,0.0005600356962531805,-0.0018613736610859632,0.00012084324407624081,0.9988946914672852,0.0,0.0,0.0,-22.306394577026367,-1.85990571975708,2.7983615398406982,4037.501708984375,0
1734.5409999999993,-0.0046752137131989,0.00037412572419270873,-0.000445242621935904,0.0,0.0,0.0,0.0,-0.0003548672248143703,-0.008074001409113407,0.0010054294252768159,0.9983182549476624,0.0,0.0,0.0,-22.284765243530273,-1.8593392372131348,2.7910749912261963,4033.586669921875,0
1744.458999999999,-0.004664536565542221,0.00036212336272001266,-0.00045487700845114887,0.0,0.0,0.0,0.0,-0.0022225910797715187,-0.0032381699420511723,0.003217940451577306,0.9993249773979187,0.0,0.0,0.0,-22.306486129760742,-1.864358901977539,2.8060450553894043,4037.518310546875,0
1754.360999999999,-0.004672294482588768,0.0003771692281588912,-0.000475423556054011,0.0,0.0,0.0,0.0,0.00239793979562819,-0.0004976588534191251,-0.0007517017074860632,0.9984735250473022,0.0,0.0,0.0,-22.283367156982422,-1.8555330038070679,2.8093924522399902,4033.333740234375,0
1764.286,-0.004667127970606089,0.0003619267081376165,-0.0004864276561420411,0.0,0.0,0.0,0.0,0.0007152613834477961,0.0006280055386014283,0.0013661498669534922,0.999632716178894,0.0,0.0,0.0,-22.305526733398438,-1.8599604368209839,2.8258488178253174,4037.3447265625,0
1774.188,-0.0046754442155361176,0.00037219433579593897,-0.0005094516091048717,0.0,0.0,0.0,0.0,0.0011511890916153789,0.0013920090859755874,-0.0007479753694497049,1.0002802610397339,0.0,0.0,0.0,-22.28368377685547,-1.855121374130249,2.8200247287750244,4033.391357421875,0
1784.0959999999995,-0.004676189739257097,0.0003553421702235937,-0.0005100407870486379,0.0,0.0,0.0,0.0,0.0007803825428709388,0.0006585377268493176,-0.0042836605571210384,0.9977577328681946,0.0,0.0,0.0,-22.30402946472168,-1.85679030418396,2.8151938915252686,4037.073974609375,0
1794.0120000000006,-0.004684253595769405,0.0003667190030682832,-0.0005338505143299699,0.0,0.0,0.0,0.0,-0.0018570933025330305,0.00013452174607664347,-0.002597854007035494,0.99757981300354,0.0,0.0,0.0,-22.282241821289062,-1.8588619232177734,2.8059277534484863,4033.130126953125,0
1803.9189999999999,-0.0046431198716163635,0.0003997983585577458,-0.0005871358443982899,0.0,0.0,0.0,0.0,0.004580414388328791,0.0016096998006105423,0.002792860846966505,0.9997822642326355,0.0,0.0,0.0,-22.301939010620117,-1.8534607887268066,2.8281989097595215,4036.6953125,0
1813.8320000000003,-0.004648438189178705,0.0004128603031858802,-0.0006142841884866357,0.0,0.0,0.0,0.0,0.000413138244766742,-0.0015270845033228397,-0.0007346899947151542,1.000942587852478,0.0,0.0,0.0,-22.278640747070312,-1.8504363298416138,2.8137006759643555,4032.478515625,0
1823.7420000000002,-0.004606547299772501,0.0004441433702595532,-0.0006722688558511436,0.0,0.0,0.0,0.0,0.0015971114626154304,-0.004709197673946619,0.0017930701142176986,0.9989867806434631,0.0,0.0,0.0,-22.298707962036133,-1.8492342233657837,2.823791265487671,4036.110595703125,0
1833.6540000000005,-0.0046077617444098,0.00045748360571451485,-0.0006994935101829469,0.0,0.0,0.0,0.0,0.005203149281442165,0.0004702307051047683,-0.0012752145994454622,0.9992126226425171,0.0,0.0,0.0,-22.27703094482422,-1.84658682346344,2.829324722290039,4032.1865234375,0
1843.566999999999,-0.004632316995412111,0.0004459428018890321,-0.0007016271119937301,0.0,0.0,0.0,0.0,-0.00499825831502676,0.0004744808829855174,-0.0016452950658276677,0.9991678595542908,0.0,0.0,0.0,-22.30426597595215,-1.8561533689498901,2.8278090953826904,4037.11669921875,0
1853.476999999999,-0.0046347868628799915,0.00046077740262262523,-0.000730047351680696,0.0,0.0,0.0,0.0,0.002514555584639311,0.0033603147603571415,0.0017216280102729797,0.998847246170044,0.0,0.0,0.0,-22.282438278198242,-1.8497203588485718,2.8236024379730225,4033.165771484375,0
1863.3889999999992,-0.004620738793164492,0.0004664537264034152,-0.0007485604728572071,0.0,0.0,0.0,0.0,-0.0028100409545004368,-0.002343502128496766,0.002206090372055769,0.9979766011238098,0.0,0.0,0.0,-22.306272506713867,-1.843950867652893,2.827915906906128,4037.479736328125,0
1873.3060000000005,-0.00462441286072135,0.0004825146170333028,-0.000778874265961349,0.0,0.0,0.0,0.0,0.0012538640294224024,0.0023670559749007225,-0.0026593792717903852,0.9994856715202332,0.0,0.0,0.0,-22.282941818237305,-1.8479958772659302,2.830876588821411,4033.257080078125,0
1883.217999999999,-0.004616604186594486,0.00048370478907600045,-0.0007781279273331165,0.0,0.0,0.0,0.0,-0.00020480470266193151,-0.0017445486737415195,-0.0016737135592848063,1.0018422603607178,0.0,0.0,0.0,-22.307668685913086,-1.8435307741165161,2.841728448867798,4037.732421875,0
1893.128999999999,-0.004622886888682842,0.0005010653985664248,-0.0008090781047940254,0.0,0.0,0.0,0.0,0.0011096331290900707,0.0018835291266441345,0.00036774814361706376,1.0021085739135742,0.0,0.0,0.0,-22.28577423095703,-1.8429749011993408,2.8249504566192627,4033.76953125,0
1903.0419999999995,-0.00458115478977561,0.0005308954860083759,-0.0008735684677958488,0.0,0.0,0.0,0.0,-0.0020993431098759174,-0.007403637748211622,-0.00023591735225636512,0.999324381351471,0.0,0.0,0.0,-22.301008224487305,-1.8381356000900269,2.8514137268066406,4036.527099609375,0
1912.9480000000003,-0.004585710354149342,0.0005483994027599692,-0.0009020036086440086,0.0,0.0,0.0,0.0,0.00039519064011983573,0.002960667945444584,-0.0010095236357301474,0.999013364315033,0.0,0.0,0.0,-22.278671264648438,-1.835512638092041,2.8428709506988525,4032.48388671875,0
1922.8680000000004,-0.004586751572787762,0.0005365444230847061,-0.0008896427461877465,0.0,0.0,0.0,0.0,5.6236920499941334e-05,0.0005192462122067809,0.0009969999082386494,1.0003299713134766,0.0,0.0,0.0,-22.296236038208008,-1.8312760591506958,2.8624582290649414,4035.6630859375,0
1932.771999999999,-0.00460133096203208,0.0005779602797701955,-0.0009455170948058367,0.0,0.0,0.0,0.0,-0.0016464213840663433,0.0022999695502221584,-0.003498680889606476,0.9991787672042847,0.0,0.0,0.0,-22.250261306762695,-1.817807674407959,2.8537635803222656,4027.34130859375,0
1942.691999999999,-0.004588650073856115,0.0005082194111309946,-0.0009013860835693777,0.0,0.0,0.0,0.0,-0.0015690899454057217,-0.0008568579214625061,0.002771735889837146,1.0008327960968018,0.0,0.0,0.0,-22.29480743408203,-1.8302762508392334,2.878998279571533,4035.404541015625,0
1952.601999999999,-0.004609217867255211,0.00054553133668378,-0.0009586859960108995,0.0,0.0,0.0,0.0,2.444291385472752e-05,0.002840527566149831,0.0014371206052601337,0.9997067451477051,0.0,0.0,0.0,-22.250934600830078,-1.8220371007919312,2.8743367195129395,4027.46337890625,0
1962.518,-0.004593810997903347,0.0004873097932431847,-0.0009165005176328123,0.0,0.0,0.0,0.0,-0.0002185262565035373,-0.0019332242663949728,0.002345348009839654,0.9998394250869751,0.0,0.0,0.0,-22.295576095581055,-1.830865740776062,2.897812843322754,4035.54345703125,0
1972.4230000000007,-0.0046049146912992,0.0005065685254521668,-0.0009479558211751282,0.0,0.0,0.0,0.0,-0.0012197204632684588,-0.0042566037736833096,0.004337398800998926,1.0015504360198975,0.0,0.0,0.0,-22.27306365966797,-1.8334996700286865,2.893779993057251,4031.46875,0
1982.3459999999995,-0.004551670979708433,0.0005170034128241241,-0.0010336057748645544,0.0,0.0,0.0,0.0,0.00109982886351645,0.0025591831654310226,-0.0017430756706744432,1.0001029968261719,0.0,0.0,0.0,-22.29127311706543,-1.8400380611419678,2.9231324195861816,4034.7646484375,0
1992.2459999999992,-0.004556107800453901,0.0005320814670994878,-0.001063168398104608,0.0,0.0,0.0,0.0,0.0004704678140114993,0.0025374037213623524,0.0025281060952693224,0.9992595911026001,0.0,0.0,0.0,-22.269319534301758,-1.838862419128418,2.921652317047119,4030.791015625,0
2002.1659999999993,-0.004544109106063843,0.0005197917926125228,-0.0010780268348753452,0.0,0.0,0.0,0.0,-0.002412457950413227,0.0015986209036782384,0.0005834235344082117,0.9986433386802673,0.0,0.0,0.0,-22.28943634033203,-1.839277744293213,2.9251651763916016,4034.432373046875,0
2012.0679999999993,-0.004545770585536957,0.0005341709475032985,-0.0011078383540734649,0.0,0.0,0.0,0.0,0.0016552595188841224,-0.0013185563730075955,-0.0021471946965903044,0.9993057250976562,0.0,0.0,0.0,-22.26683235168457,-1.8419188261032104,2.9259400367736816,4030.341064453125,0
2021.9930000000004,-0.004497550893574953,0.0005695583531633019,-0.00119798444211483,0.0,0.0,0.0,0.0,-0.00026650307700037956,0.00644198153167963,-0.0018859411356970668,1.0021353960037231,0.0,0.0,0.0,-22.288509368896484,-1.8370646238327026,2.9385464191436768,4034.264404296875,0
2031.8899999999994,-0.004495859146118164,0.0005830948357470334,-0.0012300376547500491,0.0,0.0,0.0,0.0,0.00033370149321854115,-0.0034879331942647696,0.0003266181447543204,0.9992550015449524,0.0,0.0,0.0,-22.265756607055664,-1.8398023843765259,2.9296882152557373,4030.146240234375,0
2041.8150000000005,-0.004445772152394056,0.0006336416117846966,-0.0013277442194521427,0.0,0.0,0.0,0.0,0.00014172380906529725,0.0016270040068775415,0.00047658028779551387,0.9982762336730957,0.0,0.0,0.0,-22.285608291625977,-1.829350471496582,2.934805393218994,4033.739501953125,0
2051.714,-0.004443034529685974,0.0006493047112599015,-0.001359082874841988,0.0,0.0,0.0,0.0,0.0009041597368195653,-0.000464733166154474,0.0012048017233610153,0.9997369050979614,0.0,0.0,0.0,-22.2635555267334,-1.8253389596939087,2.930654525756836,4029.747802734375,0
2061.6319999999996,-0.004393369425088167,0.0007423724164254963,-0.001472401199862361,0.0,0.0,0.0,0.0,-0.0009019896970130503,0.0013758798595517874,-0.0010709628695622087,1.0008862018585205,0.0,0.0,0.0,-22.286447525024414,-1.8047599792480469,2.9307265281677246,4033.8916015625,0
2071.536,-0.004847338423132896,-8.126936882035807e-05,-1.0346053386456333e-05,0.0,0.0,0.0,0.0,0.0032294776756316423,0.0010803209152072668,-0.001219178200699389,0.9992672204971313,0.0,0.0,0.0,-22.315170288085938,-1.8670175075531006,2.926161766052246,4039.090576171875,0
2081.458999999999,-0.004845622926950455,-5.481618063640781e-05,2.656748802110087e-05,0.0,0.0,0.0,0.0,0.0016637740191072226,-0.003949309699237347,0.0026528681628406048,1.0012030601501465,0.0,0.0,0.0,-22.33513832092285,-1.8610312938690186,2.90799617767334,4042.704345703125,0
2091.370999999999,-0.004851149395108223,-5.1582155720097944e-05,2.1742946046288125e-05,0.0,0.0,0.0,0.0,0.0035323863849043846,0.0005210896488279104,0.0030574726406484842,1.0009875297546387,0.0,0.0,0.0,-22.312734603881836,-1.8610044717788696,2.9013237953186035,4038.649658203125,0
2101.2870000000003,-0.0047914315946400166,-8.49254647619091e-05,2.2766767870052718e-05,0.0,0.0,0.0,0.0,0.002638686215505004,-0.000188444260857068,-0.006793168839067221,1.0005635023117065,0.0,0.0,0.0,-22.324424743652344,-1.8613004684448242,2.9106712341308594,4040.765380859375,0
2111.182999999999,-0.004797382280230522,-8.044177229749039e-05,1.9834673366858624e-05,0.0,0.0,0.0,0.0,-0.0005822516395710409,0.004177741706371307,-0.0035723717883229256,1.0006510019302368,0.0,0.0,0.0,-22.301856994628906,-1.861376404762268,2.9195780754089355,4036.680419921875,0
2121.107,-0.0048205615021288395,-3.4557131584733725e-05,4.678858385886997e-05,0.0,0.0,0.0,0.0,-0.0013128294376656413,-0.0004630167968571186,0.0002818669890984893,1.0008158683776855,0.0,0.0,0.0,-22.326663970947266,-1.8477904796600342,2.9073100090026855,4041.17041015625,0
2131.0159999999996,-0.004825802985578775,-2.6225745386909693e-05,4.7393361455760896e-05,0.0,0.0,0.0,0.0,-0.001507302513346076,-0.0034275278449058533,0.0003189260605722666,1.0002338886260986,0.0,0.0,0.0,-22.305355072021484,-1.8405879735946655,2.8933472633361816,4037.3134765625,0
