timestamp,stateEstimate.x,stateEstimate.y,stateEstimate.z,controller.cmd_thrust,controller.cmd_roll,controller.cmd_pitch,controller.cmd_yaw,controller.r_roll,controller.r_pitch,controller.r_yaw,controller.accelz,controller.actuatorThrust,controller.roll,controller.pitch,controller.yaw,controller.rollRate,controller.pitchRate,controller.yawRate,controller.ctr_yaw
0.0,-0.0027204533107578754,0.0006191591965034604,-0.0015210502315312624,0.0,0.0,0.0,0.0,1.192964987239975e-06,-0.0009686590638011694,0.003058526897802949,1.000584363937378,0.0,0.0,0.0,0.26348158717155457,-1.7579281330108643,5.096264362335205,-47.69068908691406,0
9.925999999999476,-0.0028365410398691893,0.0006445727776736021,-0.0015506544150412083,0.0,0.0,0.0,0.0,-0.0013553275493904948,-0.00038951958413235843,-0.0004164069832768291,0.9992105960845947,0.0,0.0,0.0,0.2632947266101837,-1.7600661516189575,5.092287063598633,-47.65686798095703,0
19.82600000000093,-0.0001973799808183685,-0.00024033061345107853,0.0003228618297725916,0.0,0.0,0.0,0.0,0.003499547252431512,-0.005000246688723564,-0.003919478040188551,0.9992769956588745,0.0,0.0,0.0,0.2657015025615692,-1.8704159259796143,5.460270881652832,-48.09249496459961,0
29.747000000001208,-0.00022191644529812038,-0.00023689030786044896,0.000338704907335341,0.0,0.0,0.0,0.0,0.0039783357642591,0.000921009574085474,0.002135050483047962,1.0004076957702637,0.0,0.0,0.0,0.2646925151348114,-1.8665406703948975,5.472193241119385,-47.90987014770508,0
39.64800000000105,-0.00024742147070355713,-0.0002309847914148122,0.0003541506011970341,0.0,0.0,0.0,0.0,0.0009186118259094656,5.908633102080785e-05,0.00011199141590623185,0.9999443888664246,0.0,0.0,0.0,0.26430556178092957,-1.8677644729614258,5.466620445251465,-47.8398323059082,0
49.56999999999971,-0.0002734810404945165,-0.0002237062726635486,0.0003699526423588395,0.0,0.0,0.0,0.0,-0.0011456671636551619,-0.001904654665850103,8.255974535131827e-05,1.0005979537963867,0.0,0.0,0.0,0.26429283618927,-1.8660337924957275,5.463066101074219,-47.83753204345703,0
59.47900000000118,-0.00018217194883618504,-0.0003056238347198814,0.00038188061444088817,0.0,0.0,0.0,0.0,-0.0013575565535575151,6.0940168623346835e-05,0.0023879928048700094,1.0011701583862305,0.0,0.0,0.0,0.2752404808998108,-1.8924773931503296,5.501359939575195,-49.81907653808594,0
69.39400000000023,-9.383874566992745e-05,-9.016089461511001e-05,-6.218884664122015e-05,0.0,0.0,0.0,0.0,0.0002605051558930427,-7.698685658397153e-05,0.0031684045679867268,1.0011578798294067,0.0,0.0,0.0,0.263923317193985,-1.8447641134262085,5.532175064086914,-47.77064514160156,0
79.29700000000048,-3.068038495257497e-05,-0.00011552242358447984,-3.9508708141511306e-05,0.0,0.0,0.0,0.0,0.0009790722979232669,-0.0008867172291502357,0.004580326844006777,1.0003622770309448,0.0,0.0,0.0,0.2839116156101227,-1.8508992195129395,5.537927627563477,-51.38856506347656,0
89.21100000000115,-3.638998532551341e-05,-0.00010335156548535451,-7.00442906236276e-05,0.0,0.0,0.0,0.0,0.0019363429164513946,-0.002339609432965517,-0.0034541324712336063,0.99873948097229,0.0,0.0,0.0,0.28472381830215454,-1.848024606704712,5.537284851074219,-51.535579681396484,0
99.1260000000002,9.296534813074686e-07,-0.0001233853108715266,-6.646529800491408e-05,0.0,0.0,0.0,0.0,0.0002371248119743541,-0.0029210245702415705,-0.0008419601363129914,0.999845027923584,0.0,0.0,0.0,0.2943543791770935,-1.8587054014205933,5.530215263366699,-53.278724670410156,0
109.03299999999945,2.283188905494171e-06,-8.314069418702275e-05,-8.661126048536971e-05,0.0,0.0,0.0,0.0,0.0006546612130478024,0.0037878563161939383,-0.001002224162220955,1.0006800889968872,0.0,0.0,0.0,0.2872801125049591,-1.8574156761169434,5.526943206787109,-51.99827194213867,0
118.94200000000092,1.1904875464097131e-05,-4.8179703298956156e-05,-6.56102565699257e-05,0.0,0.0,0.0,0.0,-0.001194521551951766,0.00028241038671694696,-0.0012736173812299967,1.000484824180603,0.0,0.0,0.0,0.2875281274318695,-1.858229398727417,5.525053024291992,-52.04316329956055,0
128.86000000000058,-2.6526542569627054e-05,-9.198304906021804e-05,-7.395993452519178e-05,0.0,0.0,0.0,0.0,-0.0015958088915795088,0.0034948731772601604,0.004715951159596443,1.0007470846176147,0.0,0.0,0.0,0.2857937812805176,-1.8498324155807495,5.523221015930176,-51.729244232177734,0
138.77200000000084,-7.656160596525297e-05,-5.824350591865368e-05,-8.120414713630453e-05,0.0,0.0,0.0,0.0,-0.0038789829704910517,-0.0011197327403351665,-0.00022079708287492394,0.9986481070518494,0.0,0.0,0.0,0.2853458523750305,-1.8447142839431763,5.510746479034424,-51.64816665649414,0
148.67799999999988,-3.9118065615184605e-05,-6.704613497277023e-06,-0.0001436322636436671,0.0,0.0,0.0,0.0,0.00013489402772393078,7.610385364387184e-05,0.0030946957413107157,1.0000462532043457,0.0,0.0,0.0,0.28502169251441956,-1.8374812602996826,5.5049824714660645,-51.5894889831543,0
158.59100000000035,-4.6997593017295e-05,2.5311011995654553e-05,-0.000139896510518156,0.0,0.0,0.0,0.0,0.0018955511040985584,0.0007716011023148894,-0.001026003621518612,1.0014307498931885,0.0,0.0,0.0,0.28462621569633484,-1.837782621383667,5.501938343048096,-51.517906188964844,0
168.5069999999996,-4.209740291116759e-05,3.97576077375561e-05,-0.00018734113837126642,0.0,0.0,0.0,0.0,0.002799621317535639,-0.0003101554175373167,0.0010279405396431684,0.9994913339614868,0.0,0.0,0.0,0.28420549631118774,-1.8344320058822632,5.501508712768555,-51.4417610168457,0
178.41400000000067,-4.413109127199277e-05,6.757115625077859e-05,-0.0001831512781791389,0.0,0.0,0.0,0.0,0.00031292560743167996,-0.0008276374428533018,0.001475986442528665,0.9977062940597534,0.0,0.0,0.0,0.28416940569877625,-1.8335626125335693,5.488940238952637,-51.43523025512695,0
188.32600000000093,-2.0147454051766545e-05,0.00010205357830272987,-0.0002501599083188921,0.0,0.0,0.0,0.0,0.0015975093701854348,0.0024058211129158735,-0.0006848378689028323,0.999347984790802,0.0,0.0,0.0,0.28451815247535706,-1.8360952138900757,5.481502532958984,-51.498348236083984,0
198.2440000000006,2.7554217012948357e-05,7.735503459116444e-05,-0.0002567898773122579,0.0,0.0,0.0,0.0,0.0004110349982511252,-0.0012293272884562612,0.0014851372689008713,0.9996275305747986,0.0,0.0,0.0,0.29175105690956116,-1.8417154550552368,5.479429721832275,-52.80752182006836,0
208.15700000000106,-2.1388737877714448e-05,3.748543167603202e-05,-0.0002804296382237226,0.0,0.0,0.0,0.0,0.0017162280855700374,0.00011088284372817725,0.0010821092873811722,1.000328540802002,0.0,0.0,0.0,0.2927236557006836,-1.8407989740371704,5.485048770904541,-52.98356246948242,0
218.06800000000112,-4.022180655738339e-05,7.697337423451245e-05,-0.00028612895403057337,0.0,0.0,0.0,0.0,-0.0014916061190888286,-0.00045857400982640684,0.0001023051590891555,1.0026081800460815,0.0,0.0,0.0,0.3023415505886078,-1.8390514850616455,5.483972072601318,-54.724422454833984,0
227.97600000000057,-4.956984048476443e-05,9.136040171142668e-05,-0.0003390394267626107,0.0,0.0,0.0,0.0,-0.0005864415434189141,-0.0015151210827752948,0.00020271193352527916,1.001238465309143,0.0,0.0,0.0,0.3016374111175537,-1.8431930541992188,5.481068134307861,-54.59696960449219,0
237.88800000000083,-1.9272914869361557e-05,5.494653669302352e-05,-0.0003557910386007279,0.0,0.0,0.0,0.0,-0.0019462531199678779,-0.0022569408174604177,-0.003591696033254266,1.0007050037384033,0.0,0.0,0.0,0.3083520829677582,-1.845908522605896,5.484766960144043,-55.81234359741211,0
247.8040000000001,-0.00011157934204675257,2.449108797009103e-05,-0.0003285269776824862,0.0,0.0,0.0,0.0,0.001880232710391283,0.002045759465545416,-0.0008315574959851801,1.0004758834838867,0.0,0.0,0.0,0.30735859274864197,-1.8410511016845703,5.482580184936523,-55.63251495361328,0
257.71500000000015,-2.2457730665337294e-05,4.0773345972411335e-05,-0.0002856606733985245,0.0,0.0,0.0,0.0,-0.002184964017942548,-0.0017527037998661399,-0.0003573592402972281,1.0007954835891724,0.0,0.0,0.0,0.31907716393470764,-1.8406990766525269,5.4901123046875,-57.75360107421875,0
267.6220000000012,-0.00011482030095066875,-1.6728565242374316e-05,-0.000265487062279135,0.0,0.0,0.0,0.0,-0.001417710562236607,0.0024124879855662584,-0.003695216029882431,1.002678394317627,0.0,0.0,0.0,0.3119587302207947,-1.8490853309631348,5.477625370025635,-56.465152740478516,0
277.53900000000067,-1.0848635611182544e-05,-4.224251097184606e-05,-0.0002241145120933652,0.0,0.0,0.0,0.0,-0.0008645129855722189,0.0037448510993272066,-0.001171393902041018,1.0011351108551025,0.0,0.0,0.0,0.3190574049949646,-1.8482555150985718,5.500676155090332,-57.75002670288086,0
287.4449999999997,-0.00011895583884324878,-9.764904098119587e-05,-0.00017479833331890404,0.0,0.0,0.0,0.0,-0.0037914926651865244,-0.00014845450641587377,0.001871571526862681,0.9995164275169373,0.0,0.0,0.0,0.3124285042285919,-1.8547803163528442,5.478247165679932,-56.55018615722656,0
297.362000000001,-5.455910650198348e-05,-9.747254807734862e-05,-0.00012607150711119175,0.0,0.0,0.0,0.0,-0.006056424230337143,-0.004454019013792276,0.005641710478812456,0.9995238780975342,0.0,0.0,0.0,0.3122577965259552,-1.8502453565597534,5.467297554016113,-56.519283294677734,0
307.27100000000064,-0.00012435689859557897,-0.00011970438208663836,-0.00010062984802061692,0.0,0.0,0.0,0.0,0.0010111286537721753,0.003499623853713274,-0.0008706030785106122,0.9971587061882019,0.0,0.0,0.0,0.3120651841163635,-1.8408719301223755,5.472334384918213,-56.48441696166992,0
317.1840000000011,-5.333134686225094e-05,-0.00012778113887179643,-5.2203264203853905e-05,0.0,0.0,0.0,0.0,0.0007348840590566397,0.001311261672526598,0.000531210855115205,0.9990390539169312,0.0,0.0,0.0,0.32189956307411194,-1.8427773714065552,5.488531589508057,-58.26445770263672,0
327.09500000000116,-0.0001240465498995036,-0.00018372667545918375,-3.8761794712627307e-05,0.0,0.0,0.0,0.0,0.00035154871875420213,0.0009682874660938978,-0.0015914264367893338,1.000920057296753,0.0,0.0,0.0,0.3158665597438812,-1.8504284620285034,5.476598739624023,-57.17247772216797,0
337.005000000001,-0.00012198462354717776,-0.0001844018406700343,-1.592072112543974e-05,0.0,0.0,0.0,0.0,-0.001133267185650766,-0.0011429991573095322,0.0022643597330898046,0.9986493587493896,0.0,0.0,0.0,0.3251424729824066,-1.8553969860076904,5.476747989654541,-58.85143280029297,0
346.9220000000005,-0.00010798234870890155,-0.00013926195970270783,-5.915506699238904e-05,0.0,0.0,0.0,0.0,0.0012060735607519746,-0.002358104335144162,-0.0029251277446746826,0.9997812509536743,0.0,0.0,0.0,0.3243502378463745,-1.8477460145950317,5.469564914703369,-58.708038330078125,0
356.8279999999995,-5.624069308396429e-05,-0.00011566073953872547,-1.0026840755017474e-05,0.0,0.0,0.0,0.0,-0.0009582785423845053,-0.0035486030392348766,0.0022766480688005686,1.0006285905838013,0.0,0.0,0.0,0.3241617679595947,-1.8436403274536133,5.4677934646606445,-58.67392349243164,0
366.7510000000002,1.7140836234830203e-06,-6.104179919930175e-05,-0.00010390529496362433,0.0,0.0,0.0,0.0,-0.0008875842904672027,0.0022886707447469234,0.0012591886334121227,0.9987757802009583,0.0,0.0,0.0,0.32370075583457947,-1.8361573219299316,5.466597080230713,-58.59048080444336,0
376.65799999999945,1.3431470506475307e-05,-7.182116678450257e-05,-9.832551586441696e-05,0.0,0.0,0.0,0.0,-0.0035377992317080498,0.0010810624808073044,0.000842532142996788,1.0036009550094604,0.0,0.0,0.0,0.3319582939147949,-1.8402533531188965,5.479770660400391,-60.08510971069336,0
386.5689999999995,2.0608144041034393e-05,-3.081564136664383e-05,-0.0001411500561516732,0.0,0.0,0.0,0.0,0.0006204623496159911,-0.0005268941749818623,0.002896310528740287,1.0030112266540527,0.0,0.0,0.0,0.33220958709716797,-1.8302960395812988,5.47221565246582,-60.130592346191406,0
396.4790000000012,2.638937803567387e-05,-4.460986019694246e-06,-0.00012367454473860562,0.0,0.0,0.0,0.0,0.004455690737813711,-0.0004322107997722924,0.00463258009403944,0.9998441338539124,0.0,0.0,0.0,0.3313973546028137,-1.824126958847046,5.470707416534424,-59.98358154296875,0
406.40300000000025,-1.5127194274100475e-05,-4.193906352156773e-05,-0.0001408823300153017,0.0,0.0,0.0,0.0,-0.0001801498292479664,-0.003914251923561096,0.0032556436490267515,1.0007646083831787,0.0,0.0,0.0,0.3317393958568573,-1.8227006196975708,5.472647666931152,-60.04549026489258,0
416.3050000000003,-3.036468660866376e-05,-1.2717831850750372e-05,-0.00012752582551911473,0.0,0.0,0.0,0.0,-0.002280191984027624,-0.003179876832291484,0.00157494330778718,0.9991024732589722,0.0,0.0,0.0,0.3324912488460541,-1.823644995689392,5.462942600250244,-60.18157958984375,0
426.22199999999975,-3.750620817299932e-05,-2.6483621695660986e-06,-0.00016669653996359557,0.0,0.0,0.0,0.0,-0.0031674059573560953,0.002054968848824501,-0.002974756294861436,0.9974496364593506,0.0,0.0,0.0,0.3334203362464905,-1.8149571418762207,5.469995021820068,-60.34974670410156,0
436.1270000000004,-6.282005779212341e-05,4.157665171078406e-05,-0.00015275250189006329,0.0,0.0,0.0,0.0,-0.0011786235263571143,-0.003743360750377178,-0.002308618277311325,0.9988200068473816,0.0,0.0,0.0,0.33249831199645996,-1.8074970245361328,5.469441890716553,-60.18285369873047,0
446.0590000000011,-8.84924884303473e-05,1.1525258742040023e-05,-0.00019644720305223018,0.0,0.0,0.0,0.0,0.0005881604156456888,-0.004188561346381903,-0.0008827853598631918,1.001222848892212,0.0,0.0,0.0,0.3327246308326721,-1.7943364381790161,5.462139129638672,-60.223819732666016,0
455.95700000000033,-7.275938696693629e-05,4.172889020992443e-05,-0.00017607875633984804,0.0,0.0,0.0,0.0,-0.00140289100818336,-0.001646091346628964,0.0011436379281803966,0.9997996687889099,0.0,0.0,0.0,0.338408499956131,-1.7910324335098267,5.476070404052734,-61.25260925292969,0
465.8760000000002,-8.120697748381644e-05,6.228262645890936e-05,-0.0002203571202699095,0.0,0.0,0.0,0.0,0.0010617567459121346,-0.003296077949926257,-0.0007854573777876794,1.000604510307312,0.0,0.0,0.0,0.3379769027233124,-1.7863621711730957,5.468136787414551,-61.174495697021484,0
475.78200000000106,-7.285586616490036e-05,9.188476542476565e-05,-0.00020479435625020415,0.0,0.0,0.0,0.0,0.0005813915049657226,-0.00022607899154536426,0.004628511145710945,1.001405954360962,0.0,0.0,0.0,0.33695563673973083,-1.7804971933364868,5.467343330383301,-60.98964309692383,0
485.6990000000005,-9.614432929083705e-05,0.00011171415826538578,-0.00023471358872484416,0.0,0.0,0.0,0.0,-0.0012821481795981526,-0.0026525212451815605,0.0022169197909533978,0.9982811212539673,0.0,0.0,0.0,0.335899293422699,-1.7794567346572876,5.474967956542969,-60.79844284057617,0
495.603000000001,-9.862596925813705e-05,0.00011821083899121732,-0.00023105264699552208,0.0,0.0,0.0,0.0,0.00010993480100296438,-0.001472280127927661,0.0018623742507770658,0.9984915256500244,0.0,0.0,0.0,0.33621397614479065,-1.782135248184204,5.473920822143555,-60.85539627075195,0
505.53000000000065,-0.00016093358863145113,1.938196874107234e-06,-0.00021483738964889199,0.0,0.0,0.0,0.0,0.0035461822990328074,0.0032724053598940372,0.0014768075197935104,1.0017609596252441,0.0,0.0,0.0,0.3303450644016266,-1.7993392944335938,5.4662861824035645,-59.79311752319336,0
515.4250000000011,-0.00011885799176525325,2.138432137144264e-05,-0.000182090254384093,0.0,0.0,0.0,0.0,0.0011879147496074438,-0.0028642802499234676,0.0014347437536343932,0.9992605447769165,0.0,0.0,0.0,0.33066245913505554,-1.7964954376220703,5.4619574546813965,-59.850563049316406,0
525.3500000000004,-0.00017565568850841373,-1.4159104466671124e-05,-0.00019779911963269114,0.0,0.0,0.0,0.0,-0.002099477220326662,-0.000722381635569036,0.0004691449285019189,0.9993985891342163,0.0,0.0,0.0,0.32457783818244934,-1.8070416450500488,5.459660530090332,-58.74923324584961,0
535.2540000000008,-0.00010392242984380573,-3.3460066333645955e-05,-0.00016744791355449706,0.0,0.0,0.0,0.0,-0.0009578983881510794,1.8000237105297856e-05,-0.0004077608173247427,1.0011447668075562,0.0,0.0,0.0,0.3240388333797455,-1.8039060831069946,5.453658103942871,-58.65167236328125,0
545.1790000000001,-0.00015827907191123813,-6.043682515155524e-05,-0.00018078164430335164,0.0,0.0,0.0,0.0,8.858676301315427e-05,0.0010397228179499507,0.0002355014585191384,1.000505805015564,0.0,0.0,0.0,0.32388609647750854,-1.8026392459869385,5.4547319412231445,-58.624027252197266,0
555.0779999999995,-4.681831342168152e-05,-4.671276474255137e-05,-0.00011617141717579216,0.0,0.0,0.0,0.0,0.0007986884447745979,-0.003033393993973732,0.0001007551109069027,1.0029247999191284,0.0,0.0,0.0,0.3236108124256134,-1.8009681701660156,5.45334005355835,-58.57420349121094,0
565.0020000000004,-0.00013950327411293983,-9.90836851997301e-05,-8.647151116747409e-05,0.0,0.0,0.0,0.0,-0.0008710013353265822,0.0022300772834569216,0.0006489816005341709,1.0007859468460083,0.0,0.0,0.0,0.3154979348182678,-1.8045865297317505,5.445662498474121,-57.105751037597656,0
574.9009999999998,-5.972814324195497e-05,-0.00012124425848014653,-4.295458711567335e-05,0.0,0.0,0.0,0.0,0.0014962770510464907,0.003589816391468048,-0.0005931115592829883,0.9985495209693909,0.0,0.0,0.0,0.315050333738327,-1.805783748626709,5.437931060791016,-57.02473449707031,0
584.8289999999997,-5.524492007680237e-05,-5.141157453181222e-05,-6.731845496688038e-05,0.0,0.0,0.0,0.0,0.0013948328560218215,-0.0014817003393545747,-0.0031848244834691286,0.9991722106933594,0.0,0.0,0.0,0.31385913491249084,-1.8050910234451294,5.425781726837158,-56.80913162231445,0
594.728000000001,-1.9277260435046628e-05,-7.016700692474842e-05,-4.5422293624142185e-05,0.0,0.0,0.0,0.0,0.0021961526945233345,0.001014003879390657,0.0033971176017075777,0.9987460374832153,0.0,0.0,0.0,0.31437358260154724,-1.8016999959945679,5.423615455627441,-56.902244567871094,0
604.6360000000004,-1.6465812223032117e-05,-5.228038935456425e-05,-9.365862206323072e-05,0.0,0.0,0.0,0.0,0.00191954942420125,0.00010703688894864172,0.004616533871740103,0.998753547668457,0.0,0.0,0.0,0.31302449107170105,-1.8039007186889648,5.412564277648926,-56.65805435180664,0
614.5509999999995,-4.833032107853796e-07,-5.9417623560875654e-05,-8.344127127202228e-05,0.0,0.0,0.0,0.0,0.0018184579676017165,-0.002291001146659255,-0.0009258097852580249,0.9965530633926392,0.0,0.0,0.0,0.3213767409324646,-1.8048757314682007,5.4179368019104,-58.169830322265625,0
624.460000000001,8.036270628508646e-06,-2.0641005903598852e-05,-0.00013514707097783685,0.0,0.0,0.0,0.0,0.0016152672469615936,0.0008300516055896878,-0.0033306714612990618,0.9984107613563538,0.0,0.0,0.0,0.32074424624443054,-1.7980554103851318,5.417462348937988,-58.05534744262695,0
634.3630000000012,-2.841649438778404e-05,-4.253187944414094e-05,-0.00016196408250834793,0.0,0.0,0.0,0.0,-0.0012465312611311674,0.0012965886853635311,0.0006263299146667123,1.0008037090301514,0.0,0.0,0.0,0.32800573110580444,-1.8111319541931152,5.411285400390625,-59.369686126708984,0
644.2860000000001,6.299705091805663e-06,2.6287232685717754e-05,-0.00024069279606919736,0.0,0.0,0.0,0.0,-0.0008152971277013421,0.0016562474193051457,0.0023685137275606394,1.0014911890029907,0.0,0.0,0.0,0.3290257453918457,-1.8088756799697876,5.399567127227783,-59.554317474365234,0
654.1920000000009,4.412979615153745e-05,1.5007312867965084e-05,-0.00023940943356137723,0.0,0.0,0.0,0.0,0.0031103170476853848,-0.00266210432164371,0.0014111717464402318,1.0007197856903076,0.0,0.0,0.0,0.3357831537723541,-1.8132485151290894,5.404316425323486,-60.77742004394531,0
664.1090000000004,2.9467121294146637e-06,1.527732274553273e-05,-0.00025973204174079,0.0,0.0,0.0,0.0,0.003164091147482395,-0.0008876603678800166,0.0003576218441594392,0.9973580837249756,0.0,0.0,0.0,0.3355395197868347,-1.8108400106430054,5.401925563812256,-60.73331832885742,0
674.0159999999996,2.56717194133671e-05,1.383623657602584e-05,-0.0002597770653665066,0.0,0.0,0.0,0.0,0.0005976015236228704,-0.0006742676487192512,0.0037693693302571774,1.0013768672943115,0.0,0.0,0.0,0.3456723392009735,-1.8238167762756348,5.3984575271606445,-62.5673828125,0
683.9470000000001,2.4066410333034582e-05,4.835308936890215e-05,-0.000313366501359269,0.0,0.0,0.0,0.0,-0.00042392528848722577,-0.0022501663770526648,0.002693730406463146,1.0001258850097656,0.0,0.0,0.0,0.3452651798725128,-1.8242219686508179,5.397035121917725,-62.493682861328125,0
693.8420000000006,-3.814891169895418e-05,0.00011555777018656954,-0.0003212297451682389,0.0,0.0,0.0,0.0,0.0017336340388283134,0.0021314232144504786,0.002442227443680167,0.9987313747406006,0.0,0.0,0.0,0.345595121383667,-1.8215265274047852,5.388535976409912,-62.553401947021484,0
703.7659999999996,-6.382445280905813e-05,0.00011426665878389031,-0.0003703541005961597,0.0,0.0,0.0,0.0,-0.0026621574070304632,-0.002656881930306554,-0.0022653373889625072,1.0007715225219727,0.0,0.0,0.0,0.34659796953201294,-1.8238497972488403,5.378408908843994,-62.73492431640625,0
713.6610000000001,-5.2091185352765024e-05,0.0001549363078083843,-0.00036024354631081223,0.0,0.0,0.0,0.0,-0.00011134993837913498,0.0017702053301036358,0.00282386876642704,1.00056791305542,0.0,0.0,0.0,0.34509339928627014,-1.8223240375518799,5.375042915344238,-62.46259307861328,0
723.5820000000003,-0.00014061683032196015,7.619183452334255e-05,-0.0003738515079021454,0.0,0.0,0.0,0.0,0.0028151392471045256,-0.0010075508616864681,-0.001639337744563818,0.9992327690124512,0.0,0.0,0.0,0.34478965401649475,-1.8179749250411987,5.366352558135986,-62.407615661621094,0
733.4830000000002,-6.216126348590478e-05,8.899765089154243e-05,-0.0003409723867662251,0.0,0.0,0.0,0.0,3.152600766043179e-05,0.0019369128858670592,0.006493088323622942,0.9993478059768677,0.0,0.0,0.0,0.34350574016571045,-1.8140895366668701,5.35959005355835,-62.17522430419922,0
743.4099999999999,-0.00012964521010871977,4.014817750430666e-05,-0.0003632293955888599,0.0,0.0,0.0,0.0,0.0018284949474036694,-0.004049291834235191,-0.0038115864153951406,1.0010732412338257,0.0,0.0,0.0,0.34313181042671204,-1.8100818395614624,5.361814975738525,-62.1075439453125,0
753.3090000000011,-7.056976028252393e-05,6.971477705519646e-05,-0.0003282455145381391,0.0,0.0,0.0,0.0,7.058107712509809e-06,-0.004874525126069784,-0.0005427655414678156,1.0027828216552734,0.0,0.0,0.0,0.342571496963501,-1.8068856000900269,5.359736442565918,-62.00612258911133,0
763.2299999999996,-0.00018011823704000562,-4.512658961175475e-06,-0.0003090695827268064,0.0,0.0,0.0,0.0,0.0024995957501232624,0.0007378777372650802,-0.0019385971827432513,1.000585913658142,0.0,0.0,0.0,0.34137558937072754,-1.8105376958847046,5.366205215454102,-61.7896614074707,0
773.1319999999996,-0.00010611138714011759,2.5982562874560244e-05,-0.0002578652638476342,0.0,0.0,0.0,0.0,-0.000961748359259218,-0.0006923570181243122,-0.00021906265465077013,0.999287486076355,0.0,0.0,0.0,0.34091490507125854,-1.808565616607666,5.3624491691589355,-61.706275939941406,0
783.0580000000009,-0.0001824496575864032,-1.0696035133150872e-05,-0.0002533749502617866,0.0,0.0,0.0,0.0,-0.0006690791924484074,-0.0017726700752973557,0.0008612003875896335,1.0009483098983765,0.0,0.0,0.0,0.34004345536231995,-1.806778073310852,5.356132507324219,-61.54853820800781,0
792.9529999999995,-7.774223922751844e-05,1.0002108865592163e-05,-0.0001889264240162447,0.0,0.0,0.0,0.0,0.000853395031299442,0.0031915311701595783,0.002375042764469981,1.0024279356002808,0.0,0.0,0.0,0.34787121415138245,-1.8039573431015015,5.388034343719482,-62.96537780761719,0
802.871000000001,-0.0001258311967831105,2.6355543013778515e-05,-0.00018908923084381968,0.0,0.0,0.0,0.0,-0.002169561805203557,0.0006043920875526965,-0.00135377561673522,1.0012056827545166,0.0,0.0,0.0,0.3397703170776367,-1.7994524240493774,5.383479595184326,-61.49909973144531,0
812.7800000000007,-8.815682667773217e-05,1.2316555512370542e-05,-0.00013893730647396296,0.0,0.0,0.0,0.0,0.0013937391340732574,0.0011640047887340188,-0.0018799324752762914,1.000044345855713,0.0,0.0,0.0,0.33870774507522583,-1.7991687059402466,5.360944747924805,-61.30677795410156,0
822.6890000000003,-6.89539810991846e-05,-2.365950058447197e-05,-0.0001832183334045112,0.0,0.0,0.0,0.0,0.0010427124798297882,-0.002175487345084548,0.002176540205255151,1.0004163980484009,0.0,0.0,0.0,0.33870774507522583,-1.7991687059402466,5.360944747924805,-61.30677795410156,0
832.6000000000004,-0.00010403628402855247,-1.1767397154471837e-05,-0.000152480773977004,0.0,0.0,0.0,0.0,-0.0009763290290720761,-0.001337879104539752,-0.0012660371139645576,0.9988899827003479,0.0,0.0,0.0,0.3383929133415222,-1.8000953197479248,5.343874931335449,-61.249786376953125,0
842.514000000001,-8.231115498347208e-05,-4.740638178191148e-05,-0.00019964900275226682,0.0,0.0,0.0,0.0,-0.001228216802701354,0.0007684831507503986,-0.007040434516966343,0.9994308352470398,0.0,0.0,0.0,0.329826682806015,-1.8042359352111816,5.349545478820801,-59.699283599853516,0
852.4240000000009,-6.349013710860163e-05,2.748412953224033e-06,-0.00013563445827458054,0.0,0.0,0.0,0.0,0.0032657296396791935,0.0020132483914494514,-0.002572270343080163,0.9996547698974609,0.0,0.0,0.0,0.3270333707332611,-1.794298768043518,5.326324462890625,-59.193687438964844,0
862.3369999999995,-7.262427970999852e-05,-1.5480702131753787e-05,-0.0001381431648042053,0.0,0.0,0.0,0.0,-0.0017696814611554146,-0.00028491311240941286,-1.673055339779239e-05,1.0016907453536987,0.0,0.0,0.0,0.31842485070228577,-1.7951114177703857,5.326374530792236,-57.63553237915039,0
872.2530000000006,-3.2620916954329005e-06,-6.0291364206932485e-05,-0.00011335922317812219,0.0,0.0,0.0,0.0,0.0017851024167612195,0.002611789619550109,-0.0016965486574918032,1.000487208366394,0.0,0.0,0.0,0.31827399134635925,-1.7994816303253174,5.319962024688721,-57.60823059082031,0
882.1720000000005,-3.722083647517138e-06,-1.732024429657031e-05,-0.00015402208373416215,0.0,0.0,0.0,0.0,-0.0018652718281373382,0.004831214901059866,-0.0006437773117795587,0.9991940259933472,0.0,0.0,0.0,0.31815072894096375,-1.7951830625534058,5.322110652923584,-57.58591842651367,0
892.0760000000009,1.1559809536265675e-05,-2.2916021407581866e-05,-0.00013811184908263385,0.0,0.0,0.0,0.0,-0.0009535439894534647,-0.000840881431940943,-0.0038927162531763315,1.0007970333099365,0.0,0.0,0.0,0.3171645402908325,-1.7880561351776123,5.315587043762207,-57.407413482666016,0
901.987000000001,3.554728755261749e-05,4.2792948079295456e-05,-0.0001996469945879653,0.0,0.0,0.0,0.0,0.0008238516747951508,-0.0010247533209621906,-0.0010837430600076914,1.0007458925247192,0.0,0.0,0.0,0.3164694011211395,-1.7845693826675415,5.302812576293945,-57.28158950805664,0
911.9040000000005,4.42284690507222e-05,5.732649879064411e-05,-0.0001820869802031666,0.0,0.0,0.0,0.0,-0.0001316152629442513,-0.0002908752067014575,0.0003304599958937615,0.9987784624099731,0.0,0.0,0.0,0.31510603427886963,-1.785536766052246,5.299473285675049,-57.03481674194336,0
921.8109999999997,-2.0516778022283688e-05,3.470871206445736e-06,-0.00019189789600204676,0.0,0.0,0.0,0.0,-0.002024297136813402,0.00032728048972785473,0.002636875957250595,0.9999710917472839,0.0,0.0,0.0,0.314309686422348,-1.7903108596801758,5.282764434814453,-56.89067459106445,0
931.723,-5.708570824936032e-05,5.234911077423021e-05,-0.00017634562391322106,0.0,0.0,0.0,0.0,0.00033091020304709673,-0.001589386840350926,0.0004580962413456291,0.9999836087226868,0.0,0.0,0.0,0.3144721984863281,-1.7852870225906372,5.282758712768555,-56.92009735107422,0
941.6450000000004,-9.494114055996761e-05,3.871289300150238e-05,-0.00020523362036328763,0.0,0.0,0.0,0.0,0.0021175898145884275,0.00555338803678751,-0.0004628452879842371,0.99831223487854,0.0,0.0,0.0,0.31570306420326233,-1.7815475463867188,5.284875869750977,-57.142887115478516,0
951.5439999999999,-8.045399590628222e-05,6.657579797320068e-05,-0.00017794789164327085,0.0,0.0,0.0,0.0,0.0010624317219480872,-0.0001995784987229854,0.0018821862759068608,0.9981634020805359,0.0,0.0,0.0,0.3145141899585724,-1.7804174423217773,5.2689127922058105,-56.92769241333008,0
961.4629999999997,-9.886280895443633e-05,7.219690451165661e-05,-0.00022027685190550983,0.0,0.0,0.0,0.0,-0.0001455963938497007,0.001644751406274736,-0.002694512950256467,1.0004949569702148,0.0,0.0,0.0,0.31473055481910706,-1.7828160524368286,5.260725975036621,-56.966854095458984,0
971.3690000000006,-6.019147258484736e-05,6.171143468236551e-05,-0.0002062165440293029,0.0,0.0,0.0,0.0,-0.0021010723430663347,-0.001987316645681858,0.0029741073958575726,1.0002634525299072,0.0,0.0,0.0,0.31436896324157715,-1.7764869928359985,5.252172470092773,-56.90141296386719,0
981.2890000000007,-0.00014493626076728106,-5.160669843462529e-06,-0.00020229000074323267,0.0,0.0,0.0,0.0,-0.0048510003834962845,-0.005564533174037933,-0.0021976036950945854,1.0016790628433228,0.0,0.0,0.0,0.30776986479759216,-1.7862590551376343,5.24488639831543,-55.70695495605469,0
991.1910000000007,-7.903443474788219e-05,-1.630734550417401e-05,-0.000171142237377353,0.0,0.0,0.0,0.0,-0.0019797643180936575,-0.0006706839776597917,-0.0001951449812622741,0.9987252354621887,0.0,0.0,0.0,0.3070675730705261,-1.7809078693389893,5.234539985656738,-55.5798454284668,0
1001.1170000000002,-0.00015135544526856393,-8.65831971168518e-05,-0.00017933410708792508,0.0,0.0,0.0,0.0,0.002017093589529395,-0.00185439083725214,0.0007075469475239515,1.0003880262374878,0.0,0.0,0.0,0.30768024921417236,-1.7701003551483154,5.239955425262451,-55.69073486328125,0
1011.0200000000004,-6.271155143622309e-05,-7.509053830290213e-05,-0.00012579910981003195,0.0,0.0,0.0,0.0,-0.0022943296935409307,-0.0011137323454022408,-0.001923018367961049,1.0018208026885986,0.0,0.0,0.0,0.307310551404953,-1.7646510601043701,5.245920181274414,-55.62382507324219,0
1020.9349999999995,-8.669473027111962e-05,-3.63699218723923e-05,-0.00013883470091968775,0.0,0.0,0.0,0.0,0.0018640963826328516,0.0027957672718912363,-0.0005667345249094069,1.0018622875213623,0.0,0.0,0.0,0.30632373690605164,-1.7667794227600098,5.235612869262695,-55.44520950317383,0
1030.8410000000003,-2.7142050385009497e-05,-5.602472083410248e-05,-0.00010819475573953241,0.0,0.0,0.0,0.0,0.001490335096605122,-0.0004645556036848575,-0.0027892820071429014,1.000451922416687,0.0,0.0,0.0,0.3059569299221039,-1.7655994892120361,5.223697185516357,-55.37881088256836,0
1040.7600000000002,-3.4528409742051736e-05,-4.64866534457542e-05,-0.00014817403280176222,0.0,0.0,0.0,0.0,-0.0001243865699507296,-0.0024509041104465723,-0.0008549611084163189,1.0013465881347656,0.0,0.0,0.0,0.30469998717308044,-1.7685667276382446,5.219917297363281,-55.15130615234375,0
1050.6620000000003,4.040898602397647e-06,-6.435944669647142e-05,-0.0001283486926695332,0.0,0.0,0.0,0.0,-0.0007643041317351162,-0.004327935632318258,0.0035281875170767307,1.0003210306167603,0.0,0.0,0.0,0.31487753987312317,-1.7749035358428955,5.233450889587402,-56.993465423583984,0
1060.594000000001,-5.742097710026428e-05,-8.546194294467568e-05,-0.00012193982547614723,0.0,0.0,0.0,0.0,-0.0007350790547206998,0.0002915365912485868,0.00048767364933155477,0.998664379119873,0.0,0.0,0.0,0.3139372766017914,-1.770999550819397,5.238928318023682,-56.823272705078125,0
1070.4899999999998,-2.975967072416097e-05,-8.273536514025182e-05,-9.377795504406095e-05,0.0,0.0,0.0,0.0,-0.0026198304258286953,0.0005479285609908402,0.0024383144918829203,1.000105381011963,0.0,0.0,0.0,0.3210712671279907,-1.7697160243988037,5.249970436096191,-58.11453628540039,0
1080.416000000001,-3.416927211219445e-05,-5.9758356655947864e-05,-0.00013638543896377087,0.0,0.0,0.0,0.0,0.0022636624053120613,0.0007338587893173099,-1.4266534890339244e-05,1.0014958381652832,0.0,0.0,0.0,0.32049837708473206,-1.7651768922805786,5.243560314178467,-58.010841369628906,0
1090.3160000000007,-6.30168869975023e-06,-4.491794970817864e-05,-0.00010785944323288277,0.0,0.0,0.0,0.0,-0.0011831833980977535,-0.0020835797768086195,-0.004687456879764795,0.9998701214790344,0.0,0.0,0.0,0.32037031650543213,-1.766888976097107,5.23551082611084,-57.98766326904297,0
1100.2350000000006,-2.3326227164943703e-05,-4.365083441371098e-05,-0.00014443608233705163,0.0,0.0,0.0,0.0,0.0016995234182104468,-0.0017667197389528155,-0.0013473399449139833,0.9977660775184631,0.0,0.0,0.0,0.3204156756401062,-1.7596533298492432,5.227417469024658,-57.995872497558594,0
1110.1350000000002,5.018944648327306e-06,-2.79229770967504e-05,-0.00011539612023625523,0.0,0.0,0.0,0.0,-0.0008985050953924656,-0.0008264474454335868,-0.002718463074415922,0.9983317255973816,0.0,0.0,0.0,0.3194419741630554,-1.7605359554290771,5.231049060821533,-57.81962966918945,0
1120.049000000001,-1.7896367353387177e-05,-3.0138475267449394e-05,-0.00015311784227378666,0.0,0.0,0.0,0.0,0.0011135546956211329,0.0037206646520644426,0.0010273411171510816,0.9985329508781433,0.0,0.0,0.0,0.3198963403701782,-1.7595694065093994,5.227197170257568,-57.90187454223633,0
1129.969000000001,-6.22092848061584e-05,2.1037738406448625e-05,-0.0001431140844943002,0.0,0.0,0.0,0.0,0.000604931206908077,-0.0004746128397528082,0.0007683188305236399,0.9990102052688599,0.0,0.0,0.0,0.32694971561431885,-1.7532901763916016,5.220030784606934,-59.17854690551758,0
1139.8720000000012,-7.452475983882323e-05,5.530447015189566e-05,-0.0001880481868283823,0.0,0.0,0.0,0.0,-0.0023707447107881308,-0.0012422413565218449,-0.0005403755931183696,1.0006862878799438,0.0,0.0,0.0,0.3266332745552063,-1.7493054866790771,5.213852405548096,-59.121273040771484,0
1149.7929999999997,-6.984332867432386e-05,7.527763955295086e-05,-0.00017347373068332672,0.0,0.0,0.0,0.0,0.0005699741886928678,-0.002824960043653846,0.002450243104249239,0.9998060464859009,0.0,0.0,0.0,0.32593873143196106,-1.7547372579574585,5.20986795425415,-58.99555969238281,0
1159.6980000000003,-9.510767995379865e-05,8.171749504981562e-05,-0.00021821736299898475,0.0,0.0,0.0,0.0,0.0006225441466085613,0.002776186214759946,-0.003623648313805461,1.0016767978668213,0.0,0.0,0.0,0.32575416564941406,-1.7503318786621094,5.211585521697998,-58.962154388427734,0
1169.6130000000012,-8.08899785624817e-05,0.00010816488793352619,-0.00019927401444874704,0.0,0.0,0.0,0.0,0.0012600634945556521,-0.0015578011516481638,0.0019993127789348364,1.0004523992538452,0.0,0.0,0.0,0.32664602994918823,-1.7592471837997437,5.204941272735596,-59.12358474731445,0
1179.5249999999996,-0.00010949039278784767,0.00011073796486016363,-0.00024192944692913443,0.0,0.0,0.0,0.0,-0.0017508115852251649,-0.0020923183765262365,-0.0008396673947572708,0.9989716410636902,0.0,0.0,0.0,0.3261113464832306,-1.759418249130249,5.185302257537842,-59.02680206298828,0
1189.4470000000001,-5.9790305385831743e-05,5.0659276894293725e-05,-0.0002493862120900303,0.0,0.0,0.0,0.0,0.0026960126124322414,0.006604967638850212,-0.0012821243144571781,0.9980201125144958,0.0,0.0,0.0,0.32520419359207153,-1.7576762437820435,5.18410062789917,-58.86260986328125,0
1199.3500000000004,-9.57301162998192e-05,6.037186540197581e-05,-0.00028203733381815255,0.0,0.0,0.0,0.0,-0.0024850962217897177,-0.0011911321198567748,-0.00022284181613940746,0.9977218508720398,0.0,0.0,0.0,0.32439321279525757,-1.758934736251831,5.186122894287109,-58.71581268310547,0
1209.2659999999996,-5.215192140894942e-05,2.508671059331391e-05,-0.0002854788617696613,0.0,0.0,0.0,0.0,0.0005186666385270655,0.002410548273473978,0.002556809689849615,0.9998539686203003,0.0,0.0,0.0,0.32421937584877014,-1.7507388591766357,5.177462100982666,-58.68435287475586,0
1219.1679999999997,-9.095490531763062e-05,3.968323289882392e-05,-0.0003164816298522055,0.0,0.0,0.0,0.0,0.0008348838309757411,-0.0021470242645591497,-0.0005055663059465587,1.0000637769699097,0.0,0.0,0.0,0.32318833470344543,-1.756856083869934,5.1698317527771,-58.49773025512695,0
1229.0920000000006,-3.6942346923751757e-06,1.8272543456987478e-05,-0.00029752671252936125,0.0,0.0,0.0,0.0,0.0014093772042542696,-0.0005804156535305083,-0.0017596440156921744,0.9990187883377075,0.0,0.0,0.0,0.3307403028011322,-1.7676059007644653,5.189637184143066,-59.86465072631836,0
1238.9970000000012,-0.0001127477444242686,-4.203770004096441e-05,-0.0002731138956733048,0.0,0.0,0.0,0.0,5.1207283831899986e-05,-0.0019585543777793646,-0.00033087204792536795,1.0006163120269775,0.0,0.0,0.0,0.32270941138267517,-1.7820185422897339,5.177156448364258,-58.411041259765625,0
1248.9150000000009,-1.648586658120621e-05,-1.4341419955599122e-05,-0.00021980474411975592,0.0,0.0,0.0,0.0,-9.46103100432083e-05,0.0009159562760032713,0.00011904837447218597,1.000376582145691,0.0,0.0,0.0,0.3218478858470917,-1.7837579250335693,5.165491104125977,-58.25510787963867,0
1258.8279999999995,-9.054874681169167e-05,-4.494970562518574e-05,-0.00021716767514590174,0.0,0.0,0.0,0.0,-0.003265141509473324,0.007412622217088938,0.0007676795939914882,1.002394676208496,0.0,0.0,0.0,0.32105883955955505,-1.7798246145248413,5.162266731262207,-58.11228942871094,0
1268.7380000000012,-2.1048603230156004e-05,-2.969639353977982e-05,-0.00017562424181960523,0.0,0.0,0.0,0.0,-0.00030472874641418457,-0.0014257562579587102,-0.0002902609994634986,1.001332402229309,0.0,0.0,0.0,0.32083967328071594,-1.7706246376037598,5.148767471313477,-58.07261657714844,0
1278.6470000000008,-0.00010061700595542789,-7.706352334935218e-05,-0.00016781357408035547,0.0,0.0,0.0,0.0,0.002018961124122143,-0.001175026292912662,-0.006649957969784737,0.9993013739585876,0.0,0.0,0.0,0.31975820660591125,-1.768527626991272,5.136392116546631,-57.876869201660156,0
1288.558000000001,-3.751017720787786e-05,-5.1849197916453704e-05,-0.00011740117042791098,0.0,0.0,0.0,0.0,0.000331432354869321,0.0037172583397477865,-0.001057254965417087,0.9996241331100464,0.0,0.0,0.0,0.3178038001060486,-1.7597602605819702,5.129733562469482,-57.52311706542969,0
1298.4770000000008,-9.784526628209278e-05,-8.755047747399658e-05,-0.00012493056419771165,0.0,0.0,0.0,0.0,0.00019822150352410972,-0.0009572338312864304,0.006059413775801659,1.0000405311584473,0.0,0.0,0.0,0.3175680935382843,-1.7683727741241455,5.122913837432861,-57.48045349121094,0
1308.3790000000008,-4.020468259113841e-05,-6.741951801814139e-05,-7.620557153131813e-05,0.0,0.0,0.0,0.0,-0.0017634676769375801,0.0012156730517745018,-0.0018298033392056823,0.9996533989906311,0.0,0.0,0.0,0.3168139159679413,-1.7674815654754639,5.111422538757324,-57.34394836425781,0
1318.291000000001,-7.088309939717874e-05,-2.7008873075828888e-05,-8.381590305361897e-05,0.0,0.0,0.0,0.0,0.0007841360638849437,0.0021779523231089115,0.0021381056867539883,0.9997120499610901,0.0,0.0,0.0,0.3165910840034485,-1.7600574493408203,5.109791278839111,-57.30361557006836,0
1328.205,-9.732747457746882e-06,-2.4597571609774604e-05,-4.094881296623498e-05,0.0,0.0,0.0,0.0,-0.001727030030451715,-0.0008248707163147628,-0.0018778991652652621,1.0001728534698486,0.0,0.0,0.0,0.3162482976913452,-1.7617924213409424,5.105047702789307,-57.241573333740234,0
1338.121000000001,-6.458962161559612e-05,-4.333463220973499e-05,-4.3080319301225245e-05,0.0,0.0,0.0,0.0,0.00327358883805573,0.004848123528063297,0.001838070573285222,1.0011826753616333,0.0,0.0,0.0,0.3072739541530609,-1.761431336402893,5.091403484344482,-55.61719512939453,0
1348.0310000000009,-1.944248469953891e-05,-4.3647327402140945e-05,-7.200332674983656e-06,0.0,0.0,0.0,0.0,0.00035969988675788045,-0.00028624653350561857,-0.0012787184678018093,1.000618577003479,0.0,0.0,0.0,0.30801835656166077,-1.764150619506836,5.091609001159668,-55.75193405151367,0
1357.9390000000003,-1.8328851183468942e-06,7.582517810078571e-06,-6.138145545264706e-05,0.0,0.0,0.0,0.0,-0.0005620706942863762,-0.0009097824804484844,0.0008922460256144404,0.9987428188323975,0.0,0.0,0.0,0.3077954947948456,-1.7627030611038208,5.080334186553955,-55.71159362792969,0
1367.8540000000012,-4.248372351867147e-05,3.8652768125757575e-05,-5.2856608817819506e-05,0.0,0.0,0.0,0.0,-0.001009610714390874,-0.004589257761836052,0.006696850061416626,0.9990880489349365,0.0,0.0,0.0,0.3123420178890228,-1.767777442932129,5.075664043426514,-56.53453063964844,0
1377.7720000000008,-4.306500341044739e-05,0.00012974173296242952,-8.98329890333116e-05,0.0,0.0,0.0,0.0,0.0011986561585217714,0.0037662044633179903,-9.117287845583633e-05,1.0002683401107788,0.0,0.0,0.0,0.3138262927532196,-1.761348843574524,5.081240653991699,-56.80318069458008,0
1387.6810000000005,-0.0001041106806951575,0.0001348624937236309,-0.00010786292114062235,0.0,0.0,0.0,0.0,-0.001818127348087728,-1.686204814177472e-05,-0.0004683447477873415,0.9995846748352051,0.0,0.0,0.0,0.31929147243499756,-1.7690014839172363,5.077403545379639,-57.792388916015625,0
1397.5860000000011,-0.00014697051665280014,0.00011107085447292775,-0.00015004559827502817,0.0,0.0,0.0,0.0,-0.0003643804811872542,0.002795486943796277,-0.0005437268409878016,0.9998593926429749,0.0,0.0,0.0,0.3196430802345276,-1.7596938610076904,5.076909065246582,-57.85603332519531,0
1407.5,-5.3908792324364185e-05,8.485135913360864e-05,-0.00011917838855879381,0.0,0.0,0.0,0.0,-0.0036286753602325916,-0.0030262721702456474,0.0021994253620505333,0.9990849494934082,0.0,0.0,0.0,0.3185367286205292,-1.759751796722412,5.067991256713867,-57.65578079223633,0
1417.4169999999995,-0.00010533639579080045,4.552073369268328e-05,-0.00015423262084368616,0.0,0.0,0.0,0.0,0.0015880032442510128,-0.0021591787226498127,0.002672132570296526,0.9987818598747253,0.0,0.0,0.0,0.3131997287273407,-1.7627687454223633,5.073128700256348,-56.68977355957031,0
1427.3310000000001,-4.530781734501943e-05,4.6074863348621875e-05,-0.00012340831744950265,0.0,0.0,0.0,0.0,-3.831586582236923e-05,-0.0021220820490270853,4.907657785224728e-05,1.000016450881958,0.0,0.0,0.0,0.3131882846355438,-1.7625471353530884,5.068873882293701,-56.68770217895508,0
1437.2340000000004,-7.309469947358593e-05,6.173068686621264e-05,-0.00016748617053963244,0.0,0.0,0.0,0.0,-0.0016735898097977042,0.0006998516619205475,-0.0011229256633669138,0.9984432458877563,0.0,0.0,0.0,0.31234797835350037,-1.7552835941314697,5.067590236663818,-56.535606384277344,0
1447.152,-5.3485637181438506e-05,7.00858945492655e-05,-0.00015410770720336586,0.0,0.0,0.0,0.0,7.550985901616514e-05,-0.0007439343025907874,-0.0034066536463797092,0.9986826181411743,0.0,0.0,0.0,0.31112736463546753,-1.749930739402771,5.059502601623535,-56.31467056274414,0
1457.059000000001,-6.897213461343199e-05,0.00012826602323912084,-0.0001976529456442222,0.0,0.0,0.0,0.0,0.003824017010629177,0.006333768833428621,0.00013218220556154847,0.9990352988243103,0.0,0.0,0.0,0.3095245063304901,-1.7489492893218994,5.0524773597717285,-56.02455139160156,0
1466.9750000000004,-2.3068641894496977e-05,0.000109333181171678,-0.00018947057833429426,0.0,0.0,0.0,0.0,-0.000313575699692592,-0.002908864989876747,-0.00159584847278893,1.0003931522369385,0.0,0.0,0.0,0.30947208404541016,-1.7561739683151245,5.037424564361572,-56.01506042480469,0
1476.8810000000012,-0.0001368813682347536,2.892263000831008e-05,-0.00017661761376075447,0.0,0.0,0.0,0.0,0.002676241099834442,0.002090012887492776,-0.0012206629617139697,1.0020192861557007,0.0,0.0,0.0,0.30220943689346313,-1.772789478302002,5.0258708000183105,-54.700504302978516,0
1486.7929999999997,-6.428611959563568e-05,2.8182730602566153e-05,-0.00014307750097941607,0.0,0.0,0.0,0.0,0.002793241059407592,0.00398268410935998,-0.0013049758272245526,0.9994808435440063,0.0,0.0,0.0,0.3006442189216614,-1.7715617418289185,5.018556594848633,-54.417198181152344,0
1496.7080000000005,-0.00014237698633223772,-1.4355919120134786e-06,-0.00014278653543442488,0.0,0.0,0.0,0.0,0.002753989538177848,-0.005988365039229393,-0.00023431297449860722,1.0009461641311646,0.0,0.0,0.0,0.29985311627388,-1.770399808883667,5.005590915679932,-54.27400588989258,0
1506.621000000001,-0.00013857694284524769,2.911510819103569e-06,-0.00013087970728520304,0.0,0.0,0.0,0.0,-0.00028441345784813166,-0.0004485734098125249,-8.593777238274924e-06,1.000576138496399,0.0,0.0,0.0,0.30014172196388245,-1.7752708196640015,5.004626750946045,-54.32624435424805,0
1516.5300000000007,-0.0001942053495440632,2.7270762075204402e-06,-0.0001476161414757371,0.0,0.0,0.0,0.0,0.002465675352141261,-0.0032046304550021887,0.002056882018223405,0.9974762797355652,0.0,0.0,0.0,0.29925957322120667,-1.7758554220199585,5.001046657562256,-54.16658020019531,0
1526.437,-0.00016371790843550116,-1.5068775610416196e-05,-0.0001358229055767879,0.0,0.0,0.0,0.0,0.001087623299099505,0.0030743011739104986,0.0018232382135465741,0.9982204437255859,0.0,0.0,0.0,0.2986239790916443,-1.7749097347259521,5.002760410308838,-54.051536560058594,0
1536.3540000000012,-0.00021191629639361054,-3.980996552854776e-06,-0.00016100214270409197,0.0,0.0,0.0,0.0,-0.002386390697211027,0.005238675978034735,0.002721846103668213,1.0025768280029297,0.0,0.0,0.0,0.2986123263835907,-1.7796235084533691,4.99144983291626,-54.0494270324707,0
1546.2610000000004,-9.505237539997324e-05,-1.6151800082297996e-05,-0.00010777237912407145,0.0,0.0,0.0,0.0,-0.002049698494374752,-0.006654625758528709,0.00513409124687314,1.0008786916732788,0.0,0.0,0.0,0.2980336546897888,-1.7777812480926514,4.97820520401001,-53.944679260253906,0
1556.1779999999999,-0.00021020218264311552,-0.00011019950761692598,-9.502569446340203e-05,0.0,0.0,0.0,0.0,0.0010781516321003437,-0.001737000304274261,0.0009583827340975404,1.0012403726577759,0.0,0.0,0.0,0.2986200451850891,-1.7716504335403442,4.974522590637207,-54.05082321166992,0
1566.0860000000011,-0.00016763131134212017,-9.664179378887638e-05,-5.203544787946157e-05,0.0,0.0,0.0,0.0,-0.0006532884435728192,-0.0013795157428830862,0.0010373069671913981,0.9997958540916443,0.0,0.0,0.0,0.2985544204711914,-1.7657678127288818,4.974816799163818,-54.038944244384766,0
1576.0079999999998,-0.00019660923862829804,-6.857979315100238e-05,-8.707579399924725e-05,0.0,0.0,0.0,0.0,-0.0005505919107235968,-0.00034800509456545115,-0.0004082648956682533,1.0004210472106934,0.0,0.0,0.0,0.29732558131217957,-1.7648063898086548,4.975022792816162,-53.81652069091797,0
1585.9060000000009,-0.00010561234375927597,-0.00010438890603836626,-4.822060145670548e-05,0.0,0.0,0.0,0.0,-0.0008518928661942482,-0.0034866889473050833,-0.0021302809473127127,1.0000990629196167,0.0,0.0,0.0,0.30667346715927124,-1.7714248895645142,4.992584705352783,-55.50851058959961,0
1595.8240000000005,-0.0001404440845362842,-7.407860539387912e-05,-7.393274427158758e-05,0.0,0.0,0.0,0.0,0.0007383822230622172,-0.001351673505268991,0.004639738239347935,1.0001860857009888,0.0,0.0,0.0,0.3065907657146454,-1.7757967710494995,4.996100902557373,-55.4935417175293,0
1605.7330000000002,-7.994336192496121e-05,-4.626453301170841e-05,-1.830720248108264e-05,0.0,0.0,0.0,0.0,0.00022553659800905734,-0.001943312818184495,0.0008056671940721571,0.9995008707046509,0.0,0.0,0.0,0.3065337836742401,-1.7700897455215454,4.991887092590332,-55.48322677612305,0
1615.6509999999998,-0.0001298661227338016,-3.815483796643093e-05,-3.5638411645777524e-05,0.0,0.0,0.0,0.0,-0.001954703824594617,0.00017618249694351107,0.0038472849410027266,0.9981511831283569,0.0,0.0,0.0,0.30730172991752625,-1.7730631828308105,5.002558708190918,-55.62222671508789,0
1625.554,-0.00013503155787475407,-3.487197682261467e-05,-1.9097215044894256e-05,0.0,0.0,0.0,0.0,-0.0016022316413000226,-0.0012341550318524241,0.004286147188395262,0.9984046816825867,0.0,0.0,0.0,0.3077346086502075,-1.7629399299621582,4.999662399291992,-55.70057678222656,0
1635.4760000000006,-0.00013728035264648497,1.4608231140300632e-06,-9.101064642891288e-05,0.0,0.0,0.0,0.0,0.0003980557376053184,0.003133644349873066,-0.0022463283967226744,0.9988942742347717,0.0,0.0,0.0,0.30758652091026306,-1.7650154829025269,4.998236179351807,-55.67377471923828,0
1645.380000000001,-0.00014472604379989207,6.133883289294317e-06,-8.432824688497931e-05,0.0,0.0,0.0,0.0,0.0008056602091528475,-0.003492646850645542,-0.0024421056732535362,0.9978378415107727,0.0,0.0,0.0,0.3071298599243164,-1.7632931470870972,4.99340295791626,-55.59111404418945,0
1655.299000000001,-0.00014915539941284806,5.876502473256551e-05,-0.00015802387497387826,0.0,0.0,0.0,0.0,0.0033495596144348383,-0.0027247900143265724,0.004733378998935223,0.9989877343177795,0.0,0.0,0.0,0.2971169352531433,-1.7617380619049072,5.007845401763916,-53.77875900268555,0
1665.2029999999995,-0.00013505369133781642,7.425025978591293e-05,-0.00014293684216681868,0.0,0.0,0.0,0.0,-0.0008260617614723742,0.0006829170160926878,0.002760095987468958,1.0000340938568115,0.0,0.0,0.0,0.30537280440330505,-1.7730647325515747,5.022198677062988,-55.27308654785156,0
1675.1229999999996,-0.0001851854322012514,5.775501631433144e-05,-0.00020212239178363234,0.0,0.0,0.0,0.0,0.0030282242223620415,0.002552968915551901,0.005157779902219772,0.9991912245750427,0.0,0.0,0.0,0.30472418665885925,-1.7697314023971558,5.024027347564697,-55.15568923950195,0
1685.0259999999998,-0.00015942756726872176,6.408169429050758e-05,-0.00018951309903059155,0.0,0.0,0.0,0.0,-0.003130877623334527,0.0004707301268354058,-0.003946966025978327,1.000187635421753,0.0,0.0,0.0,0.30446451902389526,-1.7743935585021973,5.0137200355529785,-55.10868453979492,0
1694.9480000000003,-0.0001802643237169832,0.00014780009223613888,-0.00024504598695784807,0.0,0.0,0.0,0.0,-0.00020939194655511528,0.0019509871490299702,-0.0032138628885149956,1.0005769729614258,0.0,0.0,0.0,0.3041283190250397,-1.7690714597702026,5.020432472229004,-55.04782485961914,0
1704.857,-0.00012684431567322463,0.00014655303675681353,-0.0002267564705107361,0.0,0.0,0.0,0.0,0.0004242923459969461,-0.0028641356620937586,0.002152469474822283,1.00088369846344,0.0,0.0,0.0,0.303439736366272,-1.7708988189697266,5.018126964569092,-54.923194885253906,0
1714.7650000000012,-0.00017040970851667225,0.00013196436339057982,-0.00030150232487358153,0.0,0.0,0.0,0.0,-0.003075737738981843,-0.0019144770922139287,0.00239239982329309,1.0010462999343872,0.0,0.0,0.0,0.3048878014087677,-1.7611240148544312,5.0197248458862305,-55.185298919677734,0
1724.6730000000007,-0.0001441245840396732,0.00015083143080119044,-0.00028600619407370687,0.0,0.0,0.0,0.0,-0.0013726609759032726,-0.003076270455494523,-0.0006570164696313441,0.9998040199279785,0.0,0.0,0.0,0.3049870431423187,-1.7564754486083984,5.021097660064697,-55.20326232910156,0
1734.5920000000006,-0.000164888464496471,0.00019234204955864698,-0.0003630927240010351,0.0,0.0,0.0,0.0,0.0004071724833920598,-0.004389789421111345,0.006290479097515345,1.0008233785629272,0.0,0.0,0.0,0.30429622530937195,-1.7492295503616333,5.026545524597168,-55.078224182128906,0
1744.4970000000012,-8.875197090674192e-05,0.00015791921759955585,-0.00035646307514980435,0.0,0.0,0.0,0.0,0.003114455845206976,-0.0008496629307046533,0.00023414909082930535,0.9992395043373108,0.0,0.0,0.0,0.30497556924819946,-1.7521487474441528,5.030875205993652,-55.2011833190918,0
1754.4089999999997,-0.00014841646770946681,0.0001645027077756822,-0.00040016009006649256,0.0,0.0,0.0,0.0,0.0011160258436575532,0.0004263955052010715,0.002049719449132681,0.9997838139533997,0.0,0.0,0.0,0.30522266030311584,-1.7592016458511353,5.032818794250488,-55.24591064453125,0
1764.3199999999997,-3.283292244304903e-05,0.00012716971104964614,-0.00037836076808162034,0.0,0.0,0.0,0.0,-0.001941074151545763,-0.00113016739487648,-0.003496479010209441,1.0002844333648682,0.0,0.0,0.0,0.30456045269966125,-1.7630866765975952,5.025693416595459,-55.12604522705078,0
1774.2360000000008,-0.000105096391052939,0.00016329268692061305,-0.00038762897020205855,0.0,0.0,0.0,0.0,-0.0019782325252890587,-0.00046262808609753847,0.0020749715622514486,1.002477765083313,0.0,0.0,0.0,0.3030746579170227,-1.7640055418014526,5.014561653137207,-54.85711669921875,0
1784.1470000000008,-7.248902693390846e-05,1.911878825922031e-05,-0.0003276286879554391,0.0,0.0,0.0,0.0,0.0021188720129430294,-0.0009672609739936888,-0.001968876225873828,1.0000779628753662,0.0,0.0,0.0,0.30311134457588196,-1.7608400583267212,5.010141372680664,-54.8637580871582,0
1794.0599999999995,-0.00013650651089847088,5.540646088775247e-05,-0.0003341049305163324,0.0,0.0,0.0,0.0,0.00012999222963117063,0.0046609737910330296,0.00017139239935204387,0.9993559718132019,0.0,0.0,0.0,0.3025680184364319,-1.7549376487731934,5.018505096435547,-54.765411376953125,0
1803.9790000000012,-0.00012146597146056592,-1.6435704310424626e-05,-0.00025614770129323006,0.0,0.0,0.0,0.0,7.132539758458734e-05,-0.0003103787894360721,-0.0016481069615110755,1.0009208917617798,0.0,0.0,0.0,0.3014753758907318,-1.750035285949707,5.000657081604004,-54.56764602661133,0
1813.8810000000012,-0.00019005537615157664,1.5942012396408245e-05,-0.0002555726678110659,0.0,0.0,0.0,0.0,-0.0011942203855141997,-0.0037661048118025064,0.0013724666787311435,1.000727653503418,0.0,0.0,0.0,0.3002256453037262,-1.746350884437561,4.997281551361084,-54.341434478759766,0
1823.7939999999999,-0.00012028887431370094,-2.5808927603065968e-05,-0.00018633469881024212,0.0,0.0,0.0,0.0,0.0018928387435153127,-0.0018479275749996305,-0.0014114649966359138,0.9996979832649231,0.0,0.0,0.0,0.30091148614883423,-1.7437169551849365,5.001385688781738,-54.465579986572266,0
1833.7029999999995,-0.0001891758874990046,3.17984631692525e-06,-0.0001786892971722409,0.0,0.0,0.0,0.0,-0.001704986090771854,0.001298162154853344,-0.004549296107143164,0.9989873170852661,0.0,0.0,0.0,0.3003413677215576,-1.7420014142990112,4.995362281799316,-54.36238098144531,0
1843.6270000000004,-8.660666935611516e-05,-8.262222399935126e-05,-0.00013413047417998314,0.0,0.0,0.0,0.0,0.0023613832890987396,-0.00465878751128912,0.0018634822918102145,0.9990390539169312,0.0,0.0,0.0,0.2994368076324463,-1.735151767730713,4.997559547424316,-54.19865798950195,0
1853.527,-0.00015426869504153728,-5.798622441943735e-05,-0.00012441090075299144,0.0,0.0,0.0,0.0,0.00048196830903179944,-5.013985719415359e-05,0.0029773570131510496,0.9986855387687683,0.0,0.0,0.0,0.29941391944885254,-1.7403087615966797,4.995433807373047,-54.194515228271484,0
1863.4400000000005,-5.8331090258434415e-05,-1.945544318004977e-05,-0.00013364225742407143,0.0,0.0,0.0,0.0,0.001175586017780006,0.005663531832396984,-0.0035188773181289434,1.0002758502960205,0.0,0.0,0.0,0.29925641417503357,-1.7404500246047974,4.987223148345947,-54.16600799560547,0
1873.3540000000012,-0.0001264124730369076,8.73036333359778e-06,-0.00012781392433680594,0.0,0.0,0.0,0.0,0.0005767563125118613,-0.00346257071942091,-0.002593259559944272,1.0016343593597412,0.0,0.0,0.0,0.29803410172462463,-1.7409166097640991,4.9641547203063965,-53.94476318359375,0
1883.2690000000002,-5.3137860959395766e-05,5.750533819082193e-05,-0.00014032950275577605,0.0,0.0,0.0,0.0,-0.0013816129649057984,0.0006330208852887154,-0.00265132705681026,1.0011271238327026,0.0,0.0,0.0,0.2970619797706604,-1.7388889789581299,4.955167770385742,-53.76880645751953,0
1893.1810000000005,-0.0001194145079352893,9.166818927042186e-05,-0.0001345475611742586,0.0,0.0,0.0,0.0,0.0005320867639966309,0.005732216406613588,-0.0006327967275865376,1.0002076625823975,0.0,0.0,0.0,0.29680272936820984,-1.7357847690582275,4.959349632263184,-53.72188186645508,0
1903.0930000000008,-8.818474452709779e-05,8.095021621556953e-05,-0.00016376130224671215,0.0,0.0,0.0,0.0,-0.002331000054255128,-0.000305914378259331,-0.0021125010680407286,0.9993539452552795,0.0,0.0,0.0,0.28963297605514526,-1.7337125539779663,4.943854331970215,-52.42414474487305,0
1912.9989999999998,-0.00015553325647488236,0.00011379474017303437,-0.0001599580136826262,0.0,0.0,0.0,0.0,0.00022957500186748803,0.004210575018078089,-0.0020151135977357626,0.9998112916946411,0.0,0.0,0.0,0.2889326810836792,-1.728479027748108,4.942858695983887,-52.29738998413086,0
1922.92,-7.356081914622337e-05,8.194370457204059e-05,-0.0001643330615479499,0.0,0.0,0.0,0.0,2.455640242260415e-05,-0.0059074233286082745,-0.0015514881815761328,0.9988296627998352,0.0,0.0,0.0,0.28719964623451233,-1.7316886186599731,4.926338195800781,-51.98371124267578,0
1932.8230000000003,-0.00014080700930207968,0.00011352366709616035,-0.00016265574959106743,0.0,0.0,0.0,0.0,-0.002280233893543482,0.0021703767124563456,0.0027544647455215454,0.9995916485786438,0.0,0.0,0.0,0.2865654230117798,-1.727101445198059,4.927913188934326,-51.8689079284668,0
1942.7350000000006,-0.000178414789843373,4.912306758342311e-05,-0.00014173555246088654,0.0,0.0,0.0,0.0,0.0002600186853669584,-0.0006478470168076456,-0.0033616521395742893,1.0006355047225952,0.0,0.0,0.0,0.28647443652153015,-1.7231427431106567,4.925329208374023,-51.852439880371094,0
1952.652,-0.00025115403695963323,7.787951471982524e-05,-0.00013911550922784954,0.0,0.0,0.0,0.0,0.0014467131113633513,0.0016114725731313229,0.001383358845487237,1.001098394393921,0.0,0.0,0.0,0.28617238998413086,-1.7206555604934692,4.917015552520752,-51.797767639160156,0
1962.5599999999995,-0.00022082935902290046,-4.906644790025894e-06,-8.629897638456896e-05,0.0,0.0,0.0,0.0,-0.004383304622024298,-0.0019045769004151225,-0.0024335780180990696,0.999802827835083,0.0,0.0,0.0,0.2859993577003479,-1.7171502113342285,4.907566547393799,-51.766456604003906,0
1972.4700000000012,-0.0002970684436149895,1.9786468328675255e-05,-7.889734843047336e-05,0.0,0.0,0.0,0.0,0.0009284831467084587,0.00016446276276838034,-0.0015997432637959719,1.000159502029419,0.0,0.0,0.0,0.28555795550346375,-1.7158291339874268,4.893774509429932,-51.686561584472656,0
1982.3900000000012,-0.00019778158457484096,-1.4274321074481122e-05,-8.007518772501498e-05,0.0,0.0,0.0,0.0,-0.0018511958187445998,-0.0009430496138520539,-0.000756274675950408,1.0007054805755615,0.0,0.0,0.0,0.29176396131515503,-1.7230199575424194,4.914915561676025,-52.80985641479492,0
1992.2939999999999,-0.00027103687170892954,1.0589921657810919e-05,-7.352548709604889e-05,0.0,0.0,0.0,0.0,0.001395100960507989,0.0045791068114340305,-0.00042604326154105365,1.002963662147522,0.0,0.0,0.0,0.29086437821388245,-1.7189363241195679,4.917089462280273,-52.64702606201172,0
2002.2150000000001,-0.00019261162378825247,-1.42988310471992e-05,-7.511454896302894e-05,0.0,0.0,0.0,0.0,-0.0009765198337845504,-0.003131926991045475,-0.00122645846568048,0.9994392395019531,0.0,0.0,0.0,0.29812121391296387,-1.7271479368209839,4.932918071746826,-53.96052932739258,0
2012.1270000000004,-0.00017263219342567027,-8.904311471269466e-06,-4.020900450996123e-05,0.0,0.0,0.0,0.0,-0.0018592369742691517,-0.005224357824772596,-5.96165846218355e-05,0.999882698059082,0.0,0.0,0.0,0.29897040128707886,-1.7243767976760864,4.933267116546631,-54.11424255371094,0
2022.0390000000007,-0.00015458525740541518,5.4036510846344754e-05,-0.00012567825615406036,0.0,0.0,0.0,0.0,0.0010535144247114658,-0.0023259560111910105,-0.0007531596929766238,1.0003515481948853,0.0,0.0,0.0,0.2978881299495697,-1.7217990159988403,4.929730415344238,-53.91834259033203,0
2031.946,-2.3010903532849625e-05,-5.810540824313648e-05,-0.00010419376485515386,0.0,0.0,0.0,0.0,0.0006858367705717683,-0.00033419151441194117,-0.00010905428644036874,0.9997721314430237,0.0,0.0,0.0,0.29743459820747375,-1.719431757926941,4.926761627197266,-53.83625030517578,0
2041.862000000001,-3.597260729293339e-05,-4.319546860642731e-06,-0.00015653250738978386,0.0,0.0,0.0,0.0,-0.0002723204670473933,0.0028380469884723425,0.0008460182580165565,1.001357078552246,0.0,0.0,0.0,0.2965700030326843,-1.7204047441482544,4.921536445617676,-53.67975616455078,0
2051.767,1.3641162695421372e-05,-8.044613059610128e-05,-0.00015620692283846438,0.0,0.0,0.0,0.0,-8.872996841091663e-05,-0.00668207136914134,0.0009004395105876029,1.0018701553344727,0.0,0.0,0.0,0.29612067341804504,-1.714025616645813,4.91119909286499,-53.59843444824219,0
2061.687,3.1873172702034935e-05,3.011120270457468e-06,-0.00023352683638222516,0.0,0.0,0.0,0.0,0.0010934026213362813,0.0011081952834501863,0.00326985283754766,0.9997312426567078,0.0,0.0,0.0,0.29603204131126404,-1.7200398445129395,4.902743816375732,-53.5823860168457,0
2071.5959999999995,4.284643364371732e-05,-2.565252907515969e-05,-0.00023619674902874976,0.0,0.0,0.0,0.0,-0.0012977607548236847,0.0008449779124930501,-0.0050570303574204445,1.0010302066802979,0.0,0.0,0.0,0.2959448993206024,-1.71311616897583,4.908129692077637,-53.56661605834961,0
2081.514000000001,-1.2854046872234903e-05,-3.661260961962398e-06,-0.0002618444268591702,0.0,0.0,0.0,0.0,-0.0028786479961127043,-0.001132781500928104,0.0033705574460327625,1.0003911256790161,0.0,0.0,0.0,0.2951074540615082,-1.7083518505096436,4.900329113006592,-53.4150390625,0
2091.415000000001,1.3650813343701884e-05,1.8965396520798095e-05,-0.0002343913947697729,0.0,0.0,0.0,0.0,0.0028505984228104353,0.0006115928990766406,-0.0025059201288968325,0.9996283650398254,0.0,0.0,0.0,0.2957717180252075,-1.7024301290512085,4.897620677947998,-53.53527069091797,0
2101.336000000001,-5.033607521909289e-05,2.2999263819656335e-05,-0.00025936111342161894,0.0,0.0,0.0,0.0,-0.0004691747890319675,0.0003394234518054873,0.003071399638429284,0.9993041157722473,0.0,0.0,0.0,0.28647229075431824,-1.7070434093475342,4.889613151550293,-51.852054595947266,0
