timestamp,stateEstimate.x,stateEstimate.y,stateEstimate.z,controller.cmd_thrust,controller.cmd_roll,controller.cmd_pitch,controller.cmd_yaw,controller.r_roll,controller.r_pitch,controller.r_yaw,controller.accelz,controller.actuatorThrust,controller.roll,controller.pitch,controller.yaw,controller.rollRate,controller.pitchRate,controller.yawRate,controller.ctr_yaw
0.0,-0.020749660208821297,0.003876093775033951,5.249087553238496e-05,0.0,0.0,0.0,0.0,0.003457089187577367,-0.0020546400919556618,0.0003797421231865883,0.9986169338226318,0.0,0.0,0.0,24.634063720703125,-0.22473227977752686,2.4228405952453613,-4458.814453125,0
9.915999999999258,-0.02074591815471649,0.0037996559403836727,-3.2915195333771408e-06,0.0,0.0,0.0,0.0,-0.0010220957919955254,-0.0014254861744120717,-0.0014579097041860223,0.9985167980194092,0.0,0.0,0.0,24.618820190429688,-0.23879630863666534,2.418179988861084,-4456.05517578125,0
19.826999999999316,-0.020693866536021233,0.003932619467377663,6.240356742637232e-05,0.0,0.0,0.0,0.0,-0.0008763447985984385,0.002763388678431511,0.0017299192259088159,0.9994895458221436,0.0,0.0,0.0,24.633031845092773,-0.23237042129039764,2.4281537532806396,-4458.6279296875,0
29.737999999999374,-0.020685385912656784,0.003931183833628893,4.8244524805340916e-05,0.0,0.0,0.0,0.0,-0.0024273875169456005,-0.006106783170253038,0.002187456004321575,0.9998237490653992,0.0,0.0,0.0,24.610191345214844,-0.23199529945850372,2.4210779666900635,-4454.49365234375,0
39.64400000000023,-0.020682884380221367,0.003939541522413492,3.2840882340678945e-05,0.0,0.0,0.0,0.0,-0.0014909497695043683,-0.0004580653621815145,-0.000566587143111974,0.9990541934967041,0.0,0.0,0.0,24.627756118774414,-0.228611558675766,2.43489933013916,-4457.67333984375,0
49.572000000000116,-0.020673686638474464,0.003940945956856012,1.743261600495316e-05,0.0,0.0,0.0,0.0,-0.001972765428945422,-0.003539144294336438,0.0028573423624038696,0.9985875487327576,0.0,0.0,0.0,24.603317260742188,-0.2222919911146164,2.4310860633850098,-4453.24951171875,0
59.46600000000035,-0.020628515630960464,0.00397398229688406,2.0075727661605924e-05,0.0,0.0,0.0,0.0,0.001161120948381722,-0.0031292191706597805,-0.0008802868542261422,0.9998205900192261,0.0,0.0,0.0,24.620174407958984,-0.21195681393146515,2.445889711380005,-4456.30078125,0
69.38299999999981,-0.020619845017790794,0.003977526910603046,4.428518877830356e-06,0.0,0.0,0.0,0.0,-0.0007633752538822591,-0.0020609949715435505,-0.0022544285748153925,0.999544620513916,0.0,0.0,0.0,24.5944881439209,-0.2129868119955063,2.452091693878174,-4451.6513671875,0
79.29899999999907,-0.020632566884160042,0.003952468279749155,-2.955190939246677e-05,0.0,0.0,0.0,0.0,0.0019628640729933977,0.0016784068429842591,0.0023670089431107044,0.9997303485870361,0.0,0.0,0.0,24.612436294555664,-0.21986863017082214,2.451192855834961,-4454.900390625,0
89.21500000000015,-0.020627548918128014,0.003951381426304579,-4.7429024562006816e-05,0.0,0.0,0.0,0.0,-0.003062282223254442,-0.004059968050569296,0.0022707812022417784,1.0000430345535278,0.0,0.0,0.0,24.588499069213867,-0.2243691086769104,2.446803569793701,-4450.5673828125,0
99.11299999999937,-0.020677676424384117,0.004006996285170317,-2.5551282305968925e-05,0.0,0.0,0.0,0.0,0.0011201072484254837,-0.00040051137330010533,0.0005155440303497016,0.9986966252326965,0.0,0.0,0.0,24.612031936645508,-0.19112028181552887,2.4556403160095215,-4454.8271484375,0
109.02800000000025,-0.020675020292401314,0.0040082912892103195,-4.0924478525994346e-05,0.0,0.0,0.0,0.0,0.0025212853215634823,-0.0014718970051035285,0.0010603145929053426,0.998430609703064,0.0,0.0,0.0,24.588176727294922,-0.18824613094329834,2.4488794803619385,-4450.50927734375,0
118.9380000000001,-0.02070406638085842,0.0040435390546917915,-2.9972068659844808e-05,0.0,0.0,0.0,0.0,0.00044334231643006206,0.0019397004507482052,-0.0008343842928297818,0.9993571639060974,0.0,0.0,0.0,24.610780715942383,-0.17523571848869324,2.450408697128296,-4454.60009765625,0
128.85299999999916,-0.0207031462341547,0.004047965630888939,-4.564451228361577e-05,0.0,0.0,0.0,0.0,-0.0020178945269435644,-0.0027338603977113962,0.002807562705129385,1.0011857748031616,0.0,0.0,0.0,24.585338592529297,-0.17420707643032074,2.4497861862182617,-4449.99560546875,0
138.76200000000063,-0.020685726776719093,0.004083658568561077,-2.928908543253783e-05,0.0,0.0,0.0,0.0,-0.000842617591843009,-0.0003909164515789598,-0.0025729050394147635,1.0000993013381958,0.0,0.0,0.0,24.610919952392578,-0.15697292983531952,2.4756672382354736,-4454.62548828125,0
148.67499999999927,-0.02068450301885605,0.004090249538421631,-4.1449595300946385e-05,0.0,0.0,0.0,0.0,-0.0022763931192457676,0.00253863912075758,-0.0029038789216428995,1.0001184940338135,0.0,0.0,0.0,24.585805892944336,-0.1524030566215515,2.4768948554992676,-4450.07958984375,0
158.59200000000055,-0.020655807107686996,0.004059610888361931,-8.372020238311961e-05,0.0,0.0,0.0,0.0,0.0016280518611893058,0.0008511535706929862,-0.002341005951166153,0.9986385107040405,0.0,0.0,0.0,24.608200073242188,-0.16788218915462494,2.4751505851745605,-4454.13330078125,0
168.5079999999998,-0.02065243571996689,0.004061718005686998,-9.889528882922605e-05,0.0,0.0,0.0,0.0,-0.00332157826051116,-0.0005460065440274775,0.00016404704365413636,1.0005433559417725,0.0,0.0,0.0,24.583423614501953,-0.1671401709318161,2.4699480533599854,-4449.6484375,0
178.40799999999945,-0.02059275284409523,0.004053465556353331,-0.00011510288459248841,0.0,0.0,0.0,0.0,-0.00148300442378968,-0.0011871043825522065,0.0020377053879201412,1.0005629062652588,0.0,0.0,0.0,24.6024169921875,-0.17337395250797272,2.479914426803589,-4453.08642578125,0
188.32899999999972,-0.02058355323970318,0.004055631812661886,-0.00013071030844002962,0.0,0.0,0.0,0.0,0.001567608444020152,-0.0005995553801767528,-0.0021402037236839533,0.9982925653457642,0.0,0.0,0.0,24.578624725341797,-0.17057590186595917,2.4758660793304443,-4448.77978515625,0
198.22999999999956,-0.020603029057383537,0.004053413402289152,-0.00016350511577911675,0.0,0.0,0.0,0.0,0.0017083241837099195,0.0014954372309148312,-0.002158465562388301,0.9989244341850281,0.0,0.0,0.0,24.600427627563477,-0.17237932980060577,2.468641757965088,-4452.72607421875,0
208.15200000000004,-0.020596398040652275,0.004056189674884081,-0.00018240275676362216,0.0,0.0,0.0,0.0,0.001451144926249981,-0.0032781879417598248,-0.0015149805694818497,0.999177098274231,0.0,0.0,0.0,24.57668685913086,-0.17123806476593018,2.459794759750366,-4448.42919921875,0
218.05799999999908,-0.02060462348163128,0.004066032823175192,-0.0002057825622614473,0.0,0.0,0.0,0.0,-0.0011243049520999193,-0.0016442489577457309,-0.0002858846273738891,1.0003787279129028,0.0,0.0,0.0,24.600698471069336,-0.17039139568805695,2.4550094604492188,-4452.775390625,0
227.97500000000036,-0.020601997151970863,0.004070019815117121,-0.00022607060964219272,0.0,0.0,0.0,0.0,0.001057695015333593,-0.003613994922488928,0.001529279979877174,1.0005364418029785,0.0,0.0,0.0,24.57585334777832,-0.16853921115398407,2.454803943634033,-4448.2783203125,0
237.8770000000004,-0.020616285502910614,0.004105760250240564,-0.0002375481417402625,0.0,0.0,0.0,0.0,-0.002987188519909978,0.0015198125038295984,-0.0005305746453814209,1.00190269947052,0.0,0.0,0.0,24.596900939941406,-0.16024069488048553,2.453338384628296,-4452.08837890625,0
247.80099999999948,-0.020617442205548286,0.0041127558797597885,-0.0002553747908677906,0.0,0.0,0.0,0.0,0.0013270881026983261,0.0003223969542887062,-0.0011511320481076837,0.9997420907020569,0.0,0.0,0.0,24.572877883911133,-0.15836983919143677,2.4444844722747803,-4447.740234375,0
257.7049999999999,-0.020616209134459496,0.004152724985033274,-0.0002537848777137697,0.0,0.0,0.0,0.0,0.0029960204847157,0.0014101408887654543,0.00104967737570405,1.0006625652313232,0.0,0.0,0.0,24.59784507751465,-0.14551526308059692,2.442969560623169,-4452.2587890625,0
267.6329999999998,-0.020616741850972176,0.004161391872912645,-0.0002687601081561297,0.0,0.0,0.0,0.0,0.00017973751528188586,-3.81138852389995e-05,0.0015316710341721773,1.0022282600402832,0.0,0.0,0.0,24.57281494140625,-0.15271195769309998,2.437570095062256,-4447.72900390625,0
277.53299999999945,-0.02060694992542267,0.004194651730358601,-0.00026534590870141983,0.0,0.0,0.0,0.0,0.0029589650221168995,-0.0015192735008895397,0.0021262585651129484,1.0011874437332153,0.0,0.0,0.0,24.597360610961914,-0.1492941528558731,2.443669080734253,-4452.1708984375,0
287.4509999999991,-0.020608214661478996,0.004204707220196724,-0.00027550547383725643,0.0,0.0,0.0,0.0,-0.0005530670168809593,0.004962385632097721,0.00012813038483727723,1.000100016593933,0.0,0.0,0.0,24.57346534729004,-0.1590937077999115,2.4416301250457764,-4447.8466796875,0
297.3600000000006,-0.02060876600444317,0.004213064443320036,-0.00030005452572368085,0.0,0.0,0.0,0.0,-0.0029990794137120247,0.0017097240779548883,7.731973164482042e-05,0.9989883303642273,0.0,0.0,0.0,24.592037200927734,-0.16416089236736298,2.427077531814575,-4451.20751953125,0
307.27700000000004,-0.020609237253665924,0.0042219460010528564,-0.0003105294017586857,0.0,0.0,0.0,0.0,-0.0009986996883526444,-0.0003969378594774753,-0.001692538382485509,1.0000054836273193,0.0,0.0,0.0,24.567413330078125,-0.16427746415138245,2.4247190952301025,-4446.75048828125,0
317.1919999999991,-0.020604807883501053,0.004275931511074305,-0.00029798984178341925,0.0,0.0,0.0,0.0,-0.0023109051398932934,0.0002085718879243359,-0.0030084571335464716,1.0003386735916138,0.0,0.0,0.0,24.59451675415039,-0.1481730043888092,2.428147554397583,-4451.65625,0
327.10000000000036,-0.02060629613697529,0.00428782869130373,-0.0003064326010644436,0.0,0.0,0.0,0.0,0.0009983942145481706,-0.007643573917448521,0.0012191029964014888,0.9994905591011047,0.0,0.0,0.0,24.570653915405273,-0.14444877207279205,2.4290215969085693,-4447.33740234375,0
337.0079999999998,-0.020587529987096786,0.004250488243997097,-0.0003426715265959501,0.0,0.0,0.0,0.0,-0.0034677009098231792,-7.714152161497623e-05,0.005641283467411995,0.999002993106842,0.0,0.0,0.0,24.59424591064453,-0.1698436737060547,2.4491703510284424,-4451.607421875,0
346.9320000000007,-0.02058945782482624,0.004257326014339924,-0.0003548570675775409,0.0,0.0,0.0,0.0,0.0020615446846932173,0.001289895037189126,-0.0007756248814985156,0.9981822371482849,0.0,0.0,0.0,24.571340560913086,-0.16217312216758728,2.4502112865448,-4447.4619140625,0
356.83200000000033,-0.02054738439619541,0.0042352499440312386,-0.00036728029954247177,0.0,0.0,0.0,0.0,0.0022889135871082544,-0.0015225338283926249,-0.00048312279977835715,1.000347375869751,0.0,0.0,0.0,24.590011596679688,-0.18687456846237183,2.4560227394104004,-4450.8408203125,0
366.7510000000002,-0.020712340250611305,0.0038732823450118303,0.00016867653175722808,0.0,0.0,0.0,0.0,0.0026040540542453527,-0.0008122181170620024,0.002352034207433462,1.0000756978988647,0.0,0.0,0.0,24.579872131347656,-0.23701876401901245,2.414062023162842,-4449.005859375,0
376.65200000000004,-0.020653869956731796,0.0038291271775960922,0.0001899924682220444,0.0,0.0,0.0,0.0,0.0046638017520308495,-0.003018274437636137,6.589752592844889e-05,1.0005221366882324,0.0,0.0,0.0,24.60814094543457,-0.25205397605895996,2.423919916152954,-4454.12255859375,0
386.5709999999999,-0.02065461501479149,0.0037694277707487345,0.0001350648672087118,0.0,0.0,0.0,0.0,0.0013143341057002544,0.004264589864760637,2.114297603839077e-05,1.0005360841751099,0.0,0.0,0.0,24.60006332397461,-0.2635347843170166,2.4243431091308594,-4452.66064453125,0
396.47899999999936,-0.020673111081123352,0.003848305204883218,0.0001740192819852382,0.0,0.0,0.0,0.0,-0.0011667110957205296,0.0023535573855042458,0.00036257150350138545,1.0006059408187866,0.0,0.0,0.0,24.619277954101562,-0.2585521340370178,2.4234540462493896,-4456.138671875,0
406.3899999999994,-0.020677844062447548,0.0038355104625225067,0.0001739769068080932,0.0,0.0,0.0,0.0,0.0008104234002530575,0.0006013232632540166,-0.003606346668675542,0.9998803734779358,0.0,0.0,0.0,24.594711303710938,-0.25509533286094666,2.4200596809387207,-4451.69189453125,0
416.2999999999993,-0.02065512165427208,0.003853759728372097,0.00019609296577982605,0.0,0.0,0.0,0.0,0.002376341260969639,0.0037379730492830276,0.0019834162667393684,0.999880313873291,0.0,0.0,0.0,24.613384246826172,-0.25164636969566345,2.4252896308898926,-4455.0712890625,0
426.22299999999996,-0.02065994031727314,0.0038406678941100836,0.00019753651577048004,0.0,0.0,0.0,0.0,0.0015029796632006764,-0.0009893025271594524,-0.000745526805985719,1.0004535913467407,0.0,0.0,0.0,24.589242935180664,-0.25638967752456665,2.419290065765381,-4450.7021484375,0
436.1270000000004,-0.020678631961345673,0.0038576533552259207,0.00021214582375250757,0.0,0.0,0.0,0.0,0.002329280599951744,-0.002109779743477702,0.003929665312170982,1.0007041692733765,0.0,0.0,0.0,24.606517791748047,-0.25299736857414246,2.416914224624634,-4453.8291015625,0
446.04199999999946,-0.020683465525507927,0.0038454588502645493,0.00021500702132470906,0.0,0.0,0.0,0.0,-0.0005052899941802025,-0.0010764312464743853,0.0017374928575009108,0.9995198845863342,0.0,0.0,0.0,24.58331871032715,-0.2535790205001831,2.4182026386260986,-4449.6298828125,0
455.9490000000005,-0.020731445401906967,0.0038742336910218,0.00024173811834771186,0.0,0.0,0.0,0.0,0.00216939439997077,-0.0007624175632372499,0.0006745009450241923,1.0005087852478027,0.0,0.0,0.0,24.60773468017578,-0.2419215589761734,2.420410633087158,-4454.04931640625,0
465.8629999999994,-0.020736202597618103,0.003864118130877614,0.00024630525149405,0.0,0.0,0.0,0.0,-0.001925565185956657,-0.004166162107139826,0.0003384574956726283,1.0008573532104492,0.0,0.0,0.0,24.58308219909668,-0.24873992800712585,2.421069622039795,-4449.5869140625,0
475.76800000000003,-0.020714566111564636,0.0038889863062649965,0.00028597371419891715,0.0,0.0,0.0,0.0,0.0014471469912678003,-0.00026784694637171924,0.00194192782510072,1.0013030767440796,0.0,0.0,0.0,24.604204177856445,-0.23933666944503784,2.4324707984924316,-4453.40966796875,0
485.6779999999999,-0.02071869559586048,0.0038809082470834255,0.0002950766356661916,0.0,0.0,0.0,0.0,-0.001080130459740758,-0.001210214220918715,0.001645388314500451,1.0003445148468018,0.0,0.0,0.0,24.580249786376953,-0.23916807770729065,2.430438756942749,-4449.07421875,0
495.60100000000057,-0.02077730931341648,0.0038889606948941946,0.0003155415179207921,0.0,0.0,0.0,0.0,-0.000705702870618552,0.01060359738767147,0.0004055862664245069,0.9998500943183899,0.0,0.0,0.0,24.59965705871582,-0.2287539541721344,2.4323737621307373,-4452.58740234375,0
505.509,-0.020782535895705223,0.003880690550431609,0.0003261903766542673,0.0,0.0,0.0,0.0,0.0007256600656546652,-0.0009431394864805043,0.0030295781325548887,0.9998078346252441,0.0,0.0,0.0,24.574626922607422,-0.2319173663854599,2.413276433944702,-4448.05615234375,0
515.4159999999993,-0.020779449492692947,0.003856647526845336,0.00031883950578048825,0.0,0.0,0.0,0.0,0.0005087873432785273,0.005305996630340815,-0.0021045708563178778,0.999297022819519,0.0,0.0,0.0,24.59630584716797,-0.24742752313613892,2.416997194290161,-4451.97998046875,0
525.3330000000005,-0.02078477293252945,0.0038451747968792915,0.000327612622641027,0.0,0.0,0.0,0.0,0.001341034541837871,-0.0023249152582138777,0.003425935748964548,1.0004383325576782,0.0,0.0,0.0,24.571561813354492,-0.24762791395187378,2.4014086723327637,-4447.50146484375,0
535.244999999999,-0.02078678458929062,0.003861847333610058,0.0003762566775549203,0.0,0.0,0.0,0.0,0.0008031110046431422,-0.0013796333223581314,-0.0012850831262767315,1.0002106428146362,0.0,0.0,0.0,24.60158348083496,-0.23685695230960846,2.4125802516937256,-4452.935546875,0
545.1589999999997,-0.020792989060282707,0.0038539066445082426,0.00038837353349663317,0.0,0.0,0.0,0.0,0.002077430486679077,-0.0031426188070327044,0.00483143562451005,1.000349521636963,0.0,0.0,0.0,24.57665252685547,-0.2341914027929306,2.4115588665008545,-4448.4228515625,0
555.0609999999997,-0.02078791707754135,0.00385870854370296,0.0004200665862299502,0.0,0.0,0.0,0.0,0.0031164090614765882,0.0020598163828253746,-0.0021771553438156843,0.9980878233909607,0.0,0.0,0.0,24.602933883666992,-0.23947855830192566,2.422755718231201,-4453.18017578125,0
564.973,-0.02079319953918457,0.003852446796372533,0.0004332413082011044,0.0,0.0,0.0,0.0,-0.0013985373079776764,0.0025047771632671356,-0.0020936420187354088,0.9985199570655823,0.0,0.0,0.0,24.57818031311035,-0.24202871322631836,2.418280601501465,-4448.69970703125,0
574.8860000000004,-0.020796319469809532,0.003855969524011016,0.00046269205631688237,0.0,0.0,0.0,0.0,0.0013895176816731691,-0.00025900371838361025,-0.00014226458733901381,1.0017421245574951,0.0,0.0,0.0,24.60556411743164,-0.23559090495109558,2.419466495513916,-4453.65576171875,0
584.8119999999999,-0.020803112536668777,0.0038473119493573904,0.00047603348502889276,0.0,0.0,0.0,0.0,0.0006724402774125338,0.0023750527761876583,0.0020910347811877728,0.9983858466148376,0.0,0.0,0.0,24.581422805786133,-0.23286783695220947,2.4217002391815186,-4449.28662109375,0
594.7119999999995,-0.020804857835173607,0.003842355450615287,0.000496374093927443,0.0,0.0,0.0,0.0,0.002994923386722803,-0.0008948333561420441,0.0020622152369469404,0.9993746876716614,0.0,0.0,0.0,24.606569290161133,-0.22927998006343842,2.4181742668151855,-4453.83837890625,0
604.6190000000006,-0.020811254158616066,0.0038313439581543207,0.0005094271618872881,0.0,0.0,0.0,0.0,-0.003973448649048805,-0.00048747635446488857,-0.002150340471416712,1.0020619630813599,0.0,0.0,0.0,24.582355499267578,-0.2323342263698578,2.413038969039917,-4449.455078125,0
614.5349999999999,-0.020803090184926987,0.003819972975179553,0.000533201324287802,0.0,0.0,0.0,0.0,-0.00199726945720613,-0.0023106292355805635,0.0055297729559242725,1.0009171962738037,0.0,0.0,0.0,24.606369018554688,-0.23079968988895416,2.4179444313049316,-4453.8017578125,0
624.4490000000005,-0.020808415487408638,0.0038071211893111467,0.0005492406780831516,0.0,0.0,0.0,0.0,0.0010490559507161379,0.005886388011276722,0.0005310054984875023,1.0034362077713013,0.0,0.0,0.0,24.583438873291016,-0.22762610018253326,2.4242918491363525,-4449.6513671875,0
634.3639999999996,-0.020784618332982063,0.0037940291222184896,0.0005874139023944736,0.0,0.0,0.0,0.0,0.0018676628824323416,0.005101822782307863,0.0017151046777144074,1.0008822679519653,0.0,0.0,0.0,24.604616165161133,-0.2331777960062027,2.4271304607391357,-4453.48486328125,0
644.262999999999,-0.020785298198461533,0.003777584992349148,0.0006088765221647918,0.0,0.0,0.0,0.0,0.00010409661626908928,-0.0011159710120409727,-0.0016528783598914742,1.0003337860107422,0.0,0.0,0.0,24.580158233642578,-0.23587341606616974,2.4173030853271484,-4449.0576171875,0
654.1769999999997,-0.02075769565999508,0.0037328829057514668,0.0006272464524954557,0.0,0.0,0.0,0.0,-0.0011185739422217011,0.004292684607207775,0.003677707863971591,0.999569833278656,0.0,0.0,0.0,24.60286521911621,-0.2544810175895691,2.4251487255096436,-4453.16748046875,0
664.098,-0.020668858662247658,0.0038360452745109797,0.00026611736393533647,0.0,0.0,0.0,0.0,0.0020553325302898884,0.002046571345999837,0.0024421995040029287,0.9979620575904846,0.0,0.0,0.0,24.59285545349121,-0.2488684505224228,2.4294896125793457,-4451.35595703125,0
674.0059999999994,-0.020725339651107788,0.0038395628798753023,0.00024313059111591429,0.0,0.0,0.0,0.0,-0.0004359927261248231,-0.0005097363027743995,-0.00017883694090414792,1.0009592771530151,0.0,0.0,0.0,24.61914825439453,-0.25060245394706726,2.42330265045166,-4456.11474609375,0
683.9079999999994,-0.020722877234220505,0.003824541810899973,0.0002461824333295226,0.0,0.0,0.0,0.0,-0.0013296769466251135,0.0037537231110036373,0.0018016863614320755,0.9984310269355774,0.0,0.0,0.0,24.594146728515625,-0.24848587810993195,2.4273855686187744,-4451.58984375,0
693.8279999999995,-0.020745940506458282,0.0038121421821415424,0.00024562893668189645,0.0,0.0,0.0,0.0,-0.0009343702695332468,-0.0052163912914693356,0.0021454256493598223,0.9980373978614807,0.0,0.0,0.0,24.615442276000977,-0.24413259327411652,2.417189121246338,-4455.4443359375,0
703.7350000000006,-0.02074425481259823,0.0037975755985826254,0.0002465207944624126,0.0,0.0,0.0,0.0,-0.005475046578794718,-0.003383408300578594,0.0028588760178536177,0.9973263144493103,0.0,0.0,0.0,24.591644287109375,-0.24159084260463715,2.4221761226654053,-4451.13671875,0
713.6450000000004,-0.02074613980948925,0.0037926489021629095,0.0002538288536015898,0.0,0.0,0.0,0.0,0.0014919514069333673,0.0035375601146370173,0.0009120602626353502,1.0000072717666626,0.0,0.0,0.0,24.617149353027344,-0.23298022150993347,2.427748918533325,-4455.75341796875,0
723.5560000000005,-0.020743828266859055,0.0037805710453540087,0.00025209892191924155,0.0,0.0,0.0,0.0,-0.00013558196951635182,-0.004959731362760067,0.00404403917491436,1.0001167058944702,0.0,0.0,0.0,24.593259811401367,-0.23383887112140656,2.415386438369751,-4451.4287109375,0
733.4670000000006,-0.020746305584907532,0.0037771950010210276,0.00025764148449525237,0.0,0.0,0.0,0.0,0.0035759226884692907,0.0018462068401277065,-0.0002924410509876907,1.0008901357650757,0.0,0.0,0.0,24.618183135986328,-0.23443569242954254,2.4274404048919678,-4455.93994140625,0
743.378999999999,-0.020742816850543022,0.00376635929569602,0.00025719398399814963,0.0,0.0,0.0,0.0,-0.00196394813247025,-0.0012553774286061525,-3.4018223232124e-05,0.9993069767951965,0.0,0.0,0.0,24.592954635620117,-0.2396572381258011,2.4194040298461914,-4451.37353515625,0
753.2909999999993,-0.020777907222509384,0.0037698480300605297,0.00026809959672391415,0.0,0.0,0.0,0.0,-0.0015668910928070545,-0.0010232037166133523,0.0005155547405593097,0.9996044635772705,0.0,0.0,0.0,24.610641479492188,-0.23193611204624176,2.4184179306030273,-4454.5751953125,0
763.2029999999995,-0.020775161683559418,0.0037582204677164555,0.00026846484979614615,0.0,0.0,0.0,0.0,-0.0012857939582318068,-0.004825620446354151,0.0010229777544736862,1.0017204284667969,0.0,0.0,0.0,24.58702850341797,-0.22787897288799286,2.421295166015625,-4450.30078125,0
773.116,-0.020781446248292923,0.003794538788497448,0.0003257838834542781,0.0,0.0,0.0,0.0,0.00015687101404182613,0.0007659338298253715,-0.0020232812967151403,1.000929832458496,0.0,0.0,0.0,24.614158630371094,-0.20522506535053253,2.4442481994628906,-4455.2119140625,0
783.0259999999998,-0.020780889317393303,0.0037873932160437107,0.00033266833634115756,0.0,0.0,0.0,0.0,0.0024603421334177256,-0.001691385405138135,0.0011158103588968515,0.9998719096183777,0.0,0.0,0.0,24.588748931884766,-0.20378780364990234,2.437469005584717,-4450.61279296875,0
792.9380000000001,-0.020789647474884987,0.003812591778114438,0.00037899118615314364,0.0,0.0,0.0,0.0,0.00034912885166704655,0.005748829338699579,-0.0013188763987272978,0.9987969398498535,0.0,0.0,0.0,24.616413116455078,-0.1918714940547943,2.4394631385803223,-4455.61962890625,0
802.8490000000002,-0.020789798349142075,0.0038090760353952646,0.00038872729055583477,0.0,0.0,0.0,0.0,0.0015339633682742715,0.0005646645440720022,-0.0023248353973031044,0.9980844855308533,0.0,0.0,0.0,24.591339111328125,-0.1904975026845932,2.428459405899048,-4451.0810546875,0
812.7649999999994,-0.020781517028808594,0.0037905327044427395,0.00037816495751030743,0.0,0.0,0.0,0.0,-0.00020794544252566993,0.0012911816593259573,0.0007561835809610784,0.9984090924263,0.0,0.0,0.0,24.61216926574707,-0.20429915189743042,2.4290947914123535,-4454.8515625,0
822.6720000000005,-0.02078172191977501,0.0037868195213377476,0.00038364771171472967,0.0,0.0,0.0,0.0,-0.0009503280743956566,-0.00168908282648772,0.002379362704232335,1.0014396905899048,0.0,0.0,0.0,24.588809967041016,-0.20241470634937286,2.429466962814331,-4450.62353515625,0
832.5840000000007,-0.02073807641863823,0.0037922619376331568,0.00041468176641501486,0.0,0.0,0.0,0.0,0.00012818169489037246,0.0003398908593226224,-0.0018659477354958653,0.9986382722854614,0.0,0.0,0.0,24.614736557006836,-0.20051832497119904,2.4504001140594482,-4455.31640625,0
842.5020000000004,-0.02073810249567032,0.003791308030486107,0.0004217318200971931,0.0,0.0,0.0,0.0,-0.00029604777228087187,-0.00020655238768085837,-0.00031091703567653894,0.9981902241706848,0.0,0.0,0.0,24.59002685546875,-0.19843879342079163,2.44809627532959,-4450.84375,0
852.4099999999999,-0.02069118060171604,0.0037600614596158266,0.0004089528520125896,0.0,0.0,0.0,0.0,-0.0019967069383710623,0.001441372325643897,-0.002674887888133526,1.0000499486923218,0.0,0.0,0.0,24.617137908935547,-0.2194722294807434,2.4531962871551514,-4455.7509765625,0
862.3209999999999,-0.020688796415925026,0.0037575243040919304,0.00041206859168596566,0.0,0.0,0.0,0.0,0.0018506423803046346,0.002603681990876794,0.0008903318084776402,0.9984470009803772,0.0,0.0,0.0,24.592432022094727,-0.21265247464179993,2.4490554332733154,-4451.279296875,0
872.2340000000004,-0.020678294822573662,0.0037650736048817635,0.0004188429156783968,0.0,0.0,0.0,0.0,0.0018347679870203137,-0.0033596029970794916,0.0027589185629040003,0.9998438954353333,0.0,0.0,0.0,24.616302490234375,-0.21169845759868622,2.448007583618164,-4455.599609375,0
882.143,-0.020676320418715477,0.0037640470545738935,0.00042082430445589125,0.0,0.0,0.0,0.0,0.002568794647231698,-0.0011107244063168764,0.0017235985724255443,1.001678705215454,0.0,0.0,0.0,24.592378616333008,-0.2139725536108017,2.4600493907928467,-4451.26953125,0
892.0550000000003,-0.020705603063106537,0.003805376123636961,0.00043064498458988965,0.0,0.0,0.0,0.0,-0.0036689897533506155,-0.0010393294505774975,0.00038238574052229524,1.0003498792648315,0.0,0.0,0.0,24.617164611816406,-0.19554510712623596,2.4525554180145264,-4455.755859375,0
901.9680000000008,-0.02066441997885704,0.0038411454297602177,0.00021807341545354575,0.0,0.0,0.0,0.0,-0.0001401117187924683,0.0011690075043588877,-0.0013545785332098603,0.9993895888328552,0.0,0.0,0.0,24.607505798339844,-0.19424723088741302,2.4550435543060303,-4454.00732421875,0
911.8799999999992,-0.02074293978512287,0.0038852598518133163,0.00018905448087025434,0.0,0.0,0.0,0.0,0.0007745684706605971,0.0025519095361232758,0.00035853683948516846,0.9994007349014282,0.0,0.0,0.0,24.631488800048828,-0.18785852193832397,2.44921612739563,-4458.3486328125,0
921.7909999999993,-0.020744146779179573,0.003886197227984667,0.0001822255871957168,0.0,0.0,0.0,0.0,8.509592589689419e-05,0.0006242012605071068,0.0035477853380143642,0.9980143904685974,0.0,0.0,0.0,24.607513427734375,-0.18954998254776,2.442861318588257,-4454.0087890625,0
931.7029999999995,-0.020760372281074524,0.0038865399546921253,0.00017212476814165711,0.0,0.0,0.0,0.0,0.0017947277519851923,-0.0008525557350367308,0.00021015931270085275,0.9996247887611389,0.0,0.0,0.0,24.62848472595215,-0.19021567702293396,2.4401040077209473,-4457.80517578125,0
941.6139999999996,-0.020761840045452118,0.00388709781691432,0.0001625840668566525,0.0,0.0,0.0,0.0,0.0011656028218567371,0.0007098715868778527,-7.89459008956328e-05,0.9996996521949768,0.0,0.0,0.0,24.604467391967773,-0.19269709289073944,2.4394285678863525,-4453.4580078125,0
951.527,-0.020743681117892265,0.00387189001776278,0.00011895474744960666,0.0,0.0,0.0,0.0,-0.0019060204504057765,0.001700653345324099,-0.0005292968708090484,0.9995811581611633,0.0,0.0,0.0,24.64753532409668,-0.20310398936271667,2.4458465576171875,-4461.2529296875,0
961.4380000000001,-0.020744549110531807,0.003869377076625824,0.00010501360520720482,0.0,0.0,0.0,0.0,0.0005102629656903446,-0.0023934035561978817,0.0017371601425111294,1.000578761100769,0.0,0.0,0.0,24.623327255249023,-0.20211738348007202,2.449707508087158,-4456.87109375,0
971.3549999999996,-0.0207488015294075,0.003891132539138198,0.00010601663234410807,0.0,0.0,0.0,0.0,0.0007675256347283721,-0.00022214403725229204,-0.0013159440131857991,1.0001939535140991,0.0,0.0,0.0,24.64289093017578,-0.20568904280662537,2.45676326751709,-4460.41259765625,0
981.2649999999994,-0.020748713985085487,0.0038847168907523155,9.4732349680271e-05,0.0,0.0,0.0,0.0,0.00016257824609056115,3.228913192288019e-05,0.003051233943551779,1.0022228956222534,0.0,0.0,0.0,24.61858367919922,-0.20617392659187317,2.456242799758911,-4456.0126953125,0
991.1790000000001,-0.020747607573866844,0.003861980279907584,8.172091474989429e-05,0.0,0.0,0.0,0.0,7.284400635398924e-05,0.003350313985720277,0.005730303004384041,1.0010403394699097,0.0,0.0,0.0,24.65343475341797,-0.20833560824394226,2.45634388923645,-4462.3203125,0
1001.0900000000001,-0.02074711211025715,0.003852495923638344,7.268889021361247e-05,0.0,0.0,0.0,0.0,-0.0029766159132122993,-0.0020306622609496117,-0.0019286968745291233,1.0016192197799683,0.0,0.0,0.0,24.63053321838379,-0.20711860060691833,2.4476938247680664,-4458.17529296875,0
1010.9989999999998,-0.020742736756801605,0.003873935667797923,8.226466889027506e-05,0.0,0.0,0.0,0.0,0.0007036124006845057,0.006236598361283541,-0.0005497671663761139,1.0002580881118774,0.0,0.0,0.0,24.649015426635742,-0.20832957327365875,2.4527266025543213,-4461.5205078125,0
1020.9369999999999,-0.020758463069796562,0.003887041239067912,8.292720303870738e-05,0.0,0.0,0.0,0.0,0.00378024741075933,-0.0015797445084899664,-0.0031136299949139357,0.9994819164276123,0.0,0.0,0.0,24.66615104675293,-0.2087416648864746,2.444676399230957,-4464.62255859375,0
1030.8230000000003,-0.020761869847774506,0.003820582525804639,4.0642564272275195e-05,0.0,0.0,0.0,0.0,-0.004657527897506952,-0.002743691438809037,-0.0008353553712368011,0.9981927871704102,0.0,0.0,0.0,24.654945373535156,-0.22280925512313843,2.4498445987701416,-4462.59423828125,0
1040.7340000000004,-0.020711302757263184,0.003922678530216217,0.00011386283586034551,0.0,0.0,0.0,0.0,-0.00019324375898577273,0.003201803658157587,7.70225451560691e-05,0.9994423985481262,0.0,0.0,0.0,24.67275047302246,-0.2078612893819809,2.4649956226348877,-4465.81689453125,0
1050.6489999999994,-0.020710086449980736,0.003916133660823107,0.00010991216549882665,0.0,0.0,0.0,0.0,-0.00027779958327300847,0.0008410221780650318,-0.0016006568912416697,1.0005054473876953,0.0,0.0,0.0,24.64877700805664,-0.20985032618045807,2.462080717086792,-4461.4775390625,0
1060.5740000000005,-0.020716100931167603,0.0039728786796331406,0.00013328823843039572,0.0,0.0,0.0,0.0,-0.005750882904976606,0.0009387630852870643,-0.0008286835509352386,0.998773992061615,0.0,0.0,0.0,24.669048309326172,-0.20119763910770416,2.462986469268799,-4465.146484375,0
1070.473,-0.020715735852718353,0.003970633260905743,0.00013103228411637247,0.0,0.0,0.0,0.0,-0.00017071054026018828,-0.003659270005300641,0.0025739383418112993,0.998469889163971,0.0,0.0,0.0,24.644695281982422,-0.1913299560546875,2.458068370819092,-4460.73876953125,0
1080.3809999999994,-0.02071656472980976,0.00395209388807416,0.00011818751227110624,0.0,0.0,0.0,0.0,0.00037788841291330755,0.003080248599871993,0.00075621681753546,1.0007190704345703,0.0,0.0,0.0,24.66452407836914,-0.19904813170433044,2.467292308807373,-4464.328125,0
1090.2960000000003,-0.020712176337838173,0.003948903176933527,0.00011352868750691414,0.0,0.0,0.0,0.0,-0.0017168378690257668,9.51422262005508e-05,0.0003226831613574177,1.002245306968689,0.0,0.0,0.0,24.639652252197266,-0.19635701179504395,2.4580678939819336,-4459.826171875,0
1100.2060000000001,-0.02068086341023445,0.003980073146522045,0.0001378726155962795,0.0,0.0,0.0,0.0,-0.0004399117606226355,-0.0008387130801565945,-0.0017855606274679303,1.0014376640319824,0.0,0.0,0.0,24.658958435058594,-0.1879473328590393,2.4684078693389893,-4463.3203125,0
1110.1149999999998,-0.02067355439066887,0.003977449145168066,0.00013858886086381972,0.0,0.0,0.0,0.0,-0.00390641950070858,0.004252741578966379,-0.0002677894663065672,0.9999163150787354,0.0,0.0,0.0,24.634675979614258,-0.18517467379570007,2.4667840003967285,-4458.92578125,0
1120.0319999999992,-0.020685702562332153,0.003948209807276726,0.0001156385987997055,0.0,0.0,0.0,0.0,0.00035914432373829186,0.0019063964718952775,-0.0009796303929761052,0.9971359372138977,0.0,0.0,0.0,24.65359878540039,-0.1925395429134369,2.448889970779419,-4462.35009765625,0
1129.9390000000003,-0.020680207759141922,0.003943675197660923,0.00011349318083375692,0.0,0.0,0.0,0.0,0.0015979059971868992,-0.0029183358419686556,-0.0004319663858041167,0.9995169639587402,0.0,0.0,0.0,24.62890625,-0.19358833134174347,2.4365367889404297,-4457.880859375,0
1139.8529999999992,-0.020688213407993317,0.003934441599994898,0.00010495923197595403,0.0,0.0,0.0,0.0,-0.0009099894668906927,0.0015933315735310316,0.001766695873811841,1.0000425577163696,0.0,0.0,0.0,24.651016235351562,-0.19755038619041443,2.438509941101074,-4461.88330078125,0
1149.7620000000006,-0.020683327689766884,0.003928172402083874,0.00010067252878798172,0.0,0.0,0.0,0.0,0.0010450846748426557,0.0013822658220306039,3.329057290102355e-05,0.9992644786834717,0.0,0.0,0.0,24.627317428588867,-0.19355201721191406,2.432032585144043,-4457.59326171875,0
1159.6759999999995,-0.02069084532558918,0.00391678512096405,8.926502778194845e-05,0.0,0.0,0.0,0.0,-0.0017536655068397522,-0.0024820216931402683,0.0003943905176129192,1.0020419359207153,0.0,0.0,0.0,24.648780822753906,-0.19784998893737793,2.424542188644409,-4461.47802734375,0
1169.5869999999995,-0.020686056464910507,0.003909335937350988,8.470090688206255e-05,0.0,0.0,0.0,0.0,-0.003313678316771984,-0.0025956809986382723,2.1121644749655388e-05,1.001565933227539,0.0,0.0,0.0,24.62457847595215,-0.19474700093269348,2.4270896911621094,-4457.09814453125,0
1179.5030000000006,-0.020688354969024658,0.003908771090209484,8.483508281642571e-05,0.0,0.0,0.0,0.0,-0.002831734251230955,3.72190261259675e-05,0.0004973825416527689,0.9987362623214722,0.0,0.0,0.0,24.645076751708984,-0.1887219399213791,2.430619478225708,-4460.80810546875,0
1189.4179999999997,-0.020684674382209778,0.003903414821252227,8.246236393461004e-05,0.0,0.0,0.0,0.0,0.0020260922610759735,-0.0006279377266764641,-0.0008218506118282676,1.0006239414215088,0.0,0.0,0.0,24.620149612426758,-0.1850825548171997,2.420844554901123,-4456.2958984375,0
1199.3240000000005,-0.020651083439588547,0.003914511762559414,0.00010122529783984646,0.0,0.0,0.0,0.0,-0.0013727142941206694,0.0008104592561721802,0.0015227003023028374,1.0010401010513306,0.0,0.0,0.0,24.638933181762695,-0.18699350953102112,2.4273149967193604,-4459.69580078125,0
1209.2340000000004,-0.02067662961781025,0.0038196847308427095,0.00013054627925157547,0.0,0.0,0.0,0.0,0.0015604660147801042,-0.002395380986854434,0.00045952777145430446,0.9990519881248474,0.0,0.0,0.0,24.624197006225586,-0.20771323144435883,2.4047067165374756,-4457.0283203125,0
1219.1479999999992,-0.020678546279668808,0.0038695784751325846,0.0001664015871938318,0.0,0.0,0.0,0.0,-0.0016584527911618352,-0.0017425833502784371,0.0006606652168557048,0.9996989965438843,0.0,0.0,0.0,24.644163131713867,-0.19842353463172913,2.4138965606689453,-4460.642578125,0
1229.057999999999,-0.020673977211117744,0.003862015437334776,0.00016769490321166813,0.0,0.0,0.0,0.0,-0.00031339743873104453,0.0031313796062022448,0.00165447941981256,0.9995603561401367,0.0,0.0,0.0,24.619775772094727,-0.1931380331516266,2.4190549850463867,-4456.228515625,0
1238.9699999999993,-0.020721890032291412,0.0039194016717374325,0.00019709324988070875,0.0,0.0,0.0,0.0,0.0011168684577569366,-0.0005265261279419065,-0.0002613081887830049,0.9999128580093384,0.0,0.0,0.0,24.641904830932617,-0.18018384277820587,2.4233431816101074,-4460.23388671875,0
1248.8809999999994,-0.020717838779091835,0.003914350178092718,0.00019990398141089827,0.0,0.0,0.0,0.0,-0.0016635649371892214,-0.0043730358593165874,0.0012862291187047958,0.9992548823356628,0.0,0.0,0.0,24.61626434326172,-0.1830202043056488,2.433236837387085,-4455.59326171875,0
1258.798999999999,-0.020743874832987785,0.003932625520974398,0.00021520473819691688,0.0,0.0,0.0,0.0,-0.00039172047399915755,0.006315960548818111,0.001883574528619647,0.9987646341323853,0.0,0.0,0.0,24.641212463378906,-0.17334704101085663,2.4374048709869385,-4460.1083984375,0
1268.7060000000001,-0.02074870653450489,0.0038367933593690395,0.0001597122463863343,0.0,0.0,0.0,0.0,0.0009356023510918021,0.0005973570514470339,-0.0006395292584784329,0.9999812245368958,0.0,0.0,0.0,24.62872886657715,-0.19320885837078094,2.4082489013671875,-4457.84912109375,0
1278.6170000000002,-0.020717911422252655,0.003912915010005236,0.00021863062283955514,0.0,0.0,0.0,0.0,0.002145907608792186,0.0012077509891241789,-0.0017833641031756997,0.9994689226150513,0.0,0.0,0.0,24.647523880004883,-0.19263826310634613,2.414849281311035,-4461.2509765625,0
1288.527,-0.02071067877113819,0.0039055116940289736,0.0002199712034780532,0.0,0.0,0.0,0.0,-0.00042659955215640366,0.0014005500124767423,0.000551260425709188,1.0007972717285156,0.0,0.0,0.0,24.622718811035156,-0.19646401703357697,2.4066624641418457,-4456.76123046875,0
1298.4429999999993,-0.0207197368144989,0.0038819871842861176,0.00020756543381139636,0.0,0.0,0.0,0.0,-0.002681642770767212,-0.0033594497945159674,0.0024549271911382675,1.0019588470458984,0.0,0.0,0.0,24.643354415893555,-0.19783319532871246,2.40002179145813,-4460.49658203125,0
1308.3590000000004,-0.020712697878479958,0.003869886975735426,0.00020948011660948396,0.0,0.0,0.0,0.0,-0.00013320213474798948,0.001995844068005681,-0.0037110340781509876,0.9989374876022339,0.0,0.0,0.0,24.619670867919922,-0.18840597569942474,2.4020538330078125,-4456.20947265625,0
1318.2749999999996,-0.020725715905427933,0.003856003750115633,0.00020905464771203697,0.0,0.0,0.0,0.0,0.0040076058357954025,-0.000509347883053124,-0.0001312810054514557,0.9991046190261841,0.0,0.0,0.0,24.638771057128906,-0.19020476937294006,2.387979507446289,-4459.66650390625,0
1328.1779999999999,-0.020701320841908455,0.003810928901657462,0.0001354104169877246,0.0,0.0,0.0,0.0,0.0012217562180012465,-0.0004622369888238609,0.004231660161167383,0.9992656111717224,0.0,0.0,0.0,24.62567710876465,-0.20246221125125885,2.381979465484619,-4457.29638671875,0
1338.0859999999993,-0.020753754302859306,0.003906839992851019,0.0001570493186591193,0.0,0.0,0.0,0.0,-0.00019681187404785305,0.0033219563774764538,-0.0006886341143399477,1.001612663269043,0.0,0.0,0.0,24.647022247314453,-0.18839921057224274,2.386777639389038,-4461.16015625,0
1347.9979999999996,-0.020748456940054893,0.0038941893726587296,0.00015467188495676965,0.0,0.0,0.0,0.0,0.0002222325128968805,0.0018199512269347906,0.0002001206885324791,0.9987984299659729,0.0,0.0,0.0,24.622262954711914,-0.1834564208984375,2.38019061088562,-4456.67822265625,0
1357.911,-0.020688405260443687,0.0038915325421839952,0.00017119693802669644,0.0,0.0,0.0,0.0,-0.00025272901984862983,0.00033786939457058907,0.0006196892354637384,1.0017833709716797,0.0,0.0,0.0,24.639516830444336,-0.1861652433872223,2.386533260345459,-4459.80126953125,0
1367.83,-0.02068277634680271,0.003876840230077505,0.00017110345652326941,0.0,0.0,0.0,0.0,0.002078917808830738,-0.00044689717469736934,-0.0010299236746504903,1.003566861152649,0.0,0.0,0.0,24.614913940429688,-0.18138501048088074,2.3774285316467285,-4455.34814453125,0
1377.7340000000004,-0.020721882581710815,0.0039103077724576,0.00019765293109230697,0.0,0.0,0.0,0.0,-0.0007598224910907447,-0.0005868121515959501,0.0036938560660928488,1.0009251832962036,0.0,0.0,0.0,24.635047912597656,-0.16813963651657104,2.365948438644409,-4458.99267578125,0
1387.652,-0.020719746127724648,0.003898849245160818,0.00020441258675418794,0.0,0.0,0.0,0.0,0.005397919565439224,-0.00014829126303084195,-0.0008496902883052826,1.000364065170288,0.0,0.0,0.0,24.612422943115234,-0.15684770047664642,2.3684396743774414,-4454.8974609375,0
1397.5589999999993,-0.020755166187882423,0.003873161505907774,0.00019751534273382276,0.0,0.0,0.0,0.0,0.0012206973042339087,-0.0017266409704461694,-0.003931042738258839,0.9973620772361755,0.0,0.0,0.0,24.631744384765625,-0.16759735345840454,2.359370708465576,-4458.39501953125,0
1407.4760000000006,-0.02075774408876896,0.00386054371483624,0.00020233307441230863,0.0,0.0,0.0,0.0,0.001834478578530252,0.004905729554593563,-0.001437939703464508,0.9981514811515808,0.0,0.0,0.0,24.606243133544922,-0.1734536737203598,2.3573408126831055,-4453.77880859375,0
1417.3809999999994,-0.020780662074685097,0.0038484972901642323,0.00020417143241502345,0.0,0.0,0.0,0.0,-0.0019836293067783117,-0.0009198662592098117,0.0058821141719818115,1.0004633665084839,0.0,0.0,0.0,24.623228073120117,-0.17760364711284637,2.348684549331665,-4456.85302734375,0
1427.3070000000007,-0.020786238834261894,0.003835032694041729,0.0002067122550215572,0.0,0.0,0.0,0.0,-0.0007743596797809005,0.0022684058640152216,0.0014629499055445194,1.0014256238937378,0.0,0.0,0.0,24.600229263305664,-0.1755230724811554,2.347733736038208,-4452.69091796875,0
1437.205,-0.020769603550434113,0.0038677682168781757,0.0002590450458228588,0.0,0.0,0.0,0.0,-0.0041261473670601845,-0.0018807178130373359,0.0010529030114412308,1.0023596286773682,0.0,0.0,0.0,24.625146865844727,-0.16299603879451752,2.3549580574035645,-4457.20068359375,0
1447.125,-0.020776262506842613,0.0038603395223617554,0.00026836624601855874,0.0,0.0,0.0,0.0,-0.0020539306569844484,-0.0010949285933747888,0.0015608073445037007,0.9994393587112427,0.0,0.0,0.0,24.60161018371582,-0.15802869200706482,2.3553879261016846,-4452.94091796875,0
1457.0300000000007,-0.020732685923576355,0.003852270543575287,0.00028466523508541286,0.0,0.0,0.0,0.0,-0.0020166649483144283,0.00025422300677746534,0.00112299679312855,0.9995446801185608,0.0,0.0,0.0,24.622737884521484,-0.1660652756690979,2.370457172393799,-4456.7646484375,0
1466.9480000000003,-0.020735464990139008,0.0038447745610028505,0.00029478021315298975,0.0,0.0,0.0,0.0,0.0014010852901265025,0.0017719919560477138,-0.0003382424474693835,0.9998552799224854,0.0,0.0,0.0,24.5987548828125,-0.15890172123908997,2.3748583793640137,-4452.42333984375,0
1476.8590000000004,-0.020755868405103683,0.003860203782096505,0.00032354635186493397,0.0,0.0,0.0,0.0,-0.002445401158183813,-0.0013598561054095626,0.0009552520932629704,0.998767614364624,0.0,0.0,0.0,24.623077392578125,-0.15187925100326538,2.372812509536743,-4456.82568359375,0
1486.7700000000004,-0.02076004631817341,0.003855399088934064,0.00033426476875320077,0.0,0.0,0.0,0.0,0.0011300686746835709,-0.0016454642172902822,0.0012197961332276464,0.9998950362205505,0.0,0.0,0.0,24.59886932373047,-0.14346149563789368,2.367922782897949,-4452.4443359375,0
1496.679,-0.020739488303661346,0.0038332126569002867,0.00032905442640185356,0.0,0.0,0.0,0.0,0.0021593740675598383,-0.0007041340577416122,0.0006122937193140388,1.0005056858062744,0.0,0.0,0.0,24.62183952331543,-0.16334642469882965,2.3720953464508057,-4456.60205078125,0
1506.5969999999998,-0.020738588646054268,0.0038280063308775425,0.0003387348842807114,0.0,0.0,0.0,0.0,0.0011572502553462982,-0.0008137073018588126,-0.0027542177122086287,0.9993777275085449,0.0,0.0,0.0,24.597545623779297,-0.16923868656158447,2.371098041534424,-4452.205078125,0
1516.4989999999998,-0.020737100392580032,0.0038194935768842697,0.0003426366893108934,0.0,0.0,0.0,0.0,-0.001879585557617247,-0.0005796260084025562,-0.006030379794538021,1.0018351078033447,0.0,0.0,0.0,24.61884880065918,-0.17136593163013458,2.366333246231079,-4456.060546875,0
1526.4189999999999,-0.02071039192378521,0.0037890071980655193,0.00022487679962068796,0.0,0.0,0.0,0.0,0.00036584000918082893,-0.0013045610394328833,-0.0004294710815884173,1.0004794597625732,0.0,0.0,0.0,24.6033992767334,-0.17874589562416077,2.3634040355682373,-4453.2646484375,0
1536.3230000000003,-0.02075175568461418,0.003862721147015691,0.00025170869776047766,0.0,0.0,0.0,0.0,-0.0019990585278719664,-0.00029640085995197296,0.0018353123450651765,0.9993143677711487,0.0,0.0,0.0,24.623451232910156,-0.16642175614833832,2.369938611984253,-4456.8935546875,0
1546.2430000000004,-0.020724711939692497,0.003819363424554467,0.00016865639190655202,0.0,0.0,0.0,0.0,-0.005235924385488033,0.004595253616571426,-0.0020381950307637453,0.99959796667099,0.0,0.0,0.0,24.61016082763672,-0.1697676032781601,2.3698883056640625,-4454.48828125,0
1556.1450000000004,-0.02075837180018425,0.0039030101615935564,0.00019164122932124883,0.0,0.0,0.0,0.0,-0.0020939998794347048,-0.0033226313535124063,-0.0015055944677442312,1.0014760494232178,0.0,0.0,0.0,24.631006240844727,-0.15356560051441193,2.3560502529144287,-4458.26123046875,0
1566.0740000000005,-0.020743463188409805,0.003823367180302739,0.00013051820860709995,0.0,0.0,0.0,0.0,-0.0028791246004402637,-0.0012479458237066865,-0.0015910312067717314,1.0027345418930054,0.0,0.0,0.0,24.606645584106445,-0.14669840037822723,2.3549790382385254,-4453.8515625,0
1575.9699999999993,-0.02075859159231186,0.0038669295608997345,0.0001423124485881999,0.0,0.0,0.0,0.0,0.001991334604099393,0.00018630371778272092,-0.0030719253700226545,0.9983847737312317,0.0,0.0,0.0,24.651527404785156,-0.14733299612998962,2.3565735816955566,-4461.9755859375,0
1585.8979999999992,-0.020746957510709763,0.003848162479698658,0.0001443887158529833,0.0,0.0,0.0,0.0,-0.0016194683266803622,-0.001694287289865315,0.0007055477472022176,1.000496506690979,0.0,0.0,0.0,24.603670120239258,-0.1366058588027954,2.3580970764160156,-4453.3134765625,0
1595.7929999999997,-0.020725246518850327,0.003922274336218834,0.00018105596245732158,0.0,0.0,0.0,0.0,0.0028638923540711403,0.0031847560312598944,-0.002543599111959338,0.997554361820221,0.0,0.0,0.0,24.64867401123047,-0.1327790766954422,2.366338014602661,-4461.458984375,0
1605.7170000000006,-0.02071389928460121,0.0039002601988613605,0.00018603609350975603,0.0,0.0,0.0,0.0,0.0007928336854092777,-0.003674375591799617,0.0015781410038471222,0.9983848333358765,0.0,0.0,0.0,24.598533630371094,-0.13611388206481934,2.358776092529297,-4452.3837890625,0
1615.6180000000004,-0.02071991190314293,0.003893827786669135,0.00018008048937190324,0.0,0.0,0.0,0.0,-0.00012859571143053472,0.0009052495006471872,-0.0023629136849194765,1.0004444122314453,0.0,0.0,0.0,24.64295768737793,-0.14111389219760895,2.3595778942108154,-4460.4248046875,0
1625.5370000000003,-0.02071276120841503,0.003879611613228917,0.00017962245328817517,0.0,0.0,0.0,0.0,0.0003117864835076034,0.0013212732737883925,-0.001903317403048277,0.9984166026115417,0.0,0.0,0.0,24.618572235107422,-0.1364312767982483,2.3629961013793945,-4456.01025390625,0
1635.441999999999,-0.020747050642967224,0.003861325792968273,0.00017140049021691084,0.0,0.0,0.0,0.0,0.00043753860518336296,0.0051658060401678085,0.001987412804737687,0.9999921917915344,0.0,0.0,0.0,24.635499954223633,-0.13959938287734985,2.3617031574249268,-4459.07421875,0
1645.3649999999998,-0.02074078656733036,0.003850008826702833,0.00016910640988498926,0.0,0.0,0.0,0.0,0.000701702490914613,-0.00725271413102746,0.0002311020070919767,0.999916136264801,0.0,0.0,0.0,24.610305786132812,-0.13853785395622253,2.3507115840911865,-4454.51416015625,0
1655.2749999999996,-0.020738810300827026,0.0038398115430027246,0.00016545764810871333,0.0,0.0,0.0,0.0,0.0013502241345122457,0.0021112640388309956,-0.002324149012565613,0.9996534585952759,0.0,0.0,0.0,24.631847381591797,-0.1431034803390503,2.3527355194091797,-4458.4130859375,0
1665.182999999999,-0.02073298580944538,0.0038298575673252344,0.000162893658853136,0.0,0.0,0.0,0.0,0.0016448232345283031,0.00046822073636576533,-0.0007771918317303061,0.998378336429596,0.0,0.0,0.0,24.60765838623047,-0.1447380632162094,2.360105514526367,-4454.03515625,0
1675.0869999999995,-0.020740514621138573,0.003845479339361191,0.0001848649262683466,0.0,0.0,0.0,0.0,-0.0017638207646086812,-0.0003009420761372894,0.003518309211358428,0.999615490436554,0.0,0.0,0.0,24.633329391479492,-0.12964634597301483,2.3752405643463135,-4458.681640625,0
1685.0120000000006,-0.020736034959554672,0.0038392727728933096,0.00018274971807841212,0.0,0.0,0.0,0.0,0.007251264993101358,-0.0011253211414441466,-0.00423803087323904,1.0018576383590698,0.0,0.0,0.0,24.608890533447266,-0.12897902727127075,2.3634636402130127,-4454.25830078125,0
1694.911,-0.020731421187520027,0.003838921897113323,0.00018494512187317014,0.0,0.0,0.0,0.0,0.002956972923129797,0.0008962054271250963,0.0012658394407480955,1.001054048538208,0.0,0.0,0.0,24.63339614868164,-0.13652262091636658,2.371253728866577,-4458.693359375,0
1704.8289999999997,-0.02072736620903015,0.003835065523162484,0.0001848407555371523,0.0,0.0,0.0,0.0,0.00042401946848258376,-0.008153372444212437,0.0032683939207345247,1.0005210638046265,0.0,0.0,0.0,24.609886169433594,-0.14016783237457275,2.3743233680725098,-4454.4384765625,0
1714.7369999999992,-0.0207408145070076,0.003870895830914378,0.00022947743127588183,0.0,0.0,0.0,0.0,0.0005680479225702584,0.001587349339388311,-0.0023749442771077156,0.9997361898422241,0.0,0.0,0.0,24.63536262512207,-0.12234337627887726,2.3872416019439697,-4459.04931640625,0
1724.6620000000003,-0.02073945850133896,0.0038707228377461433,0.0002347593690501526,0.0,0.0,0.0,0.0,0.0014693762641400099,0.0008151728543452919,0.0004049385606776923,1.0000637769699097,0.0,0.0,0.0,24.611404418945312,-0.1276913434267044,2.3902087211608887,-4454.712890625,0
1734.5609999999997,-0.020737318322062492,0.003900629235431552,0.00027475791284814477,0.0,0.0,0.0,0.0,0.00035344765638001263,0.001190653769299388,0.0042110406793653965,1.000766396522522,0.0,0.0,0.0,24.63681983947754,-0.10368577390909195,2.392132043838501,-4459.3134765625,0
1744.4809999999998,-0.020733928307890892,0.00390357943251729,0.00028333859518170357,0.0,0.0,0.0,0.0,0.0009089738014154136,0.0019160130759701133,-0.004285615868866444,0.9998935461044312,0.0,0.0,0.0,24.612398147583008,-0.10322704166173935,2.3876802921295166,-4454.89306640625,0
1754.3829999999998,-0.02072211354970932,0.003889726707711816,0.0002715371665544808,0.0,0.0,0.0,0.0,0.0014121452113613486,0.002813710132613778,0.002685154788196087,0.9993457198143005,0.0,0.0,0.0,24.634449005126953,-0.11719495058059692,2.3818609714508057,-4458.88427734375,0
1764.2980000000007,-0.02071676217019558,0.003891397500410676,0.00027958827558904886,0.0,0.0,0.0,0.0,0.0018221676582470536,-0.000287083734292537,-0.00022232619812712073,0.9997426867485046,0.0,0.0,0.0,24.60960578918457,-0.121723972260952,2.3758528232574463,-4454.3876953125,0
1774.2099999999991,-0.02070850133895874,0.003915274515748024,0.000305320747429505,0.0,0.0,0.0,0.0,0.00021729982108809054,0.004379242658615112,-0.004697760567069054,0.9996522665023804,0.0,0.0,0.0,24.63465690612793,-0.11141391843557358,2.3763887882232666,-4458.92236328125,0
1784.1239999999998,-0.020703932270407677,0.003919263835996389,0.0003139101609122008,0.0,0.0,0.0,0.0,0.001896646455861628,0.0025984521489590406,-1.900199094961863e-05,0.998403787612915,0.0,0.0,0.0,24.609773635864258,-0.10895227640867233,2.3705060482025146,-4454.41845703125,0
1794.0390000000007,-0.02071264572441578,0.003894240129739046,0.00028299642144702375,0.0,0.0,0.0,0.0,-0.0007667974568903446,0.0033513326197862625,-0.0026321846526116133,1.00117826461792,0.0,0.0,0.0,24.63015365600586,-0.12681545317173004,2.347552537918091,-4458.1064453125,0
1803.9500000000007,-0.020709948614239693,0.003894562367349863,0.0002877220686059445,0.0,0.0,0.0,0.0,-0.00014133892545942217,0.002915950259193778,0.00476523581892252,1.0002588033676147,0.0,0.0,0.0,24.605274200439453,-0.1338096559047699,2.3322865962982178,-4453.60400390625,0
1813.8559999999998,-0.020701294764876366,0.00387610774487257,0.0002721176715567708,0.0,0.0,0.0,0.0,0.0019144158577546477,0.0007923324592411518,-0.0014693450648337603,1.0017685890197754,0.0,0.0,0.0,24.62944984436035,-0.14134979248046875,2.331667900085449,-4457.9794921875,0
1823.768,-0.0206938236951828,0.0038478984497487545,0.00018980087770614773,0.0,0.0,0.0,0.0,-0.002016597893089056,-0.003817865392193198,-0.001997442450374365,1.0026682615280151,0.0,0.0,0.0,24.613235473632812,-0.15551887452602386,2.3122479915618896,-4455.04443359375,0
1833.6820000000007,-0.020721448585391045,0.0038508898578584194,0.00017780820780899376,0.0,0.0,0.0,0.0,0.002136461902409792,-0.004710341803729534,0.0021529297810047865,1.0015097856521606,0.0,0.0,0.0,24.632675170898438,-0.15677626430988312,2.3101067543029785,-4458.56298828125,0
1843.5949999999993,-0.020722702145576477,0.003845302388072014,0.00018032097432296723,0.0,0.0,0.0,0.0,0.00033394788624718785,-0.00027986327768303454,-0.0025512240827083588,0.9991199374198914,0.0,0.0,0.0,24.60807228088379,-0.16023918986320496,2.311368227005005,-4454.10986328125,0
1853.5020000000004,-0.020730597898364067,0.003834123257547617,0.00018024136079475284,0.0,0.0,0.0,0.0,4.739228097605519e-05,-0.00531687680631876,-0.0022060556802898645,1.000279188156128,0.0,0.0,0.0,24.627059936523438,-0.17079892754554749,2.3193612098693848,-4457.546875,0
1863.42,-0.02073306031525135,0.0038286554627120495,0.00018316536443307996,0.0,0.0,0.0,0.0,0.0028424300253391266,-0.0013730496866628528,0.0006408524932339787,1.0006582736968994,0.0,0.0,0.0,24.602792739868164,-0.16141130030155182,2.3242838382720947,-4453.154296875,0
1873.3279999999995,-0.020736785605549812,0.003831673413515091,0.00019528425764292479,0.0,0.0,0.0,0.0,-0.001247693202458322,0.0003058649890590459,0.0014181447913870215,1.0012062788009644,0.0,0.0,0.0,24.626537322998047,-0.16524088382720947,2.334460496902466,-4457.45263671875,0
1883.2350000000006,-0.020738214254379272,0.00382446963340044,0.00020011351443827152,0.0,0.0,0.0,0.0,-0.0017594614764675498,-0.003934382926672697,-0.0008684476488269866,1.001271367073059,0.0,0.0,0.0,24.60138702392578,-0.1741039752960205,2.33542537689209,-4452.900390625,0
1893.1489999999994,-0.02075664885342121,0.003817452583462,0.00020515290088951588,0.0,0.0,0.0,0.0,-0.0009422515868209302,-0.0006511137471534312,-0.0025318688713014126,1.0015789270401,0.0,0.0,0.0,24.622560501098633,-0.1760052591562271,2.332548141479492,-4456.732421875,0
1903.0599999999995,-0.020760109648108482,0.0037985185626894236,0.00022090174024924636,0.0,0.0,0.0,0.0,-0.002916346536949277,8.229092782130465e-05,0.0007892581052146852,1.0034279823303223,0.0,0.0,0.0,24.573030471801758,-0.1650019884109497,2.3317766189575195,-4447.767578125,0
1912.973,-0.02077179215848446,0.003807614091783762,0.00022872048430144787,0.0,0.0,0.0,0.0,-0.00013514775491785258,-0.00164394685998559,-0.003516372526064515,1.001967430114746,0.0,0.0,0.0,24.616966247558594,-0.16318686306476593,2.3342807292938232,-4455.7197265625,0
1922.8829999999998,-0.020775921642780304,0.003791862865909934,0.0002551061916165054,0.0,0.0,0.0,0.0,-7.201379048638046e-05,0.005275634583085775,-0.0002485738950781524,0.9993129968643188,0.0,0.0,0.0,24.568496704101562,-0.15999001264572144,2.3176605701446533,-4446.947265625,0
1932.798999999999,-0.02079864777624607,0.0038240274880081415,0.0002869398449547589,0.0,0.0,0.0,0.0,-0.0017668349901214242,0.0005526699824258685,0.00055813102517277,0.9991003274917603,0.0,0.0,0.0,24.615753173828125,-0.146067813038826,2.3234684467315674,-4455.5,0
1942.7109999999993,-0.0208047516644001,0.0038159776013344526,0.00032008171547204256,0.0,0.0,0.0,0.0,0.0031329765915870667,0.00295121967792511,0.0002018592058448121,0.9990649223327637,0.0,0.0,0.0,24.565338134765625,-0.13834859430789948,2.311051845550537,-4446.37548828125,0
1952.6170000000002,-0.020772047340869904,0.003807099536061287,0.0003157483588438481,0.0,0.0,0.0,0.0,0.0019949201960116625,-0.0003894326218869537,0.0021619517356157303,0.9998562335968018,0.0,0.0,0.0,24.614999771118164,-0.1491931676864624,2.317918300628662,-4455.36376953125,0
1962.5319999999992,-0.02077295072376728,0.003802010091021657,0.00033240087213926017,0.0,0.0,0.0,0.0,0.004390131216496229,-0.0026479987427592278,0.0015129252569749951,0.9992892742156982,0.0,0.0,0.0,24.589914321899414,-0.1484275758266449,2.3171308040618896,-4450.82373046875,0
1972.4490000000005,-0.020772002637386322,0.0037905466742813587,0.0003355505468789488,0.0,0.0,0.0,0.0,-0.0013617610093206167,0.0015458620619028807,0.0017745187506079674,1.0007624626159668,0.0,0.0,0.0,24.612606048583984,-0.16044054925441742,2.312129497528076,-4454.93115234375,0
1982.357,-0.020773086696863174,0.0037865627091377974,0.00034877858706749976,0.0,0.0,0.0,0.0,0.0016804042970761657,-0.0008862281101755798,-0.0009632537257857621,1.0011918544769287,0.0,0.0,0.0,24.58806800842285,-0.16049084067344666,2.3031904697418213,-4450.4892578125,0
1992.2729999999992,-0.020781058818101883,0.0037766522727906704,0.00034664044505916536,0.0,0.0,0.0,0.0,0.0027514351531863213,0.006290713790804148,-0.0021574925631284714,1.000262975692749,0.0,0.0,0.0,24.609786987304688,-0.1661110371351242,2.2994019985198975,-4454.42041015625,0
2002.1800000000003,-0.020782390609383583,0.003772901836782694,0.00035997576196677983,0.0,0.0,0.0,0.0,-0.00014484782877843827,0.00133880868088454,0.000512111815623939,0.9993354678153992,0.0,0.0,0.0,24.584449768066406,-0.16587337851524353,2.290102958679199,-4449.83447265625,0
2012.1010000000006,-0.020778818055987358,0.003766655223444104,0.00036698917392641306,0.0,0.0,0.0,0.0,-0.0033519889693707228,0.0005900818505324423,0.006284595932811499,0.9999136924743652,0.0,0.0,0.0,24.60989761352539,-0.16773350536823273,2.2774460315704346,-4454.4404296875,0
2022.0,-0.020722970366477966,0.0038276861887425184,0.00013947645493317395,0.0,0.0,0.0,0.0,0.002493811072781682,0.0014005445409566164,0.004509906284511089,0.9984537363052368,0.0,0.0,0.0,24.601041793823242,-0.16501185297966003,2.286823272705078,-4452.837890625,0
2031.9169999999995,-0.02075551450252533,0.0038542142137885094,0.00014254786947276443,0.0,0.0,0.0,0.0,0.0018308133585378528,0.004352292977273464,-0.0009300659876316786,1.001261830329895,0.0,0.0,0.0,24.62251091003418,-0.15780183672904968,2.2830514907836914,-4456.72314453125,0
2041.8269999999993,-0.02075626701116562,0.003850676352158189,0.00014284216740634292,0.0,0.0,0.0,0.0,0.002546770265325904,-0.003447197610512376,-0.00033501751022413373,1.0003215074539185,0.0,0.0,0.0,24.598257064819336,-0.16256171464920044,2.26481294631958,-4452.33349609375,0
2051.7440000000006,-0.0207594633102417,0.003911512438207865,0.0001884598605101928,0.0,0.0,0.0,0.0,0.0012461652513593435,-0.0007626881124451756,0.0040027727372944355,0.99998539686203,0.0,0.0,0.0,24.62604522705078,-0.15444879233837128,2.2659788131713867,-4457.36328125,0
2061.646999999999,-0.02076038159430027,0.003907938487827778,0.00019322049047332257,0.0,0.0,0.0,0.0,-0.0010901353089138865,-0.003264402039349079,-0.0018024846212938428,1.000397801399231,0.0,0.0,0.0,24.60259437561035,-0.15946361422538757,2.2654216289520264,-4453.11865234375,0
2071.5660000000007,-0.020750461146235466,0.003926974721252918,0.00021897027909290045,0.0,0.0,0.0,0.0,0.00019994792819488794,0.0017540407134220004,0.0042531960643827915,1.0026501417160034,0.0,0.0,0.0,24.626846313476562,-0.15380938351154327,2.2733864784240723,-4457.50830078125,0
2081.473,-0.020753413438796997,0.0039247144013643265,0.0002259191096527502,0.0,0.0,0.0,0.0,-0.001832365756854415,0.0009388134931214154,0.0008258277666755021,1.0009764432907104,0.0,0.0,0.0,24.60307502746582,-0.15335172414779663,2.276271343231201,-4453.2060546875,0
2091.392,-0.020734304562211037,0.003899278352037072,0.0002170002117054537,0.0,0.0,0.0,0.0,0.001042566611431539,-0.001060529612004757,0.005091180559247732,1.001273512840271,0.0,0.0,0.0,24.625946044921875,-0.1621912121772766,2.2787094116210938,-4457.345703125,0
2101.294,-0.020635155960917473,0.003990827593952417,-3.6814843042520806e-05,0.0,0.0,0.0,0.0,0.002479935297742486,0.0013873763382434845,-0.0003855626273434609,0.9996362328529358,0.0,0.0,0.0,24.60198402404785,-0.1542593538761139,2.274688959121704,-4453.0078125,0
2111.2119999999995,-0.020608698949217796,0.0040070596151053905,-1.978538784896955e-05,0.0,0.0,0.0,0.0,-0.0003154468140564859,-5.401605449151248e-05,0.003329061670228839,1.0011290311813354,0.0,0.0,0.0,24.622528076171875,-0.15966694056987762,2.285977602005005,-4456.72705078125,0
2121.1180000000004,-0.020609557628631592,0.004008022602647543,-2.3031570890452713e-05,0.0,0.0,0.0,0.0,-0.0016563315875828266,-0.0006994435098022223,0.003499574726447463,0.9991151094436646,0.0,0.0,0.0,24.598194122314453,-0.16121910512447357,2.2869811058044434,-4452.322265625,0
2131.0390000000007,-0.020642120391130447,0.003976375795900822,-5.565990795730613e-05,0.0,0.0,0.0,0.0,-0.0017589177004992962,0.0038325379136949778,-0.000344282976584509,0.9994974732398987,0.0,0.0,0.0,24.621057510375977,-0.17116360366344452,2.2781693935394287,-4456.4609375,0
2140.9490000000005,-0.020643437281250954,0.003976674284785986,-6.108084926381707e-05,0.0,0.0,0.0,0.0,0.0010601123794913292,-0.0028717045206576586,0.0013571083545684814,1.0006940364837646,0.0,0.0,0.0,24.59708595275879,-0.16658540070056915,2.267765998840332,-4452.12158203125,0
2150.857,-0.02064545452594757,0.003975267056375742,-6.661389488726854e-05,0.0,0.0,0.0,0.0,-0.0016274942317977548,0.0016767260385677218,-0.0004581725806929171,1.0007323026657104,0.0,0.0,0.0,24.57197380065918,-0.16503602266311646,2.2663779258728027,-4447.576171875,0
