timestamp,stateEstimate.x,stateEstimate.y,stateEstimate.z,controller.cmd_thrust,controller.cmd_roll,controller.cmd_pitch,controller.cmd_yaw,controller.r_roll,controller.r_pitch,controller.r_yaw,controller.accelz,controller.actuatorThrust,controller.roll,controller.pitch,controller.yaw,controller.rollRate,controller.pitchRate,controller.yawRate,controller.ctr_yaw
0.0,-0.00011104233999503776,-9.960625175153837e-05,-2.7356636564945802e-05,0.0,0.0,0.0,0.0,0.0011898562079295516,0.00058708805590868,-0.0010115953627973795,1.0010344982147217,0.0,0.0,0.0,0.31644007563591003,2.0226058959960938,5.001852035522461,-57.276283264160156,0
9.909999999999854,-4.06807848776225e-05,-0.00016691487689968199,-1.0142072824237403e-05,0.0,0.0,0.0,0.0,0.0010648270836099982,-0.002045098226517439,0.002545676426962018,1.0007120370864868,0.0,0.0,0.0,0.30883798003196716,2.011786699295044,5.02314567565918,-55.90028762817383,0
19.820999999999913,-5.0120728701585904e-05,-0.00010580433445284143,-2.708471038204152e-05,0.0,0.0,0.0,0.0,0.0024272152222692966,-0.003173703560605645,0.0027289821300655603,0.9994379878044128,0.0,0.0,0.0,0.3093271255493164,2.009263277053833,5.0272440910339355,-55.98882293701172,0
29.737999999999374,-7.315312541322783e-05,-0.00015699949290137738,-3.1456274882657453e-05,0.0,0.0,0.0,0.0,0.0003783201100304723,0.0004090250004082918,-0.001347118173725903,1.0012342929840088,0.0,0.0,0.0,0.3103496730327606,2.009219169616699,5.034959316253662,-56.173912048339844,0
39.64799999999923,-8.600381261203438e-05,-0.00010082212975248694,-5.2712730393977836e-05,0.0,0.0,0.0,0.0,0.0005797444609925151,-0.0018084143521264195,0.004089160356670618,1.0003143548965454,0.0,0.0,0.0,0.3093198537826538,2.0110321044921875,5.027773380279541,-55.98750686645508,0
49.55899999999929,-7.347079372266307e-05,-9.678109199739993e-05,-1.9879213141393848e-05,0.0,0.0,0.0,0.0,-0.0023017763160169125,-0.0007979990332387388,-0.0027056620456278324,0.9973730444908142,0.0,0.0,0.0,0.32113197445869446,2.0084614753723145,5.033450126647949,-58.125526428222656,0
59.48400000000038,-0.00010506732360227033,-0.00010704047599574551,-4.627768066711724e-05,0.0,0.0,0.0,0.0,0.0011106476886197925,-0.0007762737805023789,-4.018535400973633e-05,0.9976418614387512,0.0,0.0,0.0,0.3196573257446289,2.0113303661346436,5.029212474822998,-57.858612060546875,0
69.38400000000001,-3.504431515466422e-05,-0.0001784851774573326,-3.1736835808260366e-05,0.0,0.0,0.0,0.0,0.0010432436829432845,0.0027829704340547323,0.002863476751372218,0.999417781829834,0.0,0.0,0.0,0.3101845979690552,1.998930811882019,5.050475597381592,-56.14402770996094,0
79.30500000000029,-5.794308890472166e-05,-0.00016793797840364277,-5.9192374465055764e-05,0.0,0.0,0.0,0.0,0.0005329281557351351,-0.002014585305005312,-0.003969845362007618,0.9987428784370422,0.0,0.0,0.0,0.3102872371673584,1.9983406066894531,5.0416178703308105,-56.16261291503906,0
89.20700000000033,-5.116586180520244e-05,-0.00012797325325664133,-1.1147495570185129e-05,0.0,0.0,0.0,0.0,-0.0009497966384515166,-0.0029686633497476578,0.00025645949062891304,1.0013035535812378,0.0,0.0,0.0,0.3177791237831116,2.0079314708709717,5.053471088409424,-57.518653869628906,0
99.12800000000061,-7.944773096824065e-05,-0.00011897989315912127,-3.0353905458468944e-05,0.0,0.0,0.0,0.0,-0.0016985558904707432,0.0009091520914807916,-0.004107534885406494,1.0000152587890625,0.0,0.0,0.0,0.3170967400074005,2.0070619583129883,5.054793357849121,-57.395137786865234,0
109.03600000000006,-2.6289402740076184e-05,-0.00017645259504206479,-1.7613776435609907e-05,0.0,0.0,0.0,0.0,0.0037421274464577436,-9.273227624362335e-05,0.0013418304733932018,0.9976445436477661,0.0,0.0,0.0,0.30906346440315247,1.9980781078338623,5.0622239112854,-55.94110107421875,0
118.95600000000013,-4.795150016434491e-05,-0.00015966703358571976,-4.378738594823517e-05,0.0,0.0,0.0,0.0,-0.0009612743160687387,0.001564313075505197,0.001412684447132051,1.0001306533813477,0.0,0.0,0.0,0.30956143140792847,1.9916719198226929,5.061111927032471,-56.03123474121094,0
128.8670000000002,-1.9155439076712355e-05,-0.00019422949117142707,-2.5348921553813852e-05,0.0,0.0,0.0,0.0,-0.0007435299921780825,4.799102680408396e-05,-0.0036452440544962883,0.9995672702789307,0.0,0.0,0.0,0.2985674738883972,1.9858291149139404,5.070265769958496,-54.04130935668945,0
138.77900000000045,9.416746138413146e-07,-0.00011274981807218865,-8.240537135861814e-05,0.0,0.0,0.0,0.0,0.0039032527711242437,0.0014637476997449994,-0.005377380643039942,0.9991262555122375,0.0,0.0,0.0,0.29798707365989685,1.992497444152832,5.06828498840332,-53.93625259399414,0
148.6849999999995,-2.0023710021632724e-05,-0.00011272042320342734,-6.884869071654975e-05,0.0,0.0,0.0,0.0,0.00017427324200980365,-0.0012122640619054437,0.0019948871340602636,0.9996640086174011,0.0,0.0,0.0,0.30471494793891907,1.9916390180587769,5.066795349121094,-55.15401077270508,0
158.60199999999895,1.028048359330569e-06,-1.5206024727376644e-05,-0.00012217601761221886,0.0,0.0,0.0,0.0,0.0014783430378884077,-0.00253481836989522,0.0010498665506020188,1.0013031959533691,0.0,0.0,0.0,0.30352431535720825,1.9913959503173828,5.0654683113098145,-54.938499450683594,0
168.51100000000042,2.8161330192233436e-05,-1.4199717043084092e-05,-9.772486373549327e-05,0.0,0.0,0.0,0.0,0.0009889417560771108,0.002781853312626481,0.0029644756577908993,1.001538872718811,0.0,0.0,0.0,0.3125745356082916,1.990031123161316,5.075345516204834,-56.57661437988281,0
178.4349999999995,6.266324362513842e-06,-8.60749241837766e-06,-0.00012544526543933898,0.0,0.0,0.0,0.0,-0.000249754375545308,0.00187576690223068,-0.0013280038256198168,1.0021754503250122,0.0,0.0,0.0,0.3125137686729431,1.9873549938201904,5.06743860244751,-56.565616607666016,0
188.33100000000013,4.574843842419796e-05,-7.270394416991621e-05,-0.0001275238610105589,0.0,0.0,0.0,0.0,0.0023896077182143927,-0.0008431366295553744,0.004077327903360128,0.9993352293968201,0.0,0.0,0.0,0.31174907088279724,1.9844603538513184,5.0592217445373535,-56.42720031738281,0
198.253999999999,1.711138065729756e-05,-6.345723522827029e-05,-0.00014347567048389465,0.0,0.0,0.0,0.0,-0.0020432579331099987,0.0023659830912947655,-0.0020700597669929266,0.9989578723907471,0.0,0.0,0.0,0.3177553415298462,1.9828637838363647,5.057873725891113,-57.51435470581055,0
208.15799999999945,5.730250268243253e-05,-4.349414666648954e-05,-9.995982691179961e-05,0.0,0.0,0.0,0.0,0.003711272031068802,-0.006495465058833361,0.0022747470065951347,0.9981356263160706,0.0,0.0,0.0,0.32446539402008057,1.9930105209350586,5.060158729553223,-58.728885650634766,0
218.08399999999892,2.5187197024933994e-05,-4.182723932899535e-05,-0.00011467748845461756,0.0,0.0,0.0,0.0,-0.001481369137763977,-0.0011908735614269972,-0.0015685597900301218,0.9991827607154846,0.0,0.0,0.0,0.32541435956954956,1.9883753061294556,5.0683722496032715,-58.90065002441406,0
227.98500000000058,2.9733470000792295e-05,-0.00010535666660871357,-0.00012116577272536233,0.0,0.0,0.0,0.0,5.123952723806724e-05,-5.896410220884718e-05,-0.002794280182570219,0.9979631304740906,0.0,0.0,0.0,0.3194473385810852,1.9840161800384521,5.076695442199707,-57.82060241699219,0
237.89999999999964,-1.6104813767015003e-05,-9.861482249107212e-05,-0.00011824571993201971,0.0,0.0,0.0,0.0,-0.000502822280395776,0.005050166044384241,-0.000854147132486105,1.0007058382034302,0.0,0.0,0.0,0.3266279995441437,1.9896376132965088,5.069616794586182,-59.12031555175781,0
247.8050000000003,1.5176075066847261e-05,-8.118922414723784e-05,-7.415408617816865e-05,0.0,0.0,0.0,0.0,0.0006885216571390629,-0.0009714183397591114,0.0004132950271014124,1.000383734703064,0.0,0.0,0.0,0.33235040307044983,1.997340440750122,5.070954322814941,-60.15608215332031,0
257.72999999999956,-3.6876939702779055e-05,-0.00011038541560992599,-7.31404943508096e-05,0.0,0.0,0.0,0.0,0.0010434618452563882,-0.0008614342077635229,0.0027773904148489237,0.9986742734909058,0.0,0.0,0.0,0.33252859115600586,1.9956815242767334,5.072142601013184,-60.188331604003906,0
267.6329999999998,-1.1299456673441455e-05,-0.00011520448606461287,-3.8591075281146914e-05,0.0,0.0,0.0,0.0,-0.0006064682966098189,0.00587096530944109,0.00040633880416862667,1.0005106925964355,0.0,0.0,0.0,0.333046019077301,1.9893975257873535,5.077162742614746,-60.28199005126953,0
277.5579999999991,-4.913823795504868e-05,-0.00013287097681313753,-4.98374029120896e-05,0.0,0.0,0.0,0.0,0.0024187578819692135,-0.0011791507713496685,-0.0017658653669059277,0.999860942363739,0.0,0.0,0.0,0.33295947313308716,1.9910719394683838,5.060725688934326,-60.266326904296875,0
287.46299999999974,3.1322681479650782e-06,-0.00019581920059863478,-3.382568684173748e-05,0.0,0.0,0.0,0.0,0.0003744192363228649,0.00018502234888728708,0.003210519440472126,1.0002626180648804,0.0,0.0,0.0,0.33258160948753357,1.9892905950546265,5.047860622406006,-60.197933197021484,0
297.3780000000006,-3.1702413252787665e-05,-0.00020371199934743345,-4.222397546982393e-05,0.0,0.0,0.0,0.0,0.0013867791276425123,-0.0013048297259956598,0.0008759300108067691,1.0000137090682983,0.0,0.0,0.0,0.3327438235282898,1.984809398651123,5.038336753845215,-60.227291107177734,0
307.28900000000067,-9.477054845774546e-06,-0.0002455871144775301,-2.3581311324960552e-05,0.0,0.0,0.0,0.0,0.0002937953977379948,-0.0009826085297390819,-0.0003683896502479911,1.0014630556106567,0.0,0.0,0.0,0.3319751024246216,1.9799257516860962,5.040168285369873,-60.088157653808594,0
317.2019999999993,-3.186938920407556e-05,-0.0002383114187978208,-3.920309609384276e-05,0.0,0.0,0.0,0.0,-0.004067801404744387,-0.005681066773831844,0.0023062597028911114,0.9975231289863586,0.0,0.0,0.0,0.33154216408729553,1.9751116037368774,5.041482925415039,-60.00979232788086,0
327.11199999999917,-2.4912522349040955e-05,-0.00021525959891732782,8.766492101131007e-06,0.0,0.0,0.0,0.0,-0.0009014441166073084,0.0025451534893363714,0.0005318498588167131,0.9987759590148926,0.0,0.0,0.0,0.3319840431213379,1.9797810316085815,5.038054943084717,-60.08977508544922,0
337.02800000000025,-3.588269100873731e-05,-0.00019078778859693557,-1.1837082638521679e-05,0.0,0.0,0.0,0.0,0.0014599272981286049,0.0005772787844762206,-0.001640237751416862,0.9993820190429688,0.0,0.0,0.0,0.33192744851112366,1.9820427894592285,5.040393352508545,-60.07952880859375,0
346.9380000000001,-5.906183287152089e-05,-0.00014705833746120334,3.5806478990707546e-05,0.0,0.0,0.0,0.0,0.003213047282770276,0.00025943104992620647,0.00403359392657876,0.999456524848938,0.0,0.0,0.0,0.33033624291419983,1.9730525016784668,5.0286641120910645,-59.7915153503418,0
356.85699999999997,-7.650816405657679e-05,-0.00015410850755870342,8.907121809897944e-06,0.0,0.0,0.0,0.0,0.0012768611777573824,0.0007830493850633502,-0.0033557265996932983,0.9981260299682617,0.0,0.0,0.0,0.323792040348053,1.9739652872085571,5.035861015319824,-58.60700607299805,0
366.7610000000004,-8.560346759622917e-05,-0.00020644543110392988,1.1494594218675047e-05,0.0,0.0,0.0,0.0,-0.004342812579125166,-0.00014462431136053056,0.0007136279600672424,0.998965859413147,0.0,0.0,0.0,0.31753039360046387,1.962287187576294,5.032023906707764,-57.473628997802734,0
376.6730000000007,-8.02512004156597e-05,-0.00017320217739325017,-3.1514002330368385e-05,0.0,0.0,0.0,0.0,0.0028789371717721224,0.004697906319051981,0.0010848483070731163,1.0009385347366333,0.0,0.0,0.0,0.3185792565345764,1.9686858654022217,5.032294273376465,-57.663482666015625,0
386.58599999999933,-0.00012423706357367337,-0.00020309134561102837,-3.424580427235924e-05,0.0,0.0,0.0,0.0,0.0021165048237890005,-0.0012016479158774018,0.0018520173616707325,1.002647042274475,0.0,0.0,0.0,0.31959041953086853,1.9649856090545654,5.0200700759887695,-57.846500396728516,0
396.5020000000004,-0.00011678467853926122,-0.00012728462752420455,-6.493264663731679e-05,0.0,0.0,0.0,0.0,0.0009308490552939475,-0.0019762825686484575,0.0029808992985635996,1.0014328956604004,0.0,0.0,0.0,0.3184940814971924,1.9586424827575684,5.009917736053467,-57.64806365966797,0
406.41200000000026,-7.291291694855317e-05,-0.00011868068395415321,1.9971246274508303e-06,0.0,0.0,0.0,0.0,-0.001001341617666185,-0.003111928002908826,-0.0020984106231480837,1.002179741859436,0.0,0.0,0.0,0.32746273279190063,1.9619369506835938,5.032223224639893,-59.27140426635742,0
416.3249999999989,-3.552850103005767e-05,-5.0580969400471076e-05,-5.852096001035534e-05,0.0,0.0,0.0,0.0,0.000934521434828639,-0.00038178672548383474,-0.0020185671746730804,1.0000529289245605,0.0,0.0,0.0,0.32757604122161865,1.9595532417297363,5.028962135314941,-59.29191589355469,0
426.2330000000002,-8.623536996310577e-05,-9.992169361794367e-05,-7.634246867382899e-05,0.0,0.0,0.0,0.0,-0.00039342022500932217,-0.001923790667206049,0.003237992525100708,0.9999268651008606,0.0,0.0,0.0,0.31862810254096985,1.959782600402832,5.017754554748535,-57.67232131958008,0
436.15300000000025,-9.238021448254585e-05,-5.533516377909109e-05,-8.903245907276869e-05,0.0,0.0,0.0,0.0,0.004115398973226547,-0.003159602638334036,-0.005233455449342728,0.9994415044784546,0.0,0.0,0.0,0.3183218538761139,1.9599008560180664,5.009851455688477,-57.61688995361328,0
446.0679999999993,-5.582172889262438e-05,-0.00014507892774417996,-9.969336679205298e-05,0.0,0.0,0.0,0.0,0.0004364881315268576,-0.0003138117026537657,-0.0036041548009961843,0.9966681599617004,0.0,0.0,0.0,0.3086227476596832,1.944201111793518,5.018362045288086,-55.86133575439453,0
455.97199999999975,-0.00010273973748553544,-0.00013266768655739725,-6.810678314650431e-05,0.0,0.0,0.0,0.0,0.0011180791771039367,0.0006571724079549313,0.002290330594405532,0.9974020719528198,0.0,0.0,0.0,0.3070771098136902,1.9409819841384888,5.010370254516602,-55.58156967163086,0
465.8770000000004,-2.5715760784805752e-05,-0.00019734897068701684,-5.070092811365612e-05,0.0,0.0,0.0,0.0,0.0033182608895003796,-0.0032333426643162966,0.006258876528590918,0.9981265664100647,0.0,0.0,0.0,0.3001149594783783,1.9275213479995728,5.0207600593566895,-54.321407318115234,0
475.7999999999993,-2.196476998506114e-05,-0.0001441260683350265,-7.355367415584624e-05,0.0,0.0,0.0,0.0,-0.0018506498308852315,-0.0008886812720447779,-0.0025970779825001955,0.9968162775039673,0.0,0.0,0.0,0.2995520532131195,1.9237474203109741,5.017482280731201,-54.21951675415039,0
485.70700000000033,2.916551056841854e-05,-0.00011521433043526486,-2.2949256162974052e-05,0.0,0.0,0.0,0.0,-0.002531601581722498,-0.002408841624855995,0.0029168420005589724,0.997919499874115,0.0,0.0,0.0,0.300708532333374,1.9224847555160522,5.013065338134766,-54.42884826660156,0
495.6170000000002,1.6567659258726053e-05,-9.061304444912821e-05,-3.548420863808133e-05,0.0,0.0,0.0,0.0,-0.0002518741530366242,-0.0014865441480651498,-0.0020668543875217438,0.9974032640457153,0.0,0.0,0.0,0.30049601197242737,1.9219236373901367,5.005618572235107,-54.390377044677734,0
505.54299999999967,-1.6990614312817343e-05,-9.183378278976306e-05,-3.164797089993954e-05,0.0,0.0,0.0,0.0,0.0030036144889891148,0.001226620632223785,-0.0010990467853844166,0.9983070492744446,0.0,0.0,0.0,0.3082510232925415,1.9264334440231323,5.006862163543701,-55.79404830932617,0
515.4449999999997,-7.80200061853975e-05,-0.0001337439607596025,-1.285916005144827e-05,0.0,0.0,0.0,0.0,-0.00039693547296337783,0.0035981659311801195,-0.003750147530809045,0.9987644553184509,0.0,0.0,0.0,0.3078778386116028,1.9302544593811035,5.014686107635498,-55.72650146484375,0
525.3600000000006,-9.1264329967089e-05,-0.0001368062075925991,-2.0714102788588207e-07,0.0,0.0,0.0,0.0,0.0033397474326193333,-0.0022243517450988293,0.004281062167137861,0.999186635017395,0.0,0.0,0.0,0.314270943403244,1.930793285369873,4.996639251708984,-56.8836669921875,0
535.268,-0.0001383941707899794,-0.00015104084741324186,5.927743131906027e-06,0.0,0.0,0.0,0.0,0.0037404424510896206,0.0027117719873785973,0.0018177200108766556,0.9988641738891602,0.0,0.0,0.0,0.31387877464294434,1.9277998208999634,4.992366313934326,-56.81268310546875,0
545.1890000000003,-8.114892989397049e-05,-0.0001372918632114306,5.178678111406043e-05,0.0,0.0,0.0,0.0,-0.0028211520984768867,-0.0020746078807860613,0.0007295106188394129,0.9992597699165344,0.0,0.0,0.0,0.32191702723503113,1.9235727787017822,5.0014472007751465,-58.26762771606445,0
555.0949999999993,-7.262708095367998e-05,-7.251049828482792e-05,1.7895252312882803e-05,0.0,0.0,0.0,0.0,0.0009350314503535628,0.0018948011565953493,0.0021041573490947485,1.001617670059204,0.0,0.0,0.0,0.3215910792350769,1.9208910465240479,5.009369373321533,-58.20862579345703,0
565.0059999999994,-9.645990212447941e-05,-0.0001178440943476744,7.8698840297875e-06,0.0,0.0,0.0,0.0,0.0011057837400585413,-0.00239000516012311,0.002963574370369315,0.9996728301048279,0.0,0.0,0.0,0.3149363100528717,1.9120965003967285,5.008039951324463,-57.00410079956055,0
574.9110000000001,-0.00011024272680515423,-0.00011628150969045237,-2.6129377147299238e-05,0.0,0.0,0.0,0.0,-0.002168723614886403,-0.0022029567044228315,0.00237250211648643,0.9996172785758972,0.0,0.0,0.0,0.3145987391471863,1.9111361503601074,5.004751205444336,-56.942996978759766,0
584.8369999999995,-0.00011834572069346905,-0.00012220007192809135,-1.140411404776387e-05,0.0,0.0,0.0,0.0,-0.003076376626268029,-0.0008845068514347076,0.0020906608551740646,1.0027902126312256,0.0,0.0,0.0,0.3082192838191986,1.9127017259597778,5.00714635848999,-55.78830337524414,0
594.7379999999994,-0.00015802003326825798,-0.00013573227624874562,-1.6919670088100247e-05,0.0,0.0,0.0,0.0,0.0027437543030828238,0.0030754697509109974,0.0022165256086736917,1.001538634300232,0.0,0.0,0.0,0.3084915578365326,1.9156811237335205,5.009696960449219,-55.83758544921875,0
604.6579999999994,-0.00012198409240227193,-0.00013934400340076536,1.83774100150913e-05,0.0,0.0,0.0,0.0,-0.001483672414906323,-0.002960827201604843,-0.0010498387273401022,0.9979358911514282,0.0,0.0,0.0,0.3023448884487152,1.9171925783157349,5.011489391326904,-54.72502899169922,0
614.5599999999995,-0.00015552966215182096,-0.0001431850396329537,1.7194717656821012e-05,0.0,0.0,0.0,0.0,-0.0023723896592855453,0.0021921941079199314,-0.003482958534732461,0.9998999238014221,0.0,0.0,0.0,0.302072137594223,1.9152379035949707,5.000643730163574,-54.67565155029297,0
624.491,-9.551410767016932e-05,-0.00020204037718940526,3.440052387304604e-05,0.0,0.0,0.0,0.0,-0.00044217371032573283,-0.0010496353497728705,-0.0005135646788403392,1.000704288482666,0.0,0.0,0.0,0.3014324903488159,1.9188731908798218,4.996775150299072,-54.55987548828125,0
634.3919999999998,-8.540310227544978e-05,-0.00017220816516783088,-1.2437650184438098e-05,0.0,0.0,0.0,0.0,-0.00032327641383744776,0.0006352101918309927,-0.0013969026040285826,1.0013782978057861,0.0,0.0,0.0,0.2997848391532898,1.911788821220398,4.985248565673828,-54.26165008544922,0
644.3089999999993,-8.63176173879765e-05,-0.00016581217641942203,1.8370159523328766e-05,0.0,0.0,0.0,0.0,-0.0009525802452117205,-0.00607583811506629,1.533995964564383e-05,1.0006909370422363,0.0,0.0,0.0,0.3058061897754669,1.9207561016082764,4.990481853485107,-55.351531982421875,0
654.2099999999991,-9.47480439208448e-05,-0.00015364873979706317,-9.491509445069823e-06,0.0,0.0,0.0,0.0,-0.00039937315159477293,-0.0030722657684236765,-0.001117504551075399,0.999196469783783,0.0,0.0,0.0,0.3053033947944641,1.9229234457015991,4.998352527618408,-55.260520935058594,0
664.1350000000002,-9.493476682109758e-05,-0.00013900434714742005,2.725074955378659e-05,0.0,0.0,0.0,0.0,0.0017601549625396729,0.0022694857325404882,-0.0018720923690125346,0.999804675579071,0.0,0.0,0.0,0.31241554021835327,1.932024598121643,5.01439905166626,-56.54783630371094,0
674.0339999999997,-9.902188321575522e-05,-0.00012842639989685267,-5.897531536902534e-06,0.0,0.0,0.0,0.0,-0.002738583367317915,-0.004159740637987852,0.000205987089429982,0.999411940574646,0.0,0.0,0.0,0.3104551136493683,1.9262709617614746,5.004024505615234,-56.192996978759766,0
683.9570000000003,-6.411255162674934e-05,-0.00011614578397711739,3.908752842107788e-05,0.0,0.0,0.0,0.0,-0.0016230940818786621,-0.0027008107863366604,0.004315210971981287,0.9991409182548523,0.0,0.0,0.0,0.31755146384239197,1.934730887413025,5.020264625549316,-57.47744369506836,0
693.8590000000004,-0.00010977263445965946,-0.00014377491606865078,4.998353324481286e-05,0.0,0.0,0.0,0.0,0.0013544093817472458,0.001199607620947063,-0.0002503784198779613,0.9991840124130249,0.0,0.0,0.0,0.31739556789398193,1.9348211288452148,5.009546279907227,-57.44922637939453,0
703.7790000000005,-8.2870785263367e-05,-0.00014246914361137897,8.763679215917364e-05,0.0,0.0,0.0,0.0,-0.0007189496536739171,-0.00038213387597352266,-0.002959650009870529,0.9995211362838745,0.0,0.0,0.0,0.32771116495132446,1.9331400394439697,5.012757301330566,-59.31637191772461,0
713.6849999999995,-0.00010825580102391541,-0.00014224446204025298,8.168230124283582e-05,0.0,0.0,0.0,0.0,-0.00042919404222629964,-0.0003989388351328671,-0.002992701018229127,1.0001614093780518,0.0,0.0,0.0,0.32782965898513794,1.93812096118927,5.004612445831299,-59.33782196044922,0
723.6039999999994,-0.00015047061606310308,-0.00016787322238087654,8.67892085807398e-05,0.0,0.0,0.0,0.0,0.0009824633598327637,-0.00092162168584764,0.00044728018110617995,1.0019562244415283,0.0,0.0,0.0,0.32694315910339355,1.9390240907669067,5.008923530578613,-59.17736053466797,0
733.5120000000006,-0.000173104926943779,-0.00016739213606342673,7.34236600692384e-05,0.0,0.0,0.0,0.0,-0.001571408472955227,-0.0007632602355442941,-0.001373661682009697,1.0008132457733154,0.0,0.0,0.0,0.3269546329975128,1.9381608963012695,5.006473541259766,-59.17943572998047,0
743.4300000000003,-0.00011703961354214698,-0.00019059581973124295,0.00012915425759274513,0.0,0.0,0.0,0.0,-0.0001743568864185363,-0.0035210330970585346,0.0003185872337780893,0.9982337951660156,0.0,0.0,0.0,0.34191855788230896,1.9416921138763428,5.029329776763916,-61.887939453125,0
753.3320000000003,-0.0001255678798770532,-0.00017091879271902144,0.00011200540029676631,0.0,0.0,0.0,0.0,-0.0020112348720431328,-0.0005385107942856848,0.0011661004973575473,1.0004812479019165,0.0,0.0,0.0,0.3421226143836975,1.9428149461746216,5.0301995277404785,-61.924869537353516,0
763.2600000000002,-0.00011050178727600724,-0.00016532778681721538,0.00015945089398883283,0.0,0.0,0.0,0.0,0.00025130092399194837,-0.0010913331061601639,-0.0013961599906906486,0.999092161655426,0.0,0.0,0.0,0.3482227921485901,1.9507349729537964,5.0364909172058105,-63.02901840209961,0
773.1599999999999,-0.0001306519698118791,-0.00015971022367011756,0.00014967448078095913,0.0,0.0,0.0,0.0,-0.003426767885684967,0.0031694001518189907,-0.004211731720715761,0.9992324113845825,0.0,0.0,0.0,0.34110432863235474,1.9630597829818726,5.042396068572998,-61.740562438964844,0
783.0859999999993,-4.369677844806574e-05,-0.00015497635467909276,0.00022039987379685044,0.0,0.0,0.0,0.0,0.0008012452744878829,-0.0009120739996433258,-0.0007037927280180156,1.0004764795303345,0.0,0.0,0.0,0.3504132032394409,1.9648231267929077,5.062246322631836,-63.42548370361328,0
792.9879999999994,-6.50862421025522e-05,-0.00016667197633069009,0.0002081828424707055,0.0,0.0,0.0,0.0,0.0018917788984254003,-0.0017035426571965218,-0.0020945395808666945,0.9994186162948608,0.0,0.0,0.0,0.35077306628227234,1.9719276428222656,5.060281753540039,-63.49061965942383,0
802.9130000000005,-1.7285097442254482e-07,-0.0002019388775806874,0.0002473604108672589,0.0,0.0,0.0,0.0,-0.001314061926677823,0.002425369108095765,0.00030435650842264295,0.9981990456581116,0.0,0.0,0.0,0.35021671652793884,1.9754441976547241,5.057245254516602,-63.389923095703125,0
812.8119999999999,-3.077433575526811e-06,-0.00014983050641603768,0.00023958415840752423,0.0,0.0,0.0,0.0,-0.002170655643567443,0.00010472913709236309,-0.0017050188034772873,1.0010203123092651,0.0,0.0,0.0,0.3496621549129486,1.9701087474822998,5.0475921630859375,-63.28954315185547,0
822.7330000000002,-3.167752583976835e-05,-0.00018582597840577364,0.0002470853505656123,0.0,0.0,0.0,0.0,-0.0010193554917350411,-0.004087954293936491,0.000785191950853914,1.0003831386566162,0.0,0.0,0.0,0.3544180393218994,1.972430944442749,5.042644023895264,-64.15037536621094,0
832.6309999999994,-3.37003730237484e-05,-0.00012924587645102292,0.00023915643396321684,0.0,0.0,0.0,0.0,-0.0015512083191424608,-0.004067810717970133,0.0019926298409700394,0.9992039799690247,0.0,0.0,0.0,0.35463693737983704,1.9739346504211426,5.043295383453369,-64.18999481201172,0
842.5630000000001,-2.8756530809914693e-05,-0.00012841264833696187,0.00027562573086470366,0.0,0.0,0.0,0.0,-0.0010642242850735784,-0.002205269644036889,-0.0024418726097792387,1.0001184940338135,0.0,0.0,0.0,0.3621595799922943,1.974821925163269,5.055487632751465,-65.55160522460938,0
852.4580000000005,-3.5203935112804174e-05,-8.705421350896358e-05,0.0002642901090439409,0.0,0.0,0.0,0.0,0.00200256216339767,-0.000999570358544588,0.002203845651820302,1.0004900693893433,0.0,0.0,0.0,0.36295631527900696,1.9770069122314453,5.0531110763549805,-65.69581604003906,0
862.3850000000002,-6.441074947360903e-05,-0.00011707437806762755,0.00026860853540711105,0.0,0.0,0.0,0.0,0.0007850595284253359,0.0006886626943014562,0.002760874340310693,1.0017293691635132,0.0,0.0,0.0,0.37028080224990845,1.972193956375122,5.055302143096924,-67.02156829833984,0
872.2890000000007,-4.6526114601874724e-05,-9.404134470969439e-05,0.00021016583195887506,0.0,0.0,0.0,0.0,0.002588951028883457,-0.0004849160904996097,0.002910326234996319,1.0009427070617676,0.0,0.0,0.0,0.36387717723846436,1.9764434099197388,5.059258937835693,-65.86249542236328,0
882.2099999999991,-6.772623601136729e-05,-0.00011179779539816082,0.0002164956385968253,0.0,0.0,0.0,0.0,-0.0006836060201749206,-0.001533021917566657,-0.0026915513444691896,0.9997100830078125,0.0,0.0,0.0,0.3732067048549652,1.9682539701461792,5.051541328430176,-67.55116271972656,0
892.107,-1.067673565557925e-05,-3.288250809418969e-05,0.0001297973794862628,0.0,0.0,0.0,0.0,-0.001558300806209445,-0.001800162368454039,0.00033517874544486403,0.9989888668060303,0.0,0.0,0.0,0.37338194251060486,1.9677138328552246,5.043809413909912,-67.58287048339844,0
902.0300000000007,-3.744049172382802e-05,-9.888242493616417e-05,0.00010616797226248309,0.0,0.0,0.0,0.0,0.00241130031645298,-0.0012612795690074563,-0.0006959544261917472,0.9986082315444946,0.0,0.0,0.0,0.3666183054447174,1.951892614364624,5.040172576904297,-66.35863494873047,0
911.9319999999989,-4.005281152785756e-05,-6.515340646728873e-05,7.349489169428125e-05,0.0,0.0,0.0,0.0,-0.001496457727625966,-0.0047578709200024605,-0.0012104077031835914,0.9984344244003296,0.0,0.0,0.0,0.3661678731441498,1.9596023559570312,5.038702964782715,-66.27710723876953,0
921.8490000000002,-4.351383540779352e-05,-5.367129415390082e-05,9.145497460849583e-05,0.0,0.0,0.0,0.0,0.0010898587061092257,0.0015095596900209785,5.279046490613837e-06,0.998376727104187,0.0,0.0,0.0,0.36529913544654846,1.9505622386932373,5.041155815124512,-66.119873046875,0
931.7569999999996,-1.939798858074937e-05,-8.964765584096313e-06,2.088455221382901e-05,0.0,0.0,0.0,0.0,-0.0001223473227582872,-0.0019104486564174294,0.002352382754907012,0.9997703433036804,0.0,0.0,0.0,0.3651006817817688,1.9574079513549805,5.0360565185546875,-66.08395385742188,0
941.6810000000005,2.142273478966672e-05,-4.5449687604559585e-05,1.9951708964072168e-05,0.0,0.0,0.0,0.0,-0.0019966636318713427,0.0020566750317811966,-0.0016572610475122929,1.001644253730774,0.0,0.0,0.0,0.3654014468193054,1.9550249576568604,5.034013748168945,-66.13838958740234,0
951.5799999999999,2.533246333769057e-05,-1.1630590961431153e-05,-2.976026553369593e-05,0.0,0.0,0.0,0.0,0.0016512539004907012,-0.0029768941458314657,0.0031565106473863125,0.9988261461257935,0.0,0.0,0.0,0.3662249743938446,1.9428375959396362,5.028051376342773,-66.28744506835938,0
961.5100000000002,2.4913764718803577e-05,-3.897420538123697e-05,-4.126389467273839e-05,0.0,0.0,0.0,0.0,0.00010609326272970065,-0.00019193200569134206,-0.0015115420101210475,1.0005236864089966,0.0,0.0,0.0,0.3658161163330078,1.9447848796844482,5.022431373596191,-66.21343994140625,0
971.4040000000005,1.9840874301735312e-05,-2.9260047085699625e-05,-9.107545338338241e-05,0.0,0.0,0.0,0.0,-0.001481654355302453,-0.0014743059873580933,-0.00143511185888201,1.0009886026382446,0.0,0.0,0.0,0.36686384677886963,1.9467958211898804,5.032646656036377,-66.40308380126953,0
981.3289999999997,-5.359756323741749e-05,-6.354910146910697e-05,-0.00012876585242338479,0.0,0.0,0.0,0.0,-0.0013410707470029593,-0.00032749641104601324,-0.0012898658169433475,0.9997618198394775,0.0,0.0,0.0,0.359390527009964,1.939982533454895,5.020071506500244,-65.05039978027344,0
991.2309999999998,-5.808770947623998e-05,-3.331479456392117e-05,-0.00017374855815432966,0.0,0.0,0.0,0.0,-0.0007017345633357763,0.0017324215732514858,0.003070184960961342,0.9998401999473572,0.0,0.0,0.0,0.3594062626361847,1.9347968101501465,5.013591766357422,-65.0532455444336,0
1001.1499999999996,-4.769466977450065e-05,-1.9681945559568703e-05,-0.00016606884310021996,0.0,0.0,0.0,0.0,0.004155172035098076,-0.0006202702643349767,0.0015229621203616261,1.00068998336792,0.0,0.0,0.0,0.3681289851665497,1.9347494840621948,5.01663875579834,-66.632080078125,0
1011.0529999999999,-0.00010830851533683017,-6.693668547086418e-05,-0.0001740663719829172,0.0,0.0,0.0,0.0,-0.0003990241966675967,0.0038076366763561964,-0.0034273380879312754,0.9993646144866943,0.0,0.0,0.0,0.3668557405471802,1.935955286026001,5.01011323928833,-66.401611328125,0
1020.9789999999994,-5.508323010872118e-05,-7.670830382267013e-05,-0.00015239389904309064,0.0,0.0,0.0,0.0,-0.002977910917252302,0.0022895443253219128,-0.0005828727735206485,0.9986231327056885,0.0,0.0,0.0,0.35757720470428467,1.9309418201446533,5.014374256134033,-64.72218322753906,0
1030.878999999999,-0.00015411518688779324,-0.00012040392903145403,-0.00017038651276379824,0.0,0.0,0.0,0.0,0.0017785077216103673,0.0004551646125037223,-0.0006836018874309957,0.99976646900177,0.0,0.0,0.0,0.3563149869441986,1.9344452619552612,4.992086410522461,-64.49372100830078,0
1040.8019999999997,-7.490417192457244e-05,-0.00013516897161025554,-0.00015025370521470904,0.0,0.0,0.0,0.0,-0.0009881899459287524,-0.0010160771198570728,0.004236617591232061,0.9983939528465271,0.0,0.0,0.0,0.34883934259414673,1.9323201179504395,5.004551410675049,-63.14061737060547,0
1050.7029999999995,-0.00015515209815930575,-0.00015917327255010605,-0.00017981813289225101,0.0,0.0,0.0,0.0,-0.0014525133883580565,0.0015853345394134521,-0.0013863350031897426,0.9992983341217041,0.0,0.0,0.0,0.3484496772289276,1.922805666923523,4.994494915008545,-63.07008361816406,0
1060.6319999999996,-6.448313069995493e-05,-9.234173194272444e-05,-0.0001155354839283973,0.0,0.0,0.0,0.0,0.001532263122498989,0.0036141974851489067,-0.0016866865335032344,0.9980660676956177,0.0,0.0,0.0,0.3484496772289276,1.922805666923523,4.994494915008545,-63.07008361816406,0
1070.5290000000005,-0.0001102308087865822,-0.00012117306323489174,-0.0001286994811380282,0.0,0.0,0.0,0.0,-0.00011653603723971173,0.0018923705210909247,-0.0019126507686451077,0.9992151260375977,0.0,0.0,0.0,0.3471791446208954,1.9152500629425049,4.979815483093262,-62.840118408203125,0
1080.450999999999,-8.557734872738365e-06,-9.876061812974513e-05,-6.73398026265204e-05,0.0,0.0,0.0,0.0,0.0007442506612278521,-0.0011593105737119913,0.00026298806187696755,0.9993888139724731,0.0,0.0,0.0,0.34605544805526733,1.914397954940796,4.973655700683594,-62.63671875,0
1090.3539999999994,-2.995015529450029e-05,-7.930280116852373e-05,-7.632860797457397e-05,0.0,0.0,0.0,0.0,0.0018778478261083364,0.002170765306800604,-0.0046269395388662815,0.9980840682983398,0.0,0.0,0.0,0.3453141748905182,1.9124549627304077,4.967553615570068,-62.50254821777344,0
1100.2780000000002,-1.8422813354845857e-06,-0.00014579099661204964,-8.198780415114015e-05,0.0,0.0,0.0,0.0,0.0006094319396652281,-0.0026229890063405037,0.0015007037436589599,0.9989062547683716,0.0,0.0,0.0,0.33632370829582214,1.9028494358062744,4.9728240966796875,-60.87525939941406,0
1110.179,-6.955167191335931e-05,-0.00017838783969637007,-4.675256786867976e-05,0.0,0.0,0.0,0.0,0.00016083635273389518,0.0005057439557276666,-0.0015070518711581826,0.9990624189376831,0.0,0.0,0.0,0.33637726306915283,1.900159478187561,4.968164920806885,-60.88495635986328,0
1120.0969999999998,-8.453925693174824e-05,-0.00015207116666715592,-1.4137030120764393e-05,0.0,0.0,0.0,0.0,-0.0022201775573194027,-0.0015235384926199913,-0.0005429544253274798,1.0004870891571045,0.0,0.0,0.0,0.33645352721214294,1.9021482467651367,4.964407444000244,-60.89875793457031,0
1130.0010000000002,-8.096620149444789e-05,-0.00010689874034142122,-4.160801472608e-05,0.0,0.0,0.0,0.0,-0.001130713731981814,-0.0016820405144244432,0.0014506751904264092,1.0007026195526123,0.0,0.0,0.0,0.33653849363327026,1.9035896062850952,4.964038372039795,-60.91413497924805,0
1139.9249999999993,-5.4362481023417786e-05,-0.00015491318481508642,-4.0126280509866774e-05,0.0,0.0,0.0,0.0,0.002362456638365984,0.0038215131498873234,0.0035560850519686937,0.9994432330131531,0.0,0.0,0.0,0.3371145725250244,1.906132459640503,4.969921112060547,-61.018409729003906,0
1149.824999999999,-5.8278415963286534e-05,-0.00011362850636942312,-5.826303458889015e-05,0.0,0.0,0.0,0.0,0.0011270033428445458,-0.0009289972367696464,0.0022494527511298656,1.0012611150741577,0.0,0.0,0.0,0.3372994065284729,1.9063775539398193,4.965536594390869,-61.05186080932617,0
1159.7569999999996,-6.0273952840361744e-05,-7.85332013037987e-05,-2.0709388991235755e-05,0.0,0.0,0.0,0.0,0.0024441119749099016,0.0032450782600790262,0.00010871406266232952,1.002053141593933,0.0,0.0,0.0,0.3451816141605377,1.9112852811813354,4.964934825897217,-62.47856140136719,0
1169.6499999999996,-7.233125506900251e-05,-5.239693200564943e-05,-3.30195834976621e-05,0.0,0.0,0.0,0.0,0.0020251451060175896,-0.0006686307606287301,0.002548626158386469,1.000704288482666,0.0,0.0,0.0,0.34454548358917236,1.9085617065429688,4.960811614990234,-62.36341857910156,0
1179.5740000000005,-4.146054834563984e-06,-0.00013345155457500368,-2.862660949176643e-05,0.0,0.0,0.0,0.0,0.001268342137336731,0.003264229279011488,-0.003726692870259285,1.000502109527588,0.0,0.0,0.0,0.33696624636650085,1.8952704668045044,4.966516017913818,-60.99155807495117,0
1189.4799999999996,-2.6669740691431798e-05,-0.0001396450534230098,-3.423443922656588e-05,0.0,0.0,0.0,0.0,-0.0004229018231853843,0.0012062957976013422,-0.0009403408039361238,0.9993584156036377,0.0,0.0,0.0,0.33716708421707153,1.8855198621749878,4.956724643707275,-61.02791213989258,0
1199.4009999999998,1.783814468581113e-06,-0.00019107613479718566,-2.4591758119640872e-05,0.0,0.0,0.0,0.0,0.0008381467196159065,0.0008835384505800903,0.0016804574988782406,0.9977982640266418,0.0,0.0,0.0,0.32682281732559204,1.8838497400283813,4.958483695983887,-59.155582427978516,0
1209.298999999999,9.387748832523357e-06,-0.00013092112203594297,-4.189861283521168e-05,0.0,0.0,0.0,0.0,-0.003680909750983119,-0.0031437596771866083,0.002186680445447564,0.9986512064933777,0.0,0.0,0.0,0.3268206715583801,1.878915548324585,4.946568965911865,-59.15518569946289,0
1219.2219999999998,-7.514857134083286e-05,-0.00014521903358399868,-5.46336559636984e-05,0.0,0.0,0.0,0.0,-0.000932102557271719,0.00351998140104115,0.0006146764499135315,0.9985395073890686,0.0,0.0,0.0,0.31887149810791016,1.8767296075820923,4.9369730949401855,-57.716373443603516,0
1229.1239999999998,-6.973573908908293e-05,-9.01834064279683e-05,-8.019839151529595e-05,0.0,0.0,0.0,0.0,0.0016021308256313205,0.004918294958770275,-0.003655992681160569,0.9985181093215942,0.0,0.0,0.0,0.3184535801410675,1.8812297582626343,4.941000461578369,-57.64072799682617,0
1239.0509999999995,-7.507023110520095e-05,-0.00013813364785164595,-8.780425559962168e-05,0.0,0.0,0.0,0.0,-0.003763288026675582,0.0012066359631717205,0.002283110748976469,0.9974656701087952,0.0,0.0,0.0,0.31154218316078186,1.8851757049560547,4.930753707885742,-56.38975143432617,0
1248.950999999999,-7.452419231412932e-05,-7.93623476056382e-05,-0.00010783496691146865,0.0,0.0,0.0,0.0,0.0018410519696772099,-0.0006687964196316898,-0.00512039614841342,1.0007314682006836,0.0,0.0,0.0,0.31619343161582947,1.9014495611190796,4.925595760345459,-57.23163986206055,0
1258.8760000000002,-2.509344085410703e-05,-3.153220677631907e-05,-5.3580744861392304e-05,0.0,0.0,0.0,0.0,-0.0046211127191782,0.002807126147672534,0.0031357072293758392,1.0010898113250732,0.0,0.0,0.0,0.3227280378341675,1.9109119176864624,4.931972980499268,-58.4144172668457,0
1268.7780000000002,-5.226290159043856e-05,-2.8962143915123306e-05,-5.914887151448056e-05,0.0,0.0,0.0,0.0,-0.00043329011532478034,0.0026967208832502365,-0.0010295839747413993,1.0003670454025269,0.0,0.0,0.0,0.3288743495941162,1.9141732454299927,4.918361663818359,-59.52690887451172,0
1278.700999999999,-3.811014539678581e-05,-2.7795646019512787e-05,-3.731969263753854e-05,0.0,0.0,0.0,0.0,0.0027754695620387793,-0.005351502913981676,-0.0006747926236130297,0.9993547201156616,0.0,0.0,0.0,0.33842650055885315,1.923930048942566,4.921390533447266,-61.25586700439453,0
1288.5969999999998,-6.23105006525293e-05,-3.314363129902631e-05,-4.8680914915166795e-05,0.0,0.0,0.0,0.0,-0.003388746874406934,-0.00048795499606058,-0.0006278451764956117,0.996404767036438,0.0,0.0,0.0,0.3376670181751251,1.9254415035247803,4.917758464813232,-61.11840057373047,0
1298.5210000000006,-0.00011282713239779696,-3.3654146136541385e-06,-2.573561687313486e-05,0.0,0.0,0.0,0.0,0.002009733347222209,0.0013839532621204853,-0.0004932023584842682,0.9979496598243713,0.0,0.0,0.0,0.3357805013656616,1.9210788011550903,4.9215288162231445,-60.776939392089844,0
1308.4220000000005,-8.90756055014208e-05,6.198394112288952e-05,-8.372365118702874e-05,0.0,0.0,0.0,0.0,0.00034977233735844493,0.0025749581400305033,-0.0010731527581810951,0.9984648823738098,0.0,0.0,0.0,0.3355339765548706,1.919477105140686,4.915760517120361,-60.73231887817383,0
1318.3459999999995,-9.09387381398119e-05,2.643016523506958e-05,-8.823571261018515e-05,0.0,0.0,0.0,0.0,-0.00020433583995327353,0.0006289108423516154,0.0037639245856553316,0.9972664713859558,0.0,0.0,0.0,0.33477893471717834,1.9159698486328125,4.913916110992432,-60.59565734863281,0
1328.2530000000006,-9.636569302529097e-05,3.104246570728719e-05,-0.00014230591477826238,0.0,0.0,0.0,0.0,-0.0009063584147952497,-0.0013548362767323852,-0.0018774328054860234,0.9970654845237732,0.0,0.0,0.0,0.3344373106956482,1.9165912866592407,4.912631988525391,-60.5338134765625,0
1338.1659999999993,-9.049347863765433e-05,5.3818654123460874e-05,-0.00011811491276603192,0.0,0.0,0.0,0.0,-0.002525168703868985,-0.00032101842225529253,-0.00039956142427399755,0.9989393353462219,0.0,0.0,0.0,0.3412070870399475,1.9203928709030151,4.918064594268799,-61.759159088134766,0
1348.074999999999,-0.0001765823399182409,4.869019903708249e-06,-0.00014812946028541774,0.0,0.0,0.0,0.0,-0.0029632514342665672,0.0007285592146217823,0.001049294020049274,0.9992801547050476,0.0,0.0,0.0,0.34718167781829834,1.9248769283294678,4.9217448234558105,-62.840576171875,0
1357.9959999999992,-9.542726911604404e-05,-5.96511090407148e-05,-0.0001535367628093809,0.0,0.0,0.0,0.0,-0.0012280965456739068,-0.0006764634163118899,-0.0015912693925201893,1.0013322830200195,0.0,0.0,0.0,0.3393992483615875,1.9130196571350098,4.934450149536133,-61.43193817138672,0
1367.896999999999,-0.00017531936464365572,-0.00012253515888005495,-0.00019333575619384646,0.0,0.0,0.0,0.0,-0.0003258425567764789,0.0005029001622460783,0.001414686325006187,1.0027635097503662,0.0,0.0,0.0,0.3386268615722656,1.9169718027114868,4.927820205688477,-61.29213333129883,0
1377.8140000000003,-6.120145553722978e-05,-7.250939961522818e-05,-0.00013101943477522582,0.0,0.0,0.0,0.0,0.001868676277808845,-0.0006418692646548152,0.0019476624438539147,1.0006426572799683,0.0,0.0,0.0,0.3522152006626129,1.924961805343628,4.945296764373779,-63.75165557861328,0
1387.7309999999998,-0.0001283189922105521,-9.084363409783691e-05,-0.00014903083501849324,0.0,0.0,0.0,0.0,0.0013153732288628817,-0.004294470883905888,0.0002964941959362477,1.001580834388733,0.0,0.0,0.0,0.35889768600463867,1.9273113012313843,4.947566032409668,-64.96119689941406,0
1397.6450000000004,-2.407310421403963e-05,-0.00013881141785532236,-0.00013929701526649296,0.0,0.0,0.0,0.0,-0.0021840904373675585,-0.006702752783894539,7.456847924913745e-06,0.9995613694190979,0.0,0.0,0.0,0.35220009088516235,1.9185545444488525,4.96315860748291,-63.74892044067383,0
1407.5499999999993,-9.438101551495492e-05,-0.00015011426876299083,-0.00014114835357759148,0.0,0.0,0.0,0.0,-0.0041956594213843346,0.000807130360044539,0.0017572614597156644,0.9976291060447693,0.0,0.0,0.0,0.3512133061885834,1.9182099103927612,4.963455677032471,-63.570308685302734,0
1417.4650000000001,1.5166822777246125e-05,-0.0001151885517174378,-8.648601215099916e-05,0.0,0.0,0.0,0.0,-0.0043111033737659454,-0.0012557241134345531,0.0015965650090947747,1.000065565109253,0.0,0.0,0.0,0.3512133061885834,1.9182099103927612,4.963455677032471,-63.570308685302734,0
1427.3819999999996,-5.173395402380265e-05,-0.0001305289624724537,-8.465928840450943e-05,0.0,0.0,0.0,0.0,0.001218040706589818,0.0015266791451722383,0.00083781941793859,0.999874472618103,0.0,0.0,0.0,0.3518907129764557,1.9266002178192139,4.963968753814697,-63.69291305541992,0
1437.295,-1.1055210961785633e-05,-0.00010342580208089203,-5.517868703464046e-05,0.0,0.0,0.0,0.0,0.00034900408354587853,0.003252302296459675,-0.002393802860751748,0.9992346167564392,0.0,0.0,0.0,0.3518907129764557,1.9266002178192139,4.963968753814697,-63.69291305541992,0
1447.2099999999991,-8.273959974758327e-05,-0.00011454955529188737,-5.35434992343653e-05,0.0,0.0,0.0,0.0,0.0022356114350259304,0.0011917679803445935,-0.0028042083140462637,1.000406265258789,0.0,0.0,0.0,0.35123685002326965,1.9295034408569336,4.946155548095703,-63.57456970214844,0
1457.1229999999996,-4.9452683015260845e-05,-0.00013799637963529676,-2.1334104530978948e-05,0.0,0.0,0.0,0.0,-0.0007862063939683139,-0.0005149783100932837,-0.0005603095050901175,0.9998880624771118,0.0,0.0,0.0,0.3579282760620117,1.9342224597930908,4.954535484313965,-64.78572845458984,0
1467.0409999999993,-6.754527566954494e-05,-0.00011733526480384171,-3.412475052755326e-05,0.0,0.0,0.0,0.0,-0.00026131817139685154,0.003971622325479984,0.0029163137078285217,1.0011613368988037,0.0,0.0,0.0,0.3578874468803406,1.9311487674713135,4.948661804199219,-64.7783432006836,0
1476.9449999999997,-0.00011006298154825345,-0.0001443065848434344,-2.949706686194986e-05,0.0,0.0,0.0,0.0,0.0017216254491358995,-0.0016135047189891338,-0.003410948673263192,1.0007925033569336,0.0,0.0,0.0,0.35884395241737366,1.9246612787246704,4.943613529205322,-64.95146942138672,0
1486.8529999999992,-0.00012470543151721358,-9.97960742097348e-05,-3.4616772609297186e-05,0.0,0.0,0.0,0.0,0.0038044073153287172,0.00021129890228621662,0.0023281408939510584,0.9999313354492188,0.0,0.0,0.0,0.3572894036769867,1.9131231307983398,4.944963455200195,-64.67009735107422,0
1496.771999999999,-0.00016820343444123864,-0.0001234195224242285,-2.9745606298092753e-05,0.0,0.0,0.0,0.0,-0.00021724523685406893,-0.0035959670785814524,0.0005189052899368107,0.9987989664077759,0.0,0.0,0.0,0.3581775724887848,1.9040743112564087,4.942307472229004,-64.83085632324219,0
1506.6839999999993,-0.00021752339671365917,-0.00012823916040360928,-1.1184254617546685e-05,0.0,0.0,0.0,0.0,-0.00072731968248263,-0.002080074744299054,0.0012952096294611692,0.9992555975914001,0.0,0.0,0.0,0.3518298864364624,1.9040093421936035,4.938437461853027,-63.681907653808594,0
1516.5939999999991,-0.00026453868485987186,-0.0001519982615718618,-6.97648101777304e-06,0.0,0.0,0.0,0.0,0.0005668410449288785,-0.0007899185875430703,0.0003741564869415015,0.9981346726417542,0.0,0.0,0.0,0.35111570358276367,1.9055911302566528,4.934206485748291,-63.55263900756836,0
1526.503999999999,-0.0002949881600216031,-8.494251233059913e-05,1.4267392543843016e-05,0.0,0.0,0.0,0.0,-0.0003391575301066041,-0.0017695536371320486,0.0021009237971156836,0.9987918734550476,0.0,0.0,0.0,0.3517603278160095,1.8997782468795776,4.9339518547058105,-63.66931915283203,0
1536.4169999999995,-0.0003442096640355885,-0.00010503118392080069,1.7343725630780682e-05,0.0,0.0,0.0,0.0,-0.0006462092860601842,0.006166154984384775,-0.00430572684854269,1.0002086162567139,0.0,0.0,0.0,0.35078269243240356,1.9005646705627441,4.9381303787231445,-63.49237060546875,0
1546.3320000000003,-0.00040417039417661726,-8.977382094599307e-05,4.586818613461219e-05,0.0,0.0,0.0,0.0,-0.0021935002878308296,-0.0007562014507129788,-0.0020752449054270983,1.0003743171691895,0.0,0.0,0.0,0.3436288833618164,1.9164506196975708,4.917484283447266,-62.197509765625,0
1556.2420000000002,-0.00045929409679956734,-0.00010898517939494923,5.1193837862228975e-05,0.0,0.0,0.0,0.0,-0.0036206524819135666,0.003375435946509242,-0.0010617014486342669,1.0007282495498657,0.0,0.0,0.0,0.34244394302368164,1.920041561126709,4.905155658721924,-61.98303985595703,0
1566.155999999999,-0.0004451674176380038,-8.666076610097662e-05,1.2015426364087034e-05,0.0,0.0,0.0,0.0,0.0004951776936650276,0.00033266126411035657,0.0029177642427384853,1.0008132457733154,0.0,0.0,0.0,0.33516019582748413,1.9452742338180542,4.931332588195801,-60.6646614074707,0
1576.0679999999993,-0.0004974371404387057,-0.00010022708011092618,1.581463948241435e-05,0.0,0.0,0.0,0.0,-0.001576572423800826,0.002333282493054867,-0.001273449743166566,1.0009541511535645,0.0,0.0,0.0,0.3353729248046875,1.9400469064712524,4.927979469299316,-60.703163146972656,0
1585.9789999999994,-0.0004358829464763403,-1.656443055253476e-05,-2.330571078346111e-05,0.0,0.0,0.0,0.0,-0.0019054466392844915,-0.001176770543679595,-0.0010947929695248604,0.9995055198669434,0.0,0.0,0.0,0.33660078048706055,1.9825482368469238,4.963436603546143,-60.92540740966797,0
1595.8850000000002,-0.00048424486885778606,-2.0441264496184886e-05,-2.2564028768101707e-05,0.0,0.0,0.0,0.0,-0.0020862750243395567,-0.0012535970890894532,0.0021211805287748575,0.9987272024154663,0.0,0.0,0.0,0.33723121881484985,1.9845552444458008,4.9663405418396,-61.03952407836914,0
1605.8060000000005,-0.0004435510782059282,-8.451975190837402e-06,-8.31710422062315e-05,0.0,0.0,0.0,0.0,-0.0036765113472938538,0.004075038246810436,0.0015383403515443206,0.997978925704956,0.0,0.0,0.0,0.3299911618232727,1.9965068101882935,4.991032600402832,-59.72905731201172,0
1615.7060000000001,-0.0004873214929830283,-1.0703366569941863e-05,-8.952004282036796e-05,0.0,0.0,0.0,0.0,5.727674943045713e-05,-0.0008050008909776807,-0.0013131586601957679,0.9980843663215637,0.0,0.0,0.0,0.32946398854255676,2.003453493118286,4.974197864532471,-59.633636474609375,0
1625.6260000000002,-0.00044658317347057164,-1.2849718586949166e-05,-0.00015839464322198182,0.0,0.0,0.0,0.0,0.0024507774505764246,0.00041706624324433506,-0.003500440390780568,0.9987748861312866,0.0,0.0,0.0,0.3298710584640503,2.0026485919952393,4.970969200134277,-59.707313537597656,0
1635.5390000000007,-0.0004872319404967129,-1.4918579836376011e-05,-0.00017197256966028363,0.0,0.0,0.0,0.0,-0.002986646955832839,0.0016119845677167177,-6.923072214704007e-05,0.9990221261978149,0.0,0.0,0.0,0.32850927114486694,1.9948899745941162,4.955600738525391,-59.4608268737793,0
1645.449999999999,-0.00045512389624491334,5.0089693104382604e-05,-0.00020422946545295417,0.0,0.0,0.0,0.0,0.0009479241562075913,0.005396511405706406,0.00014574400847777724,0.9976232647895813,0.0,0.0,0.0,0.3217303156852722,2.0238852500915527,4.973248481750488,-58.23382568359375,0
1655.3619999999992,-0.0004969879519194365,5.331510692485608e-05,-0.0002226104843430221,0.0,0.0,0.0,0.0,-0.0016717510297894478,0.0010401885956525803,0.003135501639917493,1.0005993843078613,0.0,0.0,0.0,0.32113173604011536,2.018873691558838,4.953768253326416,-58.12548065185547,0
1665.2759999999998,-0.0005453707417473197,5.615686677629128e-05,-0.0002431810717098415,0.0,0.0,0.0,0.0,-0.0002676383883226663,0.0019681756384670734,0.0037937345914542675,0.9993857741355896,0.0,0.0,0.0,0.3215346038341522,2.0174624919891357,4.946452617645264,-58.198402404785156,0
1675.1800000000003,-0.0005453707417473197,5.615686677629128e-05,-0.0002431810717098415,0.0,0.0,0.0,0.0,0.002740999450907111,0.005749973468482494,0.0010969252325594425,1.0019139051437378,0.0,0.0,0.0,0.3215346038341522,2.0174624919891357,4.946452617645264,-58.198402404785156,0
1685.0969999999998,-0.0006376623641699553,5.985149982734583e-05,-0.00027834143838845193,0.0,0.0,0.0,0.0,0.0030407158192247152,0.002898259786888957,0.004425200633704662,1.001224398612976,0.0,0.0,0.0,0.3219759464263916,2.0125625133514404,4.9270124435424805,-58.27828598022461,0
1695.003999999999,-0.0006376623641699553,5.985149982734583e-05,-0.00027834143838845193,0.0,0.0,0.0,0.0,-0.000522294663824141,3.237765122321434e-05,-0.005289009772241116,0.9989013671875,0.0,0.0,0.0,0.3219759464263916,2.0125625133514404,4.9270124435424805,-58.27828598022461,0
1704.9390000000003,-0.0007389693055301905,5.942140342085622e-05,-0.00031036953441798687,0.0,0.0,0.0,0.0,0.00025740714045241475,-0.0010404034983366728,-0.0014278310118243098,1.0006226301193237,0.0,0.0,0.0,0.3200894892215729,2.0063419342041016,4.908069133758545,-57.93683624267578,0
1714.8310000000001,7.149704288167413e-06,-0.00020994206715840846,0.0003014311660081148,0.0,0.0,0.0,0.0,0.0011128796031698585,-0.003863915568217635,0.004515804350376129,0.9987205862998962,0.0,0.0,0.0,0.3284253776073456,1.9697260856628418,5.025740146636963,-59.44564437866211,0
1724.759,-4.279030690668151e-05,-0.0002348364650970325,0.0003139121690765023,0.0,0.0,0.0,0.0,0.0018280985532328486,0.00034678130759857595,0.0024030618369579315,1.0005311965942383,0.0,0.0,0.0,0.3290587365627289,1.9689127206802368,5.0189642906188965,-59.56028747558594,0
1734.652,-3.974402352469042e-05,-0.00019808854267466813,0.000358733581379056,0.0,0.0,0.0,0.0,-0.0013701674761250615,0.002913176314905286,0.001480663544498384,1.0007965564727783,0.0,0.0,0.0,0.3414604365825653,1.9808554649353027,5.019477844238281,-61.80501937866211,0
1744.5789999999997,-7.269560592249036e-05,-0.00021159433526918292,0.0003687086282297969,0.0,0.0,0.0,0.0,-0.000974432157818228,0.005379936657845974,-6.583362119272351e-05,1.0009312629699707,0.0,0.0,0.0,0.34076976776123047,1.9821654558181763,5.016177654266357,-61.68000411987305,0
1754.4779999999992,-9.929227235261351e-05,-0.00022419821470975876,0.0003834086237475276,0.0,0.0,0.0,0.0,-0.0025598108768463135,-0.00045195777784101665,-0.00029272201936692,0.9984163641929626,0.0,0.0,0.0,0.3557499945163727,1.9775859117507935,5.01255464553833,-64.3914566040039,0
1764.4079999999994,-0.00013208323798608035,-0.00023997662356123328,0.00039416650542989373,0.0,0.0,0.0,0.0,-0.0009234501630999148,-0.0028157660271972418,-0.002209102502092719,0.998308539390564,0.0,0.0,0.0,0.3559495806694031,1.9744486808776855,5.008853912353516,-64.42758178710938,0
1774.3009999999995,-8.001101377885789e-05,-0.00023522600531578064,0.0004276108811609447,0.0,0.0,0.0,0.0,-0.0023722087498754263,0.005030889064073563,0.0014219569275155663,0.9980801939964294,0.0,0.0,0.0,0.36538198590278625,1.98136305809021,5.0134687423706055,-66.1348648071289,0
1784.226999999999,-0.00011526767048053443,-0.0002536070242058486,0.0004378703888505697,0.0,0.0,0.0,0.0,-0.0011118100956082344,0.0014323124196380377,0.00046816555550321937,1.0009506940841675,0.0,0.0,0.0,0.36498498916625977,1.9873378276824951,5.011494159698486,-66.0630111694336,0
1794.1260000000002,-0.00012491759844124317,-0.00027574278647080064,0.0004540332593023777,0.0,0.0,0.0,0.0,0.0014848780119791627,0.0011209726799279451,-0.0004265242023393512,1.0002704858779907,0.0,0.0,0.0,0.38090780377388,1.9836703538894653,5.008676052093506,-68.945068359375,0
1804.0470000000005,-0.00016340077854692936,-0.0002955179661512375,0.00046424352331086993,0.0,0.0,0.0,0.0,-0.0013612692710012197,0.008900447748601437,0.00041897399933077395,1.0000728368759155,0.0,0.0,0.0,0.3793485462665558,1.9781419038772583,4.998287677764893,-68.662841796875,0
1813.950999999999,-0.000204152223886922,-0.00031671207398176193,0.0004749099025502801,0.0,0.0,0.0,0.0,0.0024299395736306906,0.0003335805959068239,0.002610411262139678,1.0005176067352295,0.0,0.0,0.0,0.37935128808021545,1.9737141132354736,4.988368034362793,-68.663330078125,0
1823.875,-0.0002472381165716797,-0.0003388334298506379,0.0004859615000896156,0.0,0.0,0.0,0.0,0.0002584639296401292,0.00443482119590044,-0.0034575951285660267,0.9987483620643616,0.0,0.0,0.0,0.37892159819602966,1.9660885334014893,4.977489471435547,-68.58555603027344,0
1833.7759999999998,-0.00021577539155259728,-0.00035563448909670115,0.0005037783994339406,0.0,0.0,0.0,0.0,0.0004873604921158403,-0.0013161503011360765,-0.0005666669458150864,0.9966851472854614,0.0,0.0,0.0,0.3787098824977875,1.9628037214279175,4.9646759033203125,-68.5472412109375,0
1843.6929999999993,-0.0002617952413856983,-0.0003789413894992322,0.0005143702728673816,0.0,0.0,0.0,0.0,0.0022848041262477636,-0.001178325735963881,0.0014396628830581903,0.9968611001968384,0.0,0.0,0.0,0.3779729902744293,1.9609493017196655,4.9567108154296875,-68.41385650634766,0
1853.6000000000004,-0.00020699790911749005,-0.00038167726597748697,0.0005436374340206385,0.0,0.0,0.0,0.0,-0.0011634896509349346,0.006033970974385738,0.00011186725896550342,1.0008423328399658,0.0,0.0,0.0,0.3888844847679138,1.9565620422363281,4.969667434692383,-70.38886260986328,0
1863.5249999999996,-0.0002525188901927322,-0.00040543900104239583,0.0005519382539205253,0.0,0.0,0.0,0.0,0.004169001244008541,0.0027133345138281584,0.0002992883382830769,1.0012017488479614,0.0,0.0,0.0,0.38750338554382324,1.9516113996505737,4.957527160644531,-70.13888549804688,0
1873.4249999999993,-0.0002115579991368577,-0.00041111925384029746,0.0005788540001958609,0.0,0.0,0.0,0.0,-0.000983161968179047,0.0013962624361738563,0.0002891866897698492,0.9999198317527771,0.0,0.0,0.0,0.3973560929298401,1.959992527961731,4.956084728240967,-71.92224884033203,0
1883.3420000000006,-0.0002569897333160043,-0.0004363793705124408,0.0005902354023419321,0.0,0.0,0.0,0.0,0.0022201286628842354,0.0014642969472333789,0.0017574881203472614,0.9974285960197449,0.0,0.0,0.0,0.3968881666660309,1.95798659324646,4.943039894104004,-71.83755493164062,0
1893.2559999999994,-0.00030383840203285217,-0.00046284968266263604,0.0006011226796545088,0.0,0.0,0.0,0.0,-0.004749545361846685,-0.00486163143068552,2.6477475785213755e-06,0.998026967048645,0.0,0.0,0.0,0.3960510194301605,1.9564160108566284,4.928282260894775,-71.68601989746094,0
1903.1769999999997,-0.00021613154967781156,-7.17714210622944e-05,-8.35197715787217e-05,0.0,0.0,0.0,0.0,0.002347635803744197,0.0007182719418779016,-0.00374364061281085,1.000975489616394,0.0,0.0,0.0,0.3915879428386688,2.0432944297790527,4.957172870635986,-70.8781967163086,0
1913.0830000000005,-0.00012435823737177998,-9.550984395900741e-05,-4.4845123738923576e-06,0.0,0.0,0.0,0.0,-0.0010222232667729259,0.0002821233356371522,-0.0008672618423588574,0.998680055141449,0.0,0.0,0.0,0.40056198835372925,2.038034677505493,4.9805192947387695,-72.50251770019531,0
1922.9940000000006,-0.0001759674632921815,-0.00011752816499210894,4.297770828998182e-06,0.0,0.0,0.0,0.0,0.0006580000626854599,-0.004209560342133045,-0.001325388322584331,0.9995128512382507,0.0,0.0,0.0,0.3926442563533783,2.0403692722320557,4.9722065925598145,-71.06938934326172,0
1932.9040000000005,-0.00013459549518302083,-0.00016090244753286242,1.4819835996604525e-05,0.0,0.0,0.0,0.0,-0.00026301140314899385,6.986595690250397e-05,0.0029145122971385717,0.9982931613922119,0.0,0.0,0.0,0.3807559311389923,2.0333313941955566,4.982730865478516,-68.91758728027344,0
1942.8230000000003,-0.00017037717043422163,-0.00012210541171953082,2.192111060139723e-05,0.0,0.0,0.0,0.0,-0.0011438112705945969,-0.004224878735840321,0.0044019161723554134,1.0016920566558838,0.0,0.0,0.0,0.38037148118019104,2.028817653656006,4.97659969329834,-68.84799194335938,0
1952.7309999999998,-0.00014936804655008018,-0.00012298459478188306,5.0652535719564185e-05,0.0,0.0,0.0,0.0,-0.0008834581822156906,-0.003620036644861102,0.0009986652294173837,0.9994475245475769,0.0,0.0,0.0,0.3806484639644623,2.0294675827026367,4.979433059692383,-68.89812469482422,0
1962.6450000000004,-0.0001892701257020235,-0.00012425427848938853,4.601956607075408e-05,0.0,0.0,0.0,0.0,0.0008389900904148817,-0.00027529767248779535,0.0010191552573814988,0.9985700845718384,0.0,0.0,0.0,0.380156010389328,2.0272953510284424,4.980240821838379,-68.80899810791016,0
1972.557999999999,-0.0001523873070254922,-0.00013616554497275501,7.148684380808845e-05,0.0,0.0,0.0,0.0,-0.0015665454557165504,-0.0022872299887239933,0.0033880076371133327,0.998907744884491,0.0,0.0,0.0,0.3863862156867981,2.0245299339294434,4.987767219543457,-69.9366683959961,0
1982.4760000000006,-0.0001393430429743603,-7.077306509017944e-05,9.203742592944764e-06,0.0,0.0,0.0,0.0,0.0023682154715061188,0.0005742024513892829,0.00011418823123676702,0.9981166124343872,0.0,0.0,0.0,0.3871666491031647,2.0280585289001465,4.987433910369873,-70.07792663574219,0
1992.3760000000002,-0.00011095640365965664,-0.0001688236661721021,-2.228940138593316e-05,0.0,0.0,0.0,0.0,0.0019245034782215953,0.0003142680216114968,-0.0009326146100647748,0.9969867467880249,0.0,0.0,0.0,0.3756146728992462,2.0152029991149902,4.986215591430664,-67.98699951171875,0
2002.3009999999995,-0.00013098419003654271,-0.00016326073091477156,-7.11756365490146e-05,0.0,0.0,0.0,0.0,0.001012844848446548,0.0027232402935624123,-0.0005713874124921858,1.0001165866851807,0.0,0.0,0.0,0.37480974197387695,2.0109426975250244,4.971147060394287,-67.84130096435547,0
2012.2109999999993,-0.00017872524040285498,-0.0001777927827788517,-8.979664562502876e-05,0.0,0.0,0.0,0.0,0.0006793735083192587,-1.877273098216392e-05,-0.00045403584954328835,0.9987696409225464,0.0,0.0,0.0,0.37403959035873413,2.0101675987243652,4.960495948791504,-67.70191192626953,0
2022.1209999999992,-0.00019035190052818507,-0.00010913169535342604,-0.00013050921552348882,0.0,0.0,0.0,0.0,-0.0016275863163173199,0.0033168841619044542,0.0017543811118230224,1.0002354383468628,0.0,0.0,0.0,0.3729993999004364,2.0062484741210938,4.95894193649292,-67.51364135742188,0
2032.0380000000005,-7.073504093568772e-05,-0.00020402399240992963,-0.00010498009214643389,0.0,0.0,0.0,0.0,-0.0011811706935986876,-0.0016401100438088179,-0.0003237683267798275,0.9998213052749634,0.0,0.0,0.0,0.365440309047699,1.9908480644226074,4.982400894165039,-66.14542388916016,0
2041.937,-0.00010739552817540243,-0.00020381560898385942,-0.00012718606740236282,0.0,0.0,0.0,0.0,0.0006238205241970718,-0.0031153664458543062,0.00046931146061979234,1.0001264810562134,0.0,0.0,0.0,0.35941556096076965,1.993783712387085,4.985148906707764,-65.054931640625,0
2051.852999999999,-2.004935777222272e-05,-0.00016507890541106462,-5.6771317758830264e-05,0.0,0.0,0.0,0.0,0.0014694463461637497,0.0007098138448782265,0.0015958534786477685,1.0003184080123901,0.0,0.0,0.0,0.36515477299690247,1.9936710596084595,5.000487804412842,-66.09374237060547,0
2061.763999999999,-4.948596324538812e-05,-0.00013467742246575654,-6.853422382846475e-05,0.0,0.0,0.0,0.0,-0.0034626228734850883,-0.0032221151050180197,0.002309828530997038,1.0006667375564575,0.0,0.0,0.0,0.3649117350578308,1.9903478622436523,4.994858264923096,-66.04975128173828,0
2071.6900000000005,-8.70903895702213e-05,-0.0001905242243083194,-9.858635894488543e-05,0.0,0.0,0.0,0.0,0.0018975326092913747,-0.0019869590178132057,0.004758378490805626,0.9964202642440796,0.0,0.0,0.0,0.35437795519828796,1.9893877506256104,4.993931293487549,-64.14311218261719,0
2081.584999999999,-0.00011178736895089969,-0.00014253472909331322,-0.00011553199146874249,0.0,0.0,0.0,0.0,-0.0018066753400489688,-0.003904679324477911,0.002492171013727784,0.9983248710632324,0.0,0.0,0.0,0.3547821640968323,1.9844889640808105,4.990174293518066,-64.21627807617188,0
2091.504999999999,-6.659869541181251e-05,-0.00017679011216387153,-0.00010338027641410008,0.0,0.0,0.0,0.0,-0.00011371079745003954,-0.0010659941472113132,0.0007312995148822665,0.9994110465049744,0.0,0.0,0.0,0.3437339663505554,1.988402009010315,5.005143642425537,-62.216529846191406,0
2101.4220000000005,-9.916968701872975e-05,-0.00014284970529843122,-0.00011889542656717822,0.0,0.0,0.0,0.0,-0.000961056153755635,0.0016688727773725986,-0.0006561222253367305,0.9987296462059021,0.0,0.0,0.0,0.3499477505683899,1.9992676973342896,5.0030975341796875,-63.34123611450195,0
2111.333999999999,-0.0001156411599367857,-0.00010616498184390366,-8.950367191573605e-05,0.0,0.0,0.0,0.0,-0.0005645028431899846,0.0009592034621164203,0.0018813505303114653,1.0003383159637451,0.0,0.0,0.0,0.35750848054885864,2.007718563079834,4.9904913902282715,-64.70974731445312,0
