timestamp,stateEstimate.x,stateEstimate.y,stateEstimate.z,controller.cmd_thrust,controller.cmd_roll,controller.cmd_pitch,controller.cmd_yaw,controller.r_roll,controller.r_pitch,controller.r_yaw,controller.accelz,controller.actuatorThrust,controller.roll,controller.pitch,controller.yaw,controller.rollRate,controller.pitchRate,controller.yawRate,controller.ctr_yaw
0.0,-0.02456815354526043,-0.004240664653480053,-0.0013573863543570042,0.0,0.0,0.0,0.0,0.0012921831803396344,0.00208189245313406,-0.00039986305637285113,0.9994760155677795,0.0,0.0,0.0,-10.342846870422363,2.9976677894592285,6.129666328430176,1872.075927734375,0
9.908000000001266,-0.024641001597046852,-0.004297162871807814,-0.0013133868342265487,0.0,0.0,0.0,0.0,-0.0017312845448032022,0.0038678357377648354,-0.0014418689534068108,0.9990541338920593,0.0,0.0,0.0,-10.338594436645508,2.9822499752044678,6.120232582092285,1871.30615234375,0
19.82100000000173,-0.024663124233484268,-0.004302843473851681,-0.0013161224778741598,0.0,0.0,0.0,0.0,0.0008159870048984885,0.0006755134090781212,0.00036489192279987037,0.9989048838615417,0.0,0.0,0.0,-10.32882022857666,2.981673002243042,6.103598117828369,1869.536865234375,0
29.726000000000568,-0.02467411383986473,-0.004298147279769182,-0.0013329344801604748,0.0,0.0,0.0,0.0,-0.0017190366052091122,-0.002505028620362282,0.0033474299125373363,1.0002373456954956,0.0,0.0,0.0,-10.329292297363281,2.978795289993286,6.096951007843018,1869.6224365234375,0
39.64900000000125,-0.02464209496974945,-0.004278210923075676,-0.0012667779810726643,0.0,0.0,0.0,0.0,0.0008050695760175586,0.0062640151008963585,-0.0034229957964271307,0.9989673495292664,0.0,0.0,0.0,-10.337749481201172,2.987053632736206,6.1102728843688965,1871.1531982421875,0
49.543000000001484,-0.024616708979010582,-0.004253216087818146,-0.0013318287674337626,0.0,0.0,0.0,0.0,0.00037293226341716945,-0.0018976189894601703,0.0016684429720044136,0.9998568892478943,0.0,0.0,0.0,-10.337233543395996,2.9910316467285156,6.1001787185668945,1871.0599365234375,0
59.465000000000146,-0.024639898911118507,-0.004255803767591715,-0.0013362237950786948,0.0,0.0,0.0,0.0,-0.001499089878052473,-0.00026882608653977513,-0.0006946451612748206,1.0011807680130005,0.0,0.0,0.0,-10.325225830078125,2.981163501739502,6.100340366363525,1868.8863525390625,0
69.3650000000016,-0.024620115756988525,-0.004214741289615631,-0.0013919833581894636,0.0,0.0,0.0,0.0,0.001828569918870926,-0.0009704168187454343,-0.002598396735265851,1.00078284740448,0.0,0.0,0.0,-10.32437801361084,2.9924261569976807,6.102993965148926,1868.7330322265625,0
79.28700000000026,-0.02461843006312847,-0.004168038722127676,-0.0013320784782990813,0.0,0.0,0.0,0.0,-0.001717752544209361,-0.005934984888881445,-0.0010010040132328868,0.9982272982597351,0.0,0.0,0.0,-10.326129913330078,2.9962804317474365,6.106894493103027,1869.0501708984375,0
89.19100000000071,-0.024609077721834183,-0.004147635772824287,-0.0013830994721502066,0.0,0.0,0.0,0.0,0.0018443489680066705,-0.0004662301216740161,0.0003065585042349994,0.9988074898719788,0.0,0.0,0.0,-10.325470924377441,3.0040619373321533,6.11745548248291,1868.930908203125,0
99.11200000000099,-0.024602802470326424,-0.004101780708879232,-0.00133854104205966,0.0,0.0,0.0,0.0,0.0010740135330706835,0.0021011384669691324,-0.0004833635757677257,0.9994159936904907,0.0,0.0,0.0,-10.323089599609375,3.007450580596924,6.1205878257751465,1868.4996337890625,0
109.01400000000103,-0.02460869587957859,-0.004113399889320135,-0.0013845970388501883,0.0,0.0,0.0,0.0,0.0035240764264017344,-0.0001972665631910786,0.0006129008834250271,1.0006766319274902,0.0,0.0,0.0,-10.3240966796875,2.999220371246338,6.106808662414551,1868.681884765625,0
118.9340000000011,-0.024631880223751068,-0.004104954656213522,-0.001391578814946115,0.0,0.0,0.0,0.0,0.00044028452248312533,0.00140872853808105,-0.0013615660136565566,1.000167727470398,0.0,0.0,0.0,-10.313798904418945,2.990359306335449,6.096230506896973,1866.8182373046875,0
128.83300000000054,-0.02460773102939129,-0.004103627521544695,-0.0014781295321881771,0.0,0.0,0.0,0.0,0.0013295148964971304,0.003829117165878415,-0.002911957213655114,1.0010539293289185,0.0,0.0,0.0,-10.31476879119873,2.991551399230957,6.097748279571533,1866.9937744140625,0
138.75500000000102,-0.02450450509786606,-0.004105307627469301,-0.0013932413421571255,0.0,0.0,0.0,0.0,-0.0014317936729639769,-1.7197062334162183e-05,-0.0015306229470297694,1.0012167692184448,0.0,0.0,0.0,-10.319971084594727,2.992375612258911,6.115952014923096,1867.935302734375,0
148.65400000000045,-0.024530349299311638,-0.004129566717892885,-0.0014006977435201406,0.0,0.0,0.0,0.0,0.00011515811638673767,-0.004041749984025955,-0.000821902824100107,0.9982616305351257,0.0,0.0,0.0,-10.320006370544434,2.9865071773529053,6.110998630523682,1867.941650390625,0
158.58100000000013,-0.024534422904253006,-0.004144068341702223,-0.0013980966759845614,0.0,0.0,0.0,0.0,-0.00018760024977382272,-0.00276246783323586,9.945733472704887e-05,0.9998198747634888,0.0,0.0,0.0,-10.332253456115723,2.9839773178100586,6.124913215637207,1870.158447265625,0
168.47800000000097,-0.024555394425988197,-0.004157004877924919,-0.0014119541738182306,0.0,0.0,0.0,0.0,0.0004607477749232203,0.0019400176825001836,0.0024060632567852736,0.9986446499824524,0.0,0.0,0.0,-10.32984733581543,2.983572006225586,6.129645347595215,1869.722900390625,0
178.40500000000065,-0.024577463045716286,-0.004151598550379276,-0.0014172636438161135,0.0,0.0,0.0,0.0,0.0009949863888323307,-0.004538433160632849,0.004102475009858608,0.9987183213233948,0.0,0.0,0.0,-10.319130897521973,2.9829747676849365,6.120353698730469,1867.7833251953125,0
188.3010000000013,-0.024592813104391098,-0.0041536022908985615,-0.001438180566765368,0.0,0.0,0.0,0.0,-0.0008353907614946365,-0.001084399176761508,-0.001614042790606618,0.9989122748374939,0.0,0.0,0.0,-10.316193580627441,2.9781606197357178,6.124050617218018,1867.251708984375,0
198.22900000000118,-0.024532996118068695,-0.0041670603677630424,-0.001391601050272584,0.0,0.0,0.0,0.0,0.0018224320374429226,-0.0008869995945133269,-0.00464410288259387,0.9973242282867432,0.0,0.0,0.0,-10.318046569824219,2.97652530670166,6.140446186065674,1867.5869140625,0
208.12400000000162,-0.024564996361732483,-0.004222009796649218,-0.0014109443873167038,0.0,0.0,0.0,0.0,0.0022633837070316076,0.00300227920524776,-0.001149340532720089,0.9979677796363831,0.0,0.0,0.0,-10.315275192260742,2.961987018585205,6.132174968719482,1867.085205078125,0
218.04800000000068,-0.02454262785613537,-0.0041967215947806835,-0.0013755131512880325,0.0,0.0,0.0,0.0,-0.0012763914419338107,0.0007674302905797958,-0.003298607189208269,0.9998141527175903,0.0,0.0,0.0,-10.317984580993652,2.964887857437134,6.128664493560791,1867.5758056640625,0
227.94400000000132,-0.02451445907354355,-0.004175942856818438,-0.0014526627492159605,0.0,0.0,0.0,0.0,0.0018569069216027856,-0.0002544483286328614,-0.0005554071976803243,0.9987618327140808,0.0,0.0,0.0,-10.319802284240723,2.973207950592041,6.127839088439941,1867.90478515625,0
237.8610000000008,-0.024522952735424042,-0.004149185959249735,-0.0014351881109178066,0.0,0.0,0.0,0.0,0.0008120331913232803,-0.003223012899979949,-0.003332085208967328,0.9987525939941406,0.0,0.0,0.0,-10.321677207946777,2.980067014694214,6.1223673820495605,1868.244140625,0
247.76800000000003,-0.024515151977539062,-0.004145934712141752,-0.0014963026624172926,0.0,0.0,0.0,0.0,-0.0010706349276006222,0.0038298959843814373,0.0011716661974787712,0.9981538653373718,0.0,0.0,0.0,-10.322195053100586,2.980778932571411,6.124058723449707,1868.337890625,0
257.6910000000007,-0.024476762861013412,-0.004143908154219389,-0.0014795244205743074,0.0,0.0,0.0,0.0,-0.0029601985588669777,-0.0027723119128495455,0.0007956187473610044,0.9981719255447388,0.0,0.0,0.0,-10.328217506408691,2.9814000129699707,6.118826866149902,1869.4278564453125,0
267.59000000000015,-0.02452305518090725,-0.004178815521299839,-0.0014782468788325787,0.0,0.0,0.0,0.0,0.0007674695807509124,-0.001271022018045187,0.0015327917644754052,0.9987848401069641,0.0,0.0,0.0,-10.326936721801758,2.9813857078552246,6.119399547576904,1869.1961669921875,0
277.51600000000144,-0.024479255080223083,-0.0041664643213152885,-0.0014519519172608852,0.0,0.0,0.0,0.0,0.0009441012516617775,0.0006526566576212645,0.0017935732612386346,0.9988112449645996,0.0,0.0,0.0,-10.334188461303711,2.982820987701416,6.132101535797119,1870.508544921875,0
287.4150000000009,-0.024516424164175987,-0.0042046490125358105,-0.0014626573538407683,0.0,0.0,0.0,0.0,0.002698819851502776,0.0017685299972072244,5.161189619684592e-05,0.9992790818214417,0.0,0.0,0.0,-10.334064483642578,2.979637384414673,6.1267547607421875,1870.486328125,0
297.33500000000095,-0.02453899383544922,-0.004203436896204948,-0.001476240693591535,0.0,0.0,0.0,0.0,-0.002896410645917058,-0.0021873146761208773,-0.0018751616589725018,0.9981513023376465,0.0,0.0,0.0,-10.323802947998047,2.9749577045440674,6.117027282714844,1868.62890625,0
307.2380000000012,-0.024566492065787315,-0.004248335026204586,-0.001504272106103599,0.0,0.0,0.0,0.0,0.0012588993413373828,-0.0012628078693524003,-0.0020887621212750673,0.9986823201179504,0.0,0.0,0.0,-10.322952270507812,2.970679998397827,6.116175651550293,1868.4749755859375,0
317.15100000000166,-0.024604089558124542,-0.004150785971432924,-0.001439154613763094,0.0,0.0,0.0,0.0,0.0014547656755894423,-0.0010570223676040769,-0.00189407158177346,0.9997095465660095,0.0,0.0,0.0,-10.324395179748535,2.9895436763763428,6.1127448081970215,1868.736083984375,0
327.0550000000003,-0.02462998777627945,-0.004178429488092661,-0.0014706257497891784,0.0,0.0,0.0,0.0,0.00029694379190914333,-0.0014117899117991328,4.628505485015921e-05,0.9981792569160461,0.0,0.0,0.0,-10.324501037597656,2.9828779697418213,6.111006259918213,1868.7552490234375,0
336.9860000000008,-0.024604277685284615,-0.00412293104454875,-0.0014133575605228543,0.0,0.0,0.0,0.0,-0.0027652231510728598,0.0032142456620931625,0.0004650124756153673,0.9981245398521423,0.0,0.0,0.0,-10.324549674987793,2.9906466007232666,6.122074604034424,1868.763916015625,0
346.8860000000004,-0.024622328579425812,-0.004129569977521896,-0.0014485508436337113,0.0,0.0,0.0,0.0,0.0015964878257364035,-0.00571752293035388,0.0010761257726699114,0.9988515973091125,0.0,0.0,0.0,-10.323643684387207,2.995828628540039,6.110461711883545,1868.60009765625,0
356.8030000000017,-0.02465246059000492,-0.004128005355596542,-0.0014608011115342379,0.0,0.0,0.0,0.0,-0.0009087363723665476,-0.00016728632908780128,0.0019196157809346914,1.0009907484054565,0.0,0.0,0.0,-10.312148094177246,2.9906837940216064,6.118359565734863,1866.519287109375,0
366.71200000000135,-0.02467224933207035,-0.004155517555773258,-0.0015027783811092377,0.0,0.0,0.0,0.0,0.0004934984026476741,-0.0043239351361989975,-0.0023468495346605778,1.001584768295288,0.0,0.0,0.0,-10.312822341918945,2.9856886863708496,6.113886833190918,1866.6414794921875,0
376.6240000000016,-0.024616152048110962,-0.004151577595621347,-0.0014436396304517984,0.0,0.0,0.0,0.0,-0.0011681995820254087,0.0016027718083932996,-0.0030130089726299047,0.9999687671661377,0.0,0.0,0.0,-10.324735641479492,2.9923083782196045,6.1359944343566895,1868.797607421875,0
386.52900000000045,-0.024633999913930893,-0.004168373066931963,-0.0014763801591470838,0.0,0.0,0.0,0.0,-0.0002824820694513619,0.0006759405368939042,-0.00023507991863880306,0.9985216856002808,0.0,0.0,0.0,-10.324685096740723,2.9928600788116455,6.128782272338867,1868.78857421875,0
396.45300000000134,-0.0246599018573761,-0.004167261067777872,-0.0014861694071441889,0.0,0.0,0.0,0.0,-0.002077409764751792,-0.001960235647857189,0.0006922018947079778,1.0002400875091553,0.0,0.0,0.0,-10.314370155334473,2.9863712787628174,6.114535331726074,1866.921630859375,0
406.34500000000116,-0.02468254044651985,-0.004205974750220776,-0.0015222430229187012,0.0,0.0,0.0,0.0,-0.0007323044119402766,-0.0028356993570923805,0.0005641124444082379,1.0011250972747803,0.0,0.0,0.0,-10.312390327453613,2.980985403060913,6.114175796508789,1866.563232421875,0
416.26500000000124,-0.024673637002706528,-0.004153251647949219,-0.0014475970529019833,0.0,0.0,0.0,0.0,-0.00029363486100919545,0.0024901109281927347,-0.00217542820610106,0.9989933967590332,0.0,0.0,0.0,-10.31359577178955,2.9969425201416016,6.122166156768799,1866.781494140625,0
426.1770000000015,-0.024730971083045006,-0.004209410864859819,-0.0014312954153865576,0.0,0.0,0.0,0.0,-0.000494625885039568,0.003153738332912326,0.001058358233422041,0.9976292252540588,0.0,0.0,0.0,-10.31351089477539,2.9859824180603027,6.107829570770264,1866.76611328125,0
436.08700000000135,-0.02464405819773674,-0.004206601530313492,-0.0013678933028131723,0.0,0.0,0.0,0.0,-0.0015789568424224854,-0.0013527327682822943,0.004523028153926134,0.9976763129234314,0.0,0.0,0.0,-10.325482368469238,2.9885354042053223,6.1180315017700195,1868.9327392578125,0
446.0010000000002,-0.024670349434018135,-0.004217000212520361,-0.0013704408193007112,0.0,0.0,0.0,0.0,-0.00039707747055217624,0.004926458932459354,-0.0007652639760635793,1.0001221895217896,0.0,0.0,0.0,-10.323901176452637,2.9859495162963867,6.11531925201416,1868.646484375,0
455.90900000000147,-0.02469417080283165,-0.004221130628138781,-0.0013723243027925491,0.0,0.0,0.0,0.0,0.0008051635813899338,0.00019216001965105534,-0.0018787228036671877,0.9996851682662964,0.0,0.0,0.0,-10.313432693481445,2.9851903915405273,6.096803188323975,1866.751953125,0
465.82100000000173,-0.024674879387021065,-0.004205942619591951,-0.0014363770605996251,0.0,0.0,0.0,0.0,-0.0015738398069515824,-0.0038547555450350046,0.0037378831766545773,0.9988250732421875,0.0,0.0,0.0,-10.314579010009766,2.9902193546295166,6.1035075187683105,1866.959228515625,0
475.73199999999997,-0.024595709517598152,-0.004160886164754629,-0.0013329896610230207,0.0,0.0,0.0,0.0,-0.0008041840046644211,-0.0011784733505919576,-0.0015475613763555884,1.000386357307434,0.0,0.0,0.0,-10.316383361816406,3.0020430088043213,6.1270575523376465,1867.285888671875,0
485.64700000000084,-0.0245948638767004,-0.004179191775619984,-0.0013784893089905381,0.0,0.0,0.0,0.0,0.004443496000021696,-0.00042689210386015475,0.006101890932768583,1.0004279613494873,0.0,0.0,0.0,-10.317178726196289,2.9993038177490234,6.125582695007324,1867.429931640625,0
495.5540000000001,-0.02464638464152813,-0.0041454448364675045,-0.0013592260656878352,0.0,0.0,0.0,0.0,0.000660293793771416,0.0005696502048522234,-0.0007731194491498172,1.0005329847335815,0.0,0.0,0.0,-10.3162202835083,2.997575521469116,6.1179375648498535,1867.25634765625,0
505.46800000000076,-0.024643799290060997,-0.004161847289651632,-0.0014089439064264297,0.0,0.0,0.0,0.0,0.0018140381434932351,-0.0023047092836350203,0.0009574988507665694,0.9976040720939636,0.0,0.0,0.0,-10.316680908203125,2.995256185531616,6.11601448059082,1867.3397216796875,0
515.3810000000012,-0.024565724655985832,-0.004173599649220705,-0.001369713107123971,0.0,0.0,0.0,0.0,-0.0007138571236282587,0.004216847475618124,-0.0042881350964307785,0.9996486902236938,0.0,0.0,0.0,-10.321176528930664,2.988758087158203,6.134868144989014,1868.1533203125,0
525.2910000000011,-0.02462340146303177,-0.0042439973913133144,-0.0013483010698109865,0.0,0.0,0.0,0.0,-0.0012142136693000793,0.002309748437255621,-0.00016560994845349342,1.000946283340454,0.0,0.0,0.0,-10.323153495788574,2.972902774810791,6.120659828186035,1868.5113525390625,0
535.1990000000005,-0.024550171568989754,-0.004236646927893162,-0.0012998143211007118,0.0,0.0,0.0,0.0,7.14262860128656e-05,-0.001081064692698419,-0.002248851116746664,1.0008037090301514,0.0,0.0,0.0,-10.322672843933105,2.9786720275878906,6.129457473754883,1868.4241943359375,0
545.1220000000012,-0.024581586942076683,-0.0042761885561048985,-0.001295173540711403,0.0,0.0,0.0,0.0,0.0025810087099671364,-0.0015929457731544971,0.0011691271793097258,0.9996969699859619,0.0,0.0,0.0,-10.319894790649414,2.973478317260742,6.122801780700684,1867.9215087890625,0
555.0310000000009,-0.02453422360122204,-0.004279966000467539,-0.0012568021193146706,0.0,0.0,0.0,0.0,0.00012547285587061197,-0.0047817048616707325,-0.0014996505342423916,0.9987367987632751,0.0,0.0,0.0,-10.321763038635254,2.97016978263855,6.130871295928955,1868.2596435546875,0
564.9350000000013,-0.024523813277482986,-0.004294532351195812,-0.001301133306697011,0.0,0.0,0.0,0.0,0.0015360376564785838,0.0042776912450790405,0.0029540453106164932,1.0006146430969238,0.0,0.0,0.0,-10.323123931884766,2.975565195083618,6.137989521026611,1868.505859375,0
574.8490000000002,-0.02454693429172039,-0.004262189380824566,-0.0012698632199317217,0.0,0.0,0.0,0.0,0.003689611330628395,0.0005935619701631367,-0.0008300846675410867,0.9991927742958069,0.0,0.0,0.0,-10.320846557617188,2.9740824699401855,6.127192497253418,1868.0936279296875,0
584.7620000000006,-0.024529220536351204,-0.004241915885359049,-0.0013113489840179682,0.0,0.0,0.0,0.0,0.001127464696764946,1.083658844436286e-06,-0.00041786639485508204,0.9988804459571838,0.0,0.0,0.0,-10.319792747497559,2.9731662273406982,6.127842903137207,1867.9029541015625,0
594.6770000000015,-0.024492990225553513,-0.004245431628078222,-0.0012832863721996546,0.0,0.0,0.0,0.0,-0.0018924723844975233,-0.0010974972974509,-0.00042262187344022095,0.9981176257133484,0.0,0.0,0.0,-10.325448036193848,2.972795248031616,6.127917289733887,1868.926513671875,0
604.5830000000005,-0.024483757093548775,-0.00423462362959981,-0.001315348083153367,0.0,0.0,0.0,0.0,-0.0019086955580860376,-0.0008711654227226973,0.0033282446675002575,1.0015060901641846,0.0,0.0,0.0,-10.32679271697998,2.9771909713745117,6.125826835632324,1869.1700439453125,0
614.4890000000014,-0.024496976286172867,-0.004233371000736952,-0.0013164859265089035,0.0,0.0,0.0,0.0,-0.0016521294601261616,-0.0020514922216534615,0.000875040190294385,0.9989573955535889,0.0,0.0,0.0,-10.314940452575684,2.9741580486297607,6.120327949523926,1867.0247802734375,0
624.4070000000011,-0.0244893915951252,-0.004236635752022266,-0.0013496411265805364,0.0,0.0,0.0,0.0,-0.004658674355596304,-0.006173540372401476,-0.0017415676265954971,0.9989186525344849,0.0,0.0,0.0,-10.314146995544434,2.974743366241455,6.121933937072754,1866.881103515625,0
634.3200000000015,-0.024539411067962646,-0.004202696960419416,-0.0013313088566064835,0.0,0.0,0.0,0.0,-0.00030213763238862157,0.00017584003217052668,0.00148284831084311,0.999302327632904,0.0,0.0,0.0,-10.318796157836914,2.9907848834991455,6.127409934997559,1867.72265625,0
644.2300000000014,-0.02458329126238823,-0.004259064793586731,-0.0013214547652751207,0.0,0.0,0.0,0.0,-0.0024232773575931787,0.002495076507329941,-0.004199440125375986,0.9989200830459595,0.0,0.0,0.0,-10.317218780517578,2.9802656173706055,6.122489929199219,1867.437255859375,0
654.1330000000016,-0.024595651775598526,-0.004195706453174353,-0.0012698819627985358,0.0,0.0,0.0,0.0,-0.0014231246896088123,-0.00039829270099289715,0.00045511359348893166,0.9989628791809082,0.0,0.0,0.0,-10.320318222045898,2.992384195327759,6.115422248840332,1867.998046875,0
664.0570000000007,-0.024624139070510864,-0.004244393203407526,-0.0012844974407926202,0.0,0.0,0.0,0.0,0.0024206640664488077,0.0009488363866694272,-0.003168542170897126,0.9982234835624695,0.0,0.0,0.0,-10.31668472290039,2.987882614135742,6.1063923835754395,1867.340576171875,0
673.9560000000001,-0.02460634335875511,-0.004189824685454369,-0.0012280832743272185,0.0,0.0,0.0,0.0,0.0024747804272919893,-0.0008541770512238145,0.00035448206472210586,0.999456524848938,0.0,0.0,0.0,-10.31824779510498,2.9945106506347656,6.102154731750488,1867.6234130859375,0
683.8770000000004,-0.024621836841106415,-0.004195867571979761,-0.0012436691904440522,0.0,0.0,0.0,0.0,-0.00041017570765689015,0.003635578788816929,-0.002654493786394596,1.0001226663589478,0.0,0.0,0.0,-10.308290481567383,2.981884002685547,6.096123695373535,1865.821044921875,0
693.7710000000006,-0.024607613682746887,-0.004160858690738678,-0.001202270621433854,0.0,0.0,0.0,0.0,0.0009106136858463287,0.0014952239580452442,0.0009262273088097572,0.9994356632232666,0.0,0.0,0.0,-10.313240051269531,2.983393430709839,6.084492206573486,1866.7169189453125,0
703.7000000000007,-0.024618573486804962,-0.004175127018243074,-0.0012269045691937208,0.0,0.0,0.0,0.0,0.0006471011438407004,0.001674872008152306,0.004573136568069458,0.9997773170471191,0.0,0.0,0.0,-10.311698913574219,2.9782392978668213,6.079961776733398,1866.43798828125,0
713.5930000000008,-0.02461988851428032,-0.004135690629482269,-0.0011845610570162535,0.0,0.0,0.0,0.0,-0.001150281634181738,-0.0006055557169020176,-0.002786122029647231,0.9995056390762329,0.0,0.0,0.0,-10.315312385559082,2.9812171459198,6.075554370880127,1867.0919189453125,0
723.5280000000002,-0.02463432587683201,-0.004164758138358593,-0.0012090180534869432,0.0,0.0,0.0,0.0,-0.002312047639861703,-0.0021381101105362177,0.004090233240276575,0.9979919195175171,0.0,0.0,0.0,-10.316553115844727,2.975330352783203,6.078801155090332,1867.316650390625,0
733.4140000000007,-0.02462872304022312,-0.004134309012442827,-0.001170613570138812,0.0,0.0,0.0,0.0,-0.0028251761104911566,0.0021025920286774635,-0.001368501572869718,0.9985415935516357,0.0,0.0,0.0,-10.316701889038086,2.9804415702819824,6.086981296539307,1867.3436279296875,0
743.3450000000012,-0.02465502917766571,-0.0041947318241000175,-0.0011946382001042366,0.0,0.0,0.0,0.0,-0.0006537008448503911,-0.00035393881262280047,-0.0005249284440651536,0.9995397925376892,0.0,0.0,0.0,-10.317938804626465,2.9771955013275146,6.0743408203125,1867.5673828125,0
753.237000000001,-0.024645637720823288,-0.004174709785729647,-0.0011592122027650476,0.0,0.0,0.0,0.0,-0.0015340616228058934,0.0006017134292051196,-0.002012577373534441,0.9999620914459229,0.0,0.0,0.0,-10.317795753479004,2.98073673248291,6.0754618644714355,1867.54150390625,0
763.1610000000001,-0.024647671729326248,-0.004168515559285879,-0.0011943697463721037,0.0,0.0,0.0,0.0,-0.0010726475156843662,0.002206457080319524,-0.0008612580713815987,0.9985175132751465,0.0,0.0,0.0,-10.319828033447266,2.984607458114624,6.068648338317871,1867.9093017578125,0
773.0600000000013,-0.024672793224453926,-0.0041667805053293705,-0.0011949939653277397,0.0,0.0,0.0,0.0,-0.004562839865684509,-0.0008020566892810166,0.004037913866341114,0.9972439408302307,0.0,0.0,0.0,-10.309829711914062,2.984574794769287,6.060168743133545,1866.0997314453125,0
782.9810000000016,-0.02464594878256321,-0.004170795902609825,-0.0012741168029606342,0.0,0.0,0.0,0.0,-0.0008450434543192387,0.002716314746066928,0.00030640626209788024,0.9976564049720764,0.0,0.0,0.0,-10.309553146362305,2.996427536010742,6.074200630187988,1866.0496826171875,0
792.8970000000008,-0.024667661637067795,-0.004169325344264507,-0.0012846440076828003,0.0,0.0,0.0,0.0,0.0010467009851709008,-0.003068990772590041,0.00025159347569569945,0.9978962540626526,0.0,0.0,0.0,-10.298904418945312,2.9938504695892334,6.062898635864258,1864.122314453125,0
802.8070000000007,-0.024690059944987297,-0.004167716484516859,-0.001297231181524694,0.0,0.0,0.0,0.0,-0.00041153968777507544,-0.0025588618591427803,0.0020190358627587557,0.9995466470718384,0.0,0.0,0.0,-10.288704872131348,2.9879822731018066,6.063009738922119,1862.2760009765625,0
812.710000000001,-0.024713672697544098,-0.004166068509221077,-0.001311115687713027,0.0,0.0,0.0,0.0,-0.002731463173404336,0.004902576096355915,0.00024690962163731456,0.9986745119094849,0.0,0.0,0.0,-10.27762508392334,2.9809374809265137,6.059885501861572,1860.2706298828125,0
822.6240000000016,-0.024617783725261688,-0.004066306632012129,-0.0014428726863116026,0.0,0.0,0.0,0.0,0.003600753378123045,0.0013659658143296838,-5.0304373871767893e-05,0.9980523586273193,0.0,0.0,0.0,-10.27806282043457,3.0301060676574707,6.0941667556762695,1860.3497314453125,0
832.5260000000017,-0.024631096050143242,-0.0040574283339083195,-0.0014674471458420157,0.0,0.0,0.0,0.0,-0.001256909454241395,8.931844786275178e-05,0.004897512495517731,0.9991318583488464,0.0,0.0,0.0,-10.26817512512207,3.0213217735290527,6.090102672576904,1858.56005859375,0
842.4550000000017,-0.02463851496577263,-0.004088452085852623,-0.0015252402517944574,0.0,0.0,0.0,0.0,-0.0009756852523423731,-0.003417146857827902,0.00010235243098577484,0.9996980428695679,0.0,0.0,0.0,-10.266502380371094,3.0091841220855713,6.093402862548828,1858.25732421875,0
852.3540000000012,-0.024654502049088478,-0.00408397288993001,-0.0015536835417151451,0.0,0.0,0.0,0.0,-0.0007861084886826575,0.002677222713828087,0.00498642772436142,1.0014289617538452,0.0,0.0,0.0,-10.256627082824707,3.007936954498291,6.101271629333496,1856.469970703125,0
862.2690000000002,-0.02468400076031685,-0.0041499356739223,-0.0016097500920295715,0.0,0.0,0.0,0.0,0.0022744510788470507,0.0015845312736928463,-0.0006447062478400767,0.9990605711936951,0.0,0.0,0.0,-10.256399154663086,2.9843382835388184,6.092160701751709,1856.4287109375,0
872.1800000000003,-0.024704886600375175,-0.004150800872594118,-0.0016391202807426453,0.0,0.0,0.0,0.0,-0.0006848333869129419,-6.557083543157205e-05,-0.0019143347162753344,0.9998853206634521,0.0,0.0,0.0,-10.245874404907227,2.9793007373809814,6.0847368240356445,1854.523681640625,0
882.0970000000016,-0.024728117510676384,-0.004151421133428812,-0.0016687754541635513,0.0,0.0,0.0,0.0,0.00026418108609505,0.004509585443884134,-0.0006978338933549821,0.9985852837562561,0.0,0.0,0.0,-10.235564231872559,2.9772789478302,6.090092182159424,1852.657470703125,0
891.9980000000014,-0.024752598255872726,-0.004151936620473862,-0.0016988390125334263,0.0,0.0,0.0,0.0,-0.00046284639392979443,-0.0023951914627104998,0.0034546733368188143,0.999092161655426,0.0,0.0,0.0,-10.22481632232666,2.9758517742156982,6.081719398498535,1850.7120361328125,0
901.9100000000017,-0.024778760969638824,-0.0041144173592329025,-0.0017127086175605655,0.0,0.0,0.0,0.0,-0.0018866698956117034,-0.003755702171474695,0.0030712473671883345,0.9995602369308472,0.0,0.0,0.0,-10.22627067565918,2.9843385219573975,6.0792107582092285,1850.9754638671875,0
911.8140000000003,-0.024807307869195938,-0.00411195307970047,-0.0017427820712327957,0.0,0.0,0.0,0.0,-0.002086390508338809,-0.003285434562712908,-0.00016459569451399148,0.9969982504844666,0.0,0.0,0.0,-10.215686798095703,2.9815311431884766,6.089937686920166,1849.0595703125,0
921.7420000000002,-0.024895505979657173,-0.0041320971213281155,-0.0017473463667556643,0.0,0.0,0.0,0.0,-0.0032868175767362118,-0.0018409142503514886,-0.001582360710017383,0.9988390803337097,0.0,0.0,0.0,-10.222662925720215,2.9739296436309814,6.078471660614014,1850.3221435546875,0
931.639000000001,-0.024934494867920876,-0.004132168833166361,-0.001778217265382409,0.0,0.0,0.0,0.0,0.001209696871228516,0.0021372491028159857,-0.0008314777514897287,1.0000051259994507,0.0,0.0,0.0,-10.212469100952148,2.977295160293579,6.076456546783447,1848.4771728515625,0
941.5560000000005,-0.024975847452878952,-0.004133399575948715,-0.0018096559215337038,0.0,0.0,0.0,0.0,0.0014855921035632491,0.003974530380219221,0.0011157722910866141,0.9996842741966248,0.0,0.0,0.0,-10.202047348022461,2.9779677391052246,6.070176601409912,1846.5908203125,0
951.4650000000001,-0.02501811645925045,-0.0041350009851157665,-0.001841378165408969,0.0,0.0,0.0,0.0,0.00013183515693526715,0.0005934910150244832,0.0012386123416945338,0.9988695383071899,0.0,0.0,0.0,-10.191580772399902,2.9753918647766113,6.056644916534424,1844.6964111328125,0
961.3790000000008,-0.025061188265681267,-0.0041368259117007256,-0.0018735899357125163,0.0,0.0,0.0,0.0,-0.0015324752312153578,-0.0007855253061279655,0.005241347011178732,0.9992130994796753,0.0,0.0,0.0,-10.181527137756348,2.9737062454223633,6.0546746253967285,1842.8765869140625,0
971.2830000000013,-0.025105133652687073,-0.004138643387705088,-0.0019063117215409875,0.0,0.0,0.0,0.0,0.0009373872308060527,0.004050001036375761,0.0011418985668569803,0.9984447360038757,0.0,0.0,0.0,-10.169910430908203,2.9731106758117676,6.051220893859863,1840.7740478515625,0
981.1990000000005,-0.025149991735816002,-0.004139697179198265,-0.001939761103130877,0.0,0.0,0.0,0.0,-0.00047241325955837965,-0.0013191192410886288,-0.0019146386766806245,0.9997393488883972,0.0,0.0,0.0,-10.159631729125977,2.9660258293151855,6.034325122833252,1838.9134521484375,0
991.1060000000016,-0.025195764377713203,-0.00414058193564415,-0.0019738180562853813,0.0,0.0,0.0,0.0,-0.0010019006440415978,-0.0002409816370345652,-0.0004344623885117471,0.9984148740768433,0.0,0.0,0.0,-10.150416374206543,2.966893196105957,6.027279376983643,1837.2454833984375,0
1001.0250000000015,-0.025241926312446594,-0.004142164718359709,-0.0020084662828594446,0.0,0.0,0.0,0.0,-0.0021870622877031565,-0.0023606230970472097,-0.0018223433289676905,0.9993077516555786,0.0,0.0,0.0,-10.139781951904297,2.9619643688201904,6.021304607391357,1835.3206787109375,0
1010.9290000000001,-0.024613922461867332,-0.004177341237664223,-0.0013209243770688772,0.0,0.0,0.0,0.0,0.0005288320826366544,0.0027180109173059464,0.0032701403833925724,0.9994575381278992,0.0,0.0,0.0,-10.150063514709473,3.0069456100463867,6.124728202819824,1837.1817626953125,0
1020.857,-0.024629011750221252,-0.004176178481429815,-0.0013283246662467718,0.0,0.0,0.0,0.0,-0.0003478120197542012,0.0015311144525185227,-0.0026202911976724863,0.9980213642120361,0.0,0.0,0.0,-10.139371871948242,2.9962990283966064,6.1150336265563965,1835.246337890625,0
1030.7650000000012,-0.024637479335069656,-0.0041561429388821125,-0.0013041573110967875,0.0,0.0,0.0,0.0,-0.0005577988340519369,-0.00012933985271956772,-0.00015225076640490443,0.9971044659614563,0.0,0.0,0.0,-10.153264045715332,2.9975109100341797,6.111496925354004,1837.760986328125,0
1040.679,-0.02465246431529522,-0.004155240952968597,-0.0013130860170349479,0.0,0.0,0.0,0.0,0.0018031540093943477,0.001057123183272779,-0.004309290088713169,1.0003411769866943,0.0,0.0,0.0,-10.143239974975586,2.996443510055542,6.104794025421143,1835.9466552734375,0
1050.5870000000014,-0.02460160106420517,-0.004118531942367554,-0.0012842151336371899,0.0,0.0,0.0,0.0,-0.0007908658590167761,-0.0031277218367904425,0.002784065203741193,1.0001626014709473,0.0,0.0,0.0,-10.158342361450195,3.0056724548339844,6.111665725708008,1838.68017578125,0
1060.496000000001,-0.02461819536983967,-0.004116598051041365,-0.001291220192797482,0.0,0.0,0.0,0.0,-0.001518047763966024,0.0035252661909908056,-0.004374874755740166,0.9987487196922302,0.0,0.0,0.0,-10.147567749023438,3.0002822875976562,6.104915618896484,1836.7298583984375,0
1070.411,-0.024538487195968628,-0.0041304356418550014,-0.0013174520572647452,0.0,0.0,0.0,0.0,0.0035299446899443865,0.001535860588774085,-5.5373060604324564e-05,0.9995895624160767,0.0,0.0,0.0,-10.158515930175781,2.9956486225128174,6.103663444519043,1838.7115478515625,0
1080.3100000000013,-0.024556046351790428,-0.004132186062633991,-0.0013260508421808481,0.0,0.0,0.0,0.0,-0.0036230774130672216,-0.0024921379517763853,0.004127141088247299,0.9992315769195557,0.0,0.0,0.0,-10.147330284118652,2.981674909591675,6.0962982177734375,1836.68701171875,0
1090.2300000000014,-0.024511901661753654,-0.004140632692724466,-0.0013459823094308376,0.0,0.0,0.0,0.0,-0.0004187033337075263,0.0010798861039802432,0.0008046363946050406,0.9980331063270569,0.0,0.0,0.0,-10.160201072692871,2.9823522567749023,6.100778579711914,1839.0164794921875,0
1100.1450000000004,-0.02453182265162468,-0.004143755417317152,-0.0013565681874752045,0.0,0.0,0.0,0.0,-0.0028629223816096783,-0.0017159630078822374,0.0012558706803247333,0.9976303577423096,0.0,0.0,0.0,-10.15108871459961,2.977928400039673,6.089695930480957,1837.3670654296875,0
1110.0570000000007,-0.024553334340453148,-0.004146709106862545,-0.0013689319603145123,0.0,0.0,0.0,0.0,-0.00081326172221452,0.003552366979420185,0.00037825448089279234,0.9976286888122559,0.0,0.0,0.0,-10.140872955322266,2.9791648387908936,6.089883327484131,1835.51806640625,0
1119.960000000001,-0.02457566373050213,-0.004149770829826593,-0.001383553259074688,0.0,0.0,0.0,0.0,0.0016184878768399358,0.0023457370698451996,-0.001697995699942112,0.9989727139472961,0.0,0.0,0.0,-10.131110191345215,2.9702699184417725,6.076021194458008,1833.7509765625,0
1129.871000000001,-0.024599075317382812,-0.0041536008939146996,-0.0013998608337715268,0.0,0.0,0.0,0.0,-0.0003121727495454252,0.0005824087420478463,0.0021463867742568254,0.9986744523048401,0.0,0.0,0.0,-10.121485710144043,2.9634621143341064,6.06365442276001,1832.009033203125,0
1139.786,-0.02462371252477169,-0.00415840232744813,-0.001417220919393003,0.0,0.0,0.0,0.0,0.0017020023660734296,0.005880312062799931,-0.0027357356157153845,0.9985818266868591,0.0,0.0,0.0,-10.110873222351074,2.9603095054626465,6.0589518547058105,1830.0882568359375,0
1149.6970000000001,-0.024543549865484238,-0.004144011065363884,-0.0014312210259959102,0.0,0.0,0.0,0.0,0.0005222031613811851,0.005477641709148884,-0.004014899022877216,0.9963554739952087,0.0,0.0,0.0,-10.131714820861816,2.9611685276031494,6.066831588745117,1833.8604736328125,0
1159.6050000000014,-0.024565739557147026,-0.0041484711691737175,-0.0014500489924103022,0.0,0.0,0.0,0.0,-0.0024247197434306145,0.004603411071002483,0.0017916481010615826,0.9978640079498291,0.0,0.0,0.0,-10.123000144958496,2.9551279544830322,6.050609111785889,1832.2833251953125,0
1169.5290000000005,-0.024644644930958748,-0.004090163856744766,-0.0014329621335491538,0.0,0.0,0.0,0.0,0.003399505512788892,-0.00023148620675783604,0.0009615407325327396,0.9976831674575806,0.0,0.0,0.0,-10.135201454162598,2.975982904434204,6.022227764129639,1834.4915771484375,0
1179.424000000001,-0.0246734656393528,-0.004089768975973129,-0.0014531887136399746,0.0,0.0,0.0,0.0,-0.0012960681924596429,0.0023285949137061834,0.00018978823209181428,0.999312162399292,0.0,0.0,0.0,-10.125558853149414,2.964097738265991,6.0162553787231445,1832.746337890625,0
1189.3420000000006,-0.024650998413562775,-0.004059588070958853,-0.001459662220440805,0.0,0.0,0.0,0.0,-0.00020765111548826098,0.004106956534087658,-0.0028756698593497276,0.9990240335464478,0.0,0.0,0.0,-10.138869285583496,2.973705768585205,6.015549659729004,1835.1556396484375,0
1199.2400000000016,-0.024730494245886803,-0.004171076230704784,-0.001336616463959217,0.0,0.0,0.0,0.0,0.001782949548214674,0.0015206896932795644,0.003727017669007182,0.9972615838050842,0.0,0.0,0.0,-10.150875091552734,2.944629669189453,6.000929832458496,1837.32861328125,0
1209.1630000000005,-0.024642636999487877,-0.004207002930343151,-0.001267861109226942,0.0,0.0,0.0,0.0,0.001513603376224637,-0.000798031862359494,-0.0014724268112331629,0.9994049072265625,0.0,0.0,0.0,-10.173171997070312,2.935558795928955,6.0069804191589355,1841.364501953125,0
1219.0620000000017,-0.024661894887685776,-0.0042139324359595776,-0.0013314462266862392,0.0,0.0,0.0,0.0,0.0025632958859205246,-5.0947121053468436e-05,0.0039042916614562273,1.0004602670669556,0.0,0.0,0.0,-10.182367324829102,2.9375579357147217,6.004482746124268,1843.02880859375,0
1228.9950000000008,-0.024694528430700302,-0.004220312926918268,-0.0013488217955455184,0.0,0.0,0.0,0.0,0.0001794276904547587,-0.0007422635098919272,-0.002719620708376169,0.9983490109443665,0.0,0.0,0.0,-10.171431541442871,2.9339654445648193,5.998536586761475,1841.04931640625,0
1238.8850000000002,-0.024716537445783615,-0.004221854731440544,-0.001393805374391377,0.0,0.0,0.0,0.0,-0.00016546453116461635,0.0015459334244951606,0.0006067762151360512,0.9984050989151001,0.0,0.0,0.0,-10.180646896362305,2.938141107559204,5.998154640197754,1842.7174072265625,0
1248.8100000000013,-0.024752458557486534,-0.004229990765452385,-0.0014137608231976628,0.0,0.0,0.0,0.0,-0.0019650664180517197,0.001307651516981423,-9.850414062384516e-05,0.9983019232749939,0.0,0.0,0.0,-10.169891357421875,2.9375479221343994,5.98887300491333,1840.7706298828125,0
1258.719000000001,-0.024778194725513458,-0.00421811081469059,-0.0014568691840395331,0.0,0.0,0.0,0.0,0.00043304948485456407,-0.0001737829443300143,0.003949978854507208,0.9997497200965881,0.0,0.0,0.0,-10.180885314941406,2.940580129623413,5.974785327911377,1842.760498046875,0
1268.6270000000004,-0.024655325338244438,-0.0042219399474561214,-0.001305334735661745,0.0,0.0,0.0,0.0,-0.002587666269391775,0.004722496494650841,-0.0016626132419332862,0.9996532201766968,0.0,0.0,0.0,-10.192782402038574,2.9494972229003906,6.015477657318115,1844.9139404296875,0
1278.5300000000007,-0.024640098214149475,-0.004205028526484966,-0.001391781261190772,0.0,0.0,0.0,0.0,-0.0004662263090722263,0.0014971266500651836,0.001306526712141931,0.9970501065254211,0.0,0.0,0.0,-10.201900482177734,2.9571986198425293,6.012030601501465,1846.5643310546875,0
1288.4580000000005,-0.02466866560280323,-0.004211685620248318,-0.0014120000414550304,0.0,0.0,0.0,0.0,-0.001693371799774468,0.0003948129597119987,-0.002344145206734538,1.0000299215316772,0.0,0.0,0.0,-10.191335678100586,2.9531850814819336,6.010832786560059,1844.652099609375,0
1298.3500000000004,-0.024673843756318092,-0.004216169007122517,-0.0014776191674172878,0.0,0.0,0.0,0.0,0.0026119293179363012,-0.004019535146653652,-0.00025710463523864746,0.9981918931007385,0.0,0.0,0.0,-10.202130317687988,2.954561233520508,6.015563488006592,1846.6058349609375,0
1308.2760000000017,-0.02457028441131115,-0.0042276219464838505,-0.0013937546173110604,0.0,0.0,0.0,0.0,0.002381982747465372,0.0009485174086876214,-0.00015756965149194002,0.9973813891410828,0.0,0.0,0.0,-10.213712692260742,2.953113555908203,6.044572830200195,1848.7021484375,0
1318.1770000000015,-0.02457934245467186,-0.004234697204083204,-0.001445532194338739,0.0,0.0,0.0,0.0,0.0027253925800323486,0.0006863980088382959,0.0012480259174481034,0.998153805732727,0.0,0.0,0.0,-10.217326164245605,2.950192928314209,6.0341949462890625,1849.356201171875,0
1328.0990000000002,-0.02454611100256443,-0.004218809772282839,-0.0014142247382551432,0.0,0.0,0.0,0.0,-0.002384389517828822,-0.00042429944733157754,-0.00517863966524601,0.9986994862556458,0.0,0.0,0.0,-10.226156234741211,2.9493677616119385,6.026893615722656,1850.95458984375,0
1337.996000000001,-0.024560602381825447,-0.004240892827510834,-0.0014612996019423008,0.0,0.0,0.0,0.0,-0.001755997072905302,-0.004506125580519438,-0.0012407985050231218,0.9992817044258118,0.0,0.0,0.0,-10.235569953918457,2.950791358947754,6.021773338317871,1852.6585693359375,0
1347.916000000001,-0.02458573319017887,-0.004246864467859268,-0.0014877880457788706,0.0,0.0,0.0,0.0,0.004163311328738928,0.0028206766583025455,-0.0009599513723514974,0.9995285868644714,0.0,0.0,0.0,-10.225336074829102,2.947270154953003,6.021944999694824,1850.8062744140625,0
1357.8190000000013,-0.024592028930783272,-0.004242384806275368,-0.0015357036609202623,0.0,0.0,0.0,0.0,-0.00011014574556611478,-0.0025485337246209383,-0.002314676996320486,0.999630868434906,0.0,0.0,0.0,-10.2315673828125,2.942784547805786,6.0119948387146,1851.9342041015625,0
1367.7400000000016,-0.02461702562868595,-0.004247603472322226,-0.0015622504288330674,0.0,0.0,0.0,0.0,-0.0008589224889874458,0.0016467244131490588,0.00022269936744123697,0.9993525147438049,0.0,0.0,0.0,-10.221073150634766,2.9382030963897705,6.012868881225586,1850.034423828125,0
1377.6420000000016,-0.02460438944399357,-0.0041799889877438545,-0.0016330030048266053,0.0,0.0,0.0,0.0,-0.0008056561346165836,0.0008662746986374259,-0.0001979459193535149,1.0011717081069946,0.0,0.0,0.0,-10.226299285888672,2.9593348503112793,6.01899528503418,1850.9805908203125,0
1387.563,-0.024545563384890556,-0.00416427431628108,-0.0015600050101056695,0.0,0.0,0.0,0.0,0.0004656407400034368,0.0007462995708920062,0.002075528958812356,1.0014384984970093,0.0,0.0,0.0,-10.233161926269531,2.965993881225586,6.034611225128174,1852.22265625,0
1397.4650000000001,-0.02458295226097107,-0.004193528089672327,-0.0015687444247305393,0.0,0.0,0.0,0.0,-0.001090023317374289,-0.003099007997661829,-0.003055557841435075,0.9996370673179626,0.0,0.0,0.0,-10.233171463012695,2.956035614013672,6.018972396850586,1852.2244873046875,0
1407.3920000000016,-0.02460660971701145,-0.004195681307464838,-0.0015883839223533869,0.0,0.0,0.0,0.0,0.0008399714133702219,0.0014444395201280713,0.0016546742990612984,1.0000406503677368,0.0,0.0,0.0,-10.223709106445312,2.9538915157318115,6.017780780792236,1850.5118408203125,0
1417.2930000000015,-0.024636603891849518,-0.0042102159932255745,-0.0016031478298828006,0.0,0.0,0.0,0.0,0.0017394231399521232,0.00037544063525274396,-0.004575453232973814,0.9985498785972595,0.0,0.0,0.0,-10.228283882141113,2.948552131652832,6.0125555992126465,1851.33984375,0
1427.2080000000005,-0.024559594690799713,-0.004199729301035404,-0.0015149761456996202,0.0,0.0,0.0,0.0,-0.00032569552422501147,0.003311112290248275,-0.0014893548795953393,0.9982715845108032,0.0,0.0,0.0,-10.237859725952148,2.948282241821289,6.030384063720703,1853.072998046875,0
1437.1140000000014,-0.02458847686648369,-0.0042145950719714165,-0.0015306088607758284,0.0,0.0,0.0,0.0,0.0020348557736724615,0.0053389291279017925,-0.0006950357346795499,0.9993866086006165,0.0,0.0,0.0,-10.246238708496094,2.9490509033203125,6.019106864929199,1854.589599609375,0
1447.0210000000006,-0.02464965544641018,-0.004149291198700666,-0.0014984782319515944,0.0,0.0,0.0,0.0,-0.0006922860629856586,-0.003792047966271639,0.0009073780383914709,1.000169038772583,0.0,0.0,0.0,-10.249736785888672,2.9521594047546387,6.007165431976318,1855.2227783203125,0
1456.9320000000007,-0.024709085002541542,-0.00419158861041069,-0.001482396386563778,0.0,0.0,0.0,0.0,-1.2823395081795752e-05,-0.002023836364969611,-0.0014128912007436156,1.0018247365951538,0.0,0.0,0.0,-10.253120422363281,2.947781562805176,6.013089656829834,1855.835205078125,0
1466.8510000000006,-0.02468225173652172,-0.004154759459197521,-0.001431470736861229,0.0,0.0,0.0,0.0,-0.004170920699834824,-0.002791562583297491,0.001467586145736277,1.0008084774017334,0.0,0.0,0.0,-10.256202697753906,2.9526634216308594,6.020453929901123,1856.39306640625,0
1476.7530000000006,-0.02472321316599846,-0.00418364442884922,-0.0014335369924083352,0.0,0.0,0.0,0.0,-0.00010623849084367976,-0.0003380034177098423,-4.7374473069794476e-05,1.000128149986267,0.0,0.0,0.0,-10.257612228393555,2.9606380462646484,6.019112586975098,1856.6480712890625,0
1486.6630000000005,-0.024682095274329185,-0.004146755672991276,-0.0013744602911174297,0.0,0.0,0.0,0.0,0.0009759623790159822,-0.0013180040987208486,-0.0007723637972958386,1.0005191564559937,0.0,0.0,0.0,-10.260502815246582,2.9594011306762695,6.027037143707275,1857.1712646484375,0
1496.576000000001,-0.024766288697719574,-0.004226108081638813,-0.001333871390670538,0.0,0.0,0.0,0.0,-0.000434093497460708,-0.0019837338477373123,-0.0017927100416272879,0.9999291896820068,0.0,0.0,0.0,-10.263870239257812,2.945664644241333,6.021869659423828,1857.781005859375,0
1506.487000000001,-0.024686753749847412,-0.0041815731674432755,-0.001247616484761238,0.0,0.0,0.0,0.0,0.0017383320955559611,-0.0016733998199924827,-0.0018425934249535203,0.9981908798217773,0.0,0.0,0.0,-10.267496109008789,2.952181100845337,6.029273509979248,1858.437255859375,0
1516.398000000001,-0.024710647761821747,-0.004204163793474436,-0.0012667218688875437,0.0,0.0,0.0,0.0,0.0018331283936277032,-0.0013470383128151298,-0.0010347772622480989,0.9967106580734253,0.0,0.0,0.0,-10.2704496383667,2.9473109245300293,6.0300469398498535,1858.9718017578125,0
1526.309000000001,-0.02474508248269558,-0.004200580529868603,-0.0012587537057697773,0.0,0.0,0.0,0.0,0.0012370755430310965,-0.0008058513049036264,-0.0032302304171025753,0.9980230331420898,0.0,0.0,0.0,-10.259909629821777,2.9436116218566895,6.0270304679870605,1857.0640869140625,0
1536.219000000001,-0.02477814070880413,-0.00418170215561986,-0.0012463382445275784,0.0,0.0,0.0,0.0,0.0005854632472619414,-0.004507188219577074,0.00040452959365211427,1.000079870223999,0.0,0.0,0.0,-10.25964069366455,2.943732261657715,6.020015716552734,1857.0155029296875,0
1546.1310000000012,-0.024643205106258392,-0.004193495027720928,-0.001135433092713356,0.0,0.0,0.0,0.0,0.0011582595761865377,0.0037918402813374996,-0.0013116762274876237,0.9998377561569214,0.0,0.0,0.0,-10.261815071105957,2.9444005489349365,6.057329177856445,1857.408935546875,0
1556.0470000000005,-0.0245857834815979,-0.004187706857919693,-0.0011686525540426373,0.0,0.0,0.0,0.0,-0.001081116613931954,-0.0018567577935755253,-0.0008849522564560175,0.9984575510025024,0.0,0.0,0.0,-10.27629280090332,2.944993257522583,6.06353235244751,1860.029296875,0
1565.9520000000011,-0.02460934966802597,-0.004182468168437481,-0.0011595962569117546,0.0,0.0,0.0,0.0,-0.0025444028433412313,-0.0028073089197278023,0.004815742839127779,0.9974377751350403,0.0,0.0,0.0,-10.266075134277344,2.940300464630127,6.064556121826172,1858.179931640625,0
1575.8670000000002,-0.02457672916352749,-0.0041908505372703075,-0.0012242732336744666,0.0,0.0,0.0,0.0,0.0017751643899828196,-0.0006752202170901,-0.003211964387446642,0.9986453056335449,0.0,0.0,0.0,-10.290143966674805,2.943937063217163,6.074385643005371,1862.53662109375,0
1585.7810000000009,-0.024600164964795113,-0.004186553414911032,-0.0012239627540111542,0.0,0.0,0.0,0.0,0.00039967356133274734,0.0003222318773623556,0.0015407716855406761,0.9993683695793152,0.0,0.0,0.0,-10.280494689941406,2.9378182888031006,6.067706108093262,1860.7899169921875,0
1595.6980000000003,-0.024533700197935104,-0.004148317035287619,-0.0012567670783028007,0.0,0.0,0.0,0.0,9.827149187913164e-05,-0.0045094904489815235,-0.0022305124439299107,0.9999803304672241,0.0,0.0,0.0,-10.304852485656738,2.9431915283203125,6.070089340209961,1865.19873046875,0
1605.5970000000016,-0.02455742657184601,-0.004143413156270981,-0.0012596572050824761,0.0,0.0,0.0,0.0,0.004006197676062584,0.005020674783736467,0.00321993138641119,1.0009799003601074,0.0,0.0,0.0,-10.29488754272461,2.9392969608306885,6.071761608123779,1863.39501953125,0
1615.5120000000006,-0.0245717391371727,-0.0042019980028271675,-0.0013126982375979424,0.0,0.0,0.0,0.0,0.0014945226721465588,0.00486904988065362,0.0008494438952766359,0.9976660013198853,0.0,0.0,0.0,-10.297098159790039,2.9206979274749756,6.056041717529297,1863.7952880859375,0
1625.42,-0.02459702454507351,-0.004199756775051355,-0.0013199003878980875,0.0,0.0,0.0,0.0,-0.0019629234448075294,-0.0019922833889722824,-0.00393603416159749,0.9956623911857605,0.0,0.0,0.0,-10.286258697509766,2.9154767990112305,6.0424017906188965,1861.833251953125,0
1635.3330000000005,-0.024467462673783302,-0.004178937524557114,-0.0013386488426476717,0.0,0.0,0.0,0.0,-0.0009293801849707961,-0.005079848226159811,-0.0029679727740585804,0.9973508715629578,0.0,0.0,0.0,-10.307963371276855,2.9308412075042725,6.082625865936279,1865.7618408203125,0
1645.2430000000004,-0.024485399946570396,-0.0041762166656553745,-0.0013524044770747423,0.0,0.0,0.0,0.0,-0.0001997088111238554,0.0038840214256197214,-0.0005339866038411856,0.9985641241073608,0.0,0.0,0.0,-10.298450469970703,2.933567523956299,6.088368892669678,1864.0400390625,0
1655.1540000000005,-0.0244685597717762,-0.0041737984865903854,-0.0013440682087093592,0.0,0.0,0.0,0.0,0.002714248141273856,0.004485303536057472,-0.004920623730868101,0.9998489618301392,0.0,0.0,0.0,-10.31568717956543,2.932018756866455,6.081334590911865,1867.159912109375,0
1665.0680000000011,-0.024486707523465157,-0.004170629661530256,-0.0013584396801888943,0.0,0.0,0.0,0.0,-0.003660474205389619,-0.002763182856142521,-0.00014842701784800738,0.9995061159133911,0.0,0.0,0.0,-10.306599617004395,2.925133228302002,6.063452243804932,1865.51513671875,0
1674.9750000000004,-0.02452496625483036,-0.0042417929507792,-0.0013852122938260436,0.0,0.0,0.0,0.0,-0.0019782749004662037,0.0027959973085671663,0.00031068644602783024,1.0000379085540771,0.0,0.0,0.0,-10.306248664855957,2.9193222522735596,6.068686485290527,1865.4515380859375,0
1684.8870000000006,-0.024546975269913673,-0.0042414418421685696,-0.001400984125211835,0.0,0.0,0.0,0.0,-0.00218042335473001,-0.0020894610788673162,0.003422156209126115,0.9993593096733093,0.0,0.0,0.0,-10.295353889465332,2.9215404987335205,6.0647172927856445,1863.4796142578125,0
1694.808000000001,-0.024577343836426735,-0.004156195092946291,-0.0013923576334491372,0.0,0.0,0.0,0.0,0.000482192583149299,-0.001360853435471654,0.001949169673025608,0.9985583424568176,0.0,0.0,0.0,-10.32388973236084,2.9469289779663086,6.070672035217285,1868.6446533203125,0
1704.7130000000016,-0.02458341233432293,-0.004152336157858372,-0.0014371115248650312,0.0,0.0,0.0,0.0,0.001243620179593563,-0.002702351426705718,-0.0013110936852172017,1.0004364252090454,0.0,0.0,0.0,-10.326470375061035,2.9481868743896484,6.060903549194336,1869.1116943359375,0
1714.625,-0.024579280987381935,-0.00410128990188241,-0.0014022786635905504,0.0,0.0,0.0,0.0,0.0002600516891106963,0.0028666420839726925,-0.0006364333094097674,1.0014503002166748,0.0,0.0,0.0,-10.325135231018066,2.9506826400756836,6.066973686218262,1868.8699951171875,0
1724.5530000000017,-0.02459884062409401,-0.004135776776820421,-0.0014404052635654807,0.0,0.0,0.0,0.0,0.0013536607148125768,-0.004415450152009726,0.004708100110292435,0.999340295791626,0.0,0.0,0.0,-10.325246810913086,2.9397635459899902,6.053919315338135,1868.8902587890625,0
1734.4460000000017,-0.024620702490210533,-0.004131189081817865,-0.0014538445975631475,0.0,0.0,0.0,0.0,-0.0022383041214197874,0.002761483658105135,-0.002765288110822439,0.9983950853347778,0.0,0.0,0.0,-10.313709259033203,2.9300200939178467,6.053799629211426,1866.8018798828125,0
1744.3560000000016,-0.024634432047605515,-0.004146934021264315,-0.001490603550337255,0.0,0.0,0.0,0.0,-0.0014118109829723835,0.006240520626306534,0.0009902671445161104,0.9969911575317383,0.0,0.0,0.0,-10.31791877746582,2.926623582839966,6.048773288726807,1867.563720703125,0
1754.2670000000016,-0.024556849151849747,-0.004181342199444771,-0.0014548287726938725,0.0,0.0,0.0,0.0,0.00047629550681449473,-0.004002131521701813,0.00036957519478164613,0.9967892169952393,0.0,0.0,0.0,-10.330348014831543,2.9236533641815186,6.054842472076416,1869.8134765625,0
1764.179,-0.024623041972517967,-0.0042489017359912395,-0.0014350234996527433,0.0,0.0,0.0,0.0,0.0021387459710240364,0.004821029491722584,-0.0022337110713124275,1.0004462003707886,0.0,0.0,0.0,-10.330666542053223,2.9082858562469482,6.053157806396484,1869.8712158203125,0
1774.0900000000001,-0.02454744093120098,-0.0042335111647844315,-0.0013858716702088714,0.0,0.0,0.0,0.0,0.0008632028475403786,-0.002013213699683547,-0.0001793102128431201,0.9992420077323914,0.0,0.0,0.0,-10.335329055786133,2.9061527252197266,6.050678730010986,1870.7149658203125,0
1784.0040000000008,-0.024599621072411537,-0.004283254034817219,-0.0013750795042142272,0.0,0.0,0.0,0.0,0.0006893373792991042,-0.00011201854067621753,-0.0027399046812206507,1.0012959241867065,0.0,0.0,0.0,-10.335406303405762,2.892642021179199,6.040077209472656,1870.7291259765625,0
1793.9100000000017,-0.024552801623940468,-0.004278887063264847,-0.001341585535556078,0.0,0.0,0.0,0.0,0.0005511693889275193,0.0029373285360634327,-0.0004491967847570777,1.0015037059783936,0.0,0.0,0.0,-10.347212791442871,2.8951916694641113,6.046911716461182,1872.8660888671875,0
1803.8230000000003,-0.024541866034269333,-0.004246968775987625,-0.0013804698828607798,0.0,0.0,0.0,0.0,-0.0038906282279640436,0.005653079599142075,0.0005029311287216842,0.9987244009971619,0.0,0.0,0.0,-10.34434700012207,2.900163173675537,6.02939510345459,1872.3472900390625,0
1813.7360000000008,-0.024531090632081032,-0.004222774412482977,-0.0013480891939252615,0.0,0.0,0.0,0.0,-0.0006930283852852881,0.00031722415587864816,-0.00029041923698969185,0.9995074272155762,0.0,0.0,0.0,-10.348268508911133,2.910402536392212,6.020708084106445,1873.05712890625,0
1823.6470000000008,-0.024548960849642754,-0.004259989596903324,-0.0013801648747175932,0.0,0.0,0.0,0.0,0.0029858106281608343,0.0012621756177395582,-0.0014200668083503842,1.0008456707000732,0.0,0.0,0.0,-10.338168144226074,2.905294179916382,6.011374473571777,1871.22900390625,0
1833.563,-0.02457498572766781,-0.0042646522633731365,-0.0013856985606253147,0.0,0.0,0.0,0.0,-0.0006479251314885914,-0.003947413060814142,-0.0025817418936640024,1.0003868341445923,0.0,0.0,0.0,-10.327333450317383,2.8968236446380615,6.0067830085754395,1869.267822265625,0
1843.4770000000008,-0.024609485641121864,-0.004289386793971062,-0.0013858297606930137,0.0,0.0,0.0,0.0,-0.0023074201308190823,0.00044705820619128644,-0.0025947592221200466,1.00206458568573,0.0,0.0,0.0,-10.328276634216309,2.8893682956695557,6.005816459655762,1869.4385986328125,0
1853.3940000000002,-0.02451123669743538,-0.004268973134458065,-0.0012844431912526488,0.0,0.0,0.0,0.0,0.0007758245919831097,0.000536747626028955,0.0009657655027695,0.999287486076355,0.0,0.0,0.0,-10.339238166809082,2.9039547443389893,6.031752109527588,1871.4224853515625,0
1863.2920000000013,-0.024543333798646927,-0.004304192494601011,-0.001282394165173173,0.0,0.0,0.0,0.0,-0.0011452087201178074,0.0006630399730056524,-0.001753936056047678,1.0000402927398682,0.0,0.0,0.0,-10.337550163269043,2.894663095474243,6.0217742919921875,1871.1170654296875,0
1873.2130000000016,-0.024566492065787315,-0.004234247375279665,-0.0012198886834084988,0.0,0.0,0.0,0.0,-0.0001222038408741355,-0.0019810537341982126,0.0009090491221286356,0.9986424446105957,0.0,0.0,0.0,-10.339862823486328,2.9109485149383545,6.016769886016846,1871.53564453125,0
1883.1200000000008,-0.02457728423178196,-0.004235441796481609,-0.0012326318537816405,0.0,0.0,0.0,0.0,0.0016309397760778666,0.004333804361522198,0.0007737395935691893,1.0001498460769653,0.0,0.0,0.0,-10.338764190673828,2.9163193702697754,6.016961574554443,1871.3367919921875,0
1893.032000000001,-0.024539873003959656,-0.004254331346601248,-0.001197013189084828,0.0,0.0,0.0,0.0,-0.0023587963078171015,-0.004747078754007816,-0.00016558225615881383,1.0000896453857422,0.0,0.0,0.0,-10.338191032409668,2.913039207458496,6.010105609893799,1871.233154296875,0
1902.938,-0.024478690698742867,-0.004197064321488142,-0.0012844321317970753,0.0,0.0,0.0,0.0,-0.0011150912614539266,-0.0041034528985619545,0.0020197187550365925,1.000213623046875,0.0,0.0,0.0,-10.338912010192871,2.928471088409424,6.023720741271973,1871.363525390625,0
1912.8550000000014,-0.024500103667378426,-0.004201507195830345,-0.0012813413050025702,0.0,0.0,0.0,0.0,-0.002530236029997468,0.001067720353603363,9.75938091869466e-05,0.9977343082427979,0.0,0.0,0.0,-10.327561378479004,2.9250900745391846,6.021798133850098,1869.30908203125,0
1922.7560000000012,-0.02447088249027729,-0.004192363936454058,-0.0013480971101671457,0.0,0.0,0.0,0.0,-0.0012749424204230309,0.0026523659471422434,0.001618143985979259,0.9979233741760254,0.0,0.0,0.0,-10.328197479248047,2.934069871902466,6.028173446655273,1869.42431640625,0
1932.6820000000007,-0.02460024319589138,-0.0041284444741904736,-0.001350632170215249,0.0,0.0,0.0,0.0,-0.0024030038621276617,-0.005888443440198898,0.0006075251149013638,0.9989781975746155,0.0,0.0,0.0,-10.329854011535645,2.947374105453491,5.994072914123535,1869.72412109375,0
1942.5790000000015,-0.0246141254901886,-0.004136689472943544,-0.0013810805976390839,0.0,0.0,0.0,0.0,0.0018474534153938293,0.004451287444680929,-0.0008391267620027065,0.9983224868774414,0.0,0.0,0.0,-10.327448844909668,2.950221300125122,5.997560501098633,1869.288818359375,0
1952.4980000000014,-0.02458949387073517,-0.0041358573362231255,-0.0013569591101258993,0.0,0.0,0.0,0.0,0.0015635155141353607,-0.003469574498012662,0.000506375974509865,0.9998641014099121,0.0,0.0,0.0,-10.338507652282715,2.9468607902526855,5.986912250518799,1871.290283203125,0
1962.4050000000007,-0.024648945778608322,-0.004212833475321531,-0.0013560617808252573,0.0,0.0,0.0,0.0,0.0004277641710359603,0.0007234783843159676,-0.0019336547702550888,0.9994616508483887,0.0,0.0,0.0,-10.338029861450195,2.926452875137329,5.9813714027404785,1871.2039794921875,0
1972.3220000000001,-0.024620085954666138,-0.004167575389146805,-0.0013001944171264768,0.0,0.0,0.0,0.0,0.0011005811393260956,-0.00020576252427417785,0.00019115868781227618,0.9987307190895081,0.0,0.0,0.0,-10.34049129486084,2.9357969760894775,5.986527919769287,1871.6495361328125,0
1982.2240000000002,-0.024656997993588448,-0.0042137205600738525,-0.0013150963932275772,0.0,0.0,0.0,0.0,0.0009331578039564192,0.0007295791292563081,0.001631672028452158,0.9993669986724854,0.0,0.0,0.0,-10.337358474731445,2.9251911640167236,5.977789402008057,1871.08251953125,0
1992.1460000000006,-0.024593936279416084,-0.004187670536339283,-0.001257962197996676,0.0,0.0,0.0,0.0,-0.0003645682008937001,-0.00578976608812809,-0.0004903434892185032,1.00007164478302,0.0,0.0,0.0,-10.326709747314453,2.9170992374420166,5.967464447021484,1869.1549072265625,0
2002.0460000000003,-0.024550791829824448,-0.004149621818214655,-0.0013470911653712392,0.0,0.0,0.0,0.0,0.0022865310311317444,0.0019116401672363281,-0.0023014568723738194,1.0008950233459473,0.0,0.0,0.0,-10.327754974365234,2.9317407608032227,5.981951713562012,1869.34423828125,0
2011.973,-0.024579225108027458,-0.00414396682754159,-0.0013357051648199558,0.0,0.0,0.0,0.0,0.0005675241118296981,0.001952591584995389,0.0011367708211764693,1.0007489919662476,0.0,0.0,0.0,-10.341887474060059,2.9328815937042236,5.9791789054870605,1871.902099609375,0
2021.8760000000002,-0.02458767592906952,-0.004147783387452364,-0.0013752385275438428,0.0,0.0,0.0,0.0,-0.0037827256601303816,0.0013698129914700985,0.0007633597706444561,0.9987499713897705,0.0,0.0,0.0,-10.340104103088379,2.9330434799194336,5.970640182495117,1871.579345703125,0
2031.7850000000017,-0.024622155353426933,-0.004149529617279768,-0.0013820587191730738,0.0,0.0,0.0,0.0,0.002731029177084565,-0.0003887956845574081,0.003209625370800495,0.9984949231147766,0.0,0.0,0.0,-10.329760551452637,2.937248468399048,5.9628586769104,1869.70703125,0
2041.6930000000011,-0.024665657430887222,-0.004201868548989296,-0.0013923627557232976,0.0,0.0,0.0,0.0,-0.001405147253535688,0.006554977037012577,0.0026594861410558224,1.0005429983139038,0.0,0.0,0.0,-10.328581809997559,2.9168248176574707,5.958595275878906,1869.4937744140625,0
2051.6150000000016,-0.024546323344111443,-0.004248789045959711,-0.001318283029831946,0.0,0.0,0.0,0.0,0.0031582736410200596,0.0016938101034611464,0.0016803228063508868,1.001676321029663,0.0,0.0,0.0,-10.333137512207031,2.912722110748291,5.978885650634766,1870.318359375,0
2061.5150000000012,-0.02454405650496483,-0.004248854238539934,-0.0013641348341479897,0.0,0.0,0.0,0.0,-0.0029588451143354177,-0.0012614349834620953,0.0010193150956183672,1.0003337860107422,0.0,0.0,0.0,-10.334071159362793,2.9098310470581055,5.968155860900879,1870.4873046875,0
2071.4350000000013,-0.024520616978406906,-0.004245160613209009,-0.0013254029909148812,0.0,0.0,0.0,0.0,-0.0013346616178750992,-0.0006652664160355926,0.002968917367979884,0.9981450438499451,0.0,0.0,0.0,-10.331464767456055,2.9198546409606934,5.972538471221924,1870.0155029296875,0
2081.34,-0.024520063772797585,-0.0042289807461202145,-0.0013587723951786757,0.0,0.0,0.0,0.0,0.000921799975913018,-0.0014741348568350077,0.0008858964429236948,0.9992523789405823,0.0,0.0,0.0,-10.330243110656738,2.924603223800659,5.965351104736328,1869.79443359375,0
2091.263000000001,-0.024546749889850616,-0.004233461804687977,-0.0013620095560327172,0.0,0.0,0.0,0.0,-0.001220758887939155,0.0019692708738148212,-0.0006333343335427344,0.9997515082359314,0.0,0.0,0.0,-10.319931030273438,2.920330286026001,5.9597601890563965,1867.927978515625,0
2101.165000000001,-0.024584930390119553,-0.004268500488251448,-0.0013612675247713923,0.0,0.0,0.0,0.0,-0.0005513014039024711,0.0011152623919770122,0.00018197398458141834,0.9999181628227234,0.0,0.0,0.0,-10.317288398742676,2.9125590324401855,5.946201324462891,1867.44970703125,0
2111.081,-0.024505753070116043,-0.004247400444000959,-0.0012608484830707312,0.0,0.0,0.0,0.0,-0.0022191894240677357,0.0028471751138567924,-1.2496797353378497e-05,1.0003467798233032,0.0,0.0,0.0,-10.319748878479004,2.9250197410583496,5.963496208190918,1867.89501953125,0
2120.9800000000014,-0.024496469646692276,-0.004221857525408268,-0.0013005854561924934,0.0,0.0,0.0,0.0,-0.0008136735996231437,0.004175645764917135,0.0009832680225372314,1.0000804662704468,0.0,0.0,0.0,-10.319398880004883,2.9313766956329346,5.9601874351501465,1867.8316650390625,0
2130.8990000000013,-0.024554673582315445,-0.004169700667262077,-0.0012682704254984856,0.0,0.0,0.0,0.0,-0.0034218495711684227,0.00203309184871614,0.003345246659591794,0.9990936517715454,0.0,0.0,0.0,-10.32301139831543,2.9377639293670654,5.9422173500061035,1868.485595703125,0
2140.8070000000007,-0.024571947753429413,-0.004218176938593388,-0.0013076927280053496,0.0,0.0,0.0,0.0,-0.000718386028893292,-0.0002430401073070243,-0.0006301118992269039,0.9981482625007629,0.0,0.0,0.0,-10.320061683654785,2.9282314777374268,5.941107273101807,1867.9517822265625,0
