timestamp,stateEstimate.x,stateEstimate.y,stateEstimate.z,controller.cmd_thrust,controller.cmd_roll,controller.cmd_pitch,controller.cmd_yaw,controller.r_roll,controller.r_pitch,controller.r_yaw,controller.accelz,controller.actuatorThrust,controller.roll,controller.pitch,controller.yaw,controller.rollRate,controller.pitchRate,controller.yawRate,controller.ctr_yaw
0.0,-0.00011066139995818958,-9.354941721539944e-05,-0.00011243834160268307,0.0,0.0,0.0,0.0,-0.001449772622436285,0.0020168733317404985,-0.0006258873618207872,1.0002444982528687,0.0,0.0,0.0,0.38320866227149963,2.7488343715667725,5.621459484100342,-69.36153411865234,0
9.904000000000451,-7.787108916090801e-05,-0.0001627783349249512,-9.341259283246472e-05,0.0,0.0,0.0,0.0,0.0004603872657753527,-0.00143523293081671,-0.0003222535888198763,0.998581051826477,0.0,0.0,0.0,0.3828335106372833,2.747622489929199,5.613329887390137,-69.29362487792969,0
19.817000000000917,-0.00013295296230353415,-0.00016113212041091174,-0.00011891673057107255,0.0,0.0,0.0,0.0,0.0022348344791680574,-0.005299433134496212,0.0007680425187572837,0.9987669587135315,0.0,0.0,0.0,0.38272523880004883,2.745399236679077,5.61020565032959,-69.2740249633789,0
29.728000000000975,-0.0001079044523066841,-0.0001701304572634399,-6.533489795401692e-05,0.0,0.0,0.0,0.0,0.004177719820290804,0.0017549359472468495,0.0020022981334477663,1.0007686614990234,0.0,0.0,0.0,0.38249024748802185,2.7397279739379883,5.61227560043335,-69.23149871826172,0
39.63600000000042,-0.0001493444142397493,-0.0001530985755380243,-0.00010359417501604185,0.0,0.0,0.0,0.0,-0.0013263055589050055,-0.004424478393048048,-0.004481272306293249,1.0035593509674072,0.0,0.0,0.0,0.3826466500759125,2.727078437805176,5.600713729858398,-69.25980377197266,0
49.548000000000684,-8.775162132224068e-05,-0.0002113084337906912,-6.663175008725375e-05,0.0,0.0,0.0,0.0,-0.002108126413077116,0.0025390852242708206,-0.0005300251650623977,1.0005017518997192,0.0,0.0,0.0,0.3874398171901703,2.72261381149292,5.623575687408447,-70.12738037109375,0
59.45900000000074,-0.00017565753660164773,-0.0002526188036426902,-5.821548984386027e-05,0.0,0.0,0.0,0.0,-0.0018845793092623353,-0.0057957349345088005,0.0033499544952064753,0.9989319443702698,0.0,0.0,0.0,0.38667401671409607,2.722275495529175,5.61216926574707,-69.98876953125,0
69.37199999999939,-0.00011652259854599833,-0.00027589526143856347,5.476136720972136e-06,0.0,0.0,0.0,0.0,0.002832492347806692,-0.0010662300046533346,0.00013679084077011794,0.9978953003883362,0.0,0.0,0.0,0.3870834410190582,2.7249550819396973,5.616949081420898,-70.06287384033203,0
79.28499999999985,-0.00018061681475955993,-0.0002834596671164036,-3.4999502531718463e-06,0.0,0.0,0.0,0.0,9.741730900714174e-05,0.004820778965950012,0.002544088289141655,0.9989817142486572,0.0,0.0,0.0,0.3938670754432678,2.7287261486053467,5.621000289916992,-71.29072570800781,0
89.19300000000112,-0.00018808907771017402,-0.00031003219191916287,4.392482514958829e-05,0.0,0.0,0.0,0.0,-0.0006162291974760592,0.00021124057820998132,-0.0020145601592957973,0.9999143481254578,0.0,0.0,0.0,0.39420971274375916,2.726624011993408,5.606724739074707,-71.35273742675781,0
99.10800000000017,-0.0001692971563898027,-0.00022437467123381793,-4.452951907296665e-05,0.0,0.0,0.0,0.0,0.0013417638838291168,0.0024954439140856266,0.00241471198387444,0.9985272884368896,0.0,0.0,0.0,0.3929819166660309,2.7224411964416504,5.600232124328613,-71.1305160522461,0
109.02000000000044,-0.000218210814637132,-0.00019819263252429664,1.2666420843743253e-05,0.0,0.0,0.0,0.0,-0.001436914666555822,0.003215168137103319,-0.003957725130021572,1.0014070272445679,0.0,0.0,0.0,0.39372438192367554,2.718491315841675,5.587444305419922,-71.264892578125,0
118.9359999999997,-0.00021870352793484926,-0.00014290257240645587,-6.603042129427195e-05,0.0,0.0,0.0,0.0,0.0023148912005126476,-0.004189269617199898,0.002647183369845152,1.0008083581924438,0.0,0.0,0.0,0.3925054371356964,2.7190024852752686,5.573879718780518,-71.04426574707031,0
128.84300000000076,-0.00021013792138546705,-0.00018424510199110955,-3.594944064388983e-05,0.0,0.0,0.0,0.0,-0.0009433467057533562,-0.004860614892095327,0.0017482527764514089,0.9997090101242065,0.0,0.0,0.0,0.4018488824367523,2.7165451049804688,5.594240188598633,-72.7354507446289,0
138.7530000000006,-0.00018733882461674511,-0.00011098266986664385,-0.00014002644456923008,0.0,0.0,0.0,0.0,0.0006287395372055471,0.0036171928513795137,-0.003203968284651637,1.0012671947479248,0.0,0.0,0.0,0.4019069969654083,2.7226274013519287,5.5967864990234375,-72.74596405029297,0
148.66100000000006,-0.0001833247661124915,-0.00010000001930166036,-7.968538557179272e-05,0.0,0.0,0.0,0.0,-0.0009751634788699448,0.004769874736666679,-0.0034679926466196775,1.0017173290252686,0.0,0.0,0.0,0.4006732404232025,2.7203006744384766,5.5835652351379395,-72.52265167236328,0
158.57500000000073,-0.00021884642774239182,-8.976423123385757e-05,-0.00012620628695003688,0.0,0.0,0.0,0.0,0.0014551866333931684,-0.0043772803619503975,0.0004951431765221059,0.9996299743652344,0.0,0.0,0.0,0.4005424678325653,2.717992067337036,5.567131519317627,-72.49897766113281,0
168.48999999999978,-9.95556401903741e-05,-0.0001613660715520382,-7.82563874963671e-05,0.0,0.0,0.0,0.0,0.0003155032463837415,0.0016121640801429749,-0.001813153037801385,1.0005712509155273,0.0,0.0,0.0,0.4015674591064453,2.714045524597168,5.572976112365723,-72.68450164794922,0
178.39700000000084,-0.0001791667309589684,-0.00017088749154936522,-6.223044329090044e-05,0.0,0.0,0.0,0.0,5.864931154064834e-05,0.00230104336515069,-0.0033520376309752464,1.0003854036331177,0.0,0.0,0.0,0.39996591210365295,2.7097644805908203,5.5623250007629395,-72.39462280273438,0
188.3119999999999,-0.00014427171845454723,-0.00021857341926079243,-1.3706685422221199e-05,0.0,0.0,0.0,0.0,0.0021239593625068665,-0.0037860414013266563,-0.002807505428791046,1.0007282495498657,0.0,0.0,0.0,0.3992607891559601,2.7043402194976807,5.546573638916016,-72.26699829101562,0
198.21900000000096,-0.00017629220383241773,-0.00019192986655980349,-4.7773497499292716e-05,0.0,0.0,0.0,0.0,-0.000991836772300303,0.0017197639681398869,0.00045459347893483937,0.9987234473228455,0.0,0.0,0.0,0.39808931946754456,2.697004556655884,5.545549392700195,-72.0549545288086,0
208.13400000000001,-0.00016163197869900614,-0.00022639299277216196,2.434785074001411e-06,0.0,0.0,0.0,0.0,-0.0032091792672872543,-0.00319469440728426,3.191233554389328e-05,0.998696506023407,0.0,0.0,0.0,0.3976976275444031,2.6985366344451904,5.5368146896362305,-71.98405456542969,0
218.04500000000007,-0.00016333130770362914,-0.00016194896306842566,-5.976254033157602e-05,0.0,0.0,0.0,0.0,0.0017368131084367633,-0.0008990031783469021,-0.0012632753932848573,0.9997704029083252,0.0,0.0,0.0,0.39785921573638916,2.7001562118530273,5.542422771453857,-72.0133056640625,0
227.95299999999952,-0.00013579960796050727,-0.00022807426284998655,-3.8447131373686716e-05,0.0,0.0,0.0,0.0,0.0007638187962584198,-0.0037082978524267673,0.002903864486142993,0.999822735786438,0.0,0.0,0.0,0.3976370096206665,2.6948769092559814,5.542085647583008,-71.97308349609375,0
237.8690000000006,-0.00014752997958566993,-0.00017103692516684532,-9.303343540523201e-05,0.0,0.0,0.0,0.0,-0.003571150591596961,-0.0013876032317057252,0.0011540481355041265,0.9995217323303223,0.0,0.0,0.0,0.3984212875366211,2.695690870285034,5.549865245819092,-72.11503601074219,0
247.77800000000025,-8.311426063301042e-05,-0.00021504529286175966,-5.162907837075181e-05,0.0,0.0,0.0,0.0,0.0007155989296734333,-0.002352299401536584,-0.002015087753534317,1.0014450550079346,0.0,0.0,0.0,0.39803841710090637,2.703881025314331,5.547105312347412,-72.04573822021484,0
257.6890000000003,-0.00011174363316968083,-0.00016532227164134383,-8.663832704769447e-05,0.0,0.0,0.0,0.0,0.0033442354761064053,-0.002194727072492242,0.005509738344699144,1.0019769668579102,0.0,0.0,0.0,0.39677518606185913,2.6981687545776367,5.547536373138428,-71.81710052490234,0
267.60200000000077,-8.447144500678405e-05,-0.0001703507441561669,-2.5505152734695002e-05,0.0,0.0,0.0,0.0,0.00259666726924479,0.0018894871463999152,-0.0012022298760712147,0.999138355255127,0.0,0.0,0.0,0.39768412709236145,2.6897830963134766,5.548739910125732,-71.98162078857422,0
277.5110000000004,-0.00011462908878456801,-0.0001414292783010751,-6.432672671508044e-05,0.0,0.0,0.0,0.0,0.0001704761671135202,-0.006252886261790991,-0.00480319419875741,1.001657485961914,0.0,0.0,0.0,0.39726853370666504,2.683835506439209,5.544703960418701,-71.9063949584961,0
287.4320000000007,-7.362383621511981e-05,-0.00014883209951221943,-1.2649888958549127e-06,0.0,0.0,0.0,0.0,-0.0022650929167866707,0.0016568442806601524,-0.0006692470633424819,1.0015870332717896,0.0,0.0,0.0,0.3962075710296631,2.6823890209198,5.550053119659424,-71.71435546875,0
297.33500000000095,-0.00010599967936286703,-0.00011713141429936513,-3.357838068041019e-05,0.0,0.0,0.0,0.0,-7.719332643318921e-05,0.005241458769887686,0.0012019745772704482,1.0012537240982056,0.0,0.0,0.0,0.3955363929271698,2.6811749935150146,5.538324356079102,-71.5928726196289,0
307.2450000000008,-8.258959860540926e-05,-0.0001892224099719897,-1.1199699656572193e-05,0.0,0.0,0.0,0.0,0.001503403065726161,0.0018363746348768473,-0.0055841486901044846,0.9988542795181274,0.0,0.0,0.0,0.39504310488700867,2.675952196121216,5.520392894744873,-71.50359344482422,0
317.16200000000026,-6.687286077067256e-05,-5.9506310208234936e-05,-7.196032674983144e-05,0.0,0.0,0.0,0.0,0.0015430948697030544,0.0033346503041684628,0.002396085299551487,0.9997518658638,0.0,0.0,0.0,0.3926747441291809,2.670315980911255,5.513060092926025,-71.07490539550781,0
327.08300000000054,-8.613692625658587e-05,-7.37831142032519e-05,-2.9224989702925086e-05,0.0,0.0,0.0,0.0,0.00029495570925064385,0.0010521552758291364,-0.001232768758200109,0.9992424249649048,0.0,0.0,0.0,0.3845672011375427,2.6736323833465576,5.512361526489258,-69.60742950439453,0
336.9889999999996,-0.0001557967480039224,-9.050195512827486e-05,-4.1374278225703165e-05,0.0,0.0,0.0,0.0,-0.0021613501012325287,-0.0010863374918699265,-0.00045868082088418305,0.9998354911804199,0.0,0.0,0.0,0.3841933310031891,2.6708133220672607,5.508166313171387,-69.53975677490234,0
346.91200000000026,-0.0001539627555757761,-0.00013813597615808249,-8.008344593690708e-06,0.0,0.0,0.0,0.0,0.0037346568424254656,0.0013642413541674614,-0.0015701812226325274,0.9982701539993286,0.0,0.0,0.0,0.3838166296482086,2.6746761798858643,5.503206253051758,-69.4715805053711,0
356.8099999999995,-0.00017755126464180648,-9.242298256140202e-05,-6.200992356752977e-05,0.0,0.0,0.0,0.0,-0.0003346759476698935,0.0017020396189764142,-0.0008596738916821778,1.0005723237991333,0.0,0.0,0.0,0.38355615735054016,2.667039155960083,5.494634628295898,-69.42443084716797,0
366.72400000000016,-0.0001863194047473371,-0.00013997178757563233,-4.436289964360185e-05,0.0,0.0,0.0,0.0,-0.00041515257908031344,-0.002557182451710105,0.004347821697592735,1.000859022140503,0.0,0.0,0.0,0.388712078332901,2.6632604598999023,5.500326156616211,-70.357666015625,0
376.63900000000103,-0.00022941073984839022,-0.00011622552119661123,-8.378729398828e-05,0.0,0.0,0.0,0.0,0.0009107070509344339,-0.0008498491370119154,0.0025423357728868723,1.0006414651870728,0.0,0.0,0.0,0.3899596035480499,2.659832239151001,5.5033745765686035,-70.58346557617188,0
386.54399999999987,-0.00015041015285532922,-0.00018963772163260728,-5.125001916894689e-05,0.0,0.0,0.0,0.0,-0.0032881763763725758,0.0010347372153773904,-0.0021538459695875645,1.0001602172851562,0.0,0.0,0.0,0.3956623077392578,2.6485934257507324,5.51860237121582,-71.61566162109375,0
396.45900000000074,-0.00018750657909549773,-0.00016162809333764017,-8.864383562467992e-05,0.0,0.0,0.0,0.0,-0.00433210888877511,-0.003758432110771537,0.0025473986752331257,1.0011224746704102,0.0,0.0,0.0,0.39455869793891907,2.650986671447754,5.5081868171691895,-71.41590881347656,0
406.3760000000002,-0.00010056994506157935,-0.00022050990082789212,-4.195738802081905e-05,0.0,0.0,0.0,0.0,-0.0025681008119136095,-0.0019545862451195717,-0.0005686269723810256,1.000292420387268,0.0,0.0,0.0,0.39425167441368103,2.6569206714630127,5.509642124176025,-71.3603286743164,0
416.28100000000086,-0.00012387250899337232,-0.00017756185843609273,-8.460559911327437e-05,0.0,0.0,0.0,0.0,0.0015096489805728197,-0.001459953491576016,0.0004455065936781466,0.9989777207374573,0.0,0.0,0.0,0.3938426673412323,2.660521984100342,5.508871078491211,-71.28630065917969,0
426.1930000000011,-0.00011711433762684464,-0.00020899862283840775,-4.218836693326011e-05,0.0,0.0,0.0,0.0,-0.0010923799127340317,0.00048307006363756955,-0.005092686973512173,0.9994510412216187,0.0,0.0,0.0,0.39337924122810364,2.661067247390747,5.509019374847412,-71.20242309570312,0
436.10100000000057,-0.0001962551032193005,-0.00021494475367944688,-2.27954860747559e-05,0.0,0.0,0.0,0.0,0.0012886454351246357,-0.002306939335539937,-0.00277237338013947,0.999961256980896,0.0,0.0,0.0,0.3920138478279114,2.6586873531341553,5.496820449829102,-70.95528411865234,0
446.0149999999994,-0.0001223847211804241,-0.00023308774689212441,4.959046782460064e-05,0.0,0.0,0.0,0.0,0.002232289407402277,0.0016353282844647765,0.0002961655263788998,1.0003045797348022,0.0,0.0,0.0,0.39120009541511536,2.6508142948150635,5.4921464920043945,-70.80799865722656,0
455.9359999999997,-0.00016801241145003587,-0.00019910375704057515,4.636780795408413e-05,0.0,0.0,0.0,0.0,-0.002301127417013049,-0.0016089424025267363,0.0033096992410719395,1.000284194946289,0.0,0.0,0.0,0.39148521423339844,2.6381406784057617,5.485501766204834,-70.85961151123047,0
465.83899999999994,-0.00015533875557594,-0.00023083266569301486,9.295939526055008e-05,0.0,0.0,0.0,0.0,9.434757521376014e-05,-0.0053838393650949,-0.0008607615600340068,0.9993868470191956,0.0,0.0,0.0,0.39229729771614075,2.6378278732299805,5.485069274902344,-71.006591796875,0
475.7489999999998,-0.0001526580745121464,-0.00017447824939154088,3.0343986509251408e-05,0.0,0.0,0.0,0.0,0.0035732334945350885,0.0001872781867859885,0.003020895877853036,0.9994983077049255,0.0,0.0,0.0,0.39171653985977173,2.6377146244049072,5.489808559417725,-70.90147399902344,0
485.6650000000009,-0.00014984258450567722,-0.000193998304894194,7.856986485421658e-05,0.0,0.0,0.0,0.0,0.0011674013221636415,0.0022225091233849525,-0.0011097581591457129,0.9995324611663818,0.0,0.0,0.0,0.38171830773353577,2.632331371307373,5.494143009185791,-69.09176635742188,0
495.5730000000003,-0.00010354594996897504,-6.503746408270672e-05,-2.1610980184050277e-05,0.0,0.0,0.0,0.0,-0.0013841857435181737,-0.0034539063926786184,0.0012936701532453299,0.9987522959709167,0.0,0.0,0.0,0.3808552622795105,2.623964548110962,5.484681606292725,-68.93556213378906,0
505.491,-0.00016422313638031483,-0.00011979250848526135,-2.878725717891939e-05,0.0,0.0,0.0,0.0,0.0003230137808714062,0.0009864639723673463,-0.0032759385649114847,0.9996964931488037,0.0,0.0,0.0,0.38092151284217834,2.6256256103515625,5.48663330078125,-68.94755554199219,0
515.3970000000008,-0.00020375505846459419,-6.667961133643985e-05,-5.72934586671181e-05,0.0,0.0,0.0,0.0,-0.00045827453141100705,-0.0030955595429986715,0.004354768432676792,0.9969725012779236,0.0,0.0,0.0,0.37974974513053894,2.620690107345581,5.478274345397949,-68.73545837402344,0
525.3109999999997,-0.00011537234240677208,-0.0001542476238682866,-3.1385308830067515e-05,0.0,0.0,0.0,0.0,-0.00048781605437397957,-0.0003163788642268628,0.002817841013893485,0.999261200428009,0.0,0.0,0.0,0.3800196945667267,2.6169493198394775,5.475085258483887,-68.7843246459961,0
535.2199999999993,-0.00016675060032866895,-0.00014664223999716341,-6.812618084950373e-05,0.0,0.0,0.0,0.0,-0.0008745650411583483,-0.0014373669400811195,-0.001316745299845934,1.0002838373184204,0.0,0.0,0.0,0.38071054220199585,2.6127431392669678,5.465156078338623,-68.90936279296875,0
545.1329999999998,-0.00018910922517534345,-0.00016645256255287677,-4.411852569319308e-05,0.0,0.0,0.0,0.0,-0.0006161046330817044,-0.004132371861487627,0.004173189867287874,0.9984676241874695,0.0,0.0,0.0,0.38611602783203125,2.611056327819824,5.464192867279053,-69.88776397705078,0
555.0460000000003,-0.00021185197692830116,-8.600359433330595e-05,-9.657195187173784e-05,0.0,0.0,0.0,0.0,-0.0008538030670024455,-0.003148994641378522,0.005832974333316088,0.9977912306785583,0.0,0.0,0.0,0.38683435320854187,2.6082775592803955,5.467414379119873,-70.01778411865234,0
564.9629999999997,-0.00015792384510859847,-0.0001696476829238236,-8.299865294247866e-05,0.0,0.0,0.0,0.0,-0.0023980699479579926,0.0020241232123225927,-0.004351330455392599,1.0016659498214722,0.0,0.0,0.0,0.3939492106437683,2.5974197387695312,5.488442897796631,-71.30558776855469,0
574.8719999999994,-0.00019268326286692172,-0.00012743077240884304,-0.00013782417227048427,0.0,0.0,0.0,0.0,-0.0009303696569986641,-0.002912751166149974,-0.003070780308917165,1.001369595527649,0.0,0.0,0.0,0.393105149269104,2.6022093296051025,5.48297643661499,-71.1528091430664,0
584.7810000000009,-0.00014605779142584652,-0.00015339873789343983,-8.382514351978898e-05,0.0,0.0,0.0,0.0,-0.0011983418371528387,0.00017941377882380038,0.000939428573474288,1.0016460418701172,0.0,0.0,0.0,0.3830231726169586,2.6063971519470215,5.503350257873535,-69.32795715332031,0
594.6900000000005,-0.00022846613137517124,-0.000145276659168303,-7.718720735283569e-05,0.0,0.0,0.0,0.0,0.0011822395026683807,0.000453413522336632,-0.0022094487212598324,0.999518871307373,0.0,0.0,0.0,0.38376522064208984,2.606775999069214,5.496057987213135,-69.46226501464844,0
604.598,-0.00015243698726408184,-0.00019563108799047768,-1.9511960999807343e-05,0.0,0.0,0.0,0.0,-0.000630964117590338,0.004219554364681244,0.00038189024780876935,1.0006816387176514,0.0,0.0,0.0,0.38283950090408325,2.6037631034851074,5.491631031036377,-69.29470825195312,0
614.5169999999998,-0.00023682834580540657,-0.00019503451767377555,-4.641307896235958e-06,0.0,0.0,0.0,0.0,-0.00048793337191455066,0.0012266431003808975,0.0005981182912364602,0.9997573494911194,0.0,0.0,0.0,0.382485568523407,2.603794813156128,5.479636192321777,-69.23065185546875,0
624.4210000000003,-0.00018100238230545074,-0.00022980268113315105,6.216325709829107e-05,0.0,0.0,0.0,0.0,0.0008014511549845338,-0.0052959853783249855,0.0012206812389194965,0.9999958872795105,0.0,0.0,0.0,0.37422865629196167,2.607355833053589,5.501282691955566,-67.73612976074219,0
634.335000000001,-0.00024109853256959468,-0.00021155821741558611,5.66229282412678e-05,0.0,0.0,0.0,0.0,0.002309498144313693,-0.0014547689352184534,0.0002116755786119029,0.9999442100524902,0.0,0.0,0.0,0.37404462695121765,2.6059200763702393,5.511030197143555,-67.70282745361328,0
644.246000000001,-0.00016556355694774538,-0.00024141799076460302,0.00013370392844080925,0.0,0.0,0.0,0.0,-0.001148527953773737,-0.0009020013967528939,0.0024535725824534893,0.9982591271400452,0.0,0.0,0.0,0.37420105934143066,2.600487470626831,5.502508163452148,-67.73114013671875,0
654.1589999999997,-0.0001766035275068134,-0.00019782557501457632,7.334884139709175e-05,0.0,0.0,0.0,0.0,0.002066969405859709,-0.0024368688464164734,0.0031776251271367073,0.9993339776992798,0.0,0.0,0.0,0.37468916177749634,2.601144552230835,5.496473789215088,-67.81948852539062,0
664.0689999999995,-0.00012830804917030036,-0.00022730068303644657,0.00013795637642033398,0.0,0.0,0.0,0.0,-0.002549972152337432,-0.003209332935512066,0.0016275254311040044,1.0010795593261719,0.0,0.0,0.0,0.3746377229690552,2.59175443649292,5.493474960327148,-67.81016540527344,0
673.9809999999998,-0.000140400166856125,-0.00018785915744956583,7.837515295250341e-05,0.0,0.0,0.0,0.0,0.0010389684466645122,-0.0003711497993208468,0.004979684017598629,0.9994897842407227,0.0,0.0,0.0,0.3750697374343872,2.5925607681274414,5.486360549926758,-67.88836669921875,0
683.8960000000006,-0.0001526384730823338,-0.00022424064809456468,0.0001189421527669765,0.0,0.0,0.0,0.0,0.0017345324158668518,0.0026301625184714794,-0.0023847746197134256,1.0010523796081543,0.0,0.0,0.0,0.3695511519908905,2.588852643966675,5.49787712097168,-66.88949584960938,0
693.8080000000009,-0.00014730755356140435,-0.0001320074952673167,5.4700623877579346e-05,0.0,0.0,0.0,0.0,0.0011015527416020632,-0.0022097367327660322,-0.0009928358485922217,1.0009739398956299,0.0,0.0,0.0,0.3678489029407501,2.5849549770355225,5.488765239715576,-66.58137512207031,0
703.7139999999999,-0.00010238942923024297,-0.00016252699424512684,0.00011430988524807617,0.0,0.0,0.0,0.0,0.0010348436189815402,-0.002155816648155451,0.0015590016264468431,0.9983886480331421,0.0,0.0,0.0,0.3670787215232849,2.583112955093384,5.488149166107178,-66.44197082519531,0
713.6309999999994,-0.00013136561028659344,-0.00011551979696378112,7.69157413742505e-05,0.0,0.0,0.0,0.0,0.0006790251936763525,0.004754536785185337,0.0008263510535471141,1.000822901725769,0.0,0.0,0.0,0.3678831458091736,2.581784725189209,5.490474700927734,-66.58757781982422,0
723.5360000000001,-0.00013642995327245444,-0.00018639529298525304,0.00010004732757806778,0.0,0.0,0.0,0.0,-0.00265470240265131,-0.0019860726315528154,-0.00354094710201025,0.9977322816848755,0.0,0.0,0.0,0.36773809790611267,2.5770010948181152,5.47579288482666,-66.56132507324219,0
733.4549999999999,-0.0001141378961619921,-0.0001184291104436852,-1.0352467143093236e-05,0.0,0.0,0.0,0.0,0.0036613615229725838,-0.001523866900242865,-0.00031182888778857887,0.9984415769577026,0.0,0.0,0.0,0.3666023910045624,2.5764143466949463,5.472593784332275,-66.35576629638672,0
743.3600000000006,-0.0001393657294102013,-0.0001733983081066981,6.510948878712952e-06,0.0,0.0,0.0,0.0,-0.0036814066115766764,-0.0022251857444643974,0.0037293557543307543,0.9988007545471191,0.0,0.0,0.0,0.3663094937801361,2.5693745613098145,5.472896575927734,-66.30274963378906,0
753.273000000001,-0.00013259562547318637,-9.261697414331138e-05,-8.256788714788854e-05,0.0,0.0,0.0,0.0,0.0003349814796820283,-0.006793057546019554,-0.00045451810001395643,1.0010963678359985,0.0,0.0,0.0,0.3669617474079132,2.5772602558135986,5.4753899574279785,-66.4207992553711,0
763.1769999999997,-0.00012834394874516875,-0.00014336491585709155,-5.924905781284906e-05,0.0,0.0,0.0,0.0,0.0018779045203700662,0.0008207876235246658,0.002139636781066656,1.0004878044128418,0.0,0.0,0.0,0.3670593798160553,2.571134090423584,5.4846601486206055,-66.4384765625,0
773.098,-0.00011692839325405657,-4.521507798926905e-05,-0.0001490795548306778,0.0,0.0,0.0,0.0,-0.00240315985865891,-0.0001472407311666757,-0.002102261409163475,0.9996635317802429,0.0,0.0,0.0,0.3669757843017578,2.5658950805664062,5.477104187011719,-66.42333984375,0
783.0010000000002,-0.00010564659896772355,-0.00010176965588470921,-0.00013208836026024073,0.0,0.0,0.0,0.0,-0.001141559099778533,-0.0010981056839227676,0.0010849881218746305,1.0030149221420288,0.0,0.0,0.0,0.36579835414886475,2.562567710876465,5.46795129776001,-66.21023559570312,0
792.9200000000001,-0.00017528323223814368,-9.478536958340555e-05,-0.00014541334530804306,0.0,0.0,0.0,0.0,0.001783098210580647,0.0019195195054635406,0.0007233566138893366,1.000037670135498,0.0,0.0,0.0,0.36580294370651245,2.560075521469116,5.465572357177734,-66.2110595703125,0
802.8209999999999,-0.00015601412451360375,-0.0001439089246559888,-0.00011520703992573544,0.0,0.0,0.0,0.0,0.00059065519599244,0.0017117602983489633,-0.0017820645589381456,1.0008653402328491,0.0,0.0,0.0,0.3659631311893463,2.5549418926239014,5.458017349243164,-66.24005126953125,0
812.7430000000004,-0.0002014550263993442,-0.0001252993242815137,-0.00015303418331313878,0.0,0.0,0.0,0.0,-0.0018081213347613811,-0.0032145027071237564,0.00012722723477054387,0.9995830059051514,0.0,0.0,0.0,0.36649763584136963,2.547926187515259,5.449950695037842,-66.33679962158203,0
822.6440000000002,-9.383386350236833e-05,-0.00014426735287997872,-7.521556835854426e-05,0.0,0.0,0.0,0.0,0.0001543355465400964,-0.0009533117990940809,-0.0018029330531135201,1.00038480758667,0.0,0.0,0.0,0.36581310629844666,2.545675754547119,5.447454452514648,-66.21289825439453,0
832.5770000000011,-0.000142194505315274,-0.00013726569886785,-0.00010323487367713824,0.0,0.0,0.0,0.0,-0.000777011679019779,0.002849538577720523,0.002166805788874626,0.9991282820701599,0.0,0.0,0.0,0.36495715379714966,2.5415103435516357,5.439505577087402,-66.05796813964844,0
842.4670000000006,-8.271221304312348e-05,-0.00019746451289393008,-6.433844100683928e-05,0.0,0.0,0.0,0.0,0.0017728275852277875,-0.001982086803764105,-0.0012841683346778154,0.999481201171875,0.0,0.0,0.0,0.36569514870643616,2.5433671474456787,5.427540302276611,-66.1915512084961,0
852.389000000001,-0.00011710645776474848,-0.00017514654609840363,-0.00010473070142325014,0.0,0.0,0.0,0.0,0.0036447441671043634,0.00046503747580572963,0.0008603964233770967,1.0004831552505493,0.0,0.0,0.0,0.3649221658706665,2.538106679916382,5.42233419418335,-66.0516357421875,0
862.2900000000009,-0.00012406747555360198,-0.00020583489094860852,-6.569021206814796e-05,0.0,0.0,0.0,0.0,0.002364742336794734,-0.004583992995321751,-0.0013675510417670012,1.0021134614944458,0.0,0.0,0.0,0.36449161171913147,2.5325381755828857,5.409783363342285,-65.97370910644531,0
872.2129999999997,-0.00015549882664345205,-0.00013919919729232788,-9.080182644538581e-05,0.0,0.0,0.0,0.0,-0.001639641122892499,-0.0004306477203499526,0.0023604389280080795,1.0012770891189575,0.0,0.0,0.0,0.3643743693828583,2.5314114093780518,5.417329788208008,-65.9524917602539,0
882.1129999999994,-0.0001513767201686278,-0.00017872473108582199,-4.928349153487943e-05,0.0,0.0,0.0,0.0,0.00046793126966804266,-0.001567697967402637,0.00031807745108380914,0.9991323351860046,0.0,0.0,0.0,0.3643939197063446,2.53031849861145,5.416558742523193,-65.95602416992188,0
892.0419999999995,-0.00017556941020302474,-0.00013224329450167716,-9.67157247941941e-05,0.0,0.0,0.0,0.0,0.0010911001591011882,0.001905566779896617,-0.0020562775898724794,0.9992290139198303,0.0,0.0,0.0,0.36272183060646057,2.523829698562622,5.413582801818848,-65.65337371826172,0
901.9359999999997,-0.00018490201910026371,-0.00011937643284909427,-3.190002098563127e-05,0.0,0.0,0.0,0.0,-0.0024516144767403603,-0.002162971068173647,0.002988027408719063,0.9994564652442932,0.0,0.0,0.0,0.3617967367172241,2.5205442905426025,5.403726100921631,-65.48593139648438,0
911.8590000000004,-0.00021750877203885466,-0.00010360474698245525,-8.300752961076796e-05,0.0,0.0,0.0,0.0,0.0028420111630111933,0.0007040188065730035,-0.002955604810267687,0.9986968040466309,0.0,0.0,0.0,0.3693159520626068,2.531933546066284,5.4129509925842285,-66.846923828125,0
921.7600000000002,-0.00019240356050431728,-0.00015199999324977398,-4.53803404525388e-05,0.0,0.0,0.0,0.0,0.001406493945978582,0.0023777266032993793,-0.0013794313417747617,0.9998629689216614,0.0,0.0,0.0,0.3681049048900604,2.522653102874756,5.410070419311523,-66.62771606445312,0
931.6790000000001,-0.00021960452431812882,-0.00012759746459778398,-0.00010448499961057678,0.0,0.0,0.0,0.0,0.0011816313490271568,0.002451634733006358,-0.0026383826043456793,0.999480664730072,0.0,0.0,0.0,0.36759433150291443,2.52016019821167,5.403885841369629,-66.5353012084961,0
941.5830000000005,-0.00014856416964903474,-0.0001980107044801116,-5.426675852504559e-05,0.0,0.0,0.0,0.0,0.0017563767032697797,-0.0006627999246120453,-0.001014665118418634,0.9978176951408386,0.0,0.0,0.0,0.36709973216056824,2.5165274143218994,5.396543502807617,-66.4457778930664,0
951.505000000001,-0.0001688502379693091,-0.00016139488434419036,-0.00011715650907717645,0.0,0.0,0.0,0.0,0.0018250254215672612,-0.002558067673817277,0.0037225098349153996,0.9984347224235535,0.0,0.0,0.0,0.36657822132110596,2.5090668201446533,5.392879009246826,-66.35138702392578,0
961.4060000000009,-0.00011975188681390136,-9.973145643016323e-05,-0.00012662239896599203,0.0,0.0,0.0,0.0,0.0030550677329301834,-0.0035465338733047247,-0.001475957571528852,1.0004100799560547,0.0,0.0,0.0,0.37604373693466187,2.5099947452545166,5.403136730194092,-68.0646743774414,0
971.3250000000007,-0.00021046295296400785,-0.00014721188927069306,-0.00013183259579818696,0.0,0.0,0.0,0.0,-0.002437971532344818,0.0053377170115709305,0.002020185347646475,0.999719500541687,0.0,0.0,0.0,0.3760426342487335,2.5025792121887207,5.407142639160156,-68.06446838378906,0
981.237000000001,-5.6971712183440104e-05,-0.00011287269444437698,-0.00013204137212596834,0.0,0.0,0.0,0.0,0.0014106407761573792,0.0021260716021060944,-0.004473356530070305,1.0006035566329956,0.0,0.0,0.0,0.37714794278144836,2.5067238807678223,5.390517234802246,-68.2645263671875,0
991.1550000000007,-0.00015700313088018447,-0.00016720070561859757,-0.0001369995006825775,0.0,0.0,0.0,0.0,-0.0026815200690180063,0.00041973398765549064,0.000250459648668766,0.9997453689575195,0.0,0.0,0.0,0.3749983012676239,2.5017383098602295,5.385094165802002,-67.87544250488281,0
1001.0550000000003,-0.00010634298814693466,-0.00012538267765194178,-0.00015013170195743442,0.0,0.0,0.0,0.0,-0.0005996146355755627,-0.0021334427874535322,-0.00014032531180419028,1.0004863739013672,0.0,0.0,0.0,0.3751588463783264,2.4998340606689453,5.380013465881348,-67.90449523925781,0
1010.9740000000002,-0.00020048166334163398,-0.00017546600429341197,-0.0001547774882055819,0.0,0.0,0.0,0.0,0.0005876412033103406,-0.0048087649047374725,0.0017024088883772492,1.0013610124588013,0.0,0.0,0.0,0.37528732419013977,2.4940152168273926,5.3798675537109375,-67.92774963378906,0
1020.8780000000006,-0.000104179373010993,-0.0001357613073196262,-5.74496625631582e-05,0.0,0.0,0.0,0.0,-0.00027085529291071,0.004971004091203213,-0.0012459480203688145,1.0004851818084717,0.0,0.0,0.0,0.375883549451828,2.489305257797241,5.385341644287109,-68.03567504882812,0
1030.8019999999997,-0.00019938532204832882,-0.00018480149446986616,-5.1482445996953174e-05,0.0,0.0,0.0,0.0,-0.001077274326235056,-0.0060827950946986675,-0.0014985478483140469,0.9994723200798035,0.0,0.0,0.0,0.37578853964805603,2.484487771987915,5.368988990783691,-68.01847076416016,0
1040.701000000001,-0.00011573028314160183,-0.00020471254538279027,-8.224432690440153e-07,0.0,0.0,0.0,0.0,-0.001557803014293313,-0.001321087940596044,-0.0016976556507870555,1.0013669729232788,0.0,0.0,0.0,0.3751281797885895,2.484529972076416,5.375389575958252,-67.8989486694336,0
1050.6090000000004,-0.0002113707596436143,-0.0002553050289861858,9.429963029106148e-06,0.0,0.0,0.0,0.0,-0.0004202908603474498,0.00411432608962059,-0.0034828560892492533,0.9989137053489685,0.0,0.0,0.0,0.37370702624320984,2.481428861618042,5.380322456359863,-67.64171600341797,0
1060.5259999999998,-0.00011941276170546189,-0.0002136095572495833,6.594968726858497e-05,0.0,0.0,0.0,0.0,8.905304275685921e-05,0.0002678710734471679,0.002338595688343048,0.997250497341156,0.0,0.0,0.0,0.36595213413238525,2.487285614013672,5.395667552947998,-66.2380599975586,0
1070.438,-0.00021312717581167817,-0.00026212327065877616,7.859990000724792e-05,0.0,0.0,0.0,0.0,-0.001583893084898591,0.001728161470964551,-0.0016728938790038228,1.0002421140670776,0.0,0.0,0.0,0.36673101782798767,2.484262704849243,5.386086940765381,-66.37904357910156,0
1080.3500000000004,-6.57824202789925e-05,-0.00018146881484426558,1.616176450625062e-05,0.0,0.0,0.0,0.0,0.004076716024428606,-0.004059093538671732,0.000246046285610646,0.998350977897644,0.0,0.0,0.0,0.36548811197280884,2.48749041557312,5.376705646514893,-66.1540756225586,0
1090.255000000001,-0.00015889081987552345,-0.00022996150073595345,2.1216459572315216e-05,0.0,0.0,0.0,0.0,-0.0025024551432579756,0.0017529589822515845,-0.0006347520975396037,1.0018823146820068,0.0,0.0,0.0,0.3652494251728058,2.4764063358306885,5.375888347625732,-66.11087799072266,0
1100.1710000000003,-0.000172049505636096,-0.00016321265138685703,-4.14071291743312e-05,0.0,0.0,0.0,0.0,-0.0009044346516020596,-0.0006148373358882964,0.0020974294748157263,0.9990101456642151,0.0,0.0,0.0,0.3650524318218231,2.4795010089874268,5.363279819488525,-66.0752182006836,0
1110.0820000000003,-0.00026578368851915,-0.00020916713401675224,-4.0517948946217075e-05,0.0,0.0,0.0,0.0,0.0010252698557451367,0.004301389213651419,-0.0004499184724409133,0.9993406534194946,0.0,0.0,0.0,0.3654327690601349,2.4756553173065186,5.357096195220947,-66.14405822753906,0
1119.991,-0.00027903239242732525,-0.00013302550360094756,-0.000106848769064527,0.0,0.0,0.0,0.0,-0.0017229561926797032,-0.003982407972216606,0.004074511583894491,1.0000536441802979,0.0,0.0,0.0,0.36487749218940735,2.5104551315307617,5.387142181396484,-66.0435562133789,0
1129.902,-0.0003695993800647557,-0.00017454198678024113,-0.00011219947919016704,0.0,0.0,0.0,0.0,-0.0006981652695685625,-0.0011078414972871542,0.0021531146485358477,0.9994176626205444,0.0,0.0,0.0,0.36489325761795044,2.51132869720459,5.392630577087402,-66.0464096069336,0
1139.8180000000011,-0.0003684645635075867,-0.00010422626655781642,-0.00018622838251758367,0.0,0.0,0.0,0.0,-0.0025402081664651632,0.003345533972606063,0.0014625288313254714,1.0002899169921875,0.0,0.0,0.0,0.36386722326278687,2.5545082092285156,5.445664882659912,-65.86068725585938,0
1149.7250000000004,-0.00045339876669459045,-0.00013928514090366662,-0.00019738734408747405,0.0,0.0,0.0,0.0,-0.001793708885088563,-0.005185432732105255,0.0001887912949314341,1.001713514328003,0.0,0.0,0.0,0.36266833543777466,2.5634312629699707,5.431297302246094,-65.64368438720703,0
1159.6370000000006,-0.00041050027357414365,-6.058534199837595e-05,-0.00029033352620899677,0.0,0.0,0.0,0.0,-0.00020253723778296262,0.0036370716989040375,0.00016668217722326517,1.0010919570922852,0.0,0.0,0.0,0.3658876419067383,2.6126410961151123,5.503593444824219,-66.22639465332031,0
1169.549000000001,-0.00048760705976746976,-8.938811515690759e-05,-0.0003056576242670417,0.0,0.0,0.0,0.0,-0.002635482233017683,0.0036963699385523796,-0.0011105943704023957,1.0019800662994385,0.0,0.0,0.0,0.364927738904953,2.615527391433716,5.487901210784912,-66.05265045166016,0
1179.4580000000005,-0.0004405658692121506,1.8381639165454544e-05,-0.0003621602081693709,0.0,0.0,0.0,0.0,-0.0013866471126675606,-0.0030508744530379772,0.0018041671719402075,1.001816749572754,0.0,0.0,0.0,0.3705313205718994,2.681884288787842,5.53817892074585,-67.06690979003906,0
1189.3719999999994,-0.0005101258866488934,6.049303920008242e-07,-0.00037742324639111757,0.0,0.0,0.0,0.0,-0.0003435123071540147,-0.0018009851919487119,0.0001308781502302736,1.0005708932876587,0.0,0.0,0.0,0.37161579728126526,2.6830759048461914,5.538254261016846,-67.26319885253906,0
1199.282000000001,-0.0005037972587160766,4.212981730233878e-05,-0.0004228921025060117,0.0,0.0,0.0,0.0,-0.001370747690089047,-0.001652195700444281,0.00047920452198013663,1.0006310939788818,0.0,0.0,0.0,0.37401533126831055,2.7093777656555176,5.57562780380249,-67.69752502441406,0
1209.1980000000003,-0.0005724488873966038,2.8265267246752046e-05,-0.0004387902154121548,0.0,0.0,0.0,0.0,0.0014182428130879998,0.0013674614019691944,-0.0013565865810960531,0.9997684955596924,0.0,0.0,0.0,0.3739510774612427,2.7081093788146973,5.569549560546875,-67.68588256835938,0
1219.107,-0.0005914063076488674,4.947903653373942e-05,-0.0004745416808873415,0.0,0.0,0.0,0.0,-0.0004107564745936543,0.004247274249792099,-0.0005404273979365826,1.0007952451705933,0.0,0.0,0.0,0.3737594783306122,2.7057924270629883,5.553316593170166,-67.65120697021484,0
1229.0159999999996,-0.00066396314650774,3.577662937459536e-05,-0.0004913661396130919,0.0,0.0,0.0,0.0,-0.0022601946257054806,-0.00015850660565774888,-0.0017543388530611992,1.0004255771636963,0.0,0.0,0.0,0.3734368681907654,2.704423666000366,5.546204566955566,-67.59281921386719,0
1238.9279999999999,-0.0006569322431460023,7.78883695602417e-05,-0.0005345134995877743,0.0,0.0,0.0,0.0,-0.0014001402305439115,-0.0027413431089371443,0.0031533301807940006,0.9992507100105286,0.0,0.0,0.0,0.3724377751350403,2.7103288173675537,5.547837734222412,-67.41197967529297,0
1248.8410000000003,-0.0007302635349333286,6.720839155605063e-05,-0.0005532638169825077,0.0,0.0,0.0,0.0,0.00028498764731921256,-0.00111302244476974,-0.0006353622884489596,0.9992863535881042,0.0,0.0,0.0,0.37265661358833313,2.7115819454193115,5.544789791107178,-67.45159149169922,0
1258.75,-0.0007265714230015874,0.0001121152236009948,-0.0005974276573397219,0.0,0.0,0.0,0.0,-0.00031265622237697244,-0.005534777417778969,0.0023549713660031557,1.0033891201019287,0.0,0.0,0.0,0.37189528346061707,2.708571195602417,5.546028137207031,-67.31378173828125,0
1268.6630000000005,-0.000800859706941992,0.00010488614498171955,-0.0006181251956149936,0.0,0.0,0.0,0.0,0.0007156339124776423,0.005379152949899435,0.0012778653763234615,0.9982619881629944,0.0,0.0,0.0,0.3717333674430847,2.7096176147460938,5.555577754974365,-67.28446960449219,0
1278.5730000000003,-0.0008783090161159635,9.63650454650633e-05,-0.0006377218523994088,0.0,0.0,0.0,0.0,0.0020523432176560163,0.00346506224013865,8.232369145844132e-05,0.9978587627410889,0.0,0.0,0.0,0.3707908093929291,2.7053780555725098,5.540041923522949,-67.11387634277344,0
1288.4860000000008,-0.0009579799370840192,8.605557377450168e-05,-0.0006585738155990839,0.0,0.0,0.0,0.0,0.0015764894196763635,0.0016427072696387768,-0.0014632330276072025,0.9999018907546997,0.0,0.0,0.0,0.3702659606933594,2.703068256378174,5.529106140136719,-67.01887512207031,0
1298.3970000000008,-0.001039793249219656,7.402626215480268e-05,-0.0006803869619034231,0.0,0.0,0.0,0.0,-0.003312057349830866,-0.0006976936128921807,-0.0016671107150614262,0.999734103679657,0.0,0.0,0.0,0.36990317702293396,2.7005014419555664,5.523046970367432,-66.95321655273438,0
1308.317000000001,-0.0011244751513004303,6.0328391555231065e-05,-0.0007021083729341626,0.0,0.0,0.0,0.0,-0.001755588804371655,-0.0020650806836783886,0.0026756806764751673,0.9996438026428223,0.0,0.0,0.0,0.3684423863887787,2.7060980796813965,5.5211968421936035,-66.68881225585938,0
1318.2250000000004,-0.0012127835070714355,4.5095534005668014e-05,-0.0007237755926325917,0.0,0.0,0.0,0.0,-0.003544037928804755,-0.0004351264506112784,0.00166010158136487,0.9992673397064209,0.0,0.0,0.0,0.36836186051368713,2.6999783515930176,5.521659851074219,-66.67424011230469,0
1328.1329999999998,-0.0013138127978891134,2.6683663236326538e-05,-0.0007478478946723044,0.0,0.0,0.0,0.0,0.0012290588347241282,0.002400750294327736,-0.0028593691531568766,0.9998322129249573,0.0,0.0,0.0,0.3675692677497864,2.703244924545288,5.5183281898498535,-66.53076171875,0
1338.0550000000003,-0.00018490231013856828,-0.0004506265977397561,0.0002095932577503845,0.0,0.0,0.0,0.0,-0.0002554359089117497,-0.000557581486646086,0.0015443273587152362,1.0022916793823242,0.0,0.0,0.0,0.3720737397670746,2.633223533630371,5.6960368156433105,-67.3460922241211,0
1347.9570000000003,-0.00023152642825152725,-0.0004897965700365603,0.00022364580945577472,0.0,0.0,0.0,0.0,0.0048845913261175156,0.00325022847391665,0.0020799783524125814,0.9987725019454956,0.0,0.0,0.0,0.3724598288536072,2.6343932151794434,5.695852279663086,-67.41596984863281,0
1357.8670000000002,-0.00021626616944558918,-0.0004345365159679204,0.00037651832099072635,0.0,0.0,0.0,0.0,0.001226203516125679,-0.0031897681765258312,-0.00033707512193359435,0.9986323714256287,0.0,0.0,0.0,0.36587443947792053,2.659473180770874,5.691664218902588,-66.2239990234375,0
1367.777,-0.0002649910165928304,-0.0004710445646196604,0.00039827186265029013,0.0,0.0,0.0,0.0,-0.005414389539510012,0.0014858465874567628,-0.002883397974073887,1.0001100301742554,0.0,0.0,0.0,0.3657400608062744,2.660426378250122,5.6897735595703125,-66.1996841430664,0
1377.6900000000005,-0.00019867152150254697,-0.0004745260230265558,0.0004664798907469958,0.0,0.0,0.0,0.0,-0.00045134348329156637,0.0007264154846780002,0.00025278489920310676,0.9999498724937439,0.0,0.0,0.0,0.3654782176017761,2.670818328857422,5.681461334228516,-66.15229034423828,0
1387.603000000001,-0.0002486201119609177,-0.0005108931218273938,0.0004909249255433679,0.0,0.0,0.0,0.0,-0.0009108054218813777,0.00038793610292486846,-0.0006081520114094019,1.001344084739685,0.0,0.0,0.0,0.3660336136817932,2.663036346435547,5.670979022979736,-66.25281524658203,0
1397.5149999999994,-0.00017160983406938612,-0.0004934961907565594,0.0005714013241231441,0.0,0.0,0.0,0.0,-0.0008557867840863764,0.0017379461787641048,-0.00043923076009377837,0.9994744062423706,0.0,0.0,0.0,0.36596357822418213,2.6608450412750244,5.663674831390381,-66.2401351928711,0
1407.425000000001,-0.00017578768893145025,-0.0005032327608205378,0.0006254945765249431,0.0,0.0,0.0,0.0,-0.0028009768575429916,-0.005799451842904091,-0.000437952927313745,0.9987083077430725,0.0,0.0,0.0,0.3593287467956543,2.670051097869873,5.661172866821289,-65.03921508789062,0
1417.344000000001,-0.0002276307059219107,-0.0005395945627242327,0.0006571812555193901,0.0,0.0,0.0,0.0,-3.0565432098228484e-05,0.003248204244300723,0.0006243998068384826,0.9991065263748169,0.0,0.0,0.0,0.3589661121368408,2.671088695526123,5.6706719398498535,-64.97357940673828,0
1427.25,-0.00028137510525994003,-0.0005770662683062255,0.0006879218271933496,0.0,0.0,0.0,0.0,0.0008150161593221128,-0.0018236383330076933,-0.002337757730856538,1.000144124031067,0.0,0.0,0.0,0.35837823152542114,2.6650378704071045,5.660882949829102,-64.86717224121094,0
1437.1669999999995,-0.00033775719930417836,-0.0006166511448100209,0.0007184912101365626,0.0,0.0,0.0,0.0,0.0008665289497002959,-0.0006933968979865313,0.00011774017184507102,0.9997058510780334,0.0,0.0,0.0,0.3575393855571747,2.6579229831695557,5.654182434082031,-64.71533966064453,0
1447.0730000000003,-0.0001990501768887043,-0.0006304893759079278,0.0007785857887938619,0.0,0.0,0.0,0.0,0.000583855842705816,0.004742564167827368,-0.0024776605423539877,1.0010026693344116,0.0,0.0,0.0,0.3633060157299042,2.658053398132324,5.690558433532715,-65.75910949707031,0
1456.9950000000008,-0.0002522379800211638,-0.0006716884090565145,0.0008135205134749413,0.0,0.0,0.0,0.0,-0.00140496960375458,-0.0017058105440810323,0.003720515174791217,0.9997913241386414,0.0,0.0,0.0,0.3624565005302429,2.655810832977295,5.6829304695129395,-65.6053466796875,0
1466.898000000001,-0.00021158598246984184,-0.0006682472303509712,0.0008872250327840447,0.0,0.0,0.0,0.0,-0.0021598574239760637,0.0009414883679710329,-0.0038133568596094847,1.0005037784576416,0.0,0.0,0.0,0.36295661330223083,2.655952215194702,5.678721904754639,-65.69586944580078,0
1476.8109999999997,-0.0002663587511051446,-0.0007082820520736277,0.0009270027512684464,0.0,0.0,0.0,0.0,-0.0009957443689927459,-0.0015523926122114062,0.0022537929471582174,1.000665545463562,0.0,0.0,0.0,0.3610460162162781,2.6578824520111084,5.673003673553467,-65.35005187988281,0
1486.7170000000006,-0.0002082673745462671,-0.0007338166469708085,0.000989859108813107,0.0,0.0,0.0,0.0,-0.0022629352752119303,-0.00302887219004333,-0.0010232889326289296,1.0003695487976074,0.0,0.0,0.0,0.3675940930843353,2.6619553565979004,5.692929267883301,-66.53526306152344,0
1496.634,-0.000265235808910802,-0.0007779631996527314,0.0010333111276850104,0.0,0.0,0.0,0.0,-0.0007987272692844272,-0.004853986203670502,-0.0005354422610253096,1.0005528926849365,0.0,0.0,0.0,0.3658599257469177,2.660662889480591,5.687732696533203,-66.22137451171875,0
1506.5400000000009,-0.00022975620231591165,-0.0008089097100310028,0.001097839791327715,0.0,0.0,0.0,0.0,-0.0010611321777105331,-0.0007435905863530934,-0.00019158115901518613,1.0004795789718628,0.0,0.0,0.0,0.3762885332107544,2.6593804359436035,5.706640720367432,-68.10897064208984,0
1516.4570000000003,-0.0002880764950532466,-0.0008556298562325537,0.0011447315337136388,0.0,0.0,0.0,0.0,-0.005549387075006962,0.008699331432580948,0.0003166224341839552,0.9998131394386292,0.0,0.0,0.0,0.376430481672287,2.653289318084717,5.704117774963379,-68.1346664428711,0
1526.3639999999996,-0.00027632771525532007,-0.0008512249914929271,0.0012398753315210342,0.0,0.0,0.0,0.0,0.0006086626090109348,-0.0017749250400811434,-0.0007048512925393879,1.000014305114746,0.0,0.0,0.0,0.3767744302749634,2.6580326557159424,5.678864479064941,-68.1969223022461,0
1536.2810000000009,-8.037588850129396e-05,-0.00018158534658141434,-2.2640959286945872e-05,0.0,0.0,0.0,0.0,-0.0001845720544224605,0.0032865290995687246,-0.0027451443020254374,1.002123475074768,0.0,0.0,0.0,0.37911391258239746,2.7803893089294434,5.719559192657471,-68.62036895751953,0
1546.188,-8.776766480877995e-05,-0.00018860204727388918,3.398674743948504e-05,0.0,0.0,0.0,0.0,0.001460123690776527,0.0020162113942205906,0.003120861481875181,1.000145673751831,0.0,0.0,0.0,0.37801697850227356,2.7776923179626465,5.700338363647461,-68.42182922363281,0
1556.1059999999998,-0.00010019045294029638,-0.00014131928037386388,-4.0901239117374644e-05,0.0,0.0,0.0,0.0,-0.001071074279025197,0.0026078291703015566,0.0001015659945551306,1.000902533531189,0.0,0.0,0.0,0.3777230381965637,2.769378900527954,5.688943386077881,-68.36861419677734,0
1566.009,-0.00011451993486844003,-0.0001495887991040945,-1.7950333131011575e-07,0.0,0.0,0.0,0.0,-0.0013547686394304037,-3.944918262277497e-06,0.0012543192133307457,0.9992283582687378,0.0,0.0,0.0,0.37656304240226746,2.7698373794555664,5.681225776672363,-68.15866088867188,0
1575.929,-0.0001234816445503384,-0.00010095274046761915,-5.696938751498237e-05,0.0,0.0,0.0,0.0,0.0009438243578188121,0.0017003354150801897,0.0010262622963637114,1.0019229650497437,0.0,0.0,0.0,0.3836471438407898,2.7754807472229004,5.674627780914307,-69.4408950805664,0
1585.8320000000003,-0.00010774435213534161,-0.00012945113121531904,-1.8473014279152267e-05,0.0,0.0,0.0,0.0,0.0008345335372723639,0.004759109579026699,0.0013667118037119508,1.001193642616272,0.0,0.0,0.0,0.37543243169784546,2.7712085247039795,5.669814586639404,-67.95401000976562,0
1595.7469999999994,-0.00017221800226252526,-0.00015880570572335273,-9.976023648050614e-06,0.0,0.0,0.0,0.0,-0.003471061820164323,0.0020774616859853268,0.004100802354514599,1.0007421970367432,0.0,0.0,0.0,0.3754061460494995,2.7648627758026123,5.655677318572998,-67.94924926757812,0
1605.6630000000005,-0.00017064184066839516,-0.00012237823102623224,6.584270158782601e-05,0.0,0.0,0.0,0.0,0.002881798194721341,1.4661070963484235e-05,0.0027537394780665636,0.997880756855011,0.0,0.0,0.0,0.36898714303970337,2.772908926010132,5.653054714202881,-66.78740692138672,0
1615.5779999999995,-0.0002206484496127814,-0.00014363748778123409,5.6378270528512076e-05,0.0,0.0,0.0,0.0,-0.0010105600813403726,4.398389864945784e-05,0.0013887586537748575,0.999445915222168,0.0,0.0,0.0,0.3776683211326599,2.7626662254333496,5.6428399085998535,-68.35871124267578,0
1625.4830000000002,-0.00018400490807835013,-0.00014695097343064845,0.00012516007700469345,0.0,0.0,0.0,0.0,-0.000917718920391053,0.002564741764217615,0.0032401224598288536,1.0010907649993896,0.0,0.0,0.0,0.369828999042511,2.7620136737823486,5.6507086753845215,-66.93978118896484,0
1635.3970000000008,-0.0001740863808663562,-9.660162322688848e-05,5.76541424379684e-05,0.0,0.0,0.0,0.0,0.0004069620626978576,-0.002012808807194233,0.0009786554146558046,1.0008893013000488,0.0,0.0,0.0,0.3708955943584442,2.7663395404815674,5.641848087310791,-67.1328353881836,0
1645.299000000001,-0.00019034883007407188,-9.256949851987883e-05,0.0001088933931896463,0.0,0.0,0.0,0.0,0.0009619295597076416,-0.0017984904116019607,0.0020769480615854263,1.0021361112594604,0.0,0.0,0.0,0.37070679664611816,2.765202283859253,5.6465959548950195,-67.09867095947266,0
1655.2240000000002,-0.0002012963086599484,-7.027196988929063e-05,5.865721686859615e-05,0.0,0.0,0.0,0.0,-0.0011274331482127309,0.002241384470835328,-0.0010376463178545237,1.000321865081787,0.0,0.0,0.0,0.3702499568462372,2.7566349506378174,5.646257400512695,-67.01597595214844,0
1665.125,-0.00010898370237555355,-0.00013287468755152076,0.000112461086246185,0.0,0.0,0.0,0.0,-0.0014482056722044945,-0.002910373965278268,-0.0016066886018961668,0.9985740184783936,0.0,0.0,0.0,0.36924976110458374,2.754789113998413,5.642967700958252,-66.83494567871094,0
1675.0439999999999,-0.00011715441360138357,-9.734781633596867e-05,6.234415923245251e-05,0.0,0.0,0.0,0.0,0.003568056970834732,-7.247908797580749e-05,0.0026075660716742277,0.9982326626777649,0.0,0.0,0.0,0.36838385462760925,2.755619764328003,5.647764205932617,-66.67821502685547,0
1684.9480000000003,-0.00011283457570243627,-0.00013508767005987465,9.611842688173056e-05,0.0,0.0,0.0,0.0,-0.0007067040423862636,0.0011464757844805717,-0.0001669631019467488,0.9997254610061646,0.0,0.0,0.0,0.36870241165161133,2.7483773231506348,5.650908470153809,-66.73587036132812,0
1694.8649999999998,-0.00016436149599030614,-0.00013021515042055398,9.064462938113138e-05,0.0,0.0,0.0,0.0,-0.001405136426910758,0.0007414140272885561,-0.0022718540858477354,0.9996023178100586,0.0,0.0,0.0,0.37610292434692383,2.7507338523864746,5.653937816619873,-68.07537841796875,0
1704.7690000000002,-0.0001433437573723495,-0.0001821138575905934,0.00012624202645383775,0.0,0.0,0.0,0.0,-0.000582088076043874,0.00023990616318769753,-0.002303901594132185,0.9995908737182617,0.0,0.0,0.0,0.36902517080307007,2.7460379600524902,5.657487869262695,-66.7942886352539,0
1714.6949999999997,-0.00014152537914924324,-0.00013116559421177953,5.837291246280074e-05,0.0,0.0,0.0,0.0,0.0016242587007582188,0.003559922333806753,-0.004941842518746853,1.0022011995315552,0.0,0.0,0.0,0.37361380457878113,2.7582921981811523,5.660237789154053,-67.62484741210938,0
1724.594000000001,-0.00013226062583271414,-0.00017383279919158667,9.14173069759272e-05,0.0,0.0,0.0,0.0,0.0018566412618383765,0.002456341404467821,-0.0003310799365863204,1.0014533996582031,0.0,0.0,0.0,0.3711976110935211,2.7545433044433594,5.6455512046813965,-67.18750762939453,0
1734.5130000000008,-0.00012977553706150502,-0.00012665422400459647,1.7568985640536994e-05,0.0,0.0,0.0,0.0,0.0009835719829425216,0.005056202877312899,-0.001039561117067933,0.9992393851280212,0.0,0.0,0.0,0.37075725197792053,2.752269744873047,5.633222579956055,-67.10779571533203,0
1744.4220000000005,-0.0001359152956865728,-0.00016903452342376113,4.594736674334854e-05,0.0,0.0,0.0,0.0,0.0002559326821938157,0.001384266884997487,-6.706677959300578e-05,0.9986526966094971,0.0,0.0,0.0,0.3699302673339844,2.7467496395111084,5.609554290771484,-66.95811462402344,0
1754.3400000000001,-0.00014364748494699597,-0.00011393046588636935,-1.4226926396077033e-05,0.0,0.0,0.0,0.0,0.002543346956372261,-0.002342505846172571,0.00038828313699923456,0.9989001154899597,0.0,0.0,0.0,0.37717947363853455,2.7594382762908936,5.60780668258667,-68.27023315429688,0
1764.241,-0.00012783732381649315,-0.00015852125943638384,1.6028439858928323e-05,0.0,0.0,0.0,0.0,-0.0006500421441160142,-0.0014083698624745011,-0.004492918960750103,0.9999746680259705,0.0,0.0,0.0,0.3777351379394531,2.752431631088257,5.608330726623535,-68.37081146240234,0
1774.1640000000007,-0.00015039517893455923,-0.00012391325435601175,-3.447321796556935e-05,0.0,0.0,0.0,0.0,-0.0003842251026071608,6.25605825916864e-05,0.0002078143006656319,0.9978199005126953,0.0,0.0,0.0,0.3768746852874756,2.7533156871795654,5.603877067565918,-68.2150650024414,0
1784.0660000000007,-0.00010441591439303011,-0.00014975429803598672,1.3495779057848267e-05,0.0,0.0,0.0,0.0,0.002283321926370263,-0.0006240454385988414,-0.0029019119683653116,0.9989742040634155,0.0,0.0,0.0,0.37745293974876404,2.751444101333618,5.5898823738098145,-68.31973266601562,0
1793.9850000000006,-0.0001173829659819603,-0.00010883956565521657,-4.897300459560938e-05,0.0,0.0,0.0,0.0,0.00014874360931571573,0.003738147672265768,0.0012604999355971813,0.9980921149253845,0.0,0.0,0.0,0.37637898325920105,2.7482292652130127,5.582199573516846,-68.1253433227539,0
1803.884,-0.00011078004172304645,-0.0001403347559971735,-2.54138903983403e-05,0.0,0.0,0.0,0.0,-0.0005493293865583837,-0.007037179544568062,0.005104739218950272,0.9985796809196472,0.0,0.0,0.0,0.3765946626663208,2.7463698387145996,5.567277908325195,-68.16438293457031,0
1813.812,-0.00014035796630196273,-9.357422823086381e-05,-6.415005191229284e-05,0.0,0.0,0.0,0.0,0.0003315007488708943,-0.004485098645091057,-0.0008704127976670861,1.0017715692520142,0.0,0.0,0.0,0.3780767619609833,2.7484841346740723,5.576054573059082,-68.43264770507812,0
1823.7070000000003,-0.00012279232032597065,-0.0001396000006934628,-3.85655730497092e-05,0.0,0.0,0.0,0.0,-0.0003747439186554402,0.0010718244593590498,-0.002443653764203191,1.0001224279403687,0.0,0.0,0.0,0.37728074193000793,2.748028516769409,5.578555583953857,-68.28856658935547,0
1833.6309999999994,-0.00014729236136190593,-0.00011662580072879791,-9.482912719249725e-05,0.0,0.0,0.0,0.0,0.0014672341058030725,-0.0026135165244340897,0.0005811727605760098,1.0015490055084229,0.0,0.0,0.0,0.3760775327682495,2.749929189682007,5.57200813293457,-68.0707778930664,0
1843.5339999999997,-0.00016680148837622255,-0.00010552121966611594,-5.01569447806105e-05,0.0,0.0,0.0,0.0,-0.0016201933613047004,-0.002602372784167528,0.0016054416773840785,0.9986050724983215,0.0,0.0,0.0,0.36818623542785645,2.755890130996704,5.5794854164123535,-66.64244079589844,0
1853.4520000000011,-0.0001994683116208762,-6.515656423289329e-05,-8.37970947031863e-05,0.0,0.0,0.0,0.0,-0.004968876950442791,0.001693206955678761,-0.0015819654799997807,0.999878466129303,0.0,0.0,0.0,0.3682229816913605,2.7539665699005127,5.580531120300293,-66.64909362792969,0
1863.3539999999994,-0.00017289906099904329,-0.00011730298865586519,-6.712503090966493e-05,0.0,0.0,0.0,0.0,-0.001330362050794065,-0.0008794832974672318,-0.00066893280018121,0.9999372959136963,0.0,0.0,0.0,0.37905770540237427,2.7516229152679443,5.58370304107666,-68.61019134521484,0
1873.2720000000008,-0.00016241084085777402,-5.5787721066735685e-05,-0.00015687098493799567,0.0,0.0,0.0,0.0,-0.001356271910481155,-0.0003087274089921266,-0.00012005621829302981,1.0005730390548706,0.0,0.0,0.0,0.38562247157096863,2.766400098800659,5.587294101715088,-69.7984390258789,0
1883.1759999999995,-0.00015565409557893872,-5.629120278172195e-05,-0.00011451325553935021,0.0,0.0,0.0,0.0,0.002893482567742467,-0.0007611830369569361,-0.0026454650796949863,1.0006470680236816,0.0,0.0,0.0,0.38620901107788086,2.7656843662261963,5.5794291496276855,-69.90459442138672,0
1893.0959999999995,-0.00020700140157714486,-2.03080999199301e-05,-0.00012858340051025152,0.0,0.0,0.0,0.0,-7.749525138933677e-06,6.769095489289612e-05,-0.0014816236216574907,1.0009087324142456,0.0,0.0,0.0,0.38673609495162964,2.7602508068084717,5.577854156494141,-70.0,0
1903.0040000000008,-0.0001679154229350388,-3.8926176785025746e-05,-8.179459837265313e-05,0.0,0.0,0.0,0.0,0.0017548782052472234,0.00014823339006397873,-0.002734625246375799,0.9998075366020203,0.0,0.0,0.0,0.3866995573043823,2.7579684257507324,5.570746421813965,-69.9933853149414,0
1912.9189999999999,-0.00015872811491135508,4.6540109906345606e-05,-0.00015630021516699344,0.0,0.0,0.0,0.0,0.004963662009686232,-0.0013062256621196866,-0.0007574831251986325,0.9999178051948547,0.0,0.0,0.0,0.3914914131164551,2.7720110416412354,5.570100784301758,-70.86072540283203,0
1922.8250000000007,-9.057769784703851e-05,-5.792337469756603e-05,-0.000159190793056041,0.0,0.0,0.0,0.0,-0.0007629981264472008,0.0012599087785929441,-0.001059065107256174,1.0004557371139526,0.0,0.0,0.0,0.3910670280456543,2.7600414752960205,5.568406105041504,-70.78392028808594,0
1932.7440000000006,-0.00017183070303872228,-9.128420788329095e-05,-0.0001607718295417726,0.0,0.0,0.0,0.0,-0.0020609498023986816,-0.003091864287853241,0.00044954236363992095,1.000309705734253,0.0,0.0,0.0,0.3902641236782074,2.7596559524536133,5.5649213790893555,-70.63858032226562,0
1942.6450000000004,-0.00014038394147064537,-0.0001257198309758678,-0.0001237678952747956,0.0,0.0,0.0,0.0,0.00024844100698828697,-0.003374481573700905,-0.0008866572170518339,1.0012508630752563,0.0,0.0,0.0,0.3840165436267853,2.7611396312713623,5.579979419708252,-69.50776672363281,0
1952.571,-0.0001991493336390704,-0.0001337350986432284,-0.0001455822348361835,0.0,0.0,0.0,0.0,0.003911266103386879,0.0004064347594976425,0.0027648520190268755,1.0009409189224243,0.0,0.0,0.0,0.3834454417228699,2.7643673419952393,5.577756881713867,-69.4043960571289,0
1962.4680000000008,-9.594760194886476e-05,-0.00019569130381569266,-0.00010130608279723674,0.0,0.0,0.0,0.0,0.001300534582696855,-0.0034631306771188974,0.0033222418278455734,0.9991536736488342,0.0,0.0,0.0,0.39095380902290344,2.7513973712921143,5.597702980041504,-70.76342010498047,0
1972.3909999999996,-0.00013576526544056833,-0.0001583712437422946,-0.00012737563520204276,0.0,0.0,0.0,0.0,-0.0037245657294988632,-0.0031063943170011044,0.0011844869004562497,0.9992579817771912,0.0,0.0,0.0,0.3910742402076721,2.7490780353546143,5.597586154937744,-70.78521728515625,0
1982.291000000001,-0.00013980595394968987,-0.00018795617506839335,-9.364929428556934e-05,0.0,0.0,0.0,0.0,0.00045197558938525617,-0.001353191677480936,-0.003844980616122484,0.9990644454956055,0.0,0.0,0.0,0.3910582661628723,2.755246162414551,5.595804214477539,-70.78233337402344,0
1992.2129999999997,-0.00017022057727444917,-0.00015285005792975426,-0.0001365189818898216,0.0,0.0,0.0,0.0,-0.0027119386941194534,-0.0016487358370795846,0.0021938378922641277,1.000708818435669,0.0,0.0,0.0,0.3903127908706665,2.7537524700164795,5.586778163909912,-70.64738464355469,0
2002.1170000000002,-9.273157047573477e-05,-0.00019499633344821632,-8.929278556024656e-05,0.0,0.0,0.0,0.0,0.0007445635856129229,0.0001714071404421702,-0.0010371397947892547,1.0007641315460205,0.0,0.0,0.0,0.39142486453056335,2.7578141689300537,5.583279609680176,-70.84867858886719,0
2012.0390000000007,-0.00011872660252265632,-0.00015360221732407808,-0.00013051928544882685,0.0,0.0,0.0,0.0,-0.001644850242882967,0.0019019913161173463,0.00039526232285425067,0.9994455575942993,0.0,0.0,0.0,0.39113324880599976,2.753251314163208,5.576732158660889,-70.79590606689453,0
2021.9430000000011,-0.00017655229021329433,-0.00016528955893591046,-0.00011177269334439188,0.0,0.0,0.0,0.0,0.0009698485373519361,0.004861082416027784,0.005079223774373531,1.0013737678527832,0.0,0.0,0.0,0.390422523021698,2.752626657485962,5.5641961097717285,-70.66725158691406,0
2031.8559999999998,-0.00020136625971645117,-0.00012254746980033815,-0.00015932608221191913,0.0,0.0,0.0,0.0,-0.001150384428910911,0.0001801508042262867,-0.004039402585476637,1.0019891262054443,0.0,0.0,0.0,0.3908630907535553,2.7478256225585938,5.545343399047852,-70.74699401855469,0
2041.7649999999994,-0.00019114208407700062,-0.000112724352220539,-9.698612120701e-05,0.0,0.0,0.0,0.0,-0.0023210160434246063,-0.00204863422550261,-0.0009761961409822106,1.0013827085494995,0.0,0.0,0.0,0.38971590995788574,2.75063157081604,5.537814140319824,-70.53935241699219,0
2051.6849999999995,-0.00022305762104224414,-8.52796365506947e-05,-0.00013552633754443377,0.0,0.0,0.0,0.0,0.0007701274007558823,-1.5987725419108756e-05,-0.0021917277481406927,1.0001105070114136,0.0,0.0,0.0,0.3892592787742615,2.7517881393432617,5.534396648406982,-70.45670318603516,0
2061.5830000000005,-0.00019743328448385,-7.458493200829253e-05,-6.495579873444512e-05,0.0,0.0,0.0,0.0,0.002052383031696081,-0.0011791479773819447,0.002014400903135538,0.9988524317741394,0.0,0.0,0.0,0.3881984353065491,2.7469863891601562,5.520138263702393,-70.26469421386719,0
2071.504000000001,-0.0002717239549383521,-8.389581489609554e-05,-5.503474676515907e-05,0.0,0.0,0.0,0.0,0.0005183632601983845,-0.008701360784471035,0.0005546831525862217,0.9990203380584717,0.0,0.0,0.0,0.38783755898475647,2.738975763320923,5.514858722686768,-70.19937896728516,0
2081.407000000001,-0.00019439969037193805,-0.00010767728963401169,1.844952021201607e-05,0.0,0.0,0.0,0.0,0.0023930934257805347,0.0007392229745164514,-0.0010166678112000227,1.001896858215332,0.0,0.0,0.0,0.38113492727279663,2.738497734069824,5.550965785980225,-68.9861831665039,0
2091.3289999999997,-0.00021191188716329634,-4.9474499974166974e-05,-1.648999568715226e-05,0.0,0.0,0.0,0.0,4.4355561840347946e-05,0.0006534611457027495,-0.0026042493991553783,1.0000734329223633,0.0,0.0,0.0,0.38148233294487,2.7337942123413086,5.546316623687744,-69.04905700683594,0
2101.233,-0.00013410841347649693,-0.00011678237933665514,3.38568352162838e-05,0.0,0.0,0.0,0.0,-0.0008176220580935478,-0.0003278173098806292,0.004414236173033714,0.9986156821250916,0.0,0.0,0.0,0.3803081512451172,2.728163242340088,5.540872097015381,-68.83653259277344,0
2111.151,-0.00015442856238223612,-8.729819091968238e-05,-1.1559290214790963e-05,0.0,0.0,0.0,0.0,0.0007464594091288745,-0.0016665440052747726,-0.00244749803096056,1.0010308027267456,0.0,0.0,0.0,0.3811967074871063,2.7240467071533203,5.534022331237793,-68.99736022949219,0
