timestamp,stateEstimate.x,stateEstimate.y,stateEstimate.z,controller.cmd_thrust,controller.cmd_roll,controller.cmd_pitch,controller.cmd_yaw,controller.r_roll,controller.r_pitch,controller.r_yaw,controller.accelz,controller.actuatorThrust,controller.roll,controller.pitch,controller.yaw,controller.rollRate,controller.pitchRate,controller.yawRate,controller.ctr_yaw
0.0,-0.06858482211828232,0.017154162749648094,-0.04488551244139671,0.0,0.0,0.0,0.0,0.0002690453839022666,-0.004726589657366276,0.001379919471219182,1.0015007257461548,0.0,0.0,0.0,-7.3732709884643555,2.7618930339813232,4.752236366271973,1334.57666015625,0
9.893000000000029,-0.06859021633863449,0.01714523881673813,-0.04489262029528618,0.0,0.0,0.0,0.0,0.00015145882207434624,0.0011089096078649163,0.0017193699022755027,0.9973140954971313,0.0,0.0,0.0,-7.381897926330566,2.7575843334198,4.7476725578308105,1336.13818359375,0
19.816000000000713,-0.06863521784543991,0.017165906727313995,-0.04492127522826195,0.0,0.0,0.0,0.0,0.002056341152638197,-0.005051309708505869,-0.004223201423883438,0.9986503720283508,0.0,0.0,0.0,-7.374835014343262,2.750901937484741,4.741945266723633,1334.85986328125,0
29.72099999999955,-0.06858688592910767,0.01716063730418682,-0.04489487409591675,0.0,0.0,0.0,0.0,2.1407527128758375e-06,0.004265142604708672,0.003440080676227808,1.0012121200561523,0.0,0.0,0.0,-7.389806747436523,2.7559280395507812,4.754097938537598,1337.5697021484375,0
39.64600000000064,-0.06862862408161163,0.017181601375341415,-0.044923946261405945,0.0,0.0,0.0,0.0,-0.0004474429879337549,-0.001587577280588448,-0.0005326688406057656,1.001777172088623,0.0,0.0,0.0,-7.382193565368652,2.754716157913208,4.741346836090088,1336.1917724609375,0
49.548000000000684,-0.0686575248837471,0.017158417031168938,-0.04491886869072914,0.0,0.0,0.0,0.0,0.0025490180123597383,0.0012326075229793787,-0.0006862421287223697,0.9993576407432556,0.0,0.0,0.0,-7.397008419036865,2.7376692295074463,4.732951641082764,1338.873291015625,0
59.461999999999534,-0.0687011256814003,0.01717684604227543,-0.04494492709636688,0.0,0.0,0.0,0.0,-0.0009521766914986074,-0.001484924228861928,0.002583742141723633,0.9980528950691223,0.0,0.0,0.0,-7.389085292816162,2.734696626663208,4.722011089324951,1337.4390869140625,0
69.3700000000008,-0.06866403669118881,0.01713278703391552,-0.044888272881507874,0.0,0.0,0.0,0.0,-0.002805782714858651,0.0010176796931773424,-0.00035285711055621505,1.00067138671875,0.0,0.0,0.0,-7.399527549743652,2.7332913875579834,4.717716693878174,1339.3292236328125,0
79.28399999999965,-0.06870909035205841,0.01714925654232502,-0.04491515830159187,0.0,0.0,0.0,0.0,0.0003052545653190464,0.0020987067837268114,0.004483284894376993,0.9990319609642029,0.0,0.0,0.0,-7.39259672164917,2.7343952655792236,4.716581344604492,1338.07470703125,0
89.19300000000112,-0.0687541738152504,0.01716473139822483,-0.04494205489754677,0.0,0.0,0.0,0.0,0.00021857554384041578,-0.0003367049212101847,-0.002384520135819912,1.0004671812057495,0.0,0.0,0.0,-7.38399076461792,2.7350897789001465,4.710728645324707,1336.5169677734375,0
99.121000000001,-0.06880060583353043,0.017179958522319794,-0.044969070702791214,0.0,0.0,0.0,0.0,6.970218692003982e-06,-0.0023523089475929737,0.0010419314494356513,1.000105857849121,0.0,0.0,0.0,-7.378209114074707,2.727886199951172,4.708979606628418,1335.4705810546875,0
109.01800000000003,-0.06853558868169785,0.017094826325774193,-0.04483993351459503,0.0,0.0,0.0,0.0,0.001474291435442865,0.00010349250806029886,-0.003651382401585579,1.0007374286651611,0.0,0.0,0.0,-7.385544776916504,2.7455193996429443,4.728058815002441,1336.7982177734375,0
118.95200000000114,-0.06857656687498093,0.0171124879270792,-0.04486779496073723,0.0,0.0,0.0,0.0,-0.004430629312992096,0.0011459736851975322,0.00014986147289164364,1.0022481679916382,0.0,0.0,0.0,-7.376764297485352,2.7395691871643066,4.719776153564453,1335.2091064453125,0
128.85200000000077,-0.06855316460132599,0.017130296677350998,-0.044863246381282806,0.0,0.0,0.0,0.0,0.0006131381378509104,-0.0029228362254798412,-0.0003001175064127892,1.0001959800720215,0.0,0.0,0.0,-7.376510143280029,2.7571747303009033,4.726955413818359,1335.1629638671875,0
138.76500000000124,-0.06859578937292099,0.017151838168501854,-0.0448884554207325,0.0,0.0,0.0,0.0,-0.0024996609427034855,0.0017070015892386436,-0.001280557713471353,1.0007721185684204,0.0,0.0,0.0,-7.369876861572266,2.7589664459228516,4.718801498413086,1333.96240234375,0
148.66600000000108,-0.06862377375364304,0.017193356528878212,-0.0449044406414032,0.0,0.0,0.0,0.0,0.00022577228082809597,-0.006035637576133013,0.003472952637821436,1.0005964040756226,0.0,0.0,0.0,-7.372878074645996,2.7680490016937256,4.714707374572754,1334.5057373046875,0
158.59900000000016,-0.06866903603076935,0.017216667532920837,-0.04492785781621933,0.0,0.0,0.0,0.0,0.00039466534508392215,0.002703059231862426,-0.0015731853200122714,0.9991560578346252,0.0,0.0,0.0,-7.364570617675781,2.7587528228759766,4.72130823135376,1333.001953125,0
168.4920000000002,-0.0686568096280098,0.017232634127140045,-0.04491826891899109,0.0,0.0,0.0,0.0,-0.0003023343742825091,0.004399038385599852,0.000930769310798496,1.0010943412780762,0.0,0.0,0.0,-7.378408908843994,2.7656617164611816,4.7195000648498535,1335.5068359375,0
178.41100000000006,-0.06870675086975098,0.01725791022181511,-0.04494158551096916,0.0,0.0,0.0,0.0,0.001072219922207296,0.0005619291332550347,-0.0031906093936413527,0.9999793767929077,0.0,0.0,0.0,-7.371245384216309,2.768604040145874,4.710578441619873,1334.2100830078125,0
188.3189999999995,-0.06866719573736191,0.017268551513552666,-0.0449526272714138,0.0,0.0,0.0,0.0,0.0005972306244075298,-0.00038813488208688796,0.0008327583782374859,0.9992623329162598,0.0,0.0,0.0,-7.385376453399658,2.7727129459381104,4.714561939239502,1336.767822265625,0
198.2380000000012,-0.06871665269136429,0.017296811565756798,-0.04497724771499634,0.0,0.0,0.0,0.0,0.001245309947989881,-0.0016284337034448981,-0.0004579117812681943,0.9990404844284058,0.0,0.0,0.0,-7.377806663513184,2.769037961959839,4.701338291168213,1335.397705078125,0
208.14600000000064,-0.06870846450328827,0.01730217970907688,-0.04496268182992935,0.0,0.0,0.0,0.0,-0.0038043358363211155,-0.0008142814040184021,-0.002380351535975933,1.000016689300537,0.0,0.0,0.0,-7.377406597137451,2.7709295749664307,4.715708255767822,1335.3251953125,0
218.0619999999999,-0.06875696033239365,0.01733011193573475,-0.044988516718149185,0.0,0.0,0.0,0.0,0.0009456360712647438,7.812724652467296e-05,0.0009168897522613406,1.0008119344711304,0.0,0.0,0.0,-7.370784759521484,2.771749496459961,4.717636585235596,1334.126708984375,0
227.97600000000057,-0.06859598308801651,0.01720324158668518,-0.044868793338537216,0.0,0.0,0.0,0.0,-0.0007800408639013767,-0.00026686108321882784,0.0041371602565050125,1.000001072883606,0.0,0.0,0.0,-7.3802170753479,2.75142502784729,4.720541000366211,1335.833984375,0
237.89199999999983,-0.06864410638809204,0.017225157469511032,-0.04489429295063019,0.0,0.0,0.0,0.0,0.002388069638982415,-0.0043031382374465466,-0.002408272121101618,1.001328945159912,0.0,0.0,0.0,-7.372381210327148,2.7483644485473633,4.726885795593262,1334.4156494140625,0
247.79600000000028,-0.06853307038545609,0.01713482290506363,-0.044816311448812485,0.0,0.0,0.0,0.0,0.002129665343090892,0.004537713713943958,-0.0008684842032380402,1.001858115196228,0.0,0.0,0.0,-7.386348724365234,2.738687753677368,4.739522933959961,1336.94384765625,0
257.70600000000013,-0.06858236342668533,0.01715240254998207,-0.04484023153781891,0.0,0.0,0.0,0.0,-0.0023397495970129967,0.002312918659299612,-0.0003421500150579959,1.0012524127960205,0.0,0.0,0.0,-7.378113269805908,2.736501693725586,4.7290239334106445,1335.453125,0
267.6200000000008,-0.0686594545841217,0.01715029403567314,-0.0448690690100193,0.0,0.0,0.0,0.0,0.0005466515431180596,-0.0003800711128860712,-0.001009336905553937,1.0004223585128784,0.0,0.0,0.0,-7.380259990692139,2.7221367359161377,4.710513591766357,1335.841796875,0
277.53000000000065,-0.06871547549962997,0.01716497540473938,-0.044889748096466064,0.0,0.0,0.0,0.0,-0.0015989603707566857,0.003393772756680846,-0.0020068136509507895,1.0006729364395142,0.0,0.0,0.0,-7.37263298034668,2.715928077697754,4.708963394165039,1334.4613037109375,0
287.4470000000001,-0.06875645369291306,0.017157530412077904,-0.04488898441195488,0.0,0.0,0.0,0.0,-0.001019835937768221,-0.004902584478259087,0.006061991211026907,1.0015933513641357,0.0,0.0,0.0,-7.384322643280029,2.713566303253174,4.688685894012451,1336.5770263671875,0
297.35499999999956,-0.06881558895111084,0.017171397805213928,-0.044907644391059875,0.0,0.0,0.0,0.0,-0.002223153132945299,-0.00383443059399724,-0.0010711468057706952,0.9992857575416565,0.0,0.0,0.0,-7.376730442047119,2.7108752727508545,4.693389415740967,1335.202880859375,0
307.2620000000006,-0.06899677217006683,0.017250047996640205,-0.04499414935708046,0.0,0.0,0.0,0.0,-9.984838106902316e-05,1.5129923667700496e-05,-0.0025979396887123585,0.9983470439910889,0.0,0.0,0.0,-7.368608474731445,2.7098052501678467,4.698646068572998,1333.7327880859375,0
317.1740000000009,-0.06905916333198547,0.017265822738409042,-0.04501146450638771,0.0,0.0,0.0,0.0,0.0003010154759977013,-0.0009872887749224901,-0.0019101799698546529,1.0009801387786865,0.0,0.0,0.0,-7.36135196685791,2.7064454555511475,4.695981979370117,1332.4193115234375,0
327.08799999999974,-0.06898607313632965,0.017224261537194252,-0.04496349021792412,0.0,0.0,0.0,0.0,-0.00019542350491974503,0.008139947429299355,0.00043816291145049036,1.0017458200454712,0.0,0.0,0.0,-7.360407829284668,2.707589626312256,4.696285247802734,1332.24853515625,0
337.0079999999998,-0.06904830783605576,0.017238715663552284,-0.04498185217380524,0.0,0.0,0.0,0.0,0.0012551273684948683,-0.0016728349728509784,-0.0010213132482022047,0.9995684623718262,0.0,0.0,0.0,-7.352256774902344,2.706259250640869,4.689947605133057,1330.7730712890625,0
346.91799999999967,-0.06884846091270447,0.017191827297210693,-0.04486885294318199,0.0,0.0,0.0,0.0,0.001051971921697259,0.00017622506129555404,0.004438697826117277,0.9984720945358276,0.0,0.0,0.0,-7.344770908355713,2.698216438293457,4.6914963722229,1329.4180908203125,0
356.8250000000007,-0.06890514492988586,0.017207659780979156,-0.04488857090473175,0.0,0.0,0.0,0.0,-0.002664300613105297,-0.0008325021481141448,-0.0019314452074468136,1.0034452676773071,0.0,0.0,0.0,-7.336977481842041,2.6939620971679688,4.679688930511475,1328.0074462890625,0
366.7380000000012,-0.06886348873376846,0.017177844420075417,-0.0448656901717186,0.0,0.0,0.0,0.0,0.000707536528352648,-0.0029058645013719797,-0.00023150909692049026,1.0024333000183105,0.0,0.0,0.0,-7.341425895690918,2.6964616775512695,4.6940155029296875,1328.812744140625,0
376.64900000000125,-0.06891977041959763,0.01719229854643345,-0.04488406330347061,0.0,0.0,0.0,0.0,-0.0028929903637617826,-0.0006966153741814196,0.0006713142502121627,1.0027542114257812,0.0,0.0,0.0,-7.334826946258545,2.696042537689209,4.698898792266846,1327.6181640625,0
386.5709999999999,-0.0689772367477417,0.017206592485308647,-0.04489948973059654,0.0,0.0,0.0,0.0,-0.00019750659703277051,-0.0009814414661377668,-0.0001688440825091675,1.0012329816818237,0.0,0.0,0.0,-7.327578544616699,2.6989493370056152,4.697587013244629,1326.3062744140625,0
396.47400000000016,-0.06903700530529022,0.017220471054315567,-0.044912464916706085,0.0,0.0,0.0,0.0,-5.980373316560872e-05,0.0037019657902419567,-0.0028801187872886658,0.9993635416030884,0.0,0.0,0.0,-7.320513725280762,2.6927928924560547,4.696558952331543,1325.027587890625,0
406.39800000000105,-0.06879637390375137,0.01716715842485428,-0.04478483647108078,0.0,0.0,0.0,0.0,-0.003893535351380706,0.0008084173896349967,-0.0006361478590406477,1.0016063451766968,0.0,0.0,0.0,-7.322939872741699,2.717886209487915,4.723730564117432,1325.4666748046875,0
416.29299999999967,-0.06885068863630295,0.0171834547072649,-0.04479863867163658,0.0,0.0,0.0,0.0,0.00045797505299560726,-0.0018546133069321513,-0.004760332405567169,1.0005357265472412,0.0,0.0,0.0,-7.314725875854492,2.7229857444763184,4.7139105796813965,1323.9798583984375,0
426.21600000000035,-0.06890525668859482,0.017200065776705742,-0.04481128230690956,0.0,0.0,0.0,0.0,-0.0009445500909350812,-0.0016583397518843412,0.000289101037196815,1.0009645223617554,0.0,0.0,0.0,-7.309003829956055,2.7194464206695557,4.715646743774414,1322.9442138671875,0
436.1229999999996,-0.06896081566810608,0.017217209562659264,-0.044822756201028824,0.0,0.0,0.0,0.0,-0.0010353578254580498,0.0008948847535066307,-0.003719879547134042,1.00176203250885,0.0,0.0,0.0,-7.3025970458984375,2.7220122814178467,4.712562561035156,1321.7845458984375,0
446.0410000000011,-0.06853652745485306,0.017001241445541382,-0.04460858553647995,0.0,0.0,0.0,0.0,-0.0005033818888477981,0.0004149603482801467,-0.0016944407252594829,1.0003688335418701,0.0,0.0,0.0,-7.32169771194458,2.72478985786438,4.749507904052734,1325.2418212890625,0
455.9529999999995,-0.06858496367931366,0.01701469160616398,-0.0446217805147171,0.0,0.0,0.0,0.0,-0.0028571239672601223,-0.001658072229474783,0.002421323210000992,1.0018101930618286,0.0,0.0,0.0,-7.313786029815674,2.72332501411438,4.7444257736206055,1323.809814453125,0
465.8540000000012,-0.0686354711651802,0.01702789030969143,-0.04463382437825203,0.0,0.0,0.0,0.0,0.0018751529278233647,0.0011458488879725337,-0.0004878081672359258,1.0008132457733154,0.0,0.0,0.0,-7.306568622589111,2.723971366882324,4.738541126251221,1322.50341796875,0
495.59599999999955,-0.0683511421084404,0.016861949115991592,-0.044427067041397095,0.0,0.0,0.0,0.0,0.0012651864672079682,-0.0002499749243725091,-0.0011998163536190987,0.9995262622833252,0.0,0.0,0.0,-7.307680606842041,2.7297635078430176,4.754491806030273,1322.7047119140625,0
505.5020000000004,-0.06840121001005173,0.016873633489012718,-0.04443604499101639,0.0,0.0,0.0,0.0,5.7270211982540786e-05,-0.000477554218377918,-0.0027813129127025604,0.9993503093719482,0.0,0.0,0.0,-7.3003458976745605,2.7249250411987305,4.762267589569092,1321.377197265625,0
515.4160000000011,-0.06820123642683029,0.016790544614195824,-0.04435797035694122,0.0,0.0,0.0,0.0,0.0006687641725875437,-0.0002370808506384492,0.00022011414694134146,0.9993982911109924,0.0,0.0,0.0,-7.304364204406738,2.7314047813415527,4.786837577819824,1322.1044921875,0
525.3270000000011,-0.06824706494808197,0.016802359372377396,-0.044370137155056,0.0,0.0,0.0,0.0,-0.0032932136673480272,-0.002980376360937953,0.0029713702388107777,0.9997256398200989,0.0,0.0,0.0,-7.296605110168457,2.725713014602661,4.784258842468262,1320.7001953125,0
535.2389999999996,-0.06829632073640823,0.01683441922068596,-0.04442151263356209,0.0,0.0,0.0,0.0,0.001147052156738937,0.0011505110887810588,-0.0013609000016003847,1.000419020652771,0.0,0.0,0.0,-7.303511619567871,2.728269577026367,4.786001682281494,1321.9501953125,0
545.1499999999996,-0.06834258884191513,0.01684618555009365,-0.04443524032831192,0.0,0.0,0.0,0.0,-0.00018724625988397747,-0.0006094983546063304,0.001184722175821662,1.0011180639266968,0.0,0.0,0.0,-7.295920372009277,2.7232468128204346,4.7783708572387695,1320.576171875,0
555.0630000000001,-0.06808756291866302,0.01678582653403282,-0.04433031752705574,0.0,0.0,0.0,0.0,0.002032015472650528,0.0021262727677822113,0.0005350177525542676,1.0000778436660767,0.0,0.0,0.0,-7.311460018157959,2.7448949813842773,4.802477836608887,1323.3887939453125,0
564.9809999999998,-0.06812606006860733,0.016799388453364372,-0.04434533789753914,0.0,0.0,0.0,0.0,-0.002377586904913187,-0.003371120197698474,0.0016324707539752126,0.9991977214813232,0.0,0.0,0.0,-7.303511619567871,2.7425777912139893,4.799007415771484,1321.9501953125,0
574.8880000000008,-0.06816524267196655,0.016812076792120934,-0.04436016455292702,0.0,0.0,0.0,0.0,-0.000743592856451869,0.0003330844338051975,-0.0032618495170027018,1.0032204389572144,0.0,0.0,0.0,-7.295891761779785,2.7337357997894287,4.795269966125488,1320.571044921875,0
584.8040000000001,-0.06820574402809143,0.016825243830680847,-0.04437411576509476,0.0,0.0,0.0,0.0,0.002745485631749034,0.004302367568016052,0.0028305076994001865,1.0014897584915161,0.0,0.0,0.0,-7.2892937660217285,2.725644588470459,4.7938971519470215,1319.3765869140625,0
594.7139999999999,-0.06824741512537003,0.01683809421956539,-0.04438600316643715,0.0,0.0,0.0,0.0,-0.0007682046853005886,-0.003310937900096178,-0.0012118363520130515,1.0006083250045776,0.0,0.0,0.0,-7.281129837036133,2.724848508834839,4.790279865264893,1317.89892578125,0
604.6329999999998,-0.06829050928354263,0.016849827021360397,-0.044396255165338516,0.0,0.0,0.0,0.0,0.00021559814922511578,-0.0006495802663266659,-0.0006746355793438852,1.0001420974731445,0.0,0.0,0.0,-7.274142742156982,2.7229666709899902,4.785321235656738,1316.6343994140625,0
614.5529999999999,-0.06833556294441223,0.016861170530319214,-0.04440551623702049,0.0,0.0,0.0,0.0,0.002325624693185091,0.0026804516091942787,0.0006781260017305613,0.9984831213951111,0.0,0.0,0.0,-7.266842842102051,2.7162036895751953,4.783867835998535,1315.31298828125,0
624.4580000000005,-0.06838302314281464,0.016872882843017578,-0.044414836913347244,0.0,0.0,0.0,0.0,0.000680045282933861,0.0017540365224704146,0.0005763711524195969,1.0020496845245361,0.0,0.0,0.0,-7.25889253616333,2.720116138458252,4.780061721801758,1313.8740234375,0
634.371000000001,-0.06843251734972,0.016885505989193916,-0.0444241464138031,0.0,0.0,0.0,0.0,-0.0004862444184254855,0.0023362261708825827,-0.0029678763821721077,1.0024782419204712,0.0,0.0,0.0,-7.252569198608398,2.7135825157165527,4.768682956695557,1312.7294921875,0
644.2820000000011,-0.06848304718732834,0.016899384558200836,-0.04443187266588211,0.0,0.0,0.0,0.0,-0.0019250338664278388,0.00039095713873393834,0.001004661899060011,1.003896951675415,0.0,0.0,0.0,-7.24556827545166,2.7125463485717773,4.750337600708008,1311.4622802734375,0
654.1949999999997,-0.06853422522544861,0.01691482774913311,-0.04443666338920593,0.0,0.0,0.0,0.0,7.579707744298503e-05,0.0010335047263652086,-3.0170651825756067e-06,1.0008716583251953,0.0,0.0,0.0,-7.2378411293029785,2.7140066623687744,4.745058536529541,1310.0635986328125,0
664.1020000000008,-0.06859175860881805,0.01693291962146759,-0.04443873465061188,0.0,0.0,0.0,0.0,-0.0008409202564507723,0.00039116910193115473,0.00032283898326568305,1.000887155532837,0.0,0.0,0.0,-7.229780673980713,2.7145228385925293,4.741052627563477,1308.6046142578125,0
674.0079999999998,-0.06864529103040695,0.016949012875556946,-0.044439010322093964,0.0,0.0,0.0,0.0,0.0004096526827197522,0.0038798432797193527,0.0016784771578386426,1.0004345178604126,0.0,0.0,0.0,-7.223056316375732,2.704901695251465,4.730825901031494,1307.3875732421875,0
683.9250000000011,-0.06869961321353912,0.01696472242474556,-0.04443855956196785,0.0,0.0,0.0,0.0,-0.000911612412892282,-0.0020576855167746544,0.002869850490242243,1.0007394552230835,0.0,0.0,0.0,-7.21592903137207,2.6957802772521973,4.717583656311035,1306.097412109375,0
693.8469999999998,-0.0687543973326683,0.016980543732643127,-0.04443748667836189,0.0,0.0,0.0,0.0,0.0001451853895559907,0.0035503776744008064,-0.0036640181206166744,0.9986913204193115,0.0,0.0,0.0,-7.207908630371094,2.6903345584869385,4.715322971343994,1304.645751953125,0
703.7510000000002,-0.06881004571914673,0.01699661836028099,-0.044436004012823105,0.0,0.0,0.0,0.0,-0.003036974463611841,0.00015261414228007197,0.0006721073877997696,1.000227928161621,0.0,0.0,0.0,-7.200278282165527,2.689821243286133,4.706414699554443,1303.2646484375,0
713.6660000000011,-0.06886781007051468,0.017013708129525185,-0.04443490505218506,0.0,0.0,0.0,0.0,-0.0035073638428002596,0.0010937527986243367,0.0010879714973270893,1.0005407333374023,0.0,0.0,0.0,-7.193386554718018,2.6919429302215576,4.699012756347656,1302.0172119140625,0
723.5730000000003,-0.06892746686935425,0.017032302916049957,-0.044433653354644775,0.0,0.0,0.0,0.0,-0.002023224253207445,-0.0006124710198491812,0.0022820045705884695,0.9995172023773193,0.0,0.0,0.0,-7.185362815856934,2.6940245628356934,4.686595439910889,1300.56494140625,0
733.4860000000008,-0.06898802518844604,0.01705200783908367,-0.04443177953362465,0.0,0.0,0.0,0.0,0.0011344411177560687,-0.0017454663757234812,0.0017974893562495708,0.997908353805542,0.0,0.0,0.0,-7.179927825927734,2.696352005004883,4.6790032386779785,1299.581298828125,0
743.3940000000002,-0.06904949992895126,0.017071355134248734,-0.04443046450614929,0.0,0.0,0.0,0.0,-0.00038860025233589113,-0.0016983196837827563,-0.00026740541215986013,0.9986383318901062,0.0,0.0,0.0,-7.172757625579834,2.6912455558776855,4.675846576690674,1298.283447265625,0
753.3150000000005,-0.06911177933216095,0.017089562490582466,-0.04443082585930824,0.0,0.0,0.0,0.0,-0.0012698706705123186,-0.00023938852245919406,0.00047861511120572686,0.9988096356391907,0.0,0.0,0.0,-7.165650844573975,2.6920406818389893,4.677058696746826,1296.9969482421875,0
763.2270000000008,-0.06917461007833481,0.017107496038079262,-0.04443233832716942,0.0,0.0,0.0,0.0,-0.0005704900249838829,0.0006724887643940747,-0.002804338466376066,0.9983088374137878,0.0,0.0,0.0,-7.1574387550354,2.6875064373016357,4.672153472900391,1295.5106201171875,0
773.1360000000004,-0.06923826038837433,0.01712547428905964,-0.044434741139411926,0.0,0.0,0.0,0.0,-0.0006559158791787922,-0.004686170723289251,-0.0021482955198735,0.9979565739631653,0.0,0.0,0.0,-7.151295185089111,2.6883082389831543,4.664853572845459,1294.3985595703125,0
783.0450000000001,-0.06930311769247055,0.01714302785694599,-0.04443879425525665,0.0,0.0,0.0,0.0,-0.0014420163352042437,-9.807739843381569e-05,0.0007453142898157239,0.9997614026069641,0.0,0.0,0.0,-7.144902229309082,2.6898391246795654,4.675775051116943,1293.241455078125,0
792.9570000000003,-0.06936918944120407,0.01715988665819168,-0.04444403201341629,0.0,0.0,0.0,0.0,-0.0004972807946614921,0.005162927322089672,-0.0003485411580186337,1.0013195276260376,0.0,0.0,0.0,-7.137071132659912,2.6897788047790527,4.679651737213135,1291.8240966796875,0
802.8670000000002,-0.06943631917238235,0.017176153138279915,-0.04444890096783638,0.0,0.0,0.0,0.0,0.000974021852016449,0.00445668026804924,0.0005019636591896415,1.002556562423706,0.0,0.0,0.0,-7.130173206329346,2.6848859786987305,4.666637897491455,1290.5755615234375,0
812.7929999999997,-0.06950444728136063,0.017192088067531586,-0.0444522500038147,0.0,0.0,0.0,0.0,0.0003824320447165519,0.002566391369327903,-0.0008614932303316891,1.002536654472351,0.0,0.0,0.0,-7.122958660125732,2.6821036338806152,4.654247760772705,1289.269775390625,0
822.6930000000011,-0.06957355886697769,0.017207715660333633,-0.04445311427116394,0.0,0.0,0.0,0.0,-6.257672066567466e-05,6.470403604907915e-05,0.00019625108689069748,0.9987805485725403,0.0,0.0,0.0,-7.115837574005127,2.6763551235198975,4.644934177398682,1287.9808349609375,0
832.607,-0.06964342296123505,0.01722349226474762,-0.04445219039916992,0.0,0.0,0.0,0.0,-0.003444141708314419,-0.0017973700305446982,-0.0037958889733999968,0.9973728656768799,0.0,0.0,0.0,-7.109416484832764,2.671861410140991,4.637152194976807,1286.8184814453125,0
842.5169999999998,-0.06971355527639389,0.017239699140191078,-0.044452205300331116,0.0,0.0,0.0,0.0,0.0009836518438532948,0.0003683652321342379,-0.00207496271468699,0.9984246492385864,0.0,0.0,0.0,-7.102862358093262,2.672687292098999,4.6267170906066895,1285.6322021484375,0
852.4279999999999,-0.06978407502174377,0.01725604198873043,-0.044454336166381836,0.0,0.0,0.0,0.0,0.003420222783461213,0.0013225883012637496,-0.0017539381515234709,0.999961793422699,0.0,0.0,0.0,-7.096162796020508,2.669398546218872,4.630177974700928,1284.419677734375,0
862.344000000001,-0.06985538452863693,0.017272748053073883,-0.04445774853229523,0.0,0.0,0.0,0.0,0.002371748210862279,0.0037236495409160852,-0.0008789248531684279,1.0006868839263916,0.0,0.0,0.0,-7.089839935302734,2.6643970012664795,4.6163740158081055,1283.275146484375,0
872.2700000000004,-0.06992744654417038,0.017290543764829636,-0.04446110501885414,0.0,0.0,0.0,0.0,0.0018074384424835443,-0.001812237431295216,-0.00410295557230711,1.00043523311615,0.0,0.0,0.0,-7.082517623901367,2.652057647705078,4.604515552520752,1281.94970703125,0
882.1700000000001,-0.06999987363815308,0.0173091571778059,-0.04446368291974068,0.0,0.0,0.0,0.0,0.002141998615115881,0.0022997199557721615,-0.0037430240772664547,0.9995864629745483,0.0,0.0,0.0,-7.075227737426758,2.6520888805389404,4.605965614318848,1280.63037109375,0
892.0799999999999,-0.07007282972335815,0.017327141016721725,-0.04446626827120781,0.0,0.0,0.0,0.0,0.0030886358581483364,-0.0019026759546250105,0.0005916192894801497,0.9998573064804077,0.0,0.0,0.0,-7.070435047149658,2.644841432571411,4.593966960906982,1279.7628173828125,0
901.9920000000002,-0.07014665007591248,0.017344089224934578,-0.04446924105286598,0.0,0.0,0.0,0.0,0.0029550609178841114,0.0015528962248936296,-0.0011365314712747931,1.0010898113250732,0.0,0.0,0.0,-7.062474727630615,2.6392276287078857,4.589098930358887,1278.322021484375,0
911.9050000000007,-0.07022231072187424,0.017360474914312363,-0.044471900910139084,0.0,0.0,0.0,0.0,-0.0016837738221511245,-0.0029688826762139797,0.0016599964583292603,1.000079870223999,0.0,0.0,0.0,-7.056830406188965,2.6287622451782227,4.584048271179199,1277.30029296875,0
921.8130000000001,-0.07030075043439865,0.01737605594098568,-0.0444737933576107,0.0,0.0,0.0,0.0,-0.0005979557754471898,-0.0021435110829770565,0.0019487099489197135,1.0006134510040283,0.0,0.0,0.0,-7.049404144287109,2.6262569427490234,4.576396942138672,1275.9560546875,0
931.7350000000006,-0.07038144022226334,0.017391135916113853,-0.044475071132183075,0.0,0.0,0.0,0.0,-0.002154414774850011,-0.002111384179443121,-0.0014772317372262478,1.0008336305618286,0.0,0.0,0.0,-7.042247295379639,2.6269690990448,4.57991361618042,1274.6607666015625,0
941.6400000000012,-0.07046400010585785,0.017406566068530083,-0.044475581496953964,0.0,0.0,0.0,0.0,0.0011680091265588999,0.0019070879789069295,-0.001578179537318647,1.0002561807632446,0.0,0.0,0.0,-7.034152984619141,2.624635696411133,4.584288597106934,1273.1956787109375,0
951.5640000000003,-0.07054851204156876,0.017421819269657135,-0.04447513446211815,0.0,0.0,0.0,0.0,-0.0004171542823314667,0.0012982521438971162,-0.0008146139443852007,1.0018283128738403,0.0,0.0,0.0,-7.027816295623779,2.617565631866455,4.575878620147705,1272.0487060546875,0
961.4700000000012,-0.07063514739274979,0.017436299473047256,-0.044473666697740555,0.0,0.0,0.0,0.0,0.00010110737639479339,-0.0006155146402306855,-0.006914051249623299,1.0019367933273315,0.0,0.0,0.0,-7.02166223526001,2.6161084175109863,4.565403461456299,1270.9349365234375,0
971.3880000000008,-0.070723757147789,0.017450135201215744,-0.044470466673374176,0.0,0.0,0.0,0.0,-0.0007553304894827306,0.0026871287263929844,-0.001551465131342411,0.9995707273483276,0.0,0.0,0.0,-7.015345096588135,2.6179184913635254,4.55869722366333,1269.7913818359375,0
981.2860000000001,-0.07081399112939835,0.01746312715113163,-0.044466085731983185,0.0,0.0,0.0,0.0,-0.0014418436912819743,-1.4036491847946309e-05,0.00046735568321309984,1.0006332397460938,0.0,0.0,0.0,-7.008845806121826,2.615602731704712,4.551245212554932,1268.6151123046875,0
991.210000000001,-0.07090561091899872,0.017475061118602753,-0.044461436569690704,0.0,0.0,0.0,0.0,-0.002445798832923174,-0.0034786162432283163,-0.0017775646410882473,0.9995229244232178,0.0,0.0,0.0,-7.002096176147461,2.61299467086792,4.545793533325195,1267.393310546875,0
1001.1090000000004,-0.07100800424814224,0.017486296594142914,-0.04445602372288704,0.0,0.0,0.0,0.0,-0.0014137910911813378,0.0011580957798287272,-0.006598921958357096,0.998973548412323,0.0,0.0,0.0,-6.996151924133301,2.618584156036377,4.5399861335754395,1266.3173828125,0
1011.0370000000003,-0.06787078827619553,0.01681075431406498,-0.044062696397304535,0.0,0.0,0.0,0.0,0.0030914274975657463,-0.0036992798559367657,0.0005645073251798749,1.00016188621521,0.0,0.0,0.0,-7.071315288543701,2.6825857162475586,4.708645343780518,1279.922119140625,0
1020.9490000000005,-0.06790471822023392,0.016819871962070465,-0.044074587523937225,0.0,0.0,0.0,0.0,0.0008966090972535312,-0.0013446593657135963,0.002429456217214465,1.0017486810684204,0.0,0.0,0.0,-7.0642547607421875,2.6765432357788086,4.710961818695068,1278.6441650390625,0
1030.8590000000004,-0.0680575743317604,0.016928501427173615,-0.04432228207588196,0.0,0.0,0.0,0.0,0.0016622677212581038,-5.897005394217558e-05,-0.0010421806946396828,1.0014225244522095,0.0,0.0,0.0,-7.108917713165283,2.676687002182007,4.720354080200195,1286.728271484375,0
1040.764000000001,-0.06809162348508835,0.016939500346779823,-0.04433491453528404,0.0,0.0,0.0,0.0,-0.0005990851786918938,-0.0011922984849661589,0.0001537518692202866,1.0005786418914795,0.0,0.0,0.0,-7.102155685424805,2.6726884841918945,4.714987277984619,1285.5042724609375,0
1050.6720000000005,-0.06813883781433105,0.016917584463953972,-0.04445851966738701,0.0,0.0,0.0,0.0,-0.001035053632222116,-0.005188195034861565,-0.0030050170607864857,1.00053870677948,0.0,0.0,0.0,-7.153343677520752,2.6675925254821777,4.720705986022949,1294.7694091796875,0
1060.5860000000011,-0.0681757777929306,0.016925636678934097,-0.044472020119428635,0.0,0.0,0.0,0.0,-0.0007740101427771151,0.0032745706848800182,0.0007992872851900756,1.0003180503845215,0.0,0.0,0.0,-7.147416114807129,2.6690845489501953,4.7264862060546875,1293.696533203125,0
1070.514000000001,-0.06826366484165192,0.016948441043496132,-0.04459112882614136,0.0,0.0,0.0,0.0,-0.0028167427517473698,-0.00016298536502290517,0.004921950865536928,0.9982592463493347,0.0,0.0,0.0,-7.1820902824401855,2.6686675548553467,4.723593711853027,1299.97265625,0
1080.4080000000013,-0.06830307096242905,0.016955068334937096,-0.04460585489869118,0.0,0.0,0.0,0.0,-0.005562677979469299,-0.0017078665550798178,-2.6819230697583407e-05,0.9996440410614014,0.0,0.0,0.0,-7.173905372619629,2.67305850982666,4.7192702293396,1298.4912109375,0
1090.3340000000007,-0.06836807727813721,0.017023978754878044,-0.04467526078224182,0.0,0.0,0.0,0.0,-0.001998614752665162,-0.00287190405651927,-0.007551788818091154,1.000386357307434,0.0,0.0,0.0,-7.1958231925964355,2.6887435913085938,4.726085186004639,1302.458251953125,0
1100.2309999999998,-0.06840884685516357,0.017030278220772743,-0.0446917861700058,0.0,0.0,0.0,0.0,-0.0016242630081251264,0.0010451286798343062,0.001904102275148034,1.0014160871505737,0.0,0.0,0.0,-7.189265251159668,2.684556722640991,4.729914665222168,1301.2713623046875,0
1110.1540000000005,-0.06844685226678848,0.01702963560819626,-0.04473571851849556,0.0,0.0,0.0,0.0,0.0024366802535951138,-0.004279228858649731,0.0005454235943034291,0.9999832510948181,0.0,0.0,0.0,-7.223334312438965,2.6862478256225586,4.725146770477295,1307.437744140625,0
1120.0689999999995,-0.06849230825901031,0.01703362539410591,-0.04475156217813492,0.0,0.0,0.0,0.0,-0.0011575326789170504,-0.0017330767586827278,0.004332618322223425,0.9997807741165161,0.0,0.0,0.0,-7.215746879577637,2.6832611560821533,4.727651119232178,1306.064453125,0
1129.987000000001,-0.06843578070402145,0.016994748264551163,-0.044724270701408386,0.0,0.0,0.0,0.0,0.002789753256365657,-0.0011332237627357244,-0.000648092885967344,0.99927818775177,0.0,0.0,0.0,-7.225567817687988,2.6876349449157715,4.738002777099609,1307.842041015625,0
1139.880000000001,-0.06847888976335526,0.017000170424580574,-0.0447414293885231,0.0,0.0,0.0,0.0,-0.002677910728380084,-0.0001122349058277905,-0.0021277833729982376,1.0018621683120728,0.0,0.0,0.0,-7.21803617477417,2.678820848464966,4.735699653625488,1306.4788818359375,0
1149.8050000000003,-0.0685209184885025,0.01700618863105774,-0.044758390635252,0.0,0.0,0.0,0.0,0.002325225155800581,-0.0011475452920421958,-0.004185367375612259,1.002079725265503,0.0,0.0,0.0,-7.212033748626709,2.676891565322876,4.728654384613037,1305.3924560546875,0
1159.7060000000001,-0.06856216490268707,0.017011716961860657,-0.04477374628186226,0.0,0.0,0.0,0.0,0.002032242715358734,0.004363011568784714,-0.0015301649691537023,1.0007659196853638,0.0,0.0,0.0,-7.204869747161865,2.673395872116089,4.72826623916626,1304.0958251953125,0
1169.625,-0.0686313658952713,0.017123935744166374,-0.04487259313464165,0.0,0.0,0.0,0.0,0.0017277507577091455,0.001189148984849453,0.0018048916244879365,1.0006860494613647,0.0,0.0,0.0,-7.219448089599609,2.6927402019500732,4.744240760803223,1306.734375,0
1179.5310000000009,-0.06867237389087677,0.01713396981358528,-0.044886719435453415,0.0,0.0,0.0,0.0,-0.00026681015151552856,-0.005703422240912914,0.001114439102821052,1.000943899154663,0.0,0.0,0.0,-7.212523937225342,2.68343186378479,4.727657794952393,1305.4810791015625,0
1189.4670000000006,-0.06870397180318832,0.01720733568072319,-0.0449453741312027,0.0,0.0,0.0,0.0,-0.0005776275647804141,0.005890434607863426,0.0011349291307851672,0.9982503056526184,0.0,0.0,0.0,-7.228315353393555,2.707249164581299,4.744213104248047,1308.33935546875,0
1199.362000000001,-0.06874764710664749,0.017221586778759956,-0.04495971277356148,0.0,0.0,0.0,0.0,0.0006757940864190459,-0.0005380508955568075,0.004330270458012819,1.0010484457015991,0.0,0.0,0.0,-7.220430850982666,2.704324722290039,4.740697860717773,1306.912353515625,0
1209.2800000000007,-0.06890787184238434,0.017347093671560287,-0.045109812170267105,0.0,0.0,0.0,0.0,0.0021758635994046926,-0.0029245708137750626,0.004763773642480373,1.0009288787841797,0.0,0.0,0.0,-7.228354454040527,2.7166190147399902,4.747720241546631,1308.346435546875,0
1219.1800000000003,-0.0689537525177002,0.017364665865898132,-0.04512511566281319,0.0,0.0,0.0,0.0,-0.001000471063889563,-3.391208156244829e-05,0.0003009020583704114,1.0021913051605225,0.0,0.0,0.0,-7.2205810546875,2.704432249069214,4.733983993530273,1306.939453125,0
1229.1010000000006,-0.06904390454292297,0.01743578165769577,-0.045221708714962006,0.0,0.0,0.0,0.0,-0.0006324785645119846,-0.0003308143059257418,0.00026762072229757905,1.0023175477981567,0.0,0.0,0.0,-7.2345685958862305,2.7120437622070312,4.739333629608154,1309.4713134765625,0
1239.009,-0.06908819824457169,0.0174543559551239,-0.04523506388068199,0.0,0.0,0.0,0.0,-0.004053317476063967,-0.0035027603153139353,-0.0006630109855905175,0.9997580051422119,0.0,0.0,0.0,-7.226618766784668,2.7102925777435303,4.7324604988098145,1308.0323486328125,0
1248.924000000001,-0.0690685585141182,0.017462119460105896,-0.045225370675325394,0.0,0.0,0.0,0.0,0.0006469188374467194,0.0008786485414020717,-0.0014820356154814363,1.0003149509429932,0.0,0.0,0.0,-7.233663558959961,2.711388111114502,4.740694046020508,1309.3074951171875,0
1258.8310000000001,-0.06911235302686691,0.01747872866690159,-0.04523767530918121,0.0,0.0,0.0,0.0,0.0018134703859686852,0.0030047856271266937,0.0013773607788607478,0.999428927898407,0.0,0.0,0.0,-7.226502895355225,2.709040641784668,4.736776828765869,1308.0113525390625,0
1268.7579999999998,-0.06902088224887848,0.01739092543721199,-0.04516967758536339,0.0,0.0,0.0,0.0,0.0027938068378716707,0.0006907053757458925,0.004345220047980547,0.998935878276825,0.0,0.0,0.0,-7.2466630935668945,2.7014763355255127,4.733039379119873,1311.660400390625,0
1278.6540000000005,-0.06906482577323914,0.0174061581492424,-0.045183610171079636,0.0,0.0,0.0,0.0,0.002644638065248728,0.0015001604333519936,0.0005525669548660517,0.9983721375465393,0.0,0.0,0.0,-7.238556385040283,2.692763328552246,4.723697662353516,1310.1932373046875,0
1288.5730000000003,-0.06913184374570847,0.01741858758032322,-0.04522224888205528,0.0,0.0,0.0,0.0,0.0008419141522608697,0.00034857928403653204,-0.00017325366206932813,0.9989414811134338,0.0,0.0,0.0,-7.2492876052856445,2.677741050720215,4.71458625793457,1312.135498046875,0
1298.4760000000006,-0.06917797774076462,0.01743265613913536,-0.04523904249072075,0.0,0.0,0.0,0.0,0.0008129181223921478,-0.00087797298328951,0.002341543324291706,1.000436544418335,0.0,0.0,0.0,-7.241928577423096,2.6716148853302,4.705938816070557,1310.803466796875,0
1308.3950000000004,-0.06922094523906708,0.017486995086073875,-0.04530272260308266,0.0,0.0,0.0,0.0,-0.0017920800019055605,0.006944041699171066,-0.00010297236440237612,1.0010082721710205,0.0,0.0,0.0,-7.246222496032715,2.6733946800231934,4.712116241455078,1311.5806884765625,0
1318.300000000001,-0.06926602870225906,0.017502471804618835,-0.04532086104154587,0.0,0.0,0.0,0.0,-0.0015505107585340738,0.0013049711706116796,-0.003558145835995674,1.0032743215560913,0.0,0.0,0.0,-7.238779067993164,2.6680335998535156,4.6969404220581055,1310.2333984375,0
1328.2290000000012,-0.06931137293577194,0.017517853528261185,-0.04533692076802254,0.0,0.0,0.0,0.0,-0.0032856953330338,-0.004421161487698555,0.0008223116165027022,1.0015567541122437,0.0,0.0,0.0,-7.232451915740967,2.664368152618408,4.693654537200928,1309.088134765625,0
1338.134,-0.06935776025056839,0.017533358186483383,-0.04535051807761192,0.0,0.0,0.0,0.0,0.0039254664443433285,0.005510927643626928,0.0008360375068150461,1.0004409551620483,0.0,0.0,0.0,-7.225223064422607,2.6669154167175293,4.695845603942871,1307.7796630859375,0
1348.0460000000003,-0.06956607103347778,0.017679503187537193,-0.04550329968333244,0.0,0.0,0.0,0.0,-0.0006544142379425466,-0.00022030588297639042,-0.004017534200102091,0.9968774914741516,0.0,0.0,0.0,-7.23745584487915,2.673393964767456,4.6827898025512695,1309.993896484375,0
1357.9619999999995,-0.069615438580513,0.01769760623574257,-0.04551739618182182,0.0,0.0,0.0,0.0,-0.00018673196609597653,-0.0014523668214678764,-0.0020091072656214237,0.9977143406867981,0.0,0.0,0.0,-7.231888294219971,2.6715869903564453,4.678762435913086,1308.9862060546875,0
1367.884,-0.06961067765951157,0.017723090946674347,-0.04550408571958542,0.0,0.0,0.0,0.0,-0.0024330264423042536,0.00017787879914976656,0.0047396388836205006,0.9991521835327148,0.0,0.0,0.0,-7.245311260223389,2.6801657676696777,4.681575775146484,1311.4158935546875,0
1377.7810000000009,-0.06966118514537811,0.017743369564414024,-0.045521944761276245,0.0,0.0,0.0,0.0,-0.00040523262578062713,-0.0022486457601189613,0.00026756024453788996,1.0006791353225708,0.0,0.0,0.0,-7.236451625823975,2.6799943447113037,4.6766462326049805,1309.8121337890625,0
1387.6990000000005,-0.06945744901895523,0.01760122925043106,-0.04537629336118698,0.0,0.0,0.0,0.0,-0.0007013005670160055,0.001356355263851583,0.0006158186006359756,1.0005478858947754,0.0,0.0,0.0,-7.242793560028076,2.670595407485962,4.68630313873291,1310.960205078125,0
1397.5969999999998,-0.06950730085372925,0.01761888898909092,-0.04539432004094124,0.0,0.0,0.0,0.0,2.1501717128558084e-05,0.002625728026032448,0.0016539713833481073,1.0024181604385376,0.0,0.0,0.0,-7.235486030578613,2.6669390201568604,4.678040981292725,1309.637451171875,0
1407.5220000000008,-0.06955916434526443,0.017636757344007492,-0.045410867780447006,0.0,0.0,0.0,0.0,0.0005647637881338596,-0.004563063383102417,-0.0012138300808146596,1.0025626420974731,0.0,0.0,0.0,-7.228399753570557,2.6575093269348145,4.663636684417725,1308.3546142578125,0
1417.4210000000003,-0.06961317360401154,0.017654411494731903,-0.045425038784742355,0.0,0.0,0.0,0.0,0.00011675470159389079,-0.004287392366677523,-0.001635879511013627,1.0006458759307861,0.0,0.0,0.0,-7.22111701965332,2.6573362350463867,4.669346332550049,1307.0364990234375,0
1427.3450000000012,-0.06934835761785507,0.017574550583958626,-0.0452914722263813,0.0,0.0,0.0,0.0,-0.0003215408360119909,0.0011972645297646523,0.0023098618257790804,0.9988304972648621,0.0,0.0,0.0,-7.229112148284912,2.6764819622039795,4.69266939163208,1308.483642578125,0
1437.25,-0.06939850002527237,0.017594601958990097,-0.04530652239918709,0.0,0.0,0.0,0.0,0.0007744859904050827,0.0037056843284517527,-0.003405429655686021,0.9990881681442261,0.0,0.0,0.0,-7.2213640213012695,2.6755497455596924,4.685215950012207,1307.081298828125,0
1447.1800000000003,-0.0694132000207901,0.017575619742274284,-0.04532620310783386,0.0,0.0,0.0,0.0,-0.0001995093480218202,-0.0024961046874523163,-0.00035149697214365005,1.001120924949646,0.0,0.0,0.0,-7.234744071960449,2.667980909347534,4.677248477935791,1309.5030517578125,0
1457.076000000001,-0.06946457922458649,0.017595555633306503,-0.04534335434436798,0.0,0.0,0.0,0.0,0.0008187027997337282,-0.0006305484566837549,0.0006375469965860248,1.0008987188339233,0.0,0.0,0.0,-7.227871417999268,2.6659746170043945,4.679515838623047,1308.259033203125,0
1467.0010000000002,-0.06921611726284027,0.017499633133411407,-0.04520969092845917,0.0,0.0,0.0,0.0,-0.00041753126424737275,-0.0011532194912433624,0.0019093756563961506,1.0002213716506958,0.0,0.0,0.0,-7.2365007400512695,2.671633243560791,4.694695949554443,1309.8211669921875,0
1476.902,-0.0692644789814949,0.01751924306154251,-0.045227035880088806,0.0,0.0,0.0,0.0,0.004017261788249016,0.0026466434355825186,-0.00144671811722219,0.9998579025268555,0.0,0.0,0.0,-7.22891902923584,2.6666183471679688,4.690666675567627,1308.4486083984375,0
1486.8230000000003,-0.06919906288385391,0.017517399042844772,-0.04522714391350746,0.0,0.0,0.0,0.0,0.0028856464195996523,0.00044006420648656785,0.0022286747116595507,1.0018404722213745,0.0,0.0,0.0,-7.239206790924072,2.669231653213501,4.69027042388916,1310.3109130859375,0
1496.7350000000006,-0.0692458525300026,0.017537949606776237,-0.04524555802345276,0.0,0.0,0.0,0.0,-0.0010056833270937204,0.000715588335879147,0.0015315152704715729,1.00040602684021,0.0,0.0,0.0,-7.231965065002441,2.6600253582000732,4.681368827819824,1309.0001220703125,0
1506.639000000001,-0.06921958923339844,0.017551207914948463,-0.0452767014503479,0.0,0.0,0.0,0.0,-0.0016915698070079088,0.002332059433683753,0.002835816005244851,0.9986311793327332,0.0,0.0,0.0,-7.253951549530029,2.6653172969818115,4.688992023468018,1312.9796142578125,0
1516.5529999999999,-0.06926599144935608,0.01757054775953293,-0.04529624804854393,0.0,0.0,0.0,0.0,0.0030747530981898308,0.0036843083798885345,0.0006587403477169573,1.0005381107330322,0.0,0.0,0.0,-7.246039867401123,2.6676580905914307,4.678836345672607,1311.547607421875,0
1526.4650000000001,-0.06922058016061783,0.01755993440747261,-0.045280035585165024,0.0,0.0,0.0,0.0,-0.0008055481594055891,0.003594441805034876,0.00010797505092341453,1.0011097192764282,0.0,0.0,0.0,-7.253152370452881,2.6663291454315186,4.672788619995117,1312.8349609375,0
1536.3760000000002,-0.06926772743463516,0.017579924315214157,-0.04530044272542,0.0,0.0,0.0,0.0,-0.0006669968133792281,-0.0006288743461482227,0.0009281369857490063,1.0007661581039429,0.0,0.0,0.0,-7.2465314865112305,2.665745258331299,4.657728672027588,1311.6365966796875,0
1546.2890000000007,-0.06918507814407349,0.017499558627605438,-0.04526357725262642,0.0,0.0,0.0,0.0,-0.0011274571297690272,-0.004999175667762756,-0.0003581606724765152,1.0006580352783203,0.0,0.0,0.0,-7.260879039764404,2.6530394554138184,4.6585187911987305,1314.233642578125,0
1556.2000000000007,-0.06923320144414902,0.017516054213047028,-0.04528352990746498,0.0,0.0,0.0,0.0,0.0012615072773769498,0.004718209616839886,0.001287909341044724,1.00113844871521,0.0,0.0,0.0,-7.253320693969727,2.652674436569214,4.666019439697266,1312.865478515625,0
1566.1130000000012,-0.06919929385185242,0.01752118207514286,-0.045286037027835846,0.0,0.0,0.0,0.0,-0.0020558261312544346,0.0011946435552090406,-2.425962702545803e-05,1.0020099878311157,0.0,0.0,0.0,-7.259525299072266,2.655874252319336,4.663379669189453,1313.988525390625,0
1576.027,-0.06924581527709961,0.01753857173025608,-0.04530469700694084,0.0,0.0,0.0,0.0,-0.0018594810971990228,0.00018366807489655912,0.0016846918733790517,1.0017414093017578,0.0,0.0,0.0,-7.252752780914307,2.6597506999969482,4.651834487915039,1312.7626953125,0
1585.9439999999995,-0.0693536177277565,0.017603890970349312,-0.04542462155222893,0.0,0.0,0.0,0.0,-0.0006455712718889117,0.0034134474117308855,-0.0012006761971861124,1.0014194250106812,0.0,0.0,0.0,-7.270514011383057,2.6586945056915283,4.6472086906433105,1315.9774169921875,0
1595.8590000000004,-0.06940293312072754,0.017620941624045372,-0.04544184356927872,0.0,0.0,0.0,0.0,0.0025171872694045305,-0.0036080849822610617,0.001347389887087047,0.9999094009399414,0.0,0.0,0.0,-7.26333475112915,2.656771183013916,4.633692264556885,1314.677978515625,0
1605.7610000000004,-0.06943058967590332,0.017553677782416344,-0.045464180409908295,0.0,0.0,0.0,0.0,0.0013714348897337914,0.004071367438882589,0.0008419209043495357,1.0005028247833252,0.0,0.0,0.0,-7.290076732635498,2.6311464309692383,4.632008075714111,1319.518310546875,0
1615.6720000000005,-0.06948427110910416,0.017563609406352043,-0.045481566339731216,0.0,0.0,0.0,0.0,0.004442629870027304,-0.0010338709689676762,-0.0007343725301325321,1.0009530782699585,0.0,0.0,0.0,-7.282494068145752,2.6282765865325928,4.627915859222412,1318.1458740234375,0
1625.585000000001,-0.06951804459095001,0.01756698451936245,-0.04549521207809448,0.0,0.0,0.0,0.0,-0.00205658539198339,0.0002323787921341136,0.004264702554792166,0.9997975826263428,0.0,0.0,0.0,-7.286373615264893,2.6232008934020996,4.632582664489746,1318.8480224609375,0
1635.4979999999996,-0.0695732906460762,0.01757652498781681,-0.0455113984644413,0.0,0.0,0.0,0.0,0.003939189016819,0.0013232955243438482,0.00015582889318466187,0.9992578625679016,0.0,0.0,0.0,-7.277414321899414,2.6244049072265625,4.630900859832764,1317.2264404296875,0
1645.416000000001,-0.06964090466499329,0.017612578347325325,-0.0455649197101593,0.0,0.0,0.0,0.0,0.0007206322043202817,0.0005708057433366776,-0.00017621979350224137,1.0011481046676636,0.0,0.0,0.0,-7.284919738769531,2.6179068088531494,4.6313347816467285,1318.5848388671875,0
1655.3150000000005,-0.06969784945249557,0.01762288063764572,-0.04558217152953148,0.0,0.0,0.0,0.0,0.00011646643542917445,-0.000904141808860004,0.0019151894375681877,1.0009840726852417,0.0,0.0,0.0,-7.277957916259766,2.6079049110412598,4.625783443450928,1317.3248291015625,0
1665.2489999999998,-0.06962644308805466,0.01763722486793995,-0.04557175561785698,0.0,0.0,0.0,0.0,-0.0019294380908831954,-0.0005814045434817672,0.0003465128247626126,1.0015133619308472,0.0,0.0,0.0,-7.295992374420166,2.6205646991729736,4.644564151763916,1320.5892333984375,0
1675.148000000001,-0.06968219578266144,0.017647089436650276,-0.045588377863168716,0.0,0.0,0.0,0.0,-0.0010645096190273762,0.0005519441911019385,0.005460971966385841,1.000333309173584,0.0,0.0,0.0,-7.289062023162842,2.616903066635132,4.6457200050354,1319.3345947265625,0
1685.062,-0.0694039985537529,0.017486851662397385,-0.04541167616844177,0.0,0.0,0.0,0.0,-0.0035827935207635164,-0.0013548069400712848,0.0017468930454924703,0.9991949796676636,0.0,0.0,0.0,-7.304762363433838,2.6195430755615234,4.66452169418335,1322.1766357421875,0
1694.9799999999996,-0.06945633143186569,0.017492858693003654,-0.04542862996459007,0.0,0.0,0.0,0.0,-0.0016457389574497938,-0.003758008126169443,-0.0024628336541354656,0.9988464713096619,0.0,0.0,0.0,-7.297436714172363,2.6230814456939697,4.660186767578125,1320.8507080078125,0
1704.8880000000008,-0.0692979022860527,0.01740548387169838,-0.045359332114458084,0.0,0.0,0.0,0.0,0.0031389754731208086,0.0019033263670280576,-0.0017716143047437072,1.0023908615112305,0.0,0.0,0.0,-7.313566207885742,2.6252527236938477,4.67889404296875,1323.77001953125,0
1714.7890000000007,-0.06934800744056702,0.01740981824696064,-0.04537902772426605,0.0,0.0,0.0,0.0,-0.0015139145543798804,-0.00043376110261306167,0.002199421403929591,1.0037239789962769,0.0,0.0,0.0,-7.306525230407715,2.6178016662597656,4.672524452209473,1322.49560546875,0
1724.714,-0.06931354850530624,0.01740463636815548,-0.04539830610156059,0.0,0.0,0.0,0.0,-0.0016085620736703277,0.002164138713851571,0.0027390667237341404,0.9989357590675354,0.0,0.0,0.0,-7.318028926849365,2.629925489425659,4.691473960876465,1324.577880859375,0
1734.6280000000006,-0.0693640410900116,0.01740868017077446,-0.045415475964546204,0.0,0.0,0.0,0.0,-0.0003646527184173465,-0.003394528292119503,-6.553743151016533e-05,0.9994375109672546,0.0,0.0,0.0,-7.310645580291748,2.62888765335083,4.6832075119018555,1323.241455078125,0
1744.5310000000009,-0.06924495100975037,0.017400775104761124,-0.045339856296777725,0.0,0.0,0.0,0.0,0.002850278513506055,0.0003683999821078032,-0.0013769195647910237,0.9994093179702759,0.0,0.0,0.0,-7.316229343414307,2.649315357208252,4.702539443969727,1324.2520751953125,0
1754.4539999999997,-0.0692925676703453,0.017408372834324837,-0.04535842686891556,0.0,0.0,0.0,0.0,0.00298531842418015,-0.00294293905608356,0.00046496716095134616,0.9984807372093201,0.0,0.0,0.0,-7.309352874755859,2.645447015762329,4.698261737823486,1323.0074462890625,0
1764.3590000000004,-0.0691688060760498,0.01739492639899254,-0.04526981711387634,0.0,0.0,0.0,0.0,0.00020982908608857542,0.0010575628839433193,0.0011248009977862239,0.9999752640724182,0.0,0.0,0.0,-7.31036376953125,2.659968137741089,4.705883502960205,1323.1904296875,0
1774.2700000000004,-0.06921235471963882,0.01740371249616146,-0.045289892703294754,0.0,0.0,0.0,0.0,-0.0022550092544406652,-0.0019458661554381251,0.002650577574968338,1.0003703832626343,0.0,0.0,0.0,-7.302518367767334,2.6541621685028076,4.697535514831543,1321.7703857421875,0
1784.1769999999997,-0.06925787776708603,0.0174111295491457,-0.04530962556600571,0.0,0.0,0.0,0.0,-0.0008391025476157665,0.0023421039804816246,0.0007240133709274232,1.0006110668182373,0.0,0.0,0.0,-7.294517993927002,2.653118133544922,4.7016143798828125,1320.322265625,0
1794.1000000000004,-0.0693049505352974,0.01741696149110794,-0.04532891511917114,0.0,0.0,0.0,0.0,0.0021472435910254717,0.0014515342190861702,0.0010302402079105377,1.0012084245681763,0.0,0.0,0.0,-7.286942481994629,2.649940013885498,4.69765043258667,1318.9510498046875,0
1804.0069999999996,-0.0690867006778717,0.017371034249663353,-0.04527083411812782,0.0,0.0,0.0,0.0,0.0012865092139691114,-0.00041823898209258914,0.0003994225990027189,0.9985084533691406,0.0,0.0,0.0,-7.297311305999756,2.6673245429992676,4.715938568115234,1320.827880859375,0
1813.9170000000013,-0.06912524998188019,0.017376266419887543,-0.04529248923063278,0.0,0.0,0.0,0.0,0.0006010879878886044,-0.0051076835952699184,-0.001819433062337339,1.0000460147857666,0.0,0.0,0.0,-7.289961338043213,2.660794973373413,4.71035099029541,1319.4974365234375,0
1823.8310000000001,-0.06915158778429031,0.017359090968966484,-0.04529004171490669,0.0,0.0,0.0,0.0,0.002761885290965438,-0.004111533984541893,0.0016698986291885376,1.0025999546051025,0.0,0.0,0.0,-7.2916412353515625,2.655324935913086,4.716078758239746,1319.8016357421875,0
1833.75,-0.06919337064027786,0.01736406981945038,-0.04531097039580345,0.0,0.0,0.0,0.0,-0.00029247329803183675,0.005318424664437771,-0.003769773058593273,1.0032583475112915,0.0,0.0,0.0,-7.284171104431152,2.6437153816223145,4.71253776550293,1318.449462890625,0
1843.6560000000009,-0.06905555725097656,0.017286062240600586,-0.04524039104580879,0.0,0.0,0.0,0.0,0.0017878052312880754,-0.0015965001657605171,0.0027526782359927893,0.9998741745948792,0.0,0.0,0.0,-7.304653167724609,2.644796371459961,4.713768482208252,1322.15673828125,0
1853.5650000000005,-0.06909586489200592,0.01728985086083412,-0.04525800421833992,0.0,0.0,0.0,0.0,0.003867351682856679,0.00020004849648103118,0.002931575756520033,1.0012506246566772,0.0,0.0,0.0,-7.295788288116455,2.6403071880340576,4.710615158081055,1320.5523681640625,0
1863.4760000000006,-0.06914548575878143,0.017297618091106415,-0.04527321830391884,0.0,0.0,0.0,0.0,0.000864101224578917,0.00270434794947505,-0.0004889284027740359,1.000406265258789,0.0,0.0,0.0,-7.29780387878418,2.629739761352539,4.7054362297058105,1320.9171142578125,0
1873.3950000000004,-0.06918936222791672,0.017300328239798546,-0.04528876021504402,0.0,0.0,0.0,0.0,-0.0003798938705585897,0.0004261201829649508,0.0008042408735491335,1.0024546384811401,0.0,0.0,0.0,-7.291299819946289,2.6273810863494873,4.6845550537109375,1319.73974609375,0
1883.3010000000013,-0.0690818503499031,0.017254425212740898,-0.04525187611579895,0.0,0.0,0.0,0.0,0.003741218475624919,9.91174383671023e-05,0.001455529360100627,1.0006076097488403,0.0,0.0,0.0,-7.29665470123291,2.6316428184509277,4.694532871246338,1320.708984375,0
1893.2060000000001,-0.06912437081336975,0.01725618727505207,-0.04526631906628609,0.0,0.0,0.0,0.0,0.0010246813762933016,0.003011459019035101,-0.001645646058022976,1.0001521110534668,0.0,0.0,0.0,-7.289420127868652,2.6240713596343994,4.6901373863220215,1319.3995361328125,0
1903.1220000000012,-0.06913729757070541,0.01733076199889183,-0.04529765993356705,0.0,0.0,0.0,0.0,0.00040048040682449937,0.0021529383957386017,-0.0004941996885463595,0.9991058707237244,0.0,0.0,0.0,-7.306842803955078,2.654552459716797,4.6909379959106445,1322.5531005859375,0
1913.0429999999997,-0.06917979568243027,0.017336420714855194,-0.045312490314245224,0.0,0.0,0.0,0.0,0.0017232055542990565,-0.00024292306625284255,-0.001446382375434041,1.0014203786849976,0.0,0.0,0.0,-7.299896717071533,2.649420976638794,4.683773994445801,1321.2958984375,0
1922.9430000000011,-0.06922375410795212,0.01734221540391445,-0.04532703384757042,0.0,0.0,0.0,0.0,0.0006962797488085926,-0.003961363807320595,-0.0007950746803544462,0.99976646900177,0.0,0.0,0.0,-7.294363498687744,2.643350124359131,4.675149917602539,1320.29443359375,0
1932.8549999999996,-0.0692683681845665,0.01734786666929722,-0.04534086957573891,0.0,0.0,0.0,0.0,-0.0010488651460036635,0.0015954111004248261,-0.0005251505062915385,0.9991604685783386,0.0,0.0,0.0,-7.287481784820557,2.6411705017089844,4.677483558654785,1319.048583984375,0
1942.7759999999998,-0.06914864480495453,0.017311010509729385,-0.04530163109302521,0.0,0.0,0.0,0.0,0.0022873184643685818,0.0004588163283187896,-0.0022221608087420464,0.9998132586479187,0.0,0.0,0.0,-7.3097381591796875,2.651463747024536,4.68862771987915,1323.0771484375,0
1952.6800000000003,-0.06918931752443314,0.017317136749625206,-0.04531834274530411,0.0,0.0,0.0,0.0,0.0011843099491670728,-0.0001429074036423117,0.000673940870910883,0.9994757771492004,0.0,0.0,0.0,-7.302606582641602,2.644174337387085,4.6803669929504395,1321.786376953125,0
1962.5950000000012,-0.06923723965883255,0.017348961904644966,-0.04533204436302185,0.0,0.0,0.0,0.0,-0.0024405948352068663,-0.004085572902113199,-9.256118937628344e-05,0.9982133507728577,0.0,0.0,0.0,-7.312341213226318,2.647160530090332,4.674098014831543,1323.54833984375,0
1972.5169999999998,-0.06928019225597382,0.017357677221298218,-0.045349545776844025,0.0,0.0,0.0,0.0,0.00014304700016509742,0.0009352361084893346,0.0016776553820818663,0.9984984993934631,0.0,0.0,0.0,-7.305160045623779,2.6494834423065186,4.6805572509765625,1322.24853515625,0
1982.4189999999999,-0.0691995769739151,0.017386630177497864,-0.04530898109078407,0.0,0.0,0.0,0.0,-0.0005277686868794262,-0.0017882408574223518,0.002224941737949848,1.0016887187957764,0.0,0.0,0.0,-7.308242321014404,2.668177366256714,4.687028884887695,1322.8065185546875,0
1992.339,-0.06923921406269073,0.017396708950400352,-0.04532831534743309,0.0,0.0,0.0,0.0,-0.0005556156393140554,0.001063354080542922,-0.0015662516234442592,1.0014574527740479,0.0,0.0,0.0,-7.3016791343688965,2.669416666030884,4.685894966125488,1321.618408203125,0
2002.2430000000004,-0.0692165419459343,0.017420941963791847,-0.045348141342401505,0.0,0.0,0.0,0.0,0.00037206982960924506,-0.004033686127513647,-5.471345502883196e-05,0.9988837838172913,0.0,0.0,0.0,-7.32203483581543,2.684455156326294,4.6936116218566895,1325.302978515625,0
2012.161,-0.06925904005765915,0.01743411459028721,-0.045366525650024414,0.0,0.0,0.0,0.0,-0.0014695959398522973,-0.0002505178563296795,0.0037789740599691868,0.9984279274940491,0.0,0.0,0.0,-7.313976287841797,2.6827850341796875,4.697210311889648,1323.8443603515625,0
2022.067000000001,-0.06927576661109924,0.017482547089457512,-0.045402828603982925,0.0,0.0,0.0,0.0,-0.0036931463982909918,0.003065464785322547,-0.0065555088222026825,0.9994001984596252,0.0,0.0,0.0,-7.3266377449035645,2.69470477104187,4.701633930206299,1326.135986328125,0
2031.9899999999998,-0.06932152807712555,0.017498914152383804,-0.04542398825287819,0.0,0.0,0.0,0.0,6.993036367930472e-05,-0.00403752364218235,0.0032036618795245886,1.000991702079773,0.0,0.0,0.0,-7.320937633514404,2.6934056282043457,4.691694736480713,1325.1043701171875,0
2041.8960000000006,-0.06932409107685089,0.017539063468575478,-0.045433223247528076,0.0,0.0,0.0,0.0,-0.00044353975681588054,0.0013167356373742223,0.0022257373202592134,1.0017024278640747,0.0,0.0,0.0,-7.337384223937988,2.7018277645111084,4.702028274536133,1328.0810546875,0
2051.8070000000007,-0.06936927139759064,0.01755852811038494,-0.04545358940958977,0.0,0.0,0.0,0.0,-0.0019363552564755082,0.0012070677476003766,-0.0009768932359293103,1.0008352994918823,0.0,0.0,0.0,-7.329418182373047,2.6986279487609863,4.698031902313232,1326.6392822265625,0
2061.720000000001,-0.06923013180494308,0.017473001033067703,-0.045370109379291534,0.0,0.0,0.0,0.0,-0.003256233176216483,0.0006765983998775482,-0.002162867458537221,1.000894546508789,0.0,0.0,0.0,-7.345008373260498,2.6999590396881104,4.70412015914917,1329.4610595703125,0
2071.633,-0.06927352398633957,0.017488878220319748,-0.04538923501968384,0.0,0.0,0.0,0.0,-0.00037373785744421184,-0.0023061977699398994,-0.0020745100919157267,1.0012967586517334,0.0,0.0,0.0,-7.337973117828369,2.7044646739959717,4.702939987182617,1328.1876220703125,0
2081.5380000000005,-0.06921493262052536,0.01749371364712715,-0.045357074588537216,0.0,0.0,0.0,0.0,-0.002746366895735264,0.00022669683676213026,0.002132316119968891,1.0013424158096313,0.0,0.0,0.0,-7.341095447540283,2.718418836593628,4.705615043640137,1328.7529296875,0
2091.4570000000003,-0.06925974786281586,0.017509985715150833,-0.04537401348352432,0.0,0.0,0.0,0.0,0.0012239334173500538,0.002947252942249179,-0.0038819315377622843,0.9999368190765381,0.0,0.0,0.0,-7.333481311798096,2.7206852436065674,4.697456359863281,1327.3746337890625,0
2101.3690000000006,-0.06916330009698868,0.01743665523827076,-0.04531058669090271,0.0,0.0,0.0,0.0,-0.0014676741557195783,0.0008425210253335536,-0.003170412266626954,0.999897301197052,0.0,0.0,0.0,-7.3472819328308105,2.7063064575195312,4.68577241897583,1329.8726806640625,0
2111.2880000000005,-0.06920865178108215,0.017451202496886253,-0.04532774165272713,0.0,0.0,0.0,0.0,-0.002047758549451828,0.0028103904332965612,0.003855866612866521,1.0015225410461426,0.0,0.0,0.0,-7.340042591094971,2.7073986530303955,4.677938461303711,1328.5623779296875,0
2121.1900000000005,-0.06910800188779831,0.017427878454327583,-0.045255497097969055,0.0,0.0,0.0,0.0,0.0006588503019884229,0.004923360422253609,0.0016100796638056636,1.0021026134490967,0.0,0.0,0.0,-7.342933654785156,2.7222952842712402,4.676782131195068,1329.0855712890625,0
2131.1100000000006,-0.06915009021759033,0.01744380034506321,-0.04527013376355171,0.0,0.0,0.0,0.0,0.002376388292759657,-0.0006883486639708281,-0.00018131280376110226,1.0017421245574951,0.0,0.0,0.0,-7.334810733795166,2.714585542678833,4.665117263793945,1327.6153564453125,0
2141.0120000000006,-0.06919325888156891,0.01745895855128765,-0.04528258740901947,0.0,0.0,0.0,0.0,0.0013348773354664445,-0.0006500325398519635,-0.0009945295751094818,1.0003875494003296,0.0,0.0,0.0,-7.327946662902832,2.702848196029663,4.661086559295654,1326.3729248046875,0
2150.9349999999995,-0.06897789239883423,0.017375048249959946,-0.04514111205935478,0.0,0.0,0.0,0.0,-0.0012465819017961621,0.0030092676170170307,-0.0018814209615811706,1.0000289678573608,0.0,0.0,0.0,-7.329041004180908,2.7108874320983887,4.679314613342285,1326.5709228515625,0
2160.8369999999995,-0.06901915371417999,0.01739010214805603,-0.04515263810753822,0.0,0.0,0.0,0.0,-0.004366895649582148,-0.0008496807422488928,-0.00035842967918142676,0.9997332096099854,0.0,0.0,0.0,-7.322491645812988,2.7091963291168213,4.669186115264893,1325.385498046875,0
2170.7659999999996,-0.06892640143632889,0.017315492033958435,-0.045110128819942474,0.0,0.0,0.0,0.0,0.002734375186264515,-0.00229382561519742,-0.0011624146718531847,1.0007420778274536,0.0,0.0,0.0,-7.33616304397583,2.7075064182281494,4.6727681159973145,1327.860107421875,0
2180.6589999999997,-0.06896684318780899,0.017327774316072464,-0.04512343928217888,0.0,0.0,0.0,0.0,0.0036855731159448624,0.0028781944420188665,-0.002994161332026124,1.0026204586029053,0.0,0.0,0.0,-7.328798770904541,2.7005887031555176,4.67332124710083,1326.527099609375,0
2190.589,-0.06882914155721664,0.017244486138224602,-0.04503263905644417,0.0,0.0,0.0,0.0,-0.0009071484673768282,0.004523574840277433,-0.004833715036511421,0.9994267225265503,0.0,0.0,0.0,-7.350409507751465,2.6928770542144775,4.678796768188477,1330.4385986328125,0
2200.491,-0.06886833161115646,0.017256932333111763,-0.04504357650876045,0.0,0.0,0.0,0.0,0.0017790088895708323,-0.0002873202902264893,-0.003822434926405549,0.9997655749320984,0.0,0.0,0.0,-7.344385147094727,2.6893341541290283,4.663596153259277,1329.3482666015625,0
