timestamp,stateEstimate.x,stateEstimate.y,stateEstimate.z,controller.cmd_thrust,controller.cmd_roll,controller.cmd_pitch,controller.cmd_yaw,controller.r_roll,controller.r_pitch,controller.r_yaw,controller.accelz,controller.actuatorThrust,controller.roll,controller.pitch,controller.yaw,controller.rollRate,controller.pitchRate,controller.yawRate,controller.ctr_yaw
0.0,-0.00017100764671340585,-0.007424759212881327,0.0005204512854106724,0.0,0.0,0.0,0.0,0.0044870637357234955,0.007251798640936613,-0.0031775624956935644,0.998465359210968,0.0,0.0,0.0,15.175504684448242,-2.72747802734375,7.328680038452148,-2746.79638671875,0
9.905000000000655,-0.00021010584896430373,-0.007441279012709856,0.0005168799543753266,0.0,0.0,0.0,0.0,-0.003248582361266017,-0.004015608690679073,0.0008035430801101029,0.9981638789176941,0.0,0.0,0.0,15.161928176879883,-2.7273123264312744,7.314114093780518,-2744.33935546875,0
19.81800000000112,-0.0002510590711608529,-0.007457791827619076,0.0005125340539962053,0.0,0.0,0.0,0.0,0.00034341789432801306,-0.0007030846900306642,-0.0006654975586570799,0.9980300664901733,0.0,0.0,0.0,15.145764350891113,-2.7253212928771973,7.302052021026611,-2741.413330078125,0
29.72900000000118,-0.00029470722074620426,-0.007473956327885389,0.0005068436148576438,0.0,0.0,0.0,0.0,-0.002102677011862397,0.00337568880058825,-0.0021189728286117315,0.9975959062576294,0.0,0.0,0.0,15.130561828613281,-2.716400146484375,7.308631896972656,-2738.661865234375,0
39.64500000000044,-0.0003413765225559473,-0.007490443531423807,0.00049931975081563,0.0,0.0,0.0,0.0,-0.0011140448041260242,-6.131037935119821e-06,-0.0002102565485984087,0.9982671737670898,0.0,0.0,0.0,15.11535930633545,-2.7146685123443604,7.301575183868408,-2735.91015625,0
49.55500000000029,-0.0003904109471477568,-0.007508324459195137,0.0004898178740404546,0.0,0.0,0.0,0.0,-0.0006559491739608347,0.0012192445574328303,-0.0011028980370610952,1.0003703832626343,0.0,0.0,0.0,15.100171089172363,-2.7079880237579346,7.296520709991455,-2733.1611328125,0
59.46800000000076,-0.0004409218090586364,-0.007527567446231842,0.00047926424304023385,0.0,0.0,0.0,0.0,0.004882012493908405,0.004416724666953087,0.003500636899843812,0.9987716674804688,0.0,0.0,0.0,15.083976745605469,-2.703810453414917,7.289329528808594,-2730.22998046875,0
69.38500000000022,-0.00013339411816559732,-0.007490609772503376,0.0005412433529272676,0.0,0.0,0.0,0.0,0.0016302699223160744,-0.0015167015371844172,0.0009020220604725182,0.9994840621948242,0.0,0.0,0.0,15.121333122253418,-2.7482292652130127,7.401473522186279,-2736.991455078125,0
79.29399999999987,6.920445594005287e-05,-0.006984087638556957,-4.162964251008816e-05,0.0,0.0,0.0,0.0,-0.00013464191579259932,0.0030606412328779697,-0.0019783852621912956,0.9982423186302185,0.0,0.0,0.0,15.180267333984375,-2.6936209201812744,7.434153079986572,-2747.658447265625,0
89.20200000000114,0.00014845802797935903,-0.00700846454128623,1.2047607015119866e-05,0.0,0.0,0.0,0.0,-0.0015532653778791428,-0.0018408193718641996,-0.00282324873842299,1.0001499652862549,0.0,0.0,0.0,15.204977035522461,-2.701683759689331,7.4481201171875,-2752.131103515625,0
99.1140000000014,0.00013611975009553134,-0.006991876754909754,-1.4550536207025289e-06,0.0,0.0,0.0,0.0,-0.0005868756561540067,-2.686552397790365e-05,-0.00020084265270270407,1.0008443593978882,0.0,0.0,0.0,15.259275436401367,-2.700920343399048,7.4355363845825195,-2761.959228515625,0
109.03200000000106,0.00011234042176511139,-0.0069959345273673534,-1.5231089491862804e-05,0.0,0.0,0.0,0.0,0.0001088735371013172,-0.0017746413359418511,0.0019071564311161637,0.9979730248451233,0.0,0.0,0.0,15.244414329528809,-2.6949708461761475,7.433805465698242,-2759.26953125,0
118.94300000000112,9.782805136637762e-05,-0.006978523917496204,-2.437856892356649e-05,0.0,0.0,0.0,0.0,-0.0026439696084707975,-0.0007582772523164749,-0.0004526196571532637,0.9985082745552063,0.0,0.0,0.0,15.293608665466309,-2.698211669921875,7.431096076965332,-2768.173583984375,0
128.85800000000017,7.500335050281137e-05,-0.006983657833188772,-3.8665551983285695e-05,0.0,0.0,0.0,0.0,0.001730821910314262,-0.002940553706139326,0.0018216983880847692,0.999814510345459,0.0,0.0,0.0,15.279461860656738,-2.695359945297241,7.4225358963012695,-2765.61279296875,0
138.76300000000083,5.8391196944285184e-05,-0.006967343855649233,-4.970618465449661e-05,0.0,0.0,0.0,0.0,-0.0022396619897335768,0.004348750226199627,-3.8789803511463106e-05,0.9997591972351074,0.0,0.0,0.0,15.317026138305664,-2.6884090900421143,7.426008224487305,-2772.412109375,0
148.6750000000011,3.191564610460773e-05,-0.0069725667126476765,-6.481133459601551e-05,0.0,0.0,0.0,0.0,-0.0024422246497124434,0.002153658540919423,0.00038718272116966546,0.9993255138397217,0.0,0.0,0.0,15.301837921142578,-2.692413091659546,7.413835525512695,-2769.6630859375,0
158.58899999999994,-1.6021342162275687e-05,-0.006945901550352573,-7.652842759853229e-05,0.0,0.0,0.0,0.0,-0.0007785623311065137,-0.0008713100105524063,0.0016178820515051484,0.9997376203536987,0.0,0.0,0.0,15.328746795654297,-2.6754519939422607,7.399132251739502,-2774.53369140625,0
168.5020000000004,-1.6021342162275687e-05,-0.006945901550352573,-7.652842759853229e-05,0.0,0.0,0.0,0.0,-0.00033094879472628236,0.0061012255027890205,-4.994973642169498e-05,0.9993142485618591,0.0,0.0,0.0,15.328746795654297,-2.6754519939422607,7.399132251739502,-2774.53369140625,0
178.41200000000026,-5.348417835193686e-05,-0.006887299939990044,-8.260051254183054e-05,0.0,0.0,0.0,0.0,-0.0004637489910237491,0.0030525706242769957,-0.002952425042167306,0.9975442290306091,0.0,0.0,0.0,15.353410720825195,-2.6561784744262695,7.394076824188232,-2778.997802734375,0
188.32800000000134,-5.348417835193686e-05,-0.006887299939990044,-8.260051254183054e-05,0.0,0.0,0.0,0.0,-8.415976481046528e-05,0.0011008461005985737,4.484457531361841e-05,1.000575304031372,0.0,0.0,0.0,15.353410720825195,-2.6561784744262695,7.394076824188232,-2778.997802734375,0
198.23500000000058,-7.953371823532507e-05,-0.0068734087981283665,-9.815512748900801e-05,0.0,0.0,0.0,0.0,-0.0032643533777445555,-0.0011753479484468699,-0.0019875159487128258,1.0008760690689087,0.0,0.0,0.0,15.389175415039062,-2.6544570922851562,7.39241361618042,-2785.47119140625,0
208.15400000000045,-0.00011191160592716187,-0.006876394618302584,-0.00011339229240547866,0.0,0.0,0.0,0.0,0.00016997955390252173,-0.004007820039987564,0.0034643381368368864,0.9984170198440552,0.0,0.0,0.0,15.372950553894043,-2.648473024368286,7.381486415863037,-2782.534912109375,0
218.06800000000112,-0.00012957445869687945,-0.006854792591184378,-0.000146211008541286,0.0,0.0,0.0,0.0,0.0013500459026545286,-0.0001654665538808331,0.0008055981015786529,0.9998421669006348,0.0,0.0,0.0,15.414589881896973,-2.6431469917297363,7.395659446716309,-2790.0712890625,0
227.97900000000118,0.0001277134579140693,-0.007007448934018612,6.2894745497033e-05,0.0,0.0,0.0,0.0,-0.001677720807492733,0.0015311564784497023,-0.001514276722446084,1.0014184713363647,0.0,0.0,0.0,15.425918579101562,-2.6895053386688232,7.450804710388184,-2792.121826171875,0
237.88900000000103,0.0001222068240167573,-0.006983010098338127,4.688708941102959e-05,0.0,0.0,0.0,0.0,3.751362601178698e-05,0.0005614890833385289,-0.005091334227472544,0.9990750551223755,0.0,0.0,0.0,15.456454277038574,-2.6865077018737793,7.43831729888916,-2797.64892578125,0
247.80299999999988,9.983853669837117e-05,-0.00698612816631794,4.038069528178312e-05,0.0,0.0,0.0,0.0,0.00397546635940671,0.0009306062711402774,-0.0016138411592692137,0.9994796514511108,0.0,0.0,0.0,15.441513061523438,-2.678354501724243,7.427358627319336,-2794.944580078125,0
257.71399999999994,8.61784938024357e-05,-0.006973742041736841,2.522708018659614e-05,0.0,0.0,0.0,0.0,0.0029934386257082224,0.0004946162225678563,0.001358922221697867,0.9978556632995605,0.0,0.0,0.0,15.476755142211914,-2.6756207942962646,7.431251049041748,-2801.32373046875,0
267.6220000000012,0.00016106721886899322,-0.007008066866546869,7.315224502235651e-05,0.0,0.0,0.0,0.0,0.0018621273338794708,0.003057401394471526,0.002008681884035468,0.9977279305458069,0.0,0.0,0.0,15.479260444641113,-2.685925006866455,7.437327861785889,-2801.77685546875,0
277.53300000000127,0.00015513757534790784,-0.006983515806496143,6.186606333358213e-05,0.0,0.0,0.0,0.0,0.003029597457498312,0.00023383555526379496,-0.002941587008535862,0.9990960955619812,0.0,0.0,0.0,15.503293991088867,-2.6849870681762695,7.42681884765625,-2806.126953125,0
287.4459999999999,0.00019938081095460802,-0.007009338121861219,6.812274659750983e-05,0.0,0.0,0.0,0.0,-0.0013351562665775418,-0.0018887933110818267,-0.0003417785046622157,1.0013504028320312,0.0,0.0,0.0,15.505409240722656,-2.698993444442749,7.424389362335205,-2806.509765625,0
297.3590000000004,0.00013097665214445442,-0.007061266340315342,9.724401024868712e-05,0.0,0.0,0.0,0.0,0.0018215449526906013,0.0016820745076984167,0.0018922163872048259,1.0001622438430786,0.0,0.0,0.0,15.527828216552734,-2.6994595527648926,7.4064178466796875,-2810.567626953125,0
307.27200000000084,0.00017052273324225098,-0.007077474147081375,0.00011642289609881118,0.0,0.0,0.0,0.0,0.00031266367295756936,-0.0024251602590084076,-0.002182195894420147,0.9970378875732422,0.0,0.0,0.0,15.521315574645996,-2.705796003341675,7.401615619659424,-2809.388916015625,0
317.1860000000015,0.00014851322339382023,-0.007046892307698727,0.00013719221169594675,0.0,0.0,0.0,0.0,-0.0003446248301770538,-0.001167957321740687,-0.00043502397602424026,0.9983028769493103,0.0,0.0,0.0,15.542125701904297,-2.6999194622039795,7.397144794464111,-2813.155517578125,0
327.1040000000012,0.00011740865011233836,-0.0070532504469156265,0.00013477208267431706,0.0,0.0,0.0,0.0,-0.0019377366406843066,0.0007091908482834697,0.0016205658903345466,0.9980936646461487,0.0,0.0,0.0,15.527461051940918,-2.6929636001586914,7.391932010650635,-2810.501220703125,0
337.0079999999998,0.00011084597645094618,-0.007012171670794487,0.00011988217738689855,0.0,0.0,0.0,0.0,0.002229551784694195,0.0001987456635106355,-0.004612594842910767,0.9976627826690674,0.0,0.0,0.0,15.545400619506836,-2.6824393272399902,7.40217924118042,-2813.748291015625,0
346.9300000000003,7.576598000014201e-05,-0.007018236443400383,0.0001135857091867365,0.0,0.0,0.0,0.0,0.004167327657341957,-0.0028045019134879112,0.0024999366141855717,1.0002497434616089,0.0,0.0,0.0,15.529044151306152,-2.6817610263824463,7.397286415100098,-2810.787841796875,0
356.83100000000013,6.377085082931444e-05,-0.00697724474593997,8.72807577252388e-05,0.0,0.0,0.0,0.0,-0.0011859325459226966,0.004069289658218622,0.00016471423441544175,1.0008281469345093,0.0,0.0,0.0,15.548274040222168,-2.675743341445923,7.402511119842529,-2814.268310546875,0
366.7440000000006,0.00015473412349820137,-0.0070420438423752785,0.00012799125397577882,0.0,0.0,0.0,0.0,-0.002140009542927146,-0.00572544289752841,-0.0029670200310647488,0.9991830587387085,0.0,0.0,0.0,15.541735649108887,-2.695765972137451,7.418798446655273,-2813.085205078125,0
376.65500000000065,0.00014543587167281657,-0.007007777690887451,0.00010669050243450329,0.0,0.0,0.0,0.0,0.0027246291283518076,0.004683284088969231,0.001627377700060606,0.9994873404502869,0.0,0.0,0.0,15.559117317199707,-2.6871016025543213,7.415809154510498,-2816.23095703125,0
386.5709999999999,0.00010742367885541171,-0.007014202419668436,0.00010024717630585656,0.0,0.0,0.0,0.0,-0.0027477412950247526,0.0002700266777537763,0.0011656363494694233,0.9989960789680481,0.0,0.0,0.0,15.543578147888184,-2.6891610622406006,7.40954065322876,-2813.41845703125,0
396.4860000000008,8.287282980745658e-05,-0.007017405703663826,6.094721538829617e-05,0.0,0.0,0.0,0.0,0.0011784848757088184,0.003333084983751178,0.0007051979773677886,0.9983460903167725,0.0,0.0,0.0,15.566241264343262,-2.695075511932373,7.402865886688232,-2817.520751953125,0
406.39300000000003,0.0001472061121603474,-0.007064374629408121,8.7823296780698e-05,0.0,0.0,0.0,0.0,-0.0021322069223970175,0.0005700456677004695,0.0033474694937467575,0.997425377368927,0.0,0.0,0.0,15.55826187133789,-2.706239938735962,7.409550189971924,-2816.076171875,0
416.3060000000005,0.00014162987645249814,-0.007014892529696226,6.911003583809361e-05,0.0,0.0,0.0,0.0,0.0021824492141604424,-0.0019934235606342554,0.0003427235933486372,0.9981181621551514,0.0,0.0,0.0,15.577319145202637,-2.6897356510162354,7.4006500244140625,-2819.52587890625,0
426.21600000000035,0.0001911650033434853,-0.007061408367007971,6.928729271749035e-05,0.0,0.0,0.0,0.0,-0.0003886315389536321,0.0022445113863795996,-0.0017142925644293427,0.9979749321937561,0.0,0.0,0.0,15.574417114257812,-2.6933364868164062,7.400975704193115,-2819.00048828125,0
436.1370000000006,0.00017297729209531099,-0.007027804851531982,5.356449764803983e-05,0.0,0.0,0.0,0.0,0.0006902069435454905,0.003497029421851039,-0.004142296500504017,1.0001118183135986,0.0,0.0,0.0,15.58807373046875,-2.6842246055603027,7.3927001953125,-2821.47265625,0
446.0460000000003,0.00012938254803884774,-0.0070370836183428764,3.913516775355674e-05,0.0,0.0,0.0,0.0,0.0014554217923432589,-2.063819374598097e-05,0.00024644361110404134,0.9987976551055908,0.0,0.0,0.0,15.571799278259277,-2.6789772510528564,7.381235599517822,-2818.52685546875,0
455.96100000000115,7.905112579464912e-05,-0.007020661141723394,6.051682066754438e-05,0.0,0.0,0.0,0.0,-4.258886110619642e-05,-0.0003758242819458246,0.004399854689836502,1.0005587339401245,0.0,0.0,0.0,15.58566951751709,-2.675279140472412,7.362679958343506,-2821.037109375,0
465.866,0.00024320311786141247,-0.007124848663806915,0.00011523642751853913,0.0,0.0,0.0,0.0,0.0008203767356462777,0.003839947981759906,-0.00046036113053560257,0.999130368232727,0.0,0.0,0.0,15.580280303955078,-2.7069506645202637,7.388335704803467,-2820.061767578125,0
495.6200000000008,0.00013302858860697597,-0.007083768956363201,0.00011602995073189959,0.0,0.0,0.0,0.0,0.0019251939374953508,-0.0035934189800173044,0.001055947970598936,0.9993199706077576,0.0,0.0,0.0,15.578161239624023,-2.688910961151123,7.349802017211914,-2819.67822265625,0
505.51300000000083,0.00013302858860697597,-0.007083768956363201,0.00011602995073189959,0.0,0.0,0.0,0.0,0.0013373151887208223,0.006256923079490662,0.0011041411198675632,0.9984323978424072,0.0,0.0,0.0,15.578161239624023,-2.688910961151123,7.349802017211914,-2819.67822265625,0
515.4400000000005,2.7458230761112645e-05,-0.007093133870512247,0.00010618924716254696,0.0,0.0,0.0,0.0,0.0010890238918364048,-0.0020956567022949457,0.00013639690587297082,0.9982829689979553,0.0,0.0,0.0,15.578890800476074,-2.6811883449554443,7.327875137329102,-2819.810302734375,0
525.3380000000016,2.7458230761112645e-05,-0.007093133870512247,0.00010618924716254696,0.0,0.0,0.0,0.0,-0.002240273170173168,0.003945451229810715,0.0010576096829026937,0.998764157295227,0.0,0.0,0.0,15.578890800476074,-2.6811883449554443,7.327875137329102,-2819.810302734375,0
535.2610000000004,1.2204827726236545e-05,-0.007017582189291716,7.047598774079233e-05,0.0,0.0,0.0,0.0,0.0041504427790641785,-0.0011245340574532747,-0.0040903473272919655,0.9994888305664062,0.0,0.0,0.0,15.593158721923828,-2.6677803993225098,7.338231563568115,-2822.392822265625,0
545.1670000000013,-3.74852170352824e-05,-0.007011709734797478,5.973507359158248e-05,0.0,0.0,0.0,0.0,-0.0006038543651811779,0.00034167044213972986,-0.002655424876138568,0.999435305595398,0.0,0.0,0.0,15.577584266662598,-2.6728124618530273,7.323147296905518,-2819.573974609375,0
555.0880000000016,-7.053794979583472e-05,-0.006962717976421118,4.9453810788691044e-05,0.0,0.0,0.0,0.0,0.0012735906057059765,-0.0030029809568077326,0.0007766179624013603,0.9988522529602051,0.0,0.0,0.0,15.592700958251953,-2.660717248916626,7.331623077392578,-2822.309814453125,0
564.9890000000014,0.00015109372907318175,-0.007079819682985544,0.00020533321367111057,0.0,0.0,0.0,0.0,-0.0026830416172742844,-0.002272972371429205,0.0038558270316570997,0.9990149736404419,0.0,0.0,0.0,15.58435344696045,-2.703132152557373,7.388120651245117,-2820.799072265625,0
574.9009999999998,0.00011240435560466722,-0.0070775276981294155,0.00020064976706635207,0.0,0.0,0.0,0.0,-0.001670131809078157,-0.0022731656208634377,0.0011860448867082596,0.998784601688385,0.0,0.0,0.0,15.60640811920166,-2.6995887756347656,7.382741451263428,-2824.791015625,0
584.8220000000001,0.00014007900608703494,-0.0070871165953576565,0.00022760540014132857,0.0,0.0,0.0,0.0,-0.002422547899186611,-0.0008737480384297669,-0.002151079010218382,0.9993577003479004,0.0,0.0,0.0,15.600419044494629,-2.6995697021484375,7.386353492736816,-2823.706787109375,0
594.7300000000014,0.0001486749097239226,-0.007021323777735233,0.00018380511028226465,0.0,0.0,0.0,0.0,0.001558726537041366,-0.0019623725675046444,0.0011201760498806834,0.9998940229415894,0.0,0.0,0.0,15.615669250488281,-2.6819260120391846,7.3975324630737305,-2826.46728515625,0
604.6380000000008,0.00010468985419720411,-0.007016930729150772,0.00017955513612832874,0.0,0.0,0.0,0.0,-0.0013485049130395055,-0.0009668253478594124,-0.0007489396957680583,0.99941086769104,0.0,0.0,0.0,15.600295066833496,-2.6773338317871094,7.391657829284668,-2823.6845703125,0
614.5590000000011,5.2666997362393886e-05,-0.0070397816598415375,0.00016282597789540887,0.0,0.0,0.0,0.0,0.0009013066301122308,0.003142276080325246,-0.002637695288285613,1.0012620687484741,0.0,0.0,0.0,15.61391544342041,-2.686984062194824,7.3770432472229,-2826.14990234375,0
624.460000000001,4.347970389062539e-06,-0.0070373727940022945,0.00015780716785229743,0.0,0.0,0.0,0.0,-0.0013851748080924153,0.0019901683554053307,-0.0011389980791136622,0.9986542463302612,0.0,0.0,0.0,15.599546432495117,-2.68001389503479,7.374937534332275,-2823.548828125,0
634.380000000001,-1.2086020433343947e-05,-0.006981676444411278,0.00012197365867905319,0.0,0.0,0.0,0.0,-0.000745947880204767,-0.0019488314865157008,0.002982028992846608,0.9997095465660095,0.0,0.0,0.0,15.606950759887695,-2.6786367893218994,7.366525173187256,-2824.88916015625,0
644.2870000000003,0.00013043849321547896,-0.0070711285807192326,0.00020210669026710093,0.0,0.0,0.0,0.0,0.000926626322325319,-0.00443603191524744,0.00034432829124853015,0.9997478127479553,0.0,0.0,0.0,15.598403930664062,-2.7051069736480713,7.384726047515869,-2823.342041015625,0
654.2090000000007,0.00016133593453560024,-0.006991329602897167,0.00011552582873264328,0.0,0.0,0.0,0.0,0.0007411721162497997,-0.0010083194356411695,0.0016456082230433822,0.9977962374687195,0.0,0.0,0.0,15.615418434143066,-2.687526226043701,7.405693054199219,-2826.421875,0
664.1090000000004,0.00011736273881979287,-0.006986076477915049,0.0001069700883817859,0.0,0.0,0.0,0.0,-0.002264970215037465,-0.001982134534046054,0.0006996307638473809,1.0010418891906738,0.0,0.0,0.0,15.600228309631348,-2.685307502746582,7.411367893218994,-2823.67236328125,0
674.0280000000002,0.00011676360736601055,-0.0069384765811264515,3.6340854421723634e-05,0.0,0.0,0.0,0.0,-0.00025991987786255777,0.004287409596145153,-0.0020698565058410168,0.9993177056312561,0.0,0.0,0.0,15.616278648376465,-2.6787338256835938,7.409688949584961,-2826.57763671875,0
683.9430000000011,0.00018357354565523565,-0.00697330990806222,6.794355431338772e-05,0.0,0.0,0.0,0.0,0.0014833767199888825,-0.0061563062481582165,0.0014006869168952107,1.0012786388397217,0.0,0.0,0.0,15.609283447265625,-2.6856865882873535,7.418320655822754,-2825.311279296875,0
693.8610000000008,0.00018774175259750336,-0.006924072280526161,6.578194188477937e-06,0.0,0.0,0.0,0.0,0.0006806341116316617,-0.0017307992093265057,-0.00041552510811015964,0.9987110495567322,0.0,0.0,0.0,15.621382713317871,-2.6740477085113525,7.414546966552734,-2827.501220703125,0
703.764000000001,0.0001470684801461175,-0.006918068043887615,-7.0175437940633856e-06,0.0,0.0,0.0,0.0,-0.0003867136547341943,0.002680783160030842,0.004921926185488701,0.9983595609664917,0.0,0.0,0.0,15.605313301086426,-2.675791025161743,7.40859842300415,-2824.5927734375,0
713.6840000000011,0.00010678102989913896,-0.006897146347910166,-8.240104762080591e-06,0.0,0.0,0.0,0.0,-0.001732388511300087,-0.00032807752722874284,0.0020533001516014338,0.9985028505325317,0.0,0.0,0.0,15.614325523376465,-2.675083637237549,7.408426761627197,-2826.22412109375,0
723.5880000000016,0.00018597343296278268,-0.006941682193428278,1.8294302208232693e-05,0.0,0.0,0.0,0.0,-0.001283449586480856,0.0008812558371573687,-0.001422268571332097,1.0003350973129272,0.0,0.0,0.0,15.608858108520508,-2.6819069385528564,7.4213056564331055,-2825.234375,0
733.5010000000002,0.00013708703045267612,-0.006937169004231691,2.2580852601095103e-05,0.0,0.0,0.0,0.0,-0.0012854086235165596,0.0041879406198859215,-0.0017970791086554527,0.9976689219474792,0.0,0.0,0.0,15.619667053222656,-2.6777865886688232,7.414521217346191,-2827.190673828125,0
743.4050000000007,9.614934242563322e-05,-0.006930697243660688,1.1316826203255914e-05,0.0,0.0,0.0,0.0,-0.0010380796156823635,0.00032010505674406886,-0.0015892346855252981,0.9973336458206177,0.0,0.0,0.0,15.60428524017334,-2.669843912124634,7.408632278442383,-2824.40673828125,0
753.3290000000015,7.62958443374373e-05,-0.006875134538859129,3.051426347155939e-06,0.0,0.0,0.0,0.0,-0.005712931044399738,-0.004307008348405361,0.0008586928597651422,0.999289870262146,0.0,0.0,0.0,15.620630264282227,-2.656536817550659,7.4075775146484375,-2827.365234375,0
763.2300000000014,3.529375680955127e-05,-0.006866984535008669,-1.1305522093607578e-05,0.0,0.0,0.0,0.0,-0.0005722781643271446,0.003473892342299223,0.0015206034295260906,0.9991008639335632,0.0,0.0,0.0,15.604483604431152,-2.6511619091033936,7.400136947631836,-2824.442626953125,0
773.1560000000009,-3.0574239644920453e-05,-0.006904043257236481,-1.5411882486660033e-05,0.0,0.0,0.0,0.0,-0.0020831264555454254,-0.0022744531743228436,-0.0007082464871928096,0.9999621510505676,0.0,0.0,0.0,15.617219924926758,-2.658447265625,7.383182525634766,-2826.747802734375,0
783.0570000000007,-7.797463331371546e-05,-0.006897767074406147,-2.9998111131135374e-05,0.0,0.0,0.0,0.0,-0.0007577509968541563,-0.0020891460590064526,-0.0036461774725466967,0.9992465376853943,0.0,0.0,0.0,15.602758407592773,-2.6535251140594482,7.377386569976807,-2824.13037109375,0
792.9750000000004,-0.0001769490190781653,-0.006855957210063934,-3.589565312722698e-05,0.0,0.0,0.0,0.0,0.001071068225428462,-0.0005870075547136366,-8.238517330028117e-05,0.9994723200798035,0.0,0.0,0.0,15.601539611816406,-2.6347086429595947,7.378943920135498,-2823.90966796875,0
802.8780000000006,-0.0001769490190781653,-0.006855957210063934,-3.589565312722698e-05,0.0,0.0,0.0,0.0,-0.002945610787719488,-0.00013850665709469467,0.0013760165311396122,1.001117467880249,0.0,0.0,0.0,15.601539611816406,-2.6347086429595947,7.378943920135498,-2823.90966796875,0
812.8050000000003,-0.00025393368559889495,-0.006796188186854124,-9.848783520283177e-05,0.0,0.0,0.0,0.0,0.001175847020931542,-0.0025682193227112293,-0.004854394588619471,0.9995018839836121,0.0,0.0,0.0,15.598733901977539,-2.6222729682922363,7.382567405700684,-2823.40185546875,0
822.7040000000015,-0.00025393368559889495,-0.006796188186854124,-9.848783520283177e-05,0.0,0.0,0.0,0.0,-0.003327446524053812,-0.0012416031677275896,0.002448313869535923,0.9976539015769958,0.0,0.0,0.0,15.598733901977539,-2.6222729682922363,7.382567405700684,-2823.40185546875,0
832.6260000000002,-0.0003420839202590287,-0.006788652390241623,-0.00020045082783326507,0.0,0.0,0.0,0.0,0.0004629682225640863,0.0009404646698385477,0.00204802630469203,0.9992074370384216,0.0,0.0,0.0,15.604954719543457,-2.6287524700164795,7.376828670501709,-2824.52783203125,0
842.527,-0.0003420839202590287,-0.006788652390241623,-0.00020045082783326507,0.0,0.0,0.0,0.0,-0.0012908325297757983,0.0008078570826910436,0.0019872128032147884,0.9980340600013733,0.0,0.0,0.0,15.604954719543457,-2.6287524700164795,7.376828670501709,-2824.52783203125,0
852.4530000000013,-0.0004525447147898376,-0.006763193756341934,-0.00025973134324885905,0.0,0.0,0.0,0.0,0.00036528194323182106,-0.002817253116518259,-0.00023918235092423856,1.0002679824829102,0.0,0.0,0.0,15.613249778747559,-2.6311843395233154,7.3697004318237305,-2826.029296875,0
862.3550000000014,7.574672781629488e-05,-0.007064528297632933,0.00010230812040390447,0.0,0.0,0.0,0.0,-0.0003677953500300646,-0.003288088832050562,0.0017405729740858078,1.0002739429473877,0.0,0.0,0.0,15.618729591369629,-2.731717348098755,7.4743428230285645,-2827.02099609375,0
872.2860000000001,7.82296119723469e-05,-0.007003628648817539,7.940089562907815e-05,0.0,0.0,0.0,0.0,0.00043534685391932726,-0.000733555352780968,0.001734078861773014,0.9984785318374634,0.0,0.0,0.0,15.629761695861816,-2.7193186283111572,7.493046760559082,-2829.017822265625,0
882.1820000000007,0.00017367633699905127,-0.00704378355294466,0.00012060148583259434,0.0,0.0,0.0,0.0,0.0030327027197927237,-0.0005650745588354766,-0.0027520654257386923,0.9986094236373901,0.0,0.0,0.0,15.622639656066895,-2.7323384284973145,7.49999475479126,-2827.728759765625,0
892.0970000000016,0.0001879788178484887,-0.0069701275788247585,0.00010312634549336508,0.0,0.0,0.0,0.0,0.001658175839111209,0.0014210616936907172,0.000264326692558825,1.0005007982254028,0.0,0.0,0.0,15.640387535095215,-2.723132371902466,7.506507396697998,-2830.941162109375,0
902.0070000000014,0.0001587987644597888,-0.006967425346374512,9.56705553107895e-05,0.0,0.0,0.0,0.0,0.0032343724742531776,0.0017593610100448132,-0.00031915618455968797,0.9981468319892883,0.0,0.0,0.0,15.625380516052246,-2.7238616943359375,7.491586685180664,-2828.224853515625,0
911.9310000000005,0.00014097524399403483,-0.0069440933875739574,8.326384704560041e-05,0.0,0.0,0.0,0.0,-0.003700878471136093,0.00047467451076954603,-0.0026957944501191378,1.0000983476638794,0.0,0.0,0.0,15.638700485229492,-2.719200611114502,7.484282493591309,-2830.635986328125,0
921.8240000000005,0.0001105152623495087,-0.006942334584891796,7.468022522516549e-05,0.0,0.0,0.0,0.0,0.0018968178192153573,0.0012242263182997704,-0.0024575269781053066,0.9978663325309753,0.0,0.0,0.0,15.622252464294434,-2.720813035964966,7.4730963706970215,-2827.65869140625,0
931.7510000000002,9.74249342107214e-05,-0.006892277393490076,6.393823423422873e-05,0.0,0.0,0.0,0.0,-0.00392719404771924,-0.0005718748434446752,0.0013979139039292932,0.9992009401321411,0.0,0.0,0.0,15.638650894165039,-2.705937147140503,7.469935894012451,-2830.626953125,0
941.6540000000005,6.497618596768007e-05,-0.006886797025799751,5.372957093641162e-05,0.0,0.0,0.0,0.0,0.000611273106187582,0.0052175987511873245,0.0012579592876136303,1.00026535987854,0.0,0.0,0.0,15.622468948364258,-2.704019784927368,7.465374946594238,-2827.697998046875,0
951.585000000001,4.6275170461740345e-05,-0.0068404534831643105,4.02008299715817e-05,0.0,0.0,0.0,0.0,0.00041660727583803236,-0.0008589827921241522,-0.00018272182205691934,1.0004547834396362,0.0,0.0,0.0,15.643044471740723,-2.7017059326171875,7.465132713317871,-2831.422119140625,0
961.4760000000006,0.00018316223577130586,-0.006939590442925692,8.879428787622601e-05,0.0,0.0,0.0,0.0,0.0004026551032438874,0.0028366597834974527,-0.000617212790530175,0.9997112154960632,0.0,0.0,0.0,15.63469123840332,-2.7268600463867188,7.492763519287109,-2829.91015625,0
971.3940000000002,0.00015331902250181884,-0.006937967147678137,7.706557516939938e-05,0.0,0.0,0.0,0.0,-0.0019601585809141397,0.0015999467577785254,0.0013554167235270143,0.9998155832290649,0.0,0.0,0.0,15.648174285888672,-2.722501754760742,7.486360549926758,-2832.350830078125,0
981.3000000000011,0.00018336286302655935,-0.006932280492037535,0.00010302507871529087,0.0,0.0,0.0,0.0,3.437451596255414e-05,-0.003232349641621113,-0.0006008697091601789,0.9989526867866516,0.0,0.0,0.0,15.638419151306152,-2.7239975929260254,7.487386226654053,-2830.5849609375,0
991.2200000000012,0.00015983759658411145,-0.0069187115877866745,8.819682989269495e-05,0.0,0.0,0.0,0.0,7.468563853763044e-05,0.003437190083786845,0.004675799980759621,0.9974685907363892,0.0,0.0,0.0,15.648037910461426,-2.726081132888794,7.478720664978027,-2832.325927734375,0
1001.1239999999998,0.00012796955707017332,-0.006911837961524725,8.132096263580024e-05,0.0,0.0,0.0,0.0,0.001478860154747963,-0.0018598211463540792,-0.0004047952243126929,0.9985253214836121,0.0,0.0,0.0,15.632880210876465,-2.7190282344818115,7.471794128417969,-2829.58251953125,0
1011.0410000000011,0.00010482848301762715,-0.006897738669067621,5.615145346382633e-05,0.0,0.0,0.0,0.0,0.0017668278887867928,0.002857076469808817,-0.00010413645213702694,0.9990513920783997,0.0,0.0,0.0,15.644966125488281,-2.717693567276001,7.459187984466553,-2831.77001953125,0
1020.9620000000014,6.694775947835296e-05,-0.0068920631892979145,4.5321568904910237e-05,0.0,0.0,0.0,0.0,-0.0012265773257240653,-0.0021650122944265604,0.003871095133945346,0.9989743828773499,0.0,0.0,0.0,15.629876136779785,-2.720320463180542,7.443629741668701,-2829.03857421875,0
1030.866,3.29637732647825e-05,-0.00687980093061924,2.314869561814703e-05,0.0,0.0,0.0,0.0,-0.0007018804317340255,0.0004891549469903111,0.0006012720405124128,0.9968171715736389,0.0,0.0,0.0,15.643856048583984,-2.7188029289245605,7.440176963806152,-2831.56884765625,0
1040.7790000000005,-9.934345143847167e-06,-0.006875017192214727,9.69836037256755e-06,0.0,0.0,0.0,0.0,0.002046342706307769,0.0028229833114892244,0.004646915011107922,0.9983065724372864,0.0,0.0,0.0,15.629109382629395,-2.7137558460235596,7.433091640472412,-2828.89990234375,0
1050.6900000000005,-4.374319905764423e-05,-0.006858969572931528,-2.2724978407495655e-05,0.0,0.0,0.0,0.0,0.0005421617534011602,-0.0007044287049211562,0.0003448366769589484,0.9996057152748108,0.0,0.0,0.0,15.640335083007812,-2.7121477127075195,7.422510147094727,-2830.931640625,0
1060.603000000001,-8.830660226522014e-05,-0.006855413317680359,-4.063707456225529e-05,0.0,0.0,0.0,0.0,0.0004731437365990132,0.006320359650999308,0.002161233453080058,0.9995796084403992,0.0,0.0,0.0,15.624942779541016,-2.712113857269287,7.420476913452148,-2828.14599609375,0
1070.514000000001,-0.0001446738897357136,-0.006871769204735756,-4.8345074901590124e-05,0.0,0.0,0.0,0.0,-0.0012671746080741286,-0.0025642155669629574,0.0014689222443848848,0.9996102452278137,0.0,0.0,0.0,15.636181831359863,-2.7150306701660156,7.39495325088501,-2830.179931640625,0
1080.4300000000003,-0.00019310355128254741,-0.006873518694192171,-6.63461978547275e-05,0.0,0.0,0.0,0.0,0.0006357458769343793,-0.0008065432193689048,-0.0011169224744662642,0.999228835105896,0.0,0.0,0.0,15.619749069213867,-2.709226131439209,7.38158655166626,-2827.20556640625,0
1090.3430000000008,-0.0002398266369709745,-0.006850438192486763,-7.544167601736262e-05,0.0,0.0,0.0,0.0,0.00458545982837677,-0.0014277261216193438,-0.004293743520975113,1.0007869005203247,0.0,0.0,0.0,15.640473365783691,-2.698964834213257,7.385438442230225,-2830.956787109375,0
1100.2600000000002,-0.00029056399944238365,-0.0068497550673782825,-9.289145964430645e-05,0.0,0.0,0.0,0.0,-0.00023787564714439213,0.0013123492244631052,0.0016659467946738005,0.9974151253700256,0.0,0.0,0.0,15.624411582946777,-2.701690673828125,7.381485462188721,-2828.0498046875,0
1110.157000000001,-0.00032770910183899105,-0.006819504778832197,-0.00011360666394466534,0.0,0.0,0.0,0.0,0.0010439848992973566,0.004904331173747778,-0.0024703515227884054,0.9999176859855652,0.0,0.0,0.0,15.642251014709473,-2.694157123565674,7.383983612060547,-2831.278564453125,0
1120.0750000000007,-0.0003805089509114623,-0.0068166484124958515,-0.0001325198682025075,0.0,0.0,0.0,0.0,0.0017990352353081107,-0.004234510939568281,-4.183732744422741e-05,0.9994876384735107,0.0,0.0,0.0,15.62619686126709,-2.697185516357422,7.363170146942139,-2828.37255859375,0
1129.9810000000016,-0.0004224464064463973,-0.006813424173742533,-0.00017521233530715108,0.0,0.0,0.0,0.0,0.0032897908240556717,-0.00041736746788956225,-0.0012578791938722134,0.9993299245834351,0.0,0.0,0.0,15.642998695373535,-2.693385124206543,7.360400199890137,-2831.413818359375,0
1139.9099999999999,-0.00047753244871273637,-0.0068110809661448,-0.00019686369341798127,0.0,0.0,0.0,0.0,0.0014754666481167078,0.0045609669759869576,-0.0016871056286618114,0.9963266849517822,0.0,0.0,0.0,15.627029418945312,-2.6910293102264404,7.36088228225708,-2828.5234375,0
1149.8070000000007,-0.0005045011639595032,-0.0067635285668075085,-0.00022639792587142438,0.0,0.0,0.0,0.0,-0.003252384252846241,0.003205294953659177,-0.0013462312053889036,0.9961383938789368,0.0,0.0,0.0,15.640186309814453,-2.678445339202881,7.365502834320068,-2830.90478515625,0
1159.7250000000004,-0.0005601851153187454,-0.006759390234947205,-0.0002525341114960611,0.0,0.0,0.0,0.0,0.004211788531392813,0.0022744680754840374,-0.00013592149480246007,0.9978594779968262,0.0,0.0,0.0,15.62438678741455,-2.677628755569458,7.355506420135498,-2828.045166015625,0
1169.6350000000002,-0.0005480187828652561,-0.006670702248811722,-0.000311159819830209,0.0,0.0,0.0,0.0,0.00266640679910779,-0.00019549015269149095,-0.0016932464204728603,0.9971839785575867,0.0,0.0,0.0,15.644400596618652,-2.6490044593811035,7.3866658210754395,-2831.66748046875,0
1179.558000000001,-0.0006014571408741176,-0.006659871432930231,-0.00034585181856527925,0.0,0.0,0.0,0.0,-0.0009239490609616041,-0.0020170637872070074,-0.00046432847739197314,0.9996305704116821,0.0,0.0,0.0,15.628238677978516,-2.6528382301330566,7.375909328460693,-2828.742431640625,0
1189.4530000000013,-0.0006103828200139105,-0.006611211225390434,-0.000421157426899299,0.0,0.0,0.0,0.0,-0.0016442550113424659,0.0016406291397288442,-0.0016181792598217726,0.9983227849006653,0.0,0.0,0.0,15.644233703613281,-2.6458592414855957,7.382779121398926,-2831.637451171875,0
1199.3760000000002,-0.0006647350965067744,-0.006594560109078884,-0.00046178672346286476,0.0,0.0,0.0,0.0,-0.0004313147801440209,0.0010815414134413004,-0.00505030807107687,0.9984138011932373,0.0,0.0,0.0,15.628173828125,-2.637981653213501,7.3797430992126465,-2828.73046875,0
1209.2849999999999,-0.0006867997581139207,-0.006551607046276331,-0.0005297483876347542,0.0,0.0,0.0,0.0,0.001532725291326642,9.262485400540754e-05,-0.0014596206601709127,0.9991732239723206,0.0,0.0,0.0,15.643333435058594,-2.6321253776550293,7.3803863525390625,-2831.474609375,0
1219.2030000000013,0.0001297894341405481,-0.007022217381745577,0.00013072254660073668,0.0,0.0,0.0,0.0,-0.001218060147948563,0.003097789827734232,-0.0034214032348245382,1.0000900030136108,0.0,0.0,0.0,15.631526947021484,-2.758815050125122,7.5047430992126465,-2829.33740234375,0
1229.116,0.0001486770051997155,-0.0069509875029325485,9.445354953641072e-05,0.0,0.0,0.0,0.0,0.0015719267539680004,0.00372302089817822,-0.0013482474023476243,0.9986506104469299,0.0,0.0,0.0,15.650269508361816,-2.7489607334136963,7.5132293701171875,-2832.729736328125,0
1239.0300000000007,0.00019759993301704526,-0.006949418690055609,0.00012016923574265093,0.0,0.0,0.0,0.0,-1.3132914773450466e-06,0.0006510464008897543,0.003937950357794762,0.9997938275337219,0.0,0.0,0.0,15.633330345153809,-2.740323305130005,7.496824741363525,-2829.6640625,0
1248.9440000000013,0.00023033111938275397,-0.00687891012057662,6.849543569842353e-05,0.0,0.0,0.0,0.0,0.004546549636870623,0.0033758494537323713,-0.001866562757641077,0.9992935061454773,0.0,0.0,0.0,15.649685859680176,-2.728278160095215,7.4966959953308105,-2832.624267578125,0
1258.8470000000016,0.0002129430795321241,-0.006876020226627588,4.857622116105631e-05,0.0,0.0,0.0,0.0,-0.004492829088121653,0.0007026948733255267,0.001965048722922802,1.0007975101470947,0.0,0.0,0.0,15.634256362915039,-2.731811761856079,7.479495525360107,-2829.83154296875,0
1268.759,0.00018060942238662392,-0.006888380274176598,4.8880734539125115e-05,0.0,0.0,0.0,0.0,-0.0013289186172187328,-0.001969551434740424,0.0011412843596190214,0.9999735951423645,0.0,0.0,0.0,15.644916534423828,-2.731177806854248,7.457208633422852,-2831.760986328125,0
1278.684000000001,0.00015985904610715806,-0.006885496433824301,3.1491661502514035e-05,0.0,0.0,0.0,0.0,-0.0011534788645803928,-0.0014332229038700461,-0.001179732964374125,1.0014845132827759,0.0,0.0,0.0,15.629766464233398,-2.7209155559539795,7.4543585777282715,-2829.018798828125,0
1288.5900000000001,0.00011146907490910962,-0.006913892924785614,6.257124914554879e-05,0.0,0.0,0.0,0.0,-0.00020273849077057093,0.0005154504906386137,-0.001902047311887145,1.0002788305282593,0.0,0.0,0.0,15.646132469177246,-2.724375009536743,7.43613862991333,-2831.98095703125,0
1298.4950000000008,0.000216823085793294,-0.006982711609452963,9.247686830349267e-05,0.0,0.0,0.0,0.0,0.0021454929374158382,0.00023147555475588888,0.005492491647601128,0.9988649487495422,0.0,0.0,0.0,15.63028621673584,-2.720216751098633,7.427468776702881,-2829.11279296875,0
1308.4170000000013,0.00015609088586643338,-0.007011725101619959,0.00012490246444940567,0.0,0.0,0.0,0.0,-0.0009803754510357976,0.00541298370808363,-0.00046617889893241227,1.001554250717163,0.0,0.0,0.0,15.648252487182617,-2.7253072261810303,7.4175496101379395,-2832.36474609375,0
1318.3310000000001,0.0002543893933761865,-0.007064318750053644,0.00014402635861188173,0.0,0.0,0.0,0.0,-0.0015807939926162362,0.0002825272677000612,-0.00031364260939881206,1.0003904104232788,0.0,0.0,0.0,15.631619453430176,-2.7223153114318848,7.4006476402282715,-2829.354248046875,0
1328.237000000001,0.00022030039690434933,-0.0070878323167562485,0.00013150708400644362,0.0,0.0,0.0,0.0,-0.003336490597575903,-0.0031763683073222637,-0.0008078026585280895,0.9986785054206848,0.0,0.0,0.0,15.641692161560059,-2.7201876640319824,7.399405479431152,-2831.17724609375,0
1338.1460000000006,0.0001919057103805244,-0.007088691461831331,0.0001278044655919075,0.0,0.0,0.0,0.0,-0.0013600630918517709,-0.002340007107704878,-0.0033683190122246742,0.9994266629219055,0.0,0.0,0.0,15.626953125,-2.713491916656494,7.394578456878662,-2828.509521484375,0
1348.058000000001,0.00018100865418091416,-0.007053284905850887,0.00011655947309918702,0.0,0.0,0.0,0.0,0.0009362725540995598,0.004443036392331123,0.0022764764726161957,1.0021839141845703,0.0,0.0,0.0,15.637138366699219,-2.701467275619507,7.3932929039001465,-2830.35302734375,0
1357.9800000000014,0.0001903005177155137,-0.007054549176245928,0.0001281106233363971,0.0,0.0,0.0,0.0,0.0026557743549346924,0.0015972130931913853,-0.0019354928517714143,1.0000367164611816,0.0,0.0,0.0,15.629420280456543,-2.6989505290985107,7.389173984527588,-2828.956298828125,0
1367.8860000000004,0.00016966986004263163,-0.007026379927992821,0.0001257311087101698,0.0,0.0,0.0,0.0,0.0020349069964140654,-0.0001407721865689382,-0.0027520565781742334,0.999230682849884,0.0,0.0,0.0,15.641069412231445,-2.701772689819336,7.379007816314697,-2831.064697265625,0
1377.7980000000007,0.00017796261818148196,-0.007036701310425997,0.00013144600961823016,0.0,0.0,0.0,0.0,0.0008681992185302079,0.0039850943721830845,-0.0026214513927698135,1.0001639127731323,0.0,0.0,0.0,15.624690055847168,-2.703753709793091,7.375513553619385,-2828.099853515625,0
1387.7060000000001,0.00020646705524995923,-0.0069514187052845955,8.228248043451458e-05,0.0,0.0,0.0,0.0,0.001914760796353221,-0.0035696199629455805,5.255216092336923e-05,1.0017930269241333,0.0,0.0,0.0,15.638313293457031,-2.6934452056884766,7.37618350982666,-2830.565673828125,0
1397.6230000000014,0.00019022503693122417,-0.006959675811231136,7.074554014252499e-05,0.0,0.0,0.0,0.0,0.0010220736730843782,-0.005383256357163191,0.004067490343004465,1.00016450881958,0.0,0.0,0.0,15.629854202270508,-2.7010416984558105,7.370570659637451,-2829.03466796875,0
1407.5349999999999,0.0001924601529026404,-0.006899969186633825,3.857751653413288e-05,0.0,0.0,0.0,0.0,-0.0001984467526199296,-0.001902856514789164,0.004590050783008337,1.0028352737426758,0.0,0.0,0.0,15.649118423461914,-2.69313907623291,7.383632659912109,-2832.521728515625,0
1417.442000000001,0.0001513985771453008,-0.006896664388477802,3.5792047128779814e-05,0.0,0.0,0.0,0.0,-0.00019906363741029054,-0.0012128612725064158,-7.237201498355716e-05,1.0014472007751465,0.0,0.0,0.0,15.633874893188477,-2.6913115978240967,7.383477687835693,-2829.762451171875,0
1427.362000000001,0.00013037616736255586,-0.006891810335218906,-5.363528998714173e-07,0.0,0.0,0.0,0.0,-0.0009809560142457485,0.0008856582571752369,-0.0004639149410650134,1.001227855682373,0.0,0.0,0.0,15.648208618164062,-2.696781873703003,7.382974624633789,-2832.356689453125,0
1437.2669999999998,0.00018471966905053705,-0.0069351778365671635,1.5352570699178614e-05,0.0,0.0,0.0,0.0,3.962996561313048e-05,0.0022085485979914665,-0.0010702923173084855,0.9988617300987244,0.0,0.0,0.0,15.632384300231934,-2.6932432651519775,7.374879360198975,-2829.49267578125,0
1447.1820000000007,0.00013158093497622758,-0.0069401380605995655,3.24746870319359e-05,0.0,0.0,0.0,0.0,0.0012797046219930053,-0.0007701201247982681,0.0006219247006811202,0.9972695708274841,0.0,0.0,0.0,15.639091491699219,-2.6864402294158936,7.362898826599121,-2830.70654296875,0
1457.0830000000005,0.0001672387879807502,-0.006959104910492897,5.273666465654969e-05,0.0,0.0,0.0,0.0,-0.0024257393088191748,-0.0013772252714261413,-0.0024972346145659685,0.998309850692749,0.0,0.0,0.0,15.6323881149292,-2.6888222694396973,7.364710330963135,-2829.493408203125,0
1467.0070000000014,8.36147228255868e-05,-0.006985723972320557,0.00010132357419934124,0.0,0.0,0.0,0.0,0.002721911296248436,-0.0010452423011884093,0.002229709178209305,0.997804582118988,0.0,0.0,0.0,15.642812728881836,-2.689159393310547,7.361156463623047,-2831.380126953125,0
1476.907000000001,0.0001353679981548339,-0.00702040595933795,0.00012482694000937045,0.0,0.0,0.0,0.0,0.004593501798808575,0.0014271779218688607,-0.003154275007545948,0.9995622634887695,0.0,0.0,0.0,15.627396583557129,-2.690248489379883,7.351593971252441,-2828.58984375,0
1486.8310000000001,0.0001104623224819079,-0.006989855319261551,0.00010991805174853653,0.0,0.0,0.0,0.0,0.00010835062857950106,0.0007329746149480343,-0.001464344561100006,0.9985920190811157,0.0,0.0,0.0,15.634283065795898,-2.689473867416382,7.3492350578308105,-2829.836181640625,0
1496.7310000000016,0.0001413191930623725,-0.007021932862699032,0.0001224601292051375,0.0,0.0,0.0,0.0,0.000556604063604027,0.00036805670242756605,0.0003017752605956048,0.9988582730293274,0.0,0.0,0.0,15.61789608001709,-2.689934015274048,7.340219497680664,-2826.8701171875,0
1506.6560000000009,9.346216393169016e-05,-0.007031696382910013,0.00010271675273543224,0.0,0.0,0.0,0.0,0.0015723049873486161,0.0009345554281026125,-0.0009036849369294941,0.9963430762290955,0.0,0.0,0.0,15.626620292663574,-2.6905534267425537,7.337611675262451,-2828.44921875,0
1516.562,0.00018155929865315557,-0.007057213690131903,0.0001533173635834828,0.0,0.0,0.0,0.0,0.0006035665865056217,0.003192050149664283,0.0025118920020759106,0.9964113831520081,0.0,0.0,0.0,15.612288475036621,-2.689639091491699,7.324193477630615,-2825.85546875,0
1526.4800000000014,0.0001558843650855124,-0.007024182938039303,0.00013290284550748765,0.0,0.0,0.0,0.0,-0.0010242308489978313,-0.005351576954126358,-0.0026846793480217457,0.9993680715560913,0.0,0.0,0.0,15.616016387939453,-2.686310291290283,7.31123685836792,-2826.530029296875,0
1536.3810000000012,0.00015415094094350934,-0.007042103447020054,0.00013437274901662022,0.0,0.0,0.0,0.0,-0.0016626077704131603,0.006224410608410835,-0.0008159489370882511,0.9993852972984314,0.0,0.0,0.0,15.605618476867676,-2.6862998008728027,7.309291362762451,-2824.648193359375,0
1546.3160000000007,0.00013487058458849788,-0.006972816772758961,0.00012440930004231632,0.0,0.0,0.0,0.0,-0.000446630670921877,-0.0006640401552431285,0.0006340821855701506,0.9991531372070312,0.0,0.0,0.0,15.618082046508789,-2.671537399291992,7.317370414733887,-2826.90380859375,0
1556.2060000000001,0.00014642617315985262,-0.007001607678830624,0.0001231277856277302,0.0,0.0,0.0,0.0,-0.005479007493704557,0.0014375904574990273,-0.0010572843020781875,1.0000483989715576,0.0,0.0,0.0,15.610981941223145,-2.6740453243255615,7.318691253662109,-2825.61865234375,0
1566.1260000000002,0.00010719545389292762,-0.00697395671159029,0.00010317582928109914,0.0,0.0,0.0,0.0,0.0017481936374679208,-0.0026450534351170063,-0.0008585834875702858,0.9996918439865112,0.0,0.0,0.0,15.618952751159668,-2.6629302501678467,7.310184001922607,-2827.0615234375,0
1576.0280000000002,0.00014097914390731603,-0.007005560211837292,0.00011190781515324488,0.0,0.0,0.0,0.0,-0.0014961588894948363,0.0008271546103060246,-0.0016497747274115682,0.9990654587745667,0.0,0.0,0.0,15.61093807220459,-2.6694560050964355,7.315807819366455,-2825.61083984375,0
1585.9580000000005,6.905942427692935e-05,-0.007003726903349161,0.00013142464740667492,0.0,0.0,0.0,0.0,0.0003742899280041456,-0.0019546032417565584,0.00295062642544508,0.9992449283599854,0.0,0.0,0.0,15.620223045349121,-2.667341709136963,7.312625408172607,-2827.29150390625,0
1595.8540000000012,0.00018173715216107666,-0.007072194945067167,0.00015677862393204123,0.0,0.0,0.0,0.0,-0.0014065675204619765,0.0015948832733556628,-0.0015566910151392221,0.9978222250938416,0.0,0.0,0.0,15.605255126953125,-2.665358781814575,7.300050258636475,-2824.582275390625,0
1605.7720000000008,9.715722990222275e-05,-0.007106047123670578,0.00017202489834744483,0.0,0.0,0.0,0.0,-0.001943113747984171,0.003839302808046341,0.0009595982846803963,0.9983653426170349,0.0,0.0,0.0,15.614174842834473,-2.667478084564209,7.296378135681152,-2826.19677734375,0
1615.6800000000003,3.603961522458121e-05,-0.007110153324902058,0.0001674150553299114,0.0,0.0,0.0,0.0,-0.0006561307818628848,0.0035639514680951834,0.0008861704263836145,1.0007641315460205,0.0,0.0,0.0,15.59823226928711,-2.6636672019958496,7.277010440826416,-2823.31103515625,0
1625.6080000000002,3.149675831082277e-05,-0.007033657282590866,0.0001239422126673162,0.0,0.0,0.0,0.0,0.00023817659530323,0.001699560903944075,-0.0021603344939649105,0.9996969699859619,0.0,0.0,0.0,15.606931686401367,-2.650709867477417,7.2833123207092285,-2824.8857421875,0
1635.5010000000002,-3.127046875306405e-05,-0.00703235762193799,0.0001160701212938875,0.0,0.0,0.0,0.0,0.001099820132367313,-0.001351021695882082,-0.0006898684077896178,1.0003173351287842,0.0,0.0,0.0,15.591290473937988,-2.647270679473877,7.275481224060059,-2822.054931640625,0
1645.42,-5.2558258175849915e-05,-0.0069829742424190044,6.865512114018202e-05,0.0,0.0,0.0,0.0,-0.003784524742513895,0.004974042065441608,-0.0006615808815695345,1.000730037689209,0.0,0.0,0.0,15.599282264709473,-2.6389639377593994,7.28632116317749,-2823.501220703125,0
1655.33,-7.202962297014892e-05,-0.006926546338945627,2.6932386390399188e-05,0.0,0.0,0.0,0.0,-0.000156833601067774,0.00390906585380435,8.58978382893838e-05,1.000352144241333,0.0,0.0,0.0,15.609105110168457,-2.619457483291626,7.292816162109375,-2825.279052734375,0
1665.2520000000004,-0.00013251414929982275,-0.006918563041836023,1.564472768222913e-05,0.0,0.0,0.0,0.0,0.0005642707110382617,0.004037841223180294,0.0008045794675126672,0.9994024038314819,0.0,0.0,0.0,15.593860626220703,-2.6130118370056152,7.2817535400390625,-2822.52001953125,0
1675.1550000000007,-0.00015378846728708595,-0.006873105186969042,-2.905199653469026e-05,0.0,0.0,0.0,0.0,-0.0009873108938336372,0.0031700206454843283,8.865669224178419e-05,0.9981098771095276,0.0,0.0,0.0,15.603955268859863,-2.6103670597076416,7.287876605987549,-2824.346923828125,0
1685.076000000001,-0.00021264032693579793,-0.006860759109258652,-4.280128632672131e-05,0.0,0.0,0.0,0.0,0.0016471600392833352,0.003492630086839199,0.0024832843337208033,0.9979159235954285,0.0,0.0,0.0,15.58782958984375,-2.605327844619751,7.263646125793457,-2821.42822265625,0
1694.9850000000006,0.00020298654271755368,-0.007002994883805513,0.00015791853365954012,0.0,0.0,0.0,0.0,0.0002972265938296914,0.0018385323928669095,-0.002053838688880205,0.9989235401153564,0.0,0.0,0.0,15.609904289245605,-2.6725072860717773,7.365841865539551,-2825.423828125,0
1704.9009999999998,0.000172866799402982,-0.00699711823835969,0.00015204389637801796,0.0,0.0,0.0,0.0,-0.0003796532400883734,-0.004641551058739424,0.003751378273591399,1.0008392333984375,0.0,0.0,0.0,15.593929290771484,-2.6751534938812256,7.3474040031433105,-2822.5322265625,0
1714.8010000000013,0.00012091945973224938,-0.007028055842965841,0.0001568590523675084,0.0,0.0,0.0,0.0,-0.0012656360631808639,0.000746285542845726,-0.0003470972296781838,0.9999243021011353,0.0,0.0,0.0,15.609739303588867,-2.6838390827178955,7.335576057434082,-2825.393798828125,0
1724.7110000000011,8.611248631495982e-05,-0.0070253717713057995,0.00015183852519840002,0.0,0.0,0.0,0.0,0.002497325884178281,0.0017864347901195288,-0.0005402700626291335,0.9983576536178589,0.0,0.0,0.0,15.594622611999512,-2.6809067726135254,7.328402996063232,-2822.65771484375,0
1734.6230000000014,5.5533160775667056e-05,-0.007001219317317009,0.00015745213022455573,0.0,0.0,0.0,0.0,0.0004057234327774495,0.0004113859322387725,-7.767596252961084e-05,0.999426543712616,0.0,0.0,0.0,15.607237815856934,-2.675081968307495,7.327411651611328,-2824.941162109375,0
1744.545,1.778400837793015e-05,-0.006997562013566494,0.00015238940250128508,0.0,0.0,0.0,0.0,-0.000366191437933594,-0.0013134453911334276,0.0027089330833405256,0.9985978603363037,0.0,0.0,0.0,15.5925931930542,-2.667691230773926,7.321933269500732,-2822.29052734375,0
1754.4480000000003,-1.966879608517047e-05,-0.007000327575951815,0.00013204415154177696,0.0,0.0,0.0,0.0,-0.00031560371280647814,-0.005296654067933559,-0.00039522763108834624,1.001415729522705,0.0,0.0,0.0,15.604537963867188,-2.667004346847534,7.315528869628906,-2824.452392578125,0
1764.3600000000006,-6.205264799064025e-05,-0.006994117517024279,0.0001250376080861315,0.0,0.0,0.0,0.0,-7.055903552100062e-05,-0.0013249007752165198,-0.004253788851201534,0.9999837279319763,0.0,0.0,0.0,15.588534355163574,-2.6671600341796875,7.317107200622559,-2821.5556640625,0
1774.2780000000002,-9.286538988817483e-05,-0.006978696212172508,9.9026488896925e-05,0.0,0.0,0.0,0.0,-0.0034815899562090635,-0.0019136228365823627,-0.0006772588822059333,0.9998337626457214,0.0,0.0,0.0,15.603747367858887,-2.658966541290283,7.31062126159668,-2824.3095703125,0
1784.184000000001,-0.00013758747081737965,-0.006972241215407848,9.161647903965786e-05,0.0,0.0,0.0,0.0,-0.00047600563266314566,0.004566229414194822,-5.99248924118001e-05,0.9986594319343567,0.0,0.0,0.0,15.58862018585205,-2.6535837650299072,7.298600673675537,-2821.5712890625,0
1794.1090000000004,-0.00015855030505917966,-0.006922287400811911,7.912448199931532e-05,0.0,0.0,0.0,0.0,0.00011081933189416304,0.002289754105731845,0.0008720014593563974,0.9985262155532837,0.0,0.0,0.0,15.602127075195312,-2.63334321975708,7.306678771972656,-2824.01611328125,0
1804.0120000000006,-0.00020584715821314603,-0.006912801414728165,7.030762208160013e-05,0.0,0.0,0.0,0.0,0.003715797560289502,0.001639147405512631,0.002340201986953616,0.9998453855514526,0.0,0.0,0.0,15.586181640625,-2.6330552101135254,7.296291351318359,-2821.1298828125,0
1813.9400000000005,0.0001430900883860886,-0.00699247419834137,0.00021476605616044253,0.0,0.0,0.0,0.0,0.0028743648435920477,-0.0005287646199576557,0.0012068552896380424,0.9992591738700867,0.0,0.0,0.0,15.61201000213623,-2.6798417568206787,7.3637471199035645,-2825.804931640625,0
1823.8330000000005,0.00011232925317017362,-0.0069872597232460976,0.00021028278570156544,0.0,0.0,0.0,0.0,0.0002887491136789322,0.004950556438416243,-0.0009323459235019982,0.9996203780174255,0.0,0.0,0.0,15.597407341003418,-2.6853575706481934,7.347997188568115,-2823.161865234375,0
1833.7530000000006,0.00020167142793070525,-0.007015411276370287,0.00015682281809858978,0.0,0.0,0.0,0.0,0.0020263909827917814,0.0013964904937893152,-0.00010296965774614364,1.0005412101745605,0.0,0.0,0.0,15.623164176940918,-2.694920539855957,7.346887588500977,-2827.82373046875,0
1843.6630000000005,0.0001684439484961331,-0.007012621499598026,0.00014814609312452376,0.0,0.0,0.0,0.0,0.00455301022157073,-0.0010657941456884146,-0.0003462183231022209,1.0011452436447144,0.0,0.0,0.0,15.607927322387695,-2.695857524871826,7.331263065338135,-2825.06591796875,0
1853.5810000000001,0.00020355198648758233,-0.007004519924521446,0.000131472188513726,0.0,0.0,0.0,0.0,-0.002270213793963194,0.0013609263114631176,-0.003679321613162756,0.999186098575592,0.0,0.0,0.0,15.633209228515625,-2.7027533054351807,7.32445764541626,-2829.641845703125,0
1863.4830000000002,0.0001665265444898978,-0.007001569494605064,0.0001238106342498213,0.0,0.0,0.0,0.0,0.002984322141855955,0.0022688615135848522,0.0014066302683204412,0.997546374797821,0.0,0.0,0.0,15.618107795715332,-2.7019834518432617,7.317007541656494,-2826.90869140625,0
1873.4030000000002,0.0002596793929114938,-0.007041544187813997,0.0001216163655044511,0.0,0.0,0.0,0.0,-0.0004704396706074476,0.003851623274385929,-0.0018972605466842651,0.9995302557945251,0.0,0.0,0.0,15.637965202331543,-2.7096118927001953,7.306140422821045,-2830.5029296875,0
1883.3100000000013,0.00021991685207467526,-0.007036828435957432,0.00011251719843130559,0.0,0.0,0.0,0.0,0.0016640626126900315,0.0033308204729110003,0.002178093884140253,1.0007362365722656,0.0,0.0,0.0,15.622298240661621,-2.7060387134552,7.290202617645264,-2827.667236328125,0
1893.2290000000012,0.0001990801392821595,-0.007006245199590921,8.58284329297021e-05,0.0,0.0,0.0,0.0,-0.0018702646484598517,-0.0036280048079788685,0.004464074969291687,0.9993685483932495,0.0,0.0,0.0,15.63473892211914,-2.6994850635528564,7.287785530090332,-2829.918701171875,0
1903.1380000000008,0.0001572184992255643,-0.006998911499977112,7.540483784396201e-05,0.0,0.0,0.0,0.0,0.0006698708166368306,0.002035661833360791,0.003230585251003504,0.9999174475669861,0.0,0.0,0.0,15.620367050170898,-2.6999194622039795,7.2754740715026855,-2827.3173828125,0
1913.0570000000007,0.0002276906743645668,-0.006969130598008633,3.767186717595905e-05,0.0,0.0,0.0,0.0,-0.0006106081418693066,0.003927818965166807,-0.0025155821349471807,0.9987697601318359,0.0,0.0,0.0,15.631949424743652,-2.6884191036224365,7.278407573699951,-2829.413818359375,0
1922.9560000000001,0.00018596151494421065,-0.006959960795938969,2.505142765585333e-05,0.0,0.0,0.0,0.0,0.0009870186913758516,7.628039747942239e-05,-0.00263315555639565,1.0000022649765015,0.0,0.0,0.0,15.616364479064941,-2.684044122695923,7.265637397766113,-2826.593017578125,0
1932.8810000000012,0.00026815859018824995,-0.006950166542083025,5.744309237343259e-05,0.0,0.0,0.0,0.0,0.0015425470191985369,-0.0008808312704786658,0.001707499148324132,1.0002493858337402,0.0,0.0,0.0,15.628016471862793,-2.6813526153564453,7.252259254455566,-2828.701904296875,0
1942.7800000000007,0.00022456755687016994,-0.0069404346868395805,4.7785859351279214e-05,0.0,0.0,0.0,0.0,-0.001214546849951148,-0.0017668853979557753,0.0004770798550453037,1.0001636743545532,0.0,0.0,0.0,15.612964630126953,-2.684006929397583,7.248697280883789,-2825.9775390625,0
1952.7040000000015,0.0002181527524953708,-0.006930760573595762,-3.0550120300176786e-06,0.0,0.0,0.0,0.0,0.0008606344345025718,0.0009767457377165556,-0.0027243311051279306,1.0005285739898682,0.0,0.0,0.0,15.633012771606445,-2.686866283416748,7.242147922515869,-2829.6064453125,0
1962.603000000001,0.00016916739696171135,-0.006923499051481485,-1.4850386833131779e-05,0.0,0.0,0.0,0.0,-0.00016579638759139925,-0.0017506651347503066,-0.00040291858022101223,0.9988659620285034,0.0,0.0,0.0,15.617427825927734,-2.6831719875335693,7.231573581695557,-2826.785400390625,0
1972.5340000000015,0.00010758077405625954,-0.006922347005456686,-1.035470086208079e-05,0.0,0.0,0.0,0.0,0.0012038950808346272,-0.0019500992493703961,-0.0012945533962920308,0.9978233575820923,0.0,0.0,0.0,15.6259126663208,-2.6803243160247803,7.222231388092041,-2828.3212890625,0
1982.433000000001,0.00016462194616906345,-0.006925081834197044,4.549895675154403e-05,0.0,0.0,0.0,0.0,0.0003011648077517748,0.003341000759974122,-0.0026323108468204737,0.9983315467834473,0.0,0.0,0.0,15.6181640625,-2.6841986179351807,7.228198528289795,-2826.918701171875,0
1992.3560000000016,0.00013864936772733927,-0.006872009020298719,3.282238685642369e-05,0.0,0.0,0.0,0.0,-0.00014891255705151707,0.0013505747774615884,0.003337225876748562,0.9975099563598633,0.0,0.0,0.0,15.62968635559082,-2.6713318824768066,7.235372543334961,-2829.004150390625,0
2002.2520000000004,8.483593410346657e-05,-0.006863245274871588,2.3657241399632767e-05,0.0,0.0,0.0,0.0,-0.0005031304899603128,-0.001539010088890791,0.0001309840736212209,0.9998006224632263,0.0,0.0,0.0,15.613204956054688,-2.664919376373291,7.222276210784912,-2826.021240234375,0
2012.1779999999999,2.362032864766661e-05,-0.006858134176582098,2.0657616914832033e-05,0.0,0.0,0.0,0.0,0.0005432411562651396,0.004058992490172386,-0.0003024349280167371,0.9990487098693848,0.0,0.0,0.0,15.621966361999512,-2.669834852218628,7.210928440093994,-2827.60693359375,0
2022.076000000001,-3.4552329452708364e-05,-0.006849068216979504,9.80136428552214e-06,0.0,0.0,0.0,0.0,0.003352987114340067,0.0005990069475956261,0.0017339960904791951,0.9991497993469238,0.0,0.0,0.0,15.605998039245605,-2.668018341064453,7.210999011993408,-2824.716796875,0
2031.9989999999998,-7.922229269752279e-05,-0.006831425242125988,-2.823985596478451e-05,0.0,0.0,0.0,0.0,-0.0033222497440874577,0.0007491770084016025,-0.0014783644583076239,0.9998621344566345,0.0,0.0,0.0,15.614677429199219,-2.6674036979675293,7.205537796020508,-2826.28759765625,0
2041.902,6.898552237544209e-05,-0.006960677448660135,5.4364747484214604e-05,0.0,0.0,0.0,0.0,0.00011985570017714053,-2.1822150301886722e-05,-0.004249775316566229,0.999488890171051,0.0,0.0,0.0,15.590522766113281,-2.7111330032348633,7.244626998901367,-2821.915771484375,0
2051.8340000000007,8.576072286814451e-05,-0.006934851408004761,4.5710239646723494e-05,0.0,0.0,0.0,0.0,0.001878645969554782,0.00118261796887964,0.0003257662174291909,0.9985998868942261,0.0,0.0,0.0,15.615541458129883,-2.708597183227539,7.249360084533691,-2826.4443359375,0
2061.7260000000006,0.0001349889935227111,-0.007005989085882902,5.101224087411538e-05,0.0,0.0,0.0,0.0,8.703198545845225e-05,-0.0033527398481965065,0.0010824635392054915,0.996576726436615,0.0,0.0,0.0,15.584134101867676,-2.704672336578369,7.238340854644775,-2820.759521484375,0
2071.6530000000002,0.0001702062872936949,-0.006938339676707983,5.047257218393497e-05,0.0,0.0,0.0,0.0,-0.0006278029177337885,-0.0016289388295263052,-0.0006729387096129358,0.997122585773468,0.0,0.0,0.0,15.613450050354004,-2.695497751235962,7.246495246887207,-2826.0654296875,0
2081.550000000001,0.0002919245744124055,-0.0070043462328612804,7.313031528610736e-05,0.0,0.0,0.0,0.0,-0.0005456632934510708,-0.0071201082319021225,0.005914617329835892,1.0001925230026245,0.0,0.0,0.0,15.603767395019531,-2.7102086544036865,7.252730369567871,-2824.31298828125,0
2091.474,0.00018256499606650323,-0.0070743258111178875,0.00010451274283695966,0.0,0.0,0.0,0.0,0.0005846476997248828,-0.0007069969433359802,0.0005965651944279671,0.999944806098938,0.0,0.0,0.0,15.620691299438477,-2.717963933944702,7.233320236206055,-2827.376220703125,0
2101.381000000001,0.00013018047320656478,-0.007075561676174402,9.592021524440497e-05,0.0,0.0,0.0,0.0,-0.0005229205708019435,0.005354112945497036,-0.0025301692076027393,0.9987046122550964,0.0,0.0,0.0,15.606648445129395,-2.7120699882507324,7.231379985809326,-2824.83447265625,0
2111.299000000001,6.92205285304226e-05,-0.007078452501446009,9.738523658597842e-05,0.0,0.0,0.0,0.0,0.00016089559358078986,0.0023738923482596874,-0.0029313073027879,0.9984897971153259,0.0,0.0,0.0,15.620035171508789,-2.7115042209625244,7.2076897621154785,-2827.25732421875,0
2121.201000000001,-5.170219446881674e-05,-0.007076142821460962,7.905151142040268e-05,0.0,0.0,0.0,0.0,-0.0013613376067951322,-0.0009152477141469717,0.0058486019261181355,0.999070942401886,0.0,0.0,0.0,15.587298393249512,-2.7084317207336426,7.180563926696777,-2821.33203125,0
2131.125,-4.005618393421173e-05,-0.007051972672343254,7.577850919915363e-05,0.0,0.0,0.0,0.0,0.002982496516779065,0.0001449634146410972,-0.0008179583819583058,0.9974397420883179,0.0,0.0,0.0,15.617777824401855,-2.705697536468506,7.18574857711792,-2826.84912109375,0
2141.031000000001,-0.00016662120469845831,-0.007047340273857117,5.20499816047959e-05,0.0,0.0,0.0,0.0,0.0009326488943770528,0.006902150809764862,-0.0009183233487419784,0.9994535446166992,0.0,0.0,0.0,15.586287498474121,-2.6963937282562256,7.161324977874756,-2821.149169921875,0
2150.9500000000007,-0.00014222163008525968,-0.006977721583098173,6.242912058951333e-05,0.0,0.0,0.0,0.0,0.001492063282057643,0.0007772559183649719,-0.00032217008993029594,0.9990865588188171,0.0,0.0,0.0,15.614459037780762,-2.6792798042297363,7.178240776062012,-2826.248046875,0
