timestamp,stateEstimate.x,stateEstimate.y,stateEstimate.z,controller.cmd_thrust,controller.cmd_roll,controller.cmd_pitch,controller.cmd_yaw,controller.r_roll,controller.r_pitch,controller.r_yaw,controller.accelz,controller.actuatorThrust,controller.roll,controller.pitch,controller.yaw,controller.rollRate,controller.pitchRate,controller.yawRate,controller.ctr_yaw
0.0,-5.2092498663114384e-05,-6.130426481831819e-05,5.14225939696189e-06,0.0,0.0,0.0,0.0,-0.00023809162667021155,0.002054439391940832,-0.001210853224620223,0.9986084699630737,0.0,0.0,0.0,0.6843597292900085,1.625665545463562,6.8346028327941895,-123.8704605102539,0
9.903000000000247,-0.00013294507516548038,-5.953242362011224e-05,-3.879811629303731e-06,0.0,0.0,0.0,0.0,0.000552754383534193,-0.00620556203648448,0.004524963907897472,0.9995560646057129,0.0,0.0,0.0,0.6832371354103088,1.629626989364624,6.81041145324707,-123.66728973388672,0
19.834000000000742,-5.00567039125599e-05,-9.464187314733863e-05,4.296129191061482e-05,0.0,0.0,0.0,0.0,0.0021715371403843164,0.003268952714279294,-0.0011474747443571687,1.000652551651001,0.0,0.0,0.0,0.6767771244049072,1.6334856748580933,6.814916610717773,-122.49800109863281,0
29.73199999999997,-0.0001308884529862553,-9.838016558205709e-05,2.5969029593397863e-05,0.0,0.0,0.0,0.0,-0.002908312249928713,-0.003439194755628705,0.0008758172625675797,0.9988433718681335,0.0,0.0,0.0,0.6760117411613464,1.6306421756744385,6.797741889953613,-122.35946655273438,0
39.65100000000166,-9.4878654635977e-05,-0.0001350055099464953,5.8502013416728005e-05,0.0,0.0,0.0,0.0,0.00022223770793061703,-0.0015392586356028914,-0.0020424698013812304,1.0002979040145874,0.0,0.0,0.0,0.6750572919845581,1.6335045099258423,6.79738187789917,-122.18671417236328,0
49.55500000000029,-0.00012135036377003416,-6.97783543728292e-05,6.726384526700713e-06,0.0,0.0,0.0,0.0,-0.0022976952604949474,0.0012822679709643126,-0.0002954572264570743,1.0009174346923828,0.0,0.0,0.0,0.6845137476921082,1.642651915550232,6.7977094650268555,-123.89835357666016,0
59.47200000000157,-7.370664388872683e-05,-0.0001152393379015848,3.421810470172204e-05,0.0,0.0,0.0,0.0,0.003203831147402525,0.002854394493624568,0.0002332669246243313,0.9996153116226196,0.0,0.0,0.0,0.6840161085128784,1.6456013917922974,6.7907514572143555,-123.80826568603516,0
69.38300000000163,-0.00011123194417450577,-3.981739791925065e-05,1.4088337593420874e-05,0.0,0.0,0.0,0.0,0.0002904314605984837,-0.0005498345708474517,-0.001319459406659007,0.9980451464653015,0.0,0.0,0.0,0.6725296974182129,1.6599231958389282,6.7871623039245605,-121.72920989990234,0
79.3030000000017,-6.045159898349084e-05,-8.117294783005491e-05,4.281484871171415e-05,0.0,0.0,0.0,0.0,-0.0019944291561841965,2.6424766474519856e-05,0.002806811360642314,0.998748779296875,0.0,0.0,0.0,0.6719629168510437,1.6559158563613892,6.780856132507324,-121.62662506103516,0
89.20900000000074,-8.442391117569059e-05,2.1832806851307396e-06,4.714906935987528e-06,0.0,0.0,0.0,0.0,0.0006491545937024057,-4.134965638513677e-05,-0.002301971660926938,0.9994576573371887,0.0,0.0,0.0,0.6721903085708618,1.6602468490600586,6.783564567565918,-121.66777801513672,0
99.12200000000121,-3.4327014873269945e-05,-3.7419704312924296e-05,2.9319029636099003e-05,0.0,0.0,0.0,0.0,0.0011223258916288614,-0.001112325699068606,0.0018699381034821272,0.9981144666671753,0.0,0.0,0.0,0.6694306135177612,1.65725839138031,6.76408052444458,-121.16827392578125,0
109.02600000000166,-6.492829561466351e-05,3.519745223456994e-05,-8.701917067810427e-06,0.0,0.0,0.0,0.0,0.0011021866230294108,-0.0012843701988458633,0.00014864305558148772,0.9981342554092407,0.0,0.0,0.0,0.6768556237220764,1.6714632511138916,6.77171516418457,-122.51221466064453,0
118.95100000000093,-2.339697311981581e-05,-4.886845090368297e-06,5.161569333722582e-06,0.0,0.0,0.0,0.0,8.587021147832274e-05,0.001166176749393344,-0.0017037689685821533,0.9988332390785217,0.0,0.0,0.0,0.6763696074485779,1.6648929119110107,6.756076812744141,-122.42424011230469,0
128.85400000000118,-9.996801236411557e-05,9.237969607056584e-06,-2.6433281163917854e-05,0.0,0.0,0.0,0.0,0.00021397590171545744,-0.001879686489701271,0.001261826022528112,1.0007851123809814,0.0,0.0,0.0,0.6838480830192566,1.6641814708709717,6.756108283996582,-123.7778549194336,0
138.77200000000084,-9.297686483478174e-05,1.577577495481819e-05,9.83441077551106e-06,0.0,0.0,0.0,0.0,0.0013645740691572428,-0.0011616358533501625,-0.0007915099267847836,1.0005494356155396,0.0,0.0,0.0,0.6828259229660034,1.6668115854263306,6.750070095062256,-123.59284210205078,0
148.6780000000017,-0.00014320228365249932,7.385891512967646e-05,-1.6907988538150676e-05,0.0,0.0,0.0,0.0,-0.002264974173158407,0.0030103351455181837,0.0011511733755469322,0.9982614517211914,0.0,0.0,0.0,0.675214409828186,1.682120680809021,6.7600417137146,-122.21514892578125,0
158.60900000000038,-7.38788876333274e-05,4.310229269322008e-05,2.508127727196552e-05,0.0,0.0,0.0,0.0,0.0004428210959304124,0.001412494690157473,0.003064447082579136,0.9989574551582336,0.0,0.0,0.0,0.6743055582046509,1.6825675964355469,6.748809337615967,-122.05065155029297,0
168.5030000000006,-0.00015347832231782377,5.7917128287954256e-05,1.0039715562015772e-05,0.0,0.0,0.0,0.0,-0.0021855223458260298,-0.0014792348956689239,2.8976162866456434e-05,1.0003345012664795,0.0,0.0,0.0,0.6647727489471436,1.6834031343460083,6.741713047027588,-120.32518768310547,0
178.42100000000028,-0.00010114010365214199,3.780878978432156e-05,5.651749233948067e-05,0.0,0.0,0.0,0.0,-0.0006784476572647691,0.004952521994709969,-0.0012344039278104901,1.0005204677581787,0.0,0.0,0.0,0.6633818745613098,1.682978868484497,6.729043960571289,-120.07344055175781,0
188.32800000000134,-0.000151383486809209,9.420780406799167e-05,2.3915232304716483e-05,0.0,0.0,0.0,0.0,0.0014370940625667572,-0.0007011647103354335,0.0004311741213314235,0.9978060722351074,0.0,0.0,0.0,0.6556876301765442,1.700997233390808,6.722500801086426,-118.68077087402344,0
198.25,-9.577023593010381e-05,6.621197826461866e-05,6.494370609289035e-05,0.0,0.0,0.0,0.0,-0.0026786536909639835,-0.005943838506937027,-0.0016142886597663164,0.9986468553543091,0.0,0.0,0.0,0.6538615822792053,1.6967965364456177,6.711843013763428,-118.35025024414062,0
208.14900000000125,-0.0001844882790464908,8.071331103565171e-05,6.338513776427135e-05,0.0,0.0,0.0,0.0,-0.0015624560182914138,-4.95650056109298e-05,-0.0011461015092208982,0.998242974281311,0.0,0.0,0.0,0.6530983448028564,1.7031217813491821,6.715098857879639,-118.21209716796875,0
218.07100000000173,-9.185374801745638e-05,3.4712578781181946e-05,6.66113046463579e-05,0.0,0.0,0.0,0.0,-0.0016362168826162815,0.0021381773985922337,0.002674753312021494,0.9988857507705688,0.0,0.0,0.0,0.6510981321334839,1.6918405294418335,6.7399115562438965,-117.85005187988281,0
227.97300000000178,-0.00017862491949927062,4.3300929974066094e-05,5.881936158402823e-05,0.0,0.0,0.0,0.0,-0.0007516779005527496,-0.0037863815668970346,0.0003427120973356068,1.0020112991333008,0.0,0.0,0.0,0.6602749824523926,1.6900992393493652,6.730070114135742,-119.5110855102539,0
237.89900000000125,-0.00010273038788000122,7.478586667275522e-06,0.00010055937309516594,0.0,0.0,0.0,0.0,0.0012944096233695745,0.00022504778462462127,0.003617569338530302,1.0009349584579468,0.0,0.0,0.0,0.6587526202201843,1.6931654214859009,6.722592353820801,-119.23553466796875,0
247.8030000000017,-0.00017429259605705738,4.526711200014688e-05,0.00010274268424836919,0.0,0.0,0.0,0.0,-0.00027467458858154714,-0.003883272409439087,-0.0004990274319425225,1.0004690885543823,0.0,0.0,0.0,0.652739405632019,1.6971763372421265,6.71448278427124,-118.14713287353516,0
257.72100000000137,-0.00011523334978846833,4.588776846503606e-06,0.00014273321721702814,0.0,0.0,0.0,0.0,-0.0009868339402601123,0.0025189118459820747,-0.0026798811741173267,1.0000911951065063,0.0,0.0,0.0,0.6512904763221741,1.696494221687317,6.717386722564697,-117.88488006591797,0
267.6230000000014,-0.00015228385746013373,5.3486714023165405e-05,9.659322677180171e-05,0.0,0.0,0.0,0.0,0.001531229354441166,0.0004257667751517147,0.002043372020125389,1.0001275539398193,0.0,0.0,0.0,0.6407912373542786,1.710021734237671,6.70930814743042,-115.98448944091797,0
277.5430000000015,-0.00010311300866305828,3.296361319371499e-05,0.00014556178939528763,0.0,0.0,0.0,0.0,-0.001881127362139523,-0.002632168121635914,7.821080362191424e-05,1.0004044771194458,0.0,0.0,0.0,0.6410983800888062,1.7126505374908447,6.699425220489502,-116.04007720947266,0
287.4470000000001,-0.0001321522140642628,9.250967559637502e-05,9.774097998160869e-05,0.0,0.0,0.0,0.0,0.00017910018505062908,0.002992671448737383,0.0021014073863625526,1.001692295074463,0.0,0.0,0.0,0.631776750087738,1.7294789552688599,6.705236434936523,-114.35285186767578,0
297.3680000000004,-0.00012938995496369898,4.388248999021016e-05,9.657171176513657e-05,0.0,0.0,0.0,0.0,0.0028548052068799734,0.0023693256080150604,-0.0023818265181034803,1.0025386810302734,0.0,0.0,0.0,0.6307324767112732,1.730726957321167,6.689839839935303,-114.16382598876953,0
307.27300000000105,-0.00019191426690667868,4.3893669499084353e-05,4.6524524805136025e-05,0.0,0.0,0.0,0.0,-0.003816068870946765,-0.002878916449844837,0.0003685070259962231,0.9990253448486328,0.0,0.0,0.0,0.6240725517272949,1.7223320007324219,6.691626071929932,-112.9583740234375,0
317.2000000000007,-0.00011282950435997918,8.749799235374667e-06,0.00010061695502372459,0.0,0.0,0.0,0.0,-5.348641934688203e-05,0.0007678988040424883,-0.001623182906769216,0.9989389777183533,0.0,0.0,0.0,0.623826801776886,1.7212023735046387,6.690275192260742,-112.91389465332031,0
327.10699999999997,-0.00012961112952325493,7.715252286288887e-05,3.90826680813916e-05,0.0,0.0,0.0,0.0,5.160081491339952e-05,-0.004068249370902777,0.0006116143777035177,1.0004878044128418,0.0,0.0,0.0,0.6127489805221558,1.7371282577514648,6.7021708488464355,-110.90878295898438,0
337.0100000000002,-4.44762954430189e-05,2.99529301628354e-06,5.875300848856568e-05,0.0,0.0,0.0,0.0,0.0025283307768404484,0.0005375647451728582,0.0008252456900663674,0.999718427658081,0.0,0.0,0.0,0.6202155351638794,1.7202839851379395,6.728707790374756,-112.26024627685547,0
346.9210000000003,-0.00011538432590896264,7.06957871443592e-06,3.145073424093425e-05,0.0,0.0,0.0,0.0,0.0012297789799049497,-0.002532795537263155,-0.0003966318035963923,0.9992474913597107,0.0,0.0,0.0,0.620141327381134,1.7163786888122559,6.7266435623168945,-112.24681854248047,0
356.83500000000095,-6.706779095111415e-05,-4.2898063838947564e-05,5.4471423936774954e-05,0.0,0.0,0.0,0.0,0.00290813110768795,0.0014264859491959214,-0.001857709838077426,0.9989582896232605,0.0,0.0,0.0,0.61875981092453,1.7164727449417114,6.720353126525879,-111.99674987792969,0
366.7470000000012,-9.39250603551045e-05,3.263291364419274e-05,1.1018370969395619e-05,0.0,0.0,0.0,0.0,-0.0004756096750497818,-0.0009879621211439371,0.001468164031393826,1.0006916522979736,0.0,0.0,0.0,0.623823344707489,1.7267664670944214,6.7238054275512695,-112.91326904296875,0
376.6710000000003,-3.110519173787907e-05,-2.960408164653927e-05,2.6415178581373766e-05,0.0,0.0,0.0,0.0,0.0010047198738902807,0.0004438033211044967,-0.0009439077111892402,0.9995003938674927,0.0,0.0,0.0,0.6244762539863586,1.7233582735061646,6.720016002655029,-113.03144073486328,0
386.5690000000013,-7.186679431470111e-05,3.117190135526471e-05,-6.050321189832175e-06,0.0,0.0,0.0,0.0,-0.004355613607913256,-0.003273326437920332,-0.002174215391278267,0.9984486699104309,0.0,0.0,0.0,0.6292440891265869,1.7287400960922241,6.723153591156006,-113.89443969726562,0
396.4900000000016,-1.2419815902831033e-05,-2.3979802790563554e-05,1.1391426596674137e-05,0.0,0.0,0.0,0.0,-0.0005217843572609127,0.001026683021336794,0.00158000981900841,0.9991260170936584,0.0,0.0,0.0,0.6292194128036499,1.7364434003829956,6.720746040344238,-113.88996124267578,0
406.39400000000023,-2.7040014174417593e-05,5.508363028638996e-05,-5.630423765978776e-05,0.0,0.0,0.0,0.0,-0.002471005078405142,0.001197598990984261,-0.0008247126243077219,1.0002919435501099,0.0,0.0,0.0,0.6361907124519348,1.7397418022155762,6.717879772186279,-115.15178680419922,0
416.3070000000007,-5.557903568842448e-05,6.850628415122628e-05,-3.5651417420012876e-05,0.0,0.0,0.0,0.0,-0.0032197849359363317,-0.0015846844762563705,0.0009027008782140911,1.0000985860824585,0.0,0.0,0.0,0.6354281306266785,1.7441456317901611,6.713559627532959,-115.01375579833984,0
426.22500000000036,-0.00013638958625961095,7.823396299500018e-05,-5.942147254245356e-05,0.0,0.0,0.0,0.0,0.0008565661846660078,0.000792826758697629,0.0012740903766825795,1.0002548694610596,0.0,0.0,0.0,0.641986072063446,1.7416832447052002,6.710337162017822,-116.20074462890625,0
436.1350000000002,-5.8111592807108536e-05,1.65431119967252e-05,-3.60330413968768e-05,0.0,0.0,0.0,0.0,0.0011448200093582273,0.001282374607399106,0.0002250339457532391,0.9995853900909424,0.0,0.0,0.0,0.6411524415016174,1.7411264181137085,6.700256824493408,-116.04986572265625,0
446.0540000000001,-7.3562579927966e-05,9.484543988946825e-05,-0.00010585498966975138,0.0,0.0,0.0,0.0,-0.002601958578452468,-0.0027124625630676746,0.00110351643525064,0.9988884329795837,0.0,0.0,0.0,0.6529362201690674,1.7602888345718384,6.710662841796875,-118.1827621459961,0
455.95900000000074,-3.960779577028006e-05,6.052896424080245e-05,-8.75849073054269e-05,0.0,0.0,0.0,0.0,-1.543326288810931e-05,0.0001442787324776873,-0.001799856312572956,0.9989901185035706,0.0,0.0,0.0,0.6541697382926941,1.7627604007720947,6.706161022186279,-118.40601348876953,0
465.8720000000012,-0.00012559458264149725,7.186415314208716e-05,-9.668488928582519e-05,0.0,0.0,0.0,0.0,0.0032417350448668003,0.0019159967778250575,0.002566297771409154,0.9976589679718018,0.0,0.0,0.0,0.6536999344825745,1.7591629028320312,6.705294609069824,-118.32098388671875,0
475.78600000000006,-6.13805532339029e-05,4.4517903006635606e-05,-9.265133121516556e-05,0.0,0.0,0.0,0.0,-0.0043367682956159115,0.0020497385412454605,-0.003834314411506057,0.9996200203895569,0.0,0.0,0.0,0.6531351804733276,1.7574334144592285,6.696942329406738,-118.21875762939453,0
485.6990000000005,-0.00011999717389699072,9.852357470663264e-05,-0.00012073752441210672,0.0,0.0,0.0,0.0,0.0020268636289983988,-0.0007770087104290724,-0.004260194953531027,0.9981785416603088,0.0,0.0,0.0,0.6606655120849609,1.769349455833435,6.691380500793457,-119.5817642211914,0
495.60699999999997,-2.0207367924740538e-05,4.147611616645008e-05,-9.71028275671415e-05,0.0,0.0,0.0,0.0,0.0005874107009731233,0.001900295726954937,0.0009887636406347156,0.9987727999687195,0.0,0.0,0.0,0.6592937111854553,1.769046425819397,6.679022312164307,-119.33348083496094,0
505.52200000000084,-0.00011177748820045963,3.5534885682864115e-05,-0.00011460706446086988,0.0,0.0,0.0,0.0,-0.0023914079647511244,0.0025806506164371967,-0.003602504963055253,1.00075364112854,0.0,0.0,0.0,0.6670915484428406,1.7627416849136353,6.669267654418945,-120.7448959350586,0
515.4300000000003,-7.275816460605711e-05,3.3212923881364986e-05,-6.494014814961702e-05,0.0,0.0,0.0,0.0,0.004348752088844776,-0.0022344221360981464,0.0012840862618759274,0.9996122121810913,0.0,0.0,0.0,0.6656678318977356,1.7628110647201538,6.655421257019043,-120.4872055053711,0
525.3420000000006,-0.00015973146946635097,4.311255906941369e-05,-7.187541632447392e-05,0.0,0.0,0.0,0.0,-0.0003361313429195434,0.0003790345508605242,0.00029033879400230944,0.9980061054229736,0.0,0.0,0.0,0.6671138405799866,1.756657361984253,6.644454479217529,-120.74893951416016,0
535.2580000000016,-0.00011330391134833917,5.540410347748548e-05,-3.170128184137866e-05,0.0,0.0,0.0,0.0,0.0021012118086218834,0.002400825498625636,-0.0009219218627549708,0.9991408586502075,0.0,0.0,0.0,0.6669597625732422,1.7516528367996216,6.636966705322266,-120.7210464477539,0
545.1680000000015,-0.00021258745982777327,6.17148180026561e-05,-2.5374076358275488e-05,0.0,0.0,0.0,0.0,0.0019099290948361158,0.0011634157272055745,0.0020235516130924225,1.0014164447784424,0.0,0.0,0.0,0.6655562520027161,1.7482590675354004,6.625214576721191,-120.46700286865234,0
555.0890000000018,-0.000116028415504843,3.10781724692788e-05,3.6544901377055794e-05,0.0,0.0,0.0,0.0,0.0006613536388613284,-0.00016382057219743729,-0.005627049598842859,1.0005699396133423,0.0,0.0,0.0,0.6642653346061707,1.745520830154419,6.616931438446045,-120.23335266113281,0
564.9930000000004,-0.00020657750428654253,4.349985101725906e-05,3.860260039800778e-05,0.0,0.0,0.0,0.0,-0.0005159457214176655,0.002376425778493285,-0.0006662557716481388,1.0017809867858887,0.0,0.0,0.0,0.6621478796005249,1.748026728630066,6.606053829193115,-119.85008239746094,0
574.9180000000015,-0.00012852252984885126,3.98084957851097e-05,8.487523155054078e-05,0.0,0.0,0.0,0.0,-0.0032070677261799574,0.001484501059167087,-0.005988588090986013,0.9996736645698547,0.0,0.0,0.0,0.6618202328681946,1.7468940019607544,6.58926248550415,-119.79077911376953,0
584.8180000000011,-0.00021192574058659375,5.246617365628481e-05,6.931787356734276e-05,0.0,0.0,0.0,0.0,-0.0032656097318977118,-0.0014089241158217192,-0.000124796133604832,0.999616265296936,0.0,0.0,0.0,0.6679201126098633,1.7523669004440308,6.582425594329834,-120.8948745727539,0
594.7360000000008,-9.044945909408852e-05,-4.198023452772759e-05,9.403612784808502e-05,0.0,0.0,0.0,0.0,-0.0013721530558541417,0.001883091637864709,-0.003490747883915901,0.9997648596763611,0.0,0.0,0.0,0.6704245209693909,1.7235956192016602,6.613369464874268,-121.34817504882812,0
604.6420000000016,-0.00012793134374078363,1.155903737526387e-05,4.388665911392309e-05,0.0,0.0,0.0,0.0,-0.0012320579262450337,-0.004928878042846918,-0.0023667330387979746,0.9992895722389221,0.0,0.0,0.0,0.6760469079017639,1.7367136478424072,6.617412567138672,-122.36583709716797,0
614.5670000000009,-6.30503345746547e-05,-5.1939110562670976e-05,7.185954018495977e-05,0.0,0.0,0.0,0.0,0.0010434408904984593,-0.001972546335309744,0.0005576451658271253,0.998243510723114,0.0,0.0,0.0,0.6746458411216736,1.736883521080017,6.603390216827393,-122.11224365234375,0
624.4700000000012,-0.000148091115988791,-4.4645108573604375e-05,7.541276863776147e-05,0.0,0.0,0.0,0.0,-0.00247179321013391,-0.0009194031008519232,0.001983958063647151,0.9991092085838318,0.0,0.0,0.0,0.6738730669021606,1.7343872785568237,6.605635643005371,-121.97236633300781,0
634.3870000000006,-6.609449337702245e-05,-0.00011089982581324875,6.504952034447342e-05,0.0,0.0,0.0,0.0,-0.0002022946864599362,-0.001453415839932859,0.0004025136586278677,1.0001651048660278,0.0,0.0,0.0,0.6728581786155701,1.737908124923706,6.610739231109619,-121.78866577148438,0
644.2940000000017,-8.615421393187717e-05,-2.4366829165956005e-05,-4.216756224195706e-06,0.0,0.0,0.0,0.0,0.001017630798742175,0.0030786977149546146,-0.005152642261236906,1.0004490613937378,0.0,0.0,0.0,0.6796267032623291,1.754131555557251,6.607831001281738,-123.01377868652344,0
654.2160000000003,-4.876968159805983e-05,-5.700369001715444e-05,1.8171971532865427e-05,0.0,0.0,0.0,0.0,0.002011385979130864,-0.0013854113640263677,0.0025235344655811787,0.9995142221450806,0.0,0.0,0.0,0.6782500147819519,1.7564992904663086,6.59822940826416,-122.76460266113281,0
664.121000000001,-3.611186548369005e-05,6.913447577971965e-05,-7.334406109293923e-05,0.0,0.0,0.0,0.0,-0.0016778836725279689,0.000328330002957955,0.005009708926081657,0.9982362389564514,0.0,0.0,0.0,0.6888403296470642,1.776654839515686,6.604487419128418,-124.68146514892578,0
674.0450000000001,4.91084938403219e-06,2.9602764698211104e-05,-6.272344762692228e-05,0.0,0.0,0.0,0.0,-0.005781990010291338,0.0033009671606123447,-0.0039376867935061455,0.9975902438163757,0.0,0.0,0.0,0.6887913346290588,1.771662712097168,6.599389553070068,-124.67261505126953,0
683.9450000000015,-5.9313286328688264e-05,7.883731450419873e-05,-8.15231105661951e-05,0.0,0.0,0.0,0.0,0.0005116847460158169,0.00061466870829463,0.001689897384494543,0.9997838735580444,0.0,0.0,0.0,0.6940962672233582,1.7881672382354736,6.593216419219971,-125.6328125,0
693.8600000000006,-6.638157356064767e-05,9.427335317013785e-05,-5.096385211800225e-05,0.0,0.0,0.0,0.0,-0.002529506105929613,-0.003299698233604431,0.005536806304007769,1.0001012086868286,0.0,0.0,0.0,0.6864348649978638,1.7878987789154053,6.5966315269470215,-124.2460708618164,0
703.764000000001,-0.00019527116091921926,5.554050949285738e-05,-3.723905683727935e-05,0.0,0.0,0.0,0.0,-0.0007242136052809656,-0.003720915177837014,0.002291117561981082,1.0019900798797607,0.0,0.0,0.0,0.6860426068305969,1.787109136581421,6.595686912536621,-124.17508697509766,0
713.6900000000005,-0.00012332529877312481,3.693265171023086e-05,1.7917020159075037e-05,0.0,0.0,0.0,0.0,0.0005791943403892219,0.0014356524916365743,0.0024566699285060167,0.9990618228912354,0.0,0.0,0.0,0.6858687400817871,1.7885812520980835,6.5959601402282715,-124.14360809326172,0
723.5930000000008,-0.00021271729201544076,3.8739843148505315e-05,8.121159567053837e-07,0.0,0.0,0.0,0.0,-0.0027383090928196907,-0.003155261045321822,0.0004354113189037889,0.9989489316940308,0.0,0.0,0.0,0.6859170794487,1.791744589805603,6.581050872802734,-124.15235900878906,0
733.5160000000014,-0.0001341471215710044,3.3640106266830117e-05,7.259362610056996e-05,0.0,0.0,0.0,0.0,7.192682824097574e-05,0.005019347183406353,6.290289093158208e-06,0.9983745813369751,0.0,0.0,0.0,0.6748027205467224,1.7852826118469238,6.595845699310303,-122.14063262939453,0
743.4130000000005,-0.00018421826825942844,7.86911477916874e-05,2.80560470855562e-05,0.0,0.0,0.0,0.0,-0.00029710523085668683,0.004871275741606951,-4.3668191210599616e-05,0.9969838857650757,0.0,0.0,0.0,0.6857354640960693,1.7849631309509277,6.585547924041748,-124.11947631835938,0
753.3280000000013,-0.00015551694377791137,4.227321915095672e-05,4.191009429632686e-05,0.0,0.0,0.0,0.0,-0.0023212130181491375,-0.0029576763045042753,0.0006446762126870453,0.9979276061058044,0.0,0.0,0.0,0.6853688955307007,1.7819517850875854,6.567474365234375,-124.05313110351562,0
763.237000000001,-0.0001804956264095381,0.00015080523735377938,4.166362941759871e-06,0.0,0.0,0.0,0.0,0.0005899284151382744,-0.00042714664596132934,0.003123542293906212,1.0007685422897339,0.0,0.0,0.0,0.670840859413147,1.806677222251892,6.582095146179199,-121.42353057861328,0
773.1630000000005,-5.2067240176256746e-05,5.167787821847014e-05,1.4644612747360952e-05,0.0,0.0,0.0,0.0,0.0008351983851753175,0.004530112724751234,-0.005068456754088402,1.0009838342666626,0.0,0.0,0.0,0.6705788969993591,1.803888201713562,6.578861713409424,-121.37611389160156,0
783.0610000000015,-0.00014185730833560228,7.030331471469253e-05,8.81735650182236e-06,0.0,0.0,0.0,0.0,0.004622635897248983,-0.0005560604040510952,-0.003239984391257167,1.001002550125122,0.0,0.0,0.0,0.6688627004623413,1.8011531829833984,6.566130638122559,-121.06547546386719,0
792.9830000000002,-2.583133573352825e-05,-7.335946065722965e-06,-1.4497401934931986e-05,0.0,0.0,0.0,0.0,-0.0007255607051774859,0.00014937373634893447,-0.0028932474087923765,1.000634789466858,0.0,0.0,0.0,0.6670400500297546,1.769068717956543,6.601296424865723,-120.73558044433594,0
802.9000000000015,-8.794756286079064e-05,4.626694499165751e-05,-4.1356164729222655e-05,0.0,0.0,0.0,0.0,0.0017726897494867444,-0.0030177622102200985,0.003449319861829281,1.0010230541229248,0.0,0.0,0.0,0.6583569645881653,1.7812975645065308,6.5939040184021,-119.16392517089844,0
812.8200000000015,-0.0001799018937163055,6.695698539260775e-05,-4.747993079945445e-05,0.0,0.0,0.0,0.0,-0.0009558563469909132,0.002701622899621725,0.0024456330575048923,1.000190019607544,0.0,0.0,0.0,0.6585189700126648,1.783341646194458,6.5905375480651855,-119.1932373046875,0
822.7200000000012,-0.00028544102679006755,5.4275606089504436e-05,-6.59397555864416e-05,0.0,0.0,0.0,0.0,-0.0015367186861112714,-0.0019253671634942293,-0.0007233042852021754,0.9988137483596802,0.0,0.0,0.0,0.6661021709442139,1.7696197032928467,6.57150936126709,-120.5658187866211,0
832.6420000000016,-0.00012318528024479747,-5.612391760223545e-05,1.2505454833444674e-05,0.0,0.0,0.0,0.0,-0.000732376123778522,-0.004002934787422419,0.001852326444350183,0.9990983605384827,0.0,0.0,0.0,0.6692482233047485,1.7421101331710815,6.633160591125488,-121.13525390625,0
842.5350000000017,-0.00016508721455466002,2.6951000108965673e-05,-1.0733799172157887e-05,0.0,0.0,0.0,0.0,0.001310044783167541,0.002855745842680335,-0.0016869879327714443,0.9993287324905396,0.0,0.0,0.0,0.660018801689148,1.7627661228179932,6.647318363189697,-119.4647216796875,0
852.4590000000007,-8.777032053330913e-05,-2.0953342755092308e-05,3.068181831622496e-05,0.0,0.0,0.0,0.0,-0.001275454182177782,-0.000735486566554755,-0.001115740742534399,0.9973072409629822,0.0,0.0,0.0,0.6587734818458557,1.7594720125198364,6.6403913497924805,-119.23931121826172,0
862.3600000000006,-0.000135839989525266,4.151850225753151e-05,-4.996418283553794e-06,0.0,0.0,0.0,0.0,0.000812103389762342,-0.0004717714327853173,0.0037178376223891973,0.9971880316734314,0.0,0.0,0.0,0.6458653211593628,1.7746397256851196,6.637946605682373,-116.90290832519531,0
872.2870000000003,-9.110040264204144e-05,3.737058432307094e-05,4.405500294524245e-05,0.0,0.0,0.0,0.0,-0.002058977261185646,-0.00034709947067312896,6.043781104381196e-05,0.9978817701339722,0.0,0.0,0.0,0.6471107006072998,1.7683242559432983,6.6264262199401855,-117.12832641601562,0
882.1960000000017,-9.861293801805004e-05,0.0001346992066828534,-4.0832681406755e-05,0.0,0.0,0.0,0.0,-0.0011001941747963428,-0.00197849259711802,0.00475288787856698,0.9973287582397461,0.0,0.0,0.0,0.658845067024231,1.777940273284912,6.62986946105957,-119.25227355957031,0
892.112000000001,-1.433726902178023e-05,6.60155710647814e-05,-4.0031700336840004e-05,0.0,0.0,0.0,0.0,-0.0033339164219796658,0.0017978406976908445,-0.0007913605659268796,0.999147891998291,0.0,0.0,0.0,0.6589131951332092,1.7765052318572998,6.627134799957275,-119.26459503173828,0
902.0150000000012,-5.476565274875611e-05,0.00012751187023241073,-0.0001033386797644198,0.0,0.0,0.0,0.0,-0.00033532973611727357,-0.00176315160933882,-0.0005871360772289336,0.9987667798995972,0.0,0.0,0.0,0.6680958867073059,1.7913095951080322,6.630920886993408,-120.92668151855469,0
911.9310000000005,-5.901504664507229e-06,9.510778181720525e-05,-9.502822649665177e-05,0.0,0.0,0.0,0.0,0.0032233549281954765,0.004595553502440453,-0.0017144294688478112,0.998426079750061,0.0,0.0,0.0,0.6671373248100281,1.7862251996994019,6.625448226928711,-120.75318145751953,0
921.8330000000005,-0.00011616260599112138,7.654444925719872e-05,-0.0001129281081375666,0.0,0.0,0.0,0.0,0.0009937216527760029,7.386018114630133e-05,0.0006971135153435171,0.9996420741081238,0.0,0.0,0.0,0.6733114719390869,1.7786591053009033,6.607285976409912,-121.8707275390625,0
931.7630000000008,-6.69628061586991e-05,8.281489135697484e-05,-7.069842104101554e-05,0.0,0.0,0.0,0.0,0.00024124913034029305,0.0018518001306802034,-9.33255287236534e-05,0.9991252422332764,0.0,0.0,0.0,0.6732068061828613,1.7802430391311646,6.596282958984375,-121.85176849365234,0
941.6640000000007,-0.00015759812959004194,0.00010713776282500476,-8.486692240694538e-05,0.0,0.0,0.0,0.0,-0.0023189838975667953,-0.0018278772477060556,0.002540891757234931,0.9986677169799805,0.0,0.0,0.0,0.6719825267791748,1.7815274000167847,6.590939521789551,-121.63017272949219,0
951.5800000000017,-0.0001064850075636059,0.0001195500954054296,-6.469918298535049e-05,0.0,0.0,0.0,0.0,0.0002465494617354125,0.0008472951594740152,4.0528921090299264e-05,0.9980062246322632,0.0,0.0,0.0,0.6712483763694763,1.7822692394256592,6.588984966278076,-121.4972915649414,0
961.4880000000012,-0.00023690881789661944,0.00010031990677816793,-5.377565321396105e-05,0.0,0.0,0.0,0.0,-0.0026409337297081947,0.0025481684133410454,0.00350418733432889,0.9993991255760193,0.0,0.0,0.0,0.6779841184616089,1.767374873161316,6.574085712432861,-122.71646881103516,0
971.4090000000015,-0.00011217600695090368,6.274117185967043e-05,-9.258018280888791e-07,0.0,0.0,0.0,0.0,-0.0008290939149446785,0.00021449761698022485,-0.0009359607356600463,0.9986346364021301,0.0,0.0,0.0,0.6812325716018677,1.7477972507476807,6.600213050842285,-123.30445098876953,0
981.3100000000013,-0.00020653067622333765,8.244051423389465e-05,-9.282064638682641e-06,0.0,0.0,0.0,0.0,-0.0021604616194963455,-0.004503087140619755,-0.001940881134942174,0.9994972348213196,0.0,0.0,0.0,0.679589033126831,1.743749976158142,6.590302467346191,-123.00696563720703,0
991.2270000000008,-0.00013447109085973352,8.167685882654041e-05,1.6562244127271697e-05,0.0,0.0,0.0,0.0,0.0018158045131713152,-0.00012779439566656947,0.002984704915434122,0.9996184706687927,0.0,0.0,0.0,0.6788585186004639,1.743607759475708,6.590561866760254,-122.87474060058594,0
1001.1370000000006,-0.00025705271400511265,4.56982888863422e-05,7.64181913837092e-06,0.0,0.0,0.0,0.0,0.0008577611879445612,0.004220173694193363,-0.002511163242161274,0.9991316199302673,0.0,0.0,0.0,0.6786945462226868,1.739905834197998,6.580988883972168,-122.84506225585938,0
1011.0580000000009,-0.00011134048691019416,-3.729329546331428e-05,4.369481757748872e-05,0.0,0.0,0.0,0.0,-0.0007959366193972528,0.0022095339372754097,-0.001484819920733571,0.998676061630249,0.0,0.0,0.0,0.677559494972229,1.7042326927185059,6.605993270874023,-122.63961791992188,0
1020.9590000000007,-0.0001611393818166107,1.3196500731282867e-05,-1.6422391126980074e-05,0.0,0.0,0.0,0.0,0.002110739005729556,0.0002832415048032999,0.00032870471477508545,1.000496745109558,0.0,0.0,0.0,0.6757599711418152,1.7028090953826904,6.590446949005127,-122.31389617919922,0
1030.8770000000004,-9.040442091645673e-05,-4.25963407906238e-05,8.230842468037736e-06,0.0,0.0,0.0,0.0,-0.001981253968551755,-0.003949163481593132,-0.00012491937377490103,0.9986415505409241,0.0,0.0,0.0,0.6738107204437256,1.7072430849075317,6.5941948890686035,-121.96107482910156,0
1040.7850000000017,-0.00018299371004104614,-2.794830288621597e-05,2.2417498257709667e-07,0.0,0.0,0.0,0.0,0.0009913898538798094,0.005919632967561483,-0.0020669824443757534,0.998885452747345,0.0,0.0,0.0,0.6736217141151428,1.7103737592697144,6.579971790313721,-121.9268798828125,0
1050.7060000000001,-0.00010336512059438974,-4.951594746671617e-05,1.7591793948668055e-05,0.0,0.0,0.0,0.0,0.0005181636661291122,0.000561158056370914,-0.0019160625524818897,1.0001986026763916,0.0,0.0,0.0,0.672174870967865,1.7161674499511719,6.5638861656188965,-121.66499328613281,0
1060.6050000000014,-0.00014641658344771713,1.5879411876085214e-05,-5.740772030549124e-05,0.0,0.0,0.0,0.0,-0.001957347383722663,0.0027400872204452753,0.0015232644509524107,0.9988083243370056,0.0,0.0,0.0,0.6792682409286499,1.7271829843521118,6.573558807373047,-122.94889831542969,0
1070.5340000000015,-7.530277798650786e-05,-1.275405338674318e-05,-2.1884838133701123e-05,0.0,0.0,0.0,0.0,0.0036175448913127184,0.00025807536439970136,0.0020885479170829058,1.0005642175674438,0.0,0.0,0.0,0.6730852127075195,1.7132792472839355,6.590359210968018,-121.82976531982422,0
1080.433000000001,-0.00016721917199902236,4.680989150074311e-06,-3.1713170756120235e-05,0.0,0.0,0.0,0.0,-0.0017479306552559137,-0.0021369836758822203,-0.0008481323602609336,0.9978175759315491,0.0,0.0,0.0,0.671981155872345,1.7072304487228394,6.580009937286377,-121.62992858886719,0
1090.3560000000016,-0.00011750956036848947,1.846399209171068e-05,5.5729219639033545e-06,0.0,0.0,0.0,0.0,-0.00011701445328071713,0.0031090511474758387,0.003268847707659006,0.9968438148498535,0.0,0.0,0.0,0.6722394824028015,1.7084546089172363,6.5831170082092285,-121.67668151855469,0
1100.255000000001,-0.00015083049947861582,0.00011868106957990676,-6.426988693419844e-05,0.0,0.0,0.0,0.0,0.001674295635893941,0.0012664879905059934,0.00046190418652258813,1.0008432865142822,0.0,0.0,0.0,0.6808839440345764,1.7270312309265137,6.587651252746582,-123.24134826660156,0
1110.1770000000015,-7.986139826243743e-05,9.655682515585795e-05,-2.2614238332607783e-05,0.0,0.0,0.0,0.0,-0.0005462495028041303,0.0037203750107437372,0.0009116544970311224,0.9997499585151672,0.0,0.0,0.0,0.6797893643379211,1.7296751737594604,6.567371845245361,-123.04322052001953,0
1120.0890000000018,-0.00017278557061217725,9.87331586657092e-05,-5.59083855478093e-05,0.0,0.0,0.0,0.0,0.002636014949530363,0.0015304941916838288,-0.0021667361725121737,1.0003589391708374,0.0,0.0,0.0,0.6896572709083557,1.724673867225647,6.557300567626953,-124.82933807373047,0
1130.0120000000006,-5.312348002917133e-05,2.212394610978663e-05,-2.8310611014603637e-05,0.0,0.0,0.0,0.0,0.0007196126389317214,0.0015075093833729625,-0.0012567566009238362,0.9978922605514526,0.0,0.0,0.0,0.6887368559837341,1.7124525308609009,6.550492286682129,-124.6627426147461,0
1139.907000000001,-0.0002101094287354499,-4.0161216020351276e-05,-6.3618817875976674e-06,0.0,0.0,0.0,0.0,-0.0016433302080258727,0.0021889549680054188,0.0051301331259310246,0.9985415935516357,0.0,0.0,0.0,0.6788865327835083,1.7040871381759644,6.538793087005615,-122.87980651855469,0
1149.8270000000011,-0.0001701173314359039,-7.432631537085399e-05,2.261818735860288e-05,0.0,0.0,0.0,0.0,0.00402019964531064,0.0002706680097617209,9.17966608540155e-05,0.9984395503997803,0.0,0.0,0.0,0.6848756074905396,1.6975250244140625,6.544916152954102,-123.9638442993164,0
1159.728000000001,-0.0002515300293453038,-3.076538996538147e-05,1.2833994333050214e-05,0.0,0.0,0.0,0.0,0.0021036623511463404,0.0010212644701823592,0.0038272463716566563,1.0004141330718994,0.0,0.0,0.0,0.6906810998916626,1.6976646184921265,6.531698703765869,-125.01465606689453,0
1169.652,-0.00022449085372500122,-3.175604797434062e-05,6.15172102698125e-05,0.0,0.0,0.0,0.0,-0.0014354067388921976,-0.0001868636900326237,0.00020353203581180423,0.9997393488883972,0.0,0.0,0.0,0.6913185119628906,1.6954396963119507,6.520692348480225,-125.1300277709961,0
1179.5550000000003,-0.0002669102104846388,3.144418224110268e-05,-5.025541668146616e-06,0.0,0.0,0.0,0.0,-0.002601206535473466,0.00586923910304904,-0.0008846040000207722,0.9987072348594666,0.0,0.0,0.0,0.6906474232673645,1.6951308250427246,6.513102054595947,-125.00856018066406,0
1189.4730000000018,-0.0002276661980431527,2.5878738597384654e-05,4.0824132156558335e-05,0.0,0.0,0.0,0.0,0.0018445265013724566,-0.001294051413424313,0.0034156169276684523,0.9992302060127258,0.0,0.0,0.0,0.6892803907394409,1.6931580305099487,6.494097709655762,-124.76111602783203,0
1199.389000000001,-0.00028163535171188414,8.637524297228083e-05,-1.3337052223505452e-05,0.0,0.0,0.0,0.0,0.0010498808696866035,0.00278490805067122,0.001434727688319981,0.9980677366256714,0.0,0.0,0.0,0.6888538002967834,1.6901137828826904,6.488680362701416,-124.68391418457031,0
1209.299000000001,-0.0002088928158627823,6.825327727710828e-05,3.963107883464545e-05,0.0,0.0,0.0,0.0,0.0018457405967637897,-0.0005904524005018175,-0.00014951844059396535,0.997610330581665,0.0,0.0,0.0,0.6819061636924744,1.6793493032455444,6.505057334899902,-123.42637634277344,0
1219.2020000000011,-0.0003082124167121947,9.090150706470013e-05,3.251690941397101e-05,0.0,0.0,0.0,0.0,-0.0019375566625967622,-0.003316994523629546,0.002680782228708267,0.9990170001983643,0.0,0.0,0.0,0.6812223792076111,1.676409125328064,6.504269123077393,-123.3026123046875,0
1229.130000000001,-0.00022323339362628758,8.808768325252458e-05,6.362338172039017e-05,0.0,0.0,0.0,0.0,-0.0010332285892218351,0.0028912776615470648,-0.003612484084442258,1.0003069639205933,0.0,0.0,0.0,0.6749392747879028,1.6734836101531982,6.534609794616699,-122.16535949707031,0
1239.0330000000013,-0.0003237604978494346,0.0001093494429369457,5.7661258324515074e-05,0.0,0.0,0.0,0.0,0.0046811713837087154,-0.0008837724453769624,0.0009117211448028684,0.9990373849868774,0.0,0.0,0.0,0.6727904081344604,1.6705137491226196,6.523917198181152,-121.77640533447266,0
1248.9500000000007,-0.00023821232025511563,0.00011355904280208051,7.419897156069055e-05,0.0,0.0,0.0,0.0,-0.0025260464753955603,0.0017055536154657602,0.002020166488364339,1.0005842447280884,0.0,0.0,0.0,0.6678159832954407,1.6521942615509033,6.563819885253906,-120.87602996826172,0
1258.8510000000006,-0.00033701813663356006,0.00013261483400128782,5.072603016742505e-05,0.0,0.0,0.0,0.0,0.00017491511243861169,0.003393236780539155,0.001621220842935145,0.9997264742851257,0.0,0.0,0.0,0.6746658086776733,1.657015085220337,6.564477443695068,-122.11585235595703,0
1268.7710000000006,-0.00018263846868649125,3.612027649069205e-05,7.737911801086739e-05,0.0,0.0,0.0,0.0,-0.00042707243119366467,0.0013319755671545863,0.0009855382377281785,0.9984820485115051,0.0,0.0,0.0,0.6795480847358704,1.6218608617782593,6.6009602546691895,-122.99954986572266,0
1278.6770000000015,-0.00022976880427449942,0.00011578125122468919,2.323319495189935e-05,0.0,0.0,0.0,0.0,0.0013062100624665618,0.0006891526281833649,-0.0010493535082787275,0.9992954134941101,0.0,0.0,0.0,0.6856991052627563,1.6370407342910767,6.602065086364746,-124.11290740966797,0
1288.5990000000002,-0.00013008258247282356,3.371528509887867e-05,4.058760532643646e-05,0.0,0.0,0.0,0.0,-0.00034830905497074127,0.0074785551987588406,0.0007778612780384719,0.9992973804473877,0.0,0.0,0.0,0.6833462119102478,1.633185863494873,6.59083366394043,-123.68701934814453,0
1298.5010000000002,-0.0001794556446839124,9.105612116400152e-05,-2.0459476218093187e-05,0.0,0.0,0.0,0.0,0.0032108076848089695,-0.0012824302539229393,-0.0037229519803076982,0.9991666078567505,0.0,0.0,0.0,0.667433500289917,1.6427277326583862,6.57572603225708,-120.80679321289062,0
1308.42,-0.0001125837879953906,3.4116776078008115e-05,-2.173685516027035e-06,0.0,0.0,0.0,0.0,-0.0020883900579065084,0.004823215305805206,-0.004146565217524767,0.997850239276886,0.0,0.0,0.0,0.6655495166778564,1.6352837085723877,6.570321083068848,-120.46578216552734,0
1318.3250000000007,-0.0001984064292628318,3.467040733085014e-05,-4.303071546019055e-05,0.0,0.0,0.0,0.0,-0.0014216395793482661,0.0002545924508012831,-0.0018799365498125553,0.9995214939117432,0.0,0.0,0.0,0.6646829843521118,1.6342542171478271,6.55787992477417,-120.3089370727539,0
1328.246000000001,-0.00012958588195033371,-2.9310032914509065e-05,-2.9659851861651987e-05,0.0,0.0,0.0,0.0,-0.0014403575332835317,-0.0023229068610817194,-0.0038120776880532503,1.0017198324203491,0.0,0.0,0.0,0.6640140414237976,1.6300550699234009,6.552307605743408,-120.1878662109375,0
1338.1490000000013,-0.00019754243839997798,1.2267099009477533e-05,-6.246920384000987e-05,0.0,0.0,0.0,0.0,-0.0031182358507066965,0.0016188707668334246,-0.0027626915834844112,0.9991037249565125,0.0,0.0,0.0,0.6642317175865173,1.6275309324264526,6.545485019683838,-120.22726440429688,0
1348.0700000000015,-0.00013346169725991786,-4.9422647862229496e-05,-4.5380114897852764e-05,0.0,0.0,0.0,0.0,-0.00039290025597438216,0.001949867932125926,-0.001197385136038065,0.998936116695404,0.0,0.0,0.0,0.6632596254348755,1.6240298748016357,6.535986423492432,-120.05131530761719,0
1357.9740000000002,-0.00021041544096078724,-2.7655525627778843e-05,-8.076152153080329e-05,0.0,0.0,0.0,0.0,-0.0007277959957718849,0.003568815067410469,0.0007417770102620125,1.0021681785583496,0.0,0.0,0.0,0.6623727679252625,1.625158429145813,6.527309894561768,-119.89079284667969,0
1367.8950000000004,-0.00020881631644442677,-1.0609589480736759e-05,-2.858011248463299e-05,0.0,0.0,0.0,0.0,-0.002446274971589446,0.001464520813897252,0.002271434757858515,0.9994616508483887,0.0,0.0,0.0,0.6624197363853455,1.6203221082687378,6.511313438415527,-119.89928436279297,0
1377.8030000000017,-0.00027682381914928555,3.090137033723295e-05,-6.425952597055584e-05,0.0,0.0,0.0,0.0,-0.0014862174866721034,-0.0020253565162420273,0.0004974015755578876,0.9971951246261597,0.0,0.0,0.0,0.6549378633499146,1.631527066230774,6.5011749267578125,-118.54505157470703,0
1387.7210000000014,-0.00022376196284312755,1.9941304344683886e-05,-5.742454050050583e-06,0.0,0.0,0.0,0.0,0.001974291866645217,-0.0004382658516988158,-0.0016572715248912573,0.9991329908370972,0.0,0.0,0.0,0.6546664834022522,1.6306960582733154,6.495326995849609,-118.49594116210938,0
1397.6330000000016,-0.00032603240106254816,2.879841485992074e-05,-1.1966191777901258e-05,0.0,0.0,0.0,0.0,-0.001493874122388661,0.0008208766230382025,-0.0020895758643746376,1.0005850791931152,0.0,0.0,0.0,0.6542348861694336,1.6288836002349854,6.491283893585205,-118.41781616210938,0
1407.5470000000005,-0.00022654098575003445,1.7632566596148536e-05,2.916751691373065e-05,0.0,0.0,0.0,0.0,-0.0002849084266927093,0.0017416595946997404,0.0009139282046817243,0.9991616606712341,0.0,0.0,0.0,0.6579700112342834,1.625376582145691,6.514200687408447,-119.09387969970703,0
1417.4580000000005,-0.0003369982587173581,9.710241101856809e-06,1.4757735698367469e-05,0.0,0.0,0.0,0.0,0.00120275910012424,-0.000940145633649081,0.004090042319148779,1.0001379251480103,0.0,0.0,0.0,0.6497839093208313,1.6236385107040405,6.504128932952881,-117.61217498779297,0
1427.3690000000006,-0.0002555249084252864,-1.753293145156931e-05,8.390173024963588e-05,0.0,0.0,0.0,0.0,-0.0005241420003585517,0.0010939688654616475,0.002382122678682208,1.0005275011062622,0.0,0.0,0.0,0.6505042314529419,1.618658185005188,6.500964164733887,-117.74256134033203,0
1437.2810000000009,-0.000345046806614846,-6.396867320290767e-07,5.8260713558411226e-05,0.0,0.0,0.0,0.0,7.375275163212791e-05,-0.0013414721470326185,-0.003052467480301857,0.9997557997703552,0.0,0.0,0.0,0.6438210010528564,1.623382329940796,6.500027179718018,-116.53288269042969,0
1447.1980000000003,-0.0002599255822133273,-3.559922697604634e-05,0.00012898007116746157,0.0,0.0,0.0,0.0,-0.0037419332657009363,-0.0006801130366511643,0.0013116715708747506,1.000746726989746,0.0,0.0,0.0,0.6427547931671143,1.6204854249954224,6.496970176696777,-116.33988952636719,0
1457.1110000000008,-0.00029280726448632777,4.292853191145696e-05,5.96471581957303e-05,0.0,0.0,0.0,0.0,0.0012625999515876174,-0.0037770774215459824,0.00027035080711357296,1.0013720989227295,0.0,0.0,0.0,0.6510420441627502,1.6399483680725098,6.498641014099121,-117.83990478515625,0
1467.0210000000006,-0.0001893144508358091,-4.161626202403568e-05,9.886447514872998e-05,0.0,0.0,0.0,0.0,-0.0017382791265845299,-0.0038098229561001062,-0.0016184155829250813,1.0002671480178833,0.0,0.0,0.0,0.6506830453872681,1.6373547315597534,6.4992170333862305,-117.77493286132812,0
1476.9350000000013,-0.0001828509266488254,7.606044528074563e-05,3.824598934443202e-06,0.0,0.0,0.0,0.0,-0.0008590547367930412,-0.00015697701019234955,-0.0019149506697431207,1.000254511833191,0.0,0.0,0.0,0.6592645645141602,1.6646286249160767,6.518266677856445,-119.32820129394531,0
1486.8500000000004,-0.00018130612443201244,7.13956105755642e-05,4.882892608293332e-05,0.0,0.0,0.0,0.0,0.0002486419107299298,-0.001973849954083562,0.0007533634197898209,1.000715732574463,0.0,0.0,0.0,0.6574586629867554,1.6641603708267212,6.508089542388916,-119.00132751464844,0
1496.7610000000004,-0.00028588116401806474,7.971447485033423e-05,5.128104021423496e-05,0.0,0.0,0.0,0.0,0.0021437115501612425,0.0019793936517089605,-0.00013521849177777767,0.9983736872673035,0.0,0.0,0.0,0.657353937625885,1.6648709774017334,6.504814147949219,-118.98236083984375,0
1506.6710000000003,-0.00015572582196909934,-2.1217309040366672e-05,3.622326403274201e-05,0.0,0.0,0.0,0.0,-0.0023465531412512064,0.0008196432609111071,-0.0032583153806626797,0.9992908835411072,0.0,0.0,0.0,0.6541267037391663,1.6332699060440063,6.5399885177612305,-118.39822387695312,0
1516.5800000000017,-0.00015095548587851226,9.650689753470942e-05,-8.29716373118572e-05,0.0,0.0,0.0,0.0,-0.0020546652376651764,-0.006366844289004803,0.0009209932177327573,1.00095534324646,0.0,0.0,0.0,0.6626589298248291,1.662824034690857,6.547081470489502,-119.94258117675781,0
1526.491,-7.846789958421141e-05,-8.003532457223628e-06,-9.69303073361516e-05,0.0,0.0,0.0,0.0,0.004279216285794973,0.0020947831217199564,-0.0017241226742044091,0.997981607913971,0.0,0.0,0.0,0.6620771288871765,1.6642162799835205,6.550148010253906,-119.8372802734375,0
1536.4090000000015,-0.0001457298349123448,3.707413634401746e-05,-0.0001220813428517431,0.0,0.0,0.0,0.0,-0.001682176487520337,-0.003131951903924346,0.001045695971697569,0.9974583387374878,0.0,0.0,0.0,0.668062686920166,1.6723686456680298,6.549506187438965,-120.9206771850586,0
1546.317000000001,-0.00013111354201100767,-2.462445536366431e-06,-0.00010041045607067645,0.0,0.0,0.0,0.0,-0.0038523857947438955,-0.0009398973197676241,0.001850165892392397,0.9978905916213989,0.0,0.0,0.0,0.6681125164031982,1.6763046979904175,6.543445110321045,-120.92969512939453,0
1556.2360000000008,-0.0001996262144530192,5.103033618070185e-05,-0.000122504512546584,0.0,0.0,0.0,0.0,0.0005828500725328922,-0.0005904881982132792,-0.0016320833237841725,0.997389554977417,0.0,0.0,0.0,0.6681992411613464,1.6778203248977661,6.532388687133789,-120.94538879394531,0
1566.1400000000012,-0.00012534156849142164,-8.302045898744836e-06,-8.934157085604966e-05,0.0,0.0,0.0,0.0,0.0008008639561012387,0.003005542093887925,-0.0012322874972596765,1.0001260042190552,0.0,0.0,0.0,0.6675005555152893,1.6804189682006836,6.51898193359375,-120.81893157958984,0
1576.067000000001,-0.00019539272761903703,4.46355297754053e-05,-0.00010965509136440232,0.0,0.0,0.0,0.0,-0.0011249581584706903,-0.0011755303712561727,0.0017376438481733203,1.0008680820465088,0.0,0.0,0.0,0.6662805676460266,1.6811894178390503,6.505678176879883,-120.59810638427734,0
1585.9740000000002,-0.0001633430947549641,1.3161248716642149e-05,-7.74725922383368e-05,0.0,0.0,0.0,0.0,0.0015337488148361444,0.005598530173301697,-0.001152868033386767,0.9995846152305603,0.0,0.0,0.0,0.6664180755615234,1.6850073337554932,6.504880905151367,-120.62299346923828,0
1595.8780000000006,-0.00027875317027792335,1.9086277461610734e-05,-6.617989856749773e-05,0.0,0.0,0.0,0.0,-2.8379992727423087e-05,0.0031902147457003593,-0.003272825386375189,0.9984830021858215,0.0,0.0,0.0,0.6718090772628784,1.684993028640747,6.487191677093506,-121.59877014160156,0
1605.7900000000009,-0.00020912193576805294,-1.5069390428834595e-06,9.92455852610874e-07,0.0,0.0,0.0,0.0,-0.0018166453810408711,0.0016949833370745182,0.002249936806038022,0.9997560381889343,0.0,0.0,0.0,0.6712304949760437,1.686288833618164,6.467654228210449,-121.49405670166016,0
1615.7060000000001,-0.00031526971724815667,9.366331141791306e-07,-9.835905984800775e-06,0.0,0.0,0.0,0.0,-0.0005478585953824222,-0.0007739649154245853,0.002511910628527403,0.9999392032623291,0.0,0.0,0.0,0.6710216403007507,1.6879621744155884,6.451040744781494,-121.45625305175781,0
1625.6170000000002,-0.00024218112230300903,-2.4141287212842144e-05,5.946816236246377e-05,0.0,0.0,0.0,0.0,0.00026291279937140644,0.004637028556317091,-0.004655478056520224,1.0004738569259644,0.0,0.0,0.0,0.671029806137085,1.6893013715744019,6.45091438293457,-121.45773315429688,0
1635.5310000000009,-0.00030163038172759116,2.0406705516506918e-05,4.976049694960238e-06,0.0,0.0,0.0,0.0,0.002359385136514902,0.00022255493968259543,-0.0017499907407909632,0.9993364214897156,0.0,0.0,0.0,0.6773138642311096,1.6927947998046875,6.442260265350342,-122.59516143798828,0
1645.4390000000003,-0.00025238876696676016,-6.308637239271775e-07,6.41974838799797e-05,0.0,0.0,0.0,0.0,-0.002752959728240967,-0.002402146579697728,-0.00040752114728093147,1.0009479522705078,0.0,0.0,0.0,0.6763685941696167,1.6857396364212036,6.426407814025879,-122.42406463623047,0
1655.3610000000008,-0.00033998116850852966,3.713680780492723e-05,5.205374691286124e-05,0.0,0.0,0.0,0.0,0.0011197819840162992,0.007123892195522785,-0.002793944673612714,0.9984129071235657,0.0,0.0,0.0,0.6658212542533875,1.6890194416046143,6.42721700668335,-120.51497650146484,0
1665.264000000001,-0.000259796273894608,-1.7391084838891402e-06,0.00011928712046938017,0.0,0.0,0.0,0.0,-7.964155520312488e-05,-0.0035767550580203533,-0.002662476385012269,0.9990843534469604,0.0,0.0,0.0,0.6650230288505554,1.6847633123397827,6.416384220123291,-120.37049102783203,0
1675.1780000000017,-0.00028778272098861635,9.699957445263863e-05,5.891975888516754e-05,0.0,0.0,0.0,0.0,-7.178277155617252e-05,0.002058906015008688,-0.00032209581695497036,0.9982808828353882,0.0,0.0,0.0,0.6709330081939697,1.7005109786987305,6.4343037605285645,-121.4402084350586,0
1685.0910000000003,-0.00039821609971113503,0.0001093284081434831,5.918553506489843e-05,0.0,0.0,0.0,0.0,-0.00017478565860074013,0.0007095917244441807,-0.0021278602071106434,0.9998629093170166,0.0,0.0,0.0,0.6687467098236084,1.7000471353530884,6.420394420623779,-121.04448699951172,0
1695.0070000000014,-0.0005128323100507259,0.00012133664131397381,5.862668331246823e-05,0.0,0.0,0.0,0.0,0.0025158824864774942,0.003783436957746744,0.002134170616045594,1.0007367134094238,0.0,0.0,0.0,0.6674212217330933,1.6935681104660034,6.418826103210449,-120.8045654296875,0
1704.9140000000007,-0.0003193186712451279,1.6086269170045853e-05,0.0001416164741385728,0.0,0.0,0.0,0.0,-0.0006755816284567118,-0.000508022669237107,0.0008631899836473167,1.0003161430358887,0.0,0.0,0.0,0.6670624017715454,1.6609764099121094,6.482026100158691,-120.7396240234375,0
1714.8280000000013,-0.0003966875374317169,3.523340274114162e-05,9.794444486033171e-05,0.0,0.0,0.0,0.0,-0.0018472172087058425,-0.0018537454307079315,-0.000995422014966607,0.9984375834465027,0.0,0.0,0.0,0.6578973531723022,1.6645925045013428,6.473161220550537,-119.08073425292969,0
1724.7360000000008,-0.0002301261411048472,-7.7461612818297e-05,0.00015639573393855244,0.0,0.0,0.0,0.0,-0.004611853044480085,-0.001016998547129333,0.0005203976179473102,0.997596263885498,0.0,0.0,0.0,0.6595366597175598,1.635338306427002,6.514530181884766,-119.37744903564453,0
1734.6510000000017,-0.00025404331972822547,-1.1887573236890603e-07,8.119784615701064e-05,0.0,0.0,0.0,0.0,0.002376382937654853,-0.0012681508669629693,0.000825852039270103,0.9984490871429443,0.0,0.0,0.0,0.669418454170227,1.6598749160766602,6.521040916442871,-121.16606140136719,0
1744.5620000000017,-0.0002140664291800931,-2.528582263039425e-05,0.000137375682243146,0.0,0.0,0.0,0.0,-0.0020642539020627737,-7.44631834095344e-05,-0.004091621842235327,0.9985601902008057,0.0,0.0,0.0,0.6688665151596069,1.648348331451416,6.513347148895264,-121.066162109375,0
1754.4740000000002,-0.0003126073279418051,-2.328163645870518e-05,0.00013667788880411536,0.0,0.0,0.0,0.0,-0.0016718913102522492,-0.0018979244632646441,0.00013297026453074068,1.0003035068511963,0.0,0.0,0.0,0.6679128408432007,1.644702434539795,6.505260944366455,-120.89354705810547,0
1764.3860000000004,-0.00021848181495442986,-7.743799505988136e-05,0.00015003244334366173,0.0,0.0,0.0,0.0,-0.0004818058805540204,0.001035849447362125,-0.00377269322052598,0.9977901577949524,0.0,0.0,0.0,0.6670980453491211,1.6249678134918213,6.5384626388549805,-120.7460708618164,0
1774.3140000000003,-0.00022137162159197032,3.333057975396514e-05,4.32611268479377e-05,0.0,0.0,0.0,0.0,0.0016668890602886677,0.0021639838814735413,0.0010192084591835737,0.9991957545280457,0.0,0.0,0.0,0.6515507698059082,1.6618906259536743,6.55226993560791,-117.9319839477539,0
1784.2180000000008,-0.00017554700025357306,-1.807531589292921e-05,6.186519749462605e-05,0.0,0.0,0.0,0.0,-0.0009170244447886944,0.00463500339537859,-1.1055334653065074e-05,1.0002915859222412,0.0,0.0,0.0,0.6509623527526855,1.6530510187149048,6.5450639724731445,-117.82549285888672,0
1794.1350000000002,-0.00020285366917960346,7.018020551186055e-05,-9.871165275399107e-06,0.0,0.0,0.0,0.0,-0.002921956591308117,0.002509206999093294,-0.0032349182292819023,1.000102162361145,0.0,0.0,0.0,0.6601058840751648,1.6651082038879395,6.545281887054443,-119.48046875,0
1804.0370000000003,-0.00015232394798658788,1.588877239555586e-05,8.984892701846547e-06,0.0,0.0,0.0,0.0,0.0015363165875896811,0.002330857329070568,-0.0022076847963035107,0.999598503112793,0.0,0.0,0.0,0.6592181324958801,1.6671565771102905,6.529533863067627,-119.31978607177734,0
1813.9530000000013,-0.0002384008257649839,1.05132712633349e-05,-3.1775140087120235e-05,0.0,0.0,0.0,0.0,-0.0031095005106180906,-0.002352608833462,0.00041383603820577264,1.000293493270874,0.0,0.0,0.0,0.6584125757217407,1.662089467048645,6.519017696380615,-119.17398834228516,0
1823.866,-0.00020900616073049605,5.046482328907587e-06,2.1261359506752342e-05,0.0,0.0,0.0,0.0,-0.0015987943625077605,0.001642129267565906,4.2310162825742736e-05,0.9993422031402588,0.0,0.0,0.0,0.6574574112892151,1.6620776653289795,6.521708965301514,-119.00110626220703,0
1833.786,-0.0003006156184710562,2.6267513021593913e-05,1.2285645425436087e-05,0.0,0.0,0.0,0.0,-0.0014437399804592133,0.0004069917486049235,0.0012348794844001532,1.0000518560409546,0.0,0.0,0.0,0.6490067839622498,1.6625595092773438,6.509645462036133,-117.47152709960938,0
1843.684000000001,-0.00025066357920877635,3.6860442378383595e-06,6.24929234618321e-05,0.0,0.0,0.0,0.0,-0.0007100768270902336,0.0028037475422024727,-0.0027936494443565607,0.9995385408401489,0.0,0.0,0.0,0.6490306854248047,1.6563974618911743,6.499151229858398,-117.47584533691406,0
1853.607,-0.00032709960942156613,4.658339457819238e-05,4.2491345084272325e-05,0.0,0.0,0.0,0.0,-0.0012301552342250943,0.0021498557180166245,-0.001008905004709959,0.9979686737060547,0.0,0.0,0.0,0.6536533832550049,1.6623626947402954,6.497203826904297,-118.31256866455078,0
1863.5130000000008,-0.0002459439856465906,1.049389538820833e-05,0.00010079605272039771,0.0,0.0,0.0,0.0,-0.002523631090298295,-0.00027943289023824036,-0.0020422732923179865,0.9995846748352051,0.0,0.0,0.0,0.6533765196800232,1.6694871187210083,6.486091613769531,-118.26244354248047,0
1873.4210000000003,-0.00029095244826748967,6.171800487209111e-05,2.938952820841223e-05,0.0,0.0,0.0,0.0,0.0011025548446923494,-0.003466885071247816,0.00011173987877555192,1.000931978225708,0.0,0.0,0.0,0.6589118242263794,1.6756055355072021,6.484591007232666,-119.26435089111328,0
1883.3280000000013,-0.0002275646838825196,2.555912396928761e-05,7.80649424996227e-05,0.0,0.0,0.0,0.0,-2.843140646291431e-05,-0.003952779341489077,0.0005767336115241051,1.0006014108657837,0.0,0.0,0.0,0.658221960067749,1.6770703792572021,6.4826459884643555,-119.13948822021484,0
1893.2520000000004,-0.0002424632984912023,0.0001424499787390232,1.9885130313923582e-05,0.0,0.0,0.0,0.0,-0.002546461531892419,0.00029661846929229796,-0.0028875302523374557,1.0006121397018433,0.0,0.0,0.0,0.6470405459403992,1.6917804479599,6.495423316955566,-117.11563110351562,0
1903.1600000000017,-0.00034327502362430096,0.00015662478108424693,1.4825865946477279e-05,0.0,0.0,0.0,0.0,-0.0037630852311849594,0.0005990112549625337,-0.003465365618467331,0.9999034404754639,0.0,0.0,0.0,0.6460752487182617,1.6992063522338867,6.494614601135254,-116.9408950805664,0
1913.0700000000015,-0.00039639175520278513,0.00021748778817709535,-4.102538150618784e-05,0.0,0.0,0.0,0.0,-0.0025506068486720324,-0.0015368170570582151,-0.0063305445946753025,0.9989348649978638,0.0,0.0,0.0,0.6447212100028992,1.7040259838104248,6.4866228103637695,-116.6958236694336,0
1922.978000000001,-0.00016553275054320693,3.867979103233665e-05,3.194265445927158e-05,0.0,0.0,0.0,0.0,-0.00015403938596136868,0.0036566213238984346,0.0010934153106063604,0.9989540576934814,0.0,0.0,0.0,0.6418023109436035,1.6619951725006104,6.556628704071045,-116.16749572753906,0
1932.9050000000007,-0.0002069503243546933,0.00012341297406237572,4.218874892103486e-06,0.0,0.0,0.0,0.0,-0.002513651270419359,-0.00013912064605392516,0.004288997035473585,0.9995120167732239,0.0,0.0,0.0,0.6277104020118713,1.6775023937225342,6.548458576202393,-113.6168441772461,0
1942.8100000000013,-0.00018253884627483785,9.438036795472726e-05,3.829401248367503e-05,0.0,0.0,0.0,0.0,4.6112701966194436e-05,0.001395928906276822,-0.0011596862459555268,0.998863160610199,0.0,0.0,0.0,0.6280795931816101,1.6744581460952759,6.538919925689697,-113.68366241455078,0
1952.719000000001,-0.0002602167660370469,0.00010090933938045055,-9.124144526140299e-06,0.0,0.0,0.0,0.0,0.0008075390942394733,0.0009350833133794367,0.002185425255447626,0.9977021217346191,0.0,0.0,0.0,0.631805419921875,1.674965500831604,6.532208442687988,-114.35804748535156,0
1962.6240000000016,-0.0001773232943378389,2.8522234060801566e-05,1.6026864614104852e-05,0.0,0.0,0.0,0.0,0.0030796476639807224,0.0015790025936439633,0.002222919836640358,0.9995694756507874,0.0,0.0,0.0,0.6317477226257324,1.6723796129226685,6.525725364685059,-114.34759521484375,0
1972.5480000000007,-0.00027012493228539824,6.681687955278903e-05,2.6448928110767156e-05,0.0,0.0,0.0,0.0,-0.0032440093345940113,-0.0025876041036099195,0.0020470789168030024,0.9999179840087891,0.0,0.0,0.0,0.6320838332176208,1.6635397672653198,6.5060343742370605,-114.40843200683594,0
1982.4520000000011,-0.00022644335695076734,3.4978609619429335e-05,6.354876677505672e-05,0.0,0.0,0.0,0.0,0.003995727282017469,0.004078603815287352,0.001773448777385056,0.9989996552467346,0.0,0.0,0.0,0.6310520172119141,1.6677453517913818,6.503837585449219,-114.22167205810547,0
1992.3730000000014,-0.0003123049973510206,6.289686280069873e-05,4.627361340681091e-05,0.0,0.0,0.0,0.0,-0.001260713441297412,-0.001768010901287198,0.002728966996073723,1.0003663301467896,0.0,0.0,0.0,0.620207667350769,1.6703548431396484,6.49842643737793,-112.25882720947266,0
2002.2790000000005,-0.00018570778775028884,-4.040826752316207e-05,7.493972225347534e-05,0.0,0.0,0.0,0.0,-0.0023067411966621876,-0.0002912673226092011,-0.0011264912318438292,0.9992067217826843,0.0,0.0,0.0,0.6199089884757996,1.6701302528381348,6.481070518493652,-112.20475769042969,0
2012.1950000000015,-0.0002692649431992322,-1.204590080305934e-05,6.059862062102184e-05,0.0,0.0,0.0,0.0,0.0016092921141535044,-0.005217848811298609,0.001098255394026637,0.9979347586631775,0.0,0.0,0.0,0.6107629537582397,1.6858773231506348,6.481692314147949,-110.54931640625,0
2022.1170000000002,-0.00017520252731628716,-9.953953849617392e-05,8.805360994301736e-05,0.0,0.0,0.0,0.0,0.0030064056627452374,0.003384196665138006,0.0051170773804187775,0.9989173412322998,0.0,0.0,0.0,0.6110005378723145,1.6773006916046143,6.4807891845703125,-110.5923080444336,0
2032.0170000000016,-0.00022554048337042332,-5.8489753428148106e-05,2.866132854251191e-05,0.0,0.0,0.0,0.0,-0.004345128778368235,0.0038044117391109467,0.0005349050625227392,0.998503565788269,0.0,0.0,0.0,0.6183686256408691,1.679002285003662,6.475203037261963,-111.92594909667969,0
2041.9230000000007,-0.00017933051276486367,-0.00011164933675900102,5.443177360575646e-05,0.0,0.0,0.0,0.0,0.0030057623516768217,0.0012774734059348702,0.002613194053992629,0.9996980428695679,0.0,0.0,0.0,0.6172493696212769,1.6750377416610718,6.4516777992248535,-111.7233657836914,0
2051.844000000001,-0.0002793177554849535,-0.0001101158995879814,4.66026394860819e-05,0.0,0.0,0.0,0.0,0.00020772599964402616,-0.00016080541536211967,-0.0023885653354227543,0.9995649456977844,0.0,0.0,0.0,0.6177457571029663,1.6762853860855103,6.438661098480225,-111.8132095336914,0
2061.7490000000016,-0.00023326146765612066,-0.00012838914699386805,6.957699224585667e-05,0.0,0.0,0.0,0.0,-0.001236748299561441,0.00013484263035934418,-0.0014297619927674532,0.999954879283905,0.0,0.0,0.0,0.6163536310195923,1.6704672574996948,6.429931163787842,-111.56123352050781,0
2071.6770000000015,-0.0002082943101413548,2.2454632926383056e-06,-8.806795813143253e-05,0.0,0.0,0.0,0.0,-0.0013770489022135735,0.006136221811175346,0.0033954153768718243,0.9998552799224854,0.0,0.0,0.0,0.6250736713409424,1.7059937715530396,6.448359966278076,-113.13958740234375,0
2081.5710000000017,-0.00018147674563806504,-2.3744722057017498e-05,-6.560145993717015e-05,0.0,0.0,0.0,0.0,-0.00020367711840663105,-0.0071831149980425835,0.001452858094125986,0.9972716569900513,0.0,0.0,0.0,0.6248064637184143,1.7057077884674072,6.433022499084473,-113.09121704101562,0
2091.495000000001,-0.00019496408640407026,8.5925028542988e-05,-0.00016042962670326233,0.0,0.0,0.0,0.0,0.0011883578263223171,0.0003167857357766479,-0.0013133197790011764,0.9981518387794495,0.0,0.0,0.0,0.6348918080329895,1.7277296781539917,6.451501369476318,-114.91667938232422,0
2101.397000000001,-0.00015102289034985006,5.442205292638391e-05,-0.0001359417219646275,0.0,0.0,0.0,0.0,0.00023177763796411455,0.0023943346459418535,-0.004071739036589861,0.9997995495796204,0.0,0.0,0.0,0.634331464767456,1.7171664237976074,6.441993713378906,-114.81525421142578,0
2111.318000000001,-0.00013662829587701708,0.00023466115817427635,-0.0002389185974607244,0.0,0.0,0.0,0.0,0.0005309742991812527,0.0012232080334797502,0.0014623908791691065,0.9994533658027649,0.0,0.0,0.0,0.6402863264083862,1.7551581859588623,6.458621501922607,-115.89310455322266,0
