timestamp,stateEstimate.x,stateEstimate.y,stateEstimate.z,controller.cmd_thrust,controller.cmd_roll,controller.cmd_pitch,controller.cmd_yaw,controller.r_roll,controller.r_pitch,controller.r_yaw,controller.accelz,controller.actuatorThrust,controller.roll,controller.pitch,controller.yaw,controller.rollRate,controller.pitchRate,controller.yawRate,controller.ctr_yaw
0.0,-0.015765104442834854,-0.010108880698680878,0.04912379011511803,0.0,0.0,0.0,0.0,-0.000631889037322253,0.005195769015699625,-0.0018931899685412645,1.0014259815216064,0.0,0.0,0.0,-19.147687911987305,5.158031463623047,-0.7607870101928711,3465.769775390625,0
9.878000000000611,-0.027303315699100494,0.009282339364290237,0.0683954730629921,0.0,0.0,0.0,0.0,-0.00417320104315877,-0.0032502722460776567,0.0014855402987450361,1.0013922452926636,0.0,0.0,0.0,-19.22673988342285,9.317400932312012,-4.31740665435791,3480.078125,0
19.773000000001048,-0.027589701116085052,0.009695511311292648,0.0702936202287674,0.0,0.0,0.0,0.0,-0.002812911057844758,-0.0025825032498687506,-0.003063733456656337,0.999557375907898,0.0,0.0,0.0,-19.20740509033203,9.313210487365723,-4.305701732635498,3476.578369140625,0
29.648000000001048,-0.029529795050621033,0.015210307203233242,0.07802580296993256,0.0,0.0,0.0,0.0,-0.00389028899371624,-0.004059855360537767,-0.0014170394279062748,1.000169038772583,0.0,0.0,0.0,-19.314983367919922,10.575942039489746,-4.8913798332214355,3496.05029296875,0
39.54199999999946,-0.029864713549613953,0.01595200039446354,0.0802609920501709,0.0,0.0,0.0,0.0,-0.0035787043161690235,-0.003291223431006074,8.593237907916773e-06,0.9989400506019592,0.0,0.0,0.0,-19.296085357666016,10.572183609008789,-4.881204605102539,3492.6298828125,0
49.423000000000684,-0.030284417793154716,0.01844717562198639,0.08469176292419434,0.0,0.0,0.0,0.0,-0.0026118322275578976,-0.00025046514929272234,-0.0023667539935559034,0.9984962940216064,0.0,0.0,0.0,-19.395835876464844,11.064833641052246,-5.007063388824463,3510.684814453125,0
59.3179999999993,-0.03062516823410988,0.019331293180584908,0.08706296980381012,0.0,0.0,0.0,0.0,0.003060863818973303,-0.0008509278413839638,0.003559698350727558,1.000036597251892,0.0,0.0,0.0,-19.37654685974121,11.055387496948242,-5.008845329284668,3507.19384765625,0
69.19100000000071,-0.030737379565835,0.020516756922006607,0.0897805243730545,0.0,0.0,0.0,0.0,0.006920577958226204,0.0014169961214065552,0.0005838145152665675,1.0007120370864868,0.0,0.0,0.0,-19.463518142700195,11.130626678466797,-4.96970796585083,3522.935302734375,0
79.08699999999953,-0.03107539378106594,0.021456655114889145,0.09217686951160431,0.0,0.0,0.0,0.0,0.0014242575271055102,-0.0008152687223628163,-0.0027152153197675943,1.0006529092788696,0.0,0.0,0.0,-19.44521141052246,11.110635757446289,-4.967531681060791,3519.621826171875,0
88.96999999999935,-0.03107442520558834,0.021859975531697273,0.09374742954969406,0.0,0.0,0.0,0.0,0.0002844781265594065,-0.000853004923556,-0.0017642674501985312,1.000748634338379,0.0,0.0,0.0,-19.545074462890625,10.915458679199219,-4.804751396179199,3537.697509765625,0
98.86700000000019,-0.031402602791786194,0.022794218733906746,0.0960901752114296,0.0,0.0,0.0,0.0,0.0005168801289983094,0.0026809857226908207,0.0020878342911601067,1.001520037651062,0.0,0.0,0.0,-19.526018142700195,10.905302047729492,-4.800609588623047,3534.248046875,0
108.73600000000079,-0.031390927731990814,0.022627025842666626,0.09679991751909256,0.0,0.0,0.0,0.0,0.003026682185009122,0.0012684200191870332,0.0016044328222051263,1.000590443611145,0.0,0.0,0.0,-19.620969772338867,10.505709648132324,-4.546555995941162,3551.4345703125,0
118.6309999999994,-0.03721543774008751,0.01097001414746046,0.11421085149049759,0.0,0.0,0.0,0.0,0.0022013462148606777,-0.0059592160396277905,-0.00014264728815760463,0.9991043210029602,0.0,0.0,0.0,-19.557870864868164,7.644876003265381,-4.5739216804504395,3540.01318359375,0
128.50900000000001,-0.0367673821747303,0.0105803944170475,0.11437997221946716,0.0,0.0,0.0,0.0,0.0007307839696295559,0.0015564103377982974,-0.0034735905937850475,0.9966946244239807,0.0,0.0,0.0,-19.63567352294922,7.300212860107422,-4.2106733322143555,3554.095703125,0
138.40200000000004,-0.03843287006020546,0.008657923899590969,0.11963358521461487,0.0,0.0,0.0,0.0,-0.0005971149657852948,-0.0008798747439868748,0.0007497137412428856,0.9991459250450134,0.0,0.0,0.0,-19.581579208374023,6.785309791564941,-4.1843156814575195,3544.3046875,0
148.28200000000106,-0.03791656717658043,0.007909588515758514,0.11914381384849548,0.0,0.0,0.0,0.0,-0.0014842557720839977,0.0012703697429969907,-0.0007999303634278476,1.000516653060913,0.0,0.0,0.0,-19.65202522277832,6.377302646636963,-3.8646347522735596,3557.055419921875,0
158.17300000000068,-0.03886987268924713,0.007232702802866697,0.12248949706554413,0.0,0.0,0.0,0.0,0.0025358328130096197,-0.0009213815210387111,-0.0003075845306739211,0.9993293285369873,0.0,0.0,0.0,-19.596294403076172,6.196816444396973,-3.855318307876587,3546.968505859375,0
168.04800000000068,-0.038623012602329254,0.005944657605141401,0.12169317901134491,0.0,0.0,0.0,0.0,0.0010179148521274328,-0.0028063131030648947,-0.002865303074941039,0.9987298846244812,0.0,0.0,0.0,-19.66053581237793,5.802887439727783,-3.5788583755493164,3558.595947265625,0
177.94900000000052,-0.03911244869232178,0.006002927199006081,0.12397506833076477,0.0,0.0,0.0,0.0,-0.0005606532795354724,-0.0038188043981790543,0.002264106646180153,0.9996334314346313,0.0,0.0,0.0,-19.6093692779541,5.804985523223877,-3.575723886489868,3549.335205078125,0
187.8160000000007,-0.03902995213866234,0.004457573406398296,0.1229991763830185,0.0,0.0,0.0,0.0,0.0027258298359811306,-0.0010159563971683383,-0.002115640789270401,1.0007641315460205,0.0,0.0,0.0,-19.68130111694336,5.465580463409424,-3.347606897354126,3562.354736328125,0
197.71399999999994,-0.03925085812807083,0.004950220230966806,0.12468795478343964,0.0,0.0,0.0,0.0,0.0014528215397149324,0.0009272564202547073,-0.0012022325536236167,1.0003560781478882,0.0,0.0,0.0,-19.630115509033203,5.563290119171143,-3.341550588607788,3553.090087890625,0
207.58400000000074,-0.03932903707027435,0.0033193316776305437,0.12364540249109268,0.0,0.0,0.0,0.0,0.000933883769903332,0.0012297455687075853,-0.0041490946896374226,1.001049280166626,0.0,0.0,0.0,-19.68199348449707,5.270789623260498,-3.1660728454589844,3562.47998046875,0
217.47700000000077,-0.03930310159921646,0.004232023376971483,0.12481644749641418,0.0,0.0,0.0,0.0,-0.001520270830951631,0.0019146150443702936,0.001318958355113864,1.0007556676864624,0.0,0.0,0.0,-19.633216857910156,5.446250915527344,-3.165590286254883,3553.651611328125,0
227.35399999999936,-0.039433807134628296,0.0025901123881340027,0.1237315833568573,0.0,0.0,0.0,0.0,0.0011315342271700501,0.004619083367288113,0.006208653561770916,0.999780535697937,0.0,0.0,0.0,-19.694591522216797,5.1928181648254395,-3.003098726272583,3564.760009765625,0
237.2469999999994,-0.03927456960082054,0.0037188399583101273,0.12454982846975327,0.0,0.0,0.0,0.0,-0.00040942474151961505,0.001212230185046792,-0.00038079783553257585,1.0015308856964111,0.0,0.0,0.0,-19.640966415405273,5.405888080596924,-3.0044925212860107,3555.0537109375,0
247.125,-0.03946210443973541,0.0021539349108934402,0.12348456680774689,0.0,0.0,0.0,0.0,-0.0021163569763302803,-0.002664864994585514,0.001107269199565053,1.0003771781921387,0.0,0.0,0.0,-19.701759338378906,5.176211833953857,-2.8552942276000977,3566.057373046875,0
257.02399999999943,-0.03993910178542137,0.002015860751271248,0.12497787177562714,0.0,0.0,0.0,0.0,0.000546481809578836,0.010149425826966763,-0.001404637936502695,1.0000401735305786,0.0,0.0,0.0,-19.68159294128418,5.168964385986328,-2.8535332679748535,3562.407470703125,0
266.89600000000064,-0.04014172777533531,0.0007690063212066889,0.12428601086139679,0.0,0.0,0.0,0.0,-0.0003747960436157882,0.002721252851188183,0.0017007694113999605,1.0006605386734009,0.0,0.0,0.0,-19.745752334594727,4.900160312652588,-2.7050724029541016,3574.020751953125,0
276.7900000000009,-0.039481230080127716,0.002613098593428731,0.12385264784097672,0.0,0.0,0.0,0.0,0.00047065585386008024,-0.0008667983347550035,0.0011199135333299637,0.9987643957138062,0.0,0.0,0.0,-19.69376564025879,5.345836162567139,-2.7107162475585938,3564.61083984375,0
286.6740000000009,-0.03972706198692322,0.0013953541638329625,0.12283935397863388,0.0,0.0,0.0,0.0,0.0018559570889919996,-0.0008828016580082476,0.0008147003827616572,1.000709056854248,0.0,0.0,0.0,-19.738977432250977,5.092697620391846,-2.557016134262085,3572.794189453125,0
296.5599999999995,-0.03925911337137222,0.0029507491271942854,0.1225823238492012,0.0,0.0,0.0,0.0,0.0032636220566928387,-0.0030188870150595903,0.001794534269720316,1.0025291442871094,0.0,0.0,0.0,-19.680992126464844,5.438488006591797,-2.559471368789673,3562.298583984375,0
306.4429999999993,-0.03944619372487068,0.0017600981518626213,0.12151385098695755,0.0,0.0,0.0,0.0,7.901924982434139e-05,0.0021156391594558954,9.595663141226396e-05,1.000125765800476,0.0,0.0,0.0,-19.7429141998291,5.21618127822876,-2.3969855308532715,3573.507080078125,0
316.3299999999999,-0.0390799418091774,0.0031170258298516273,0.12130490690469742,0.0,0.0,0.0,0.0,0.00390683813020587,-0.004102048464119434,-0.0026230942457914352,1.000181794166565,0.0,0.0,0.0,-19.69093132019043,5.517596244812012,-2.3942384719848633,3564.097412109375,0
326.21700000000055,-0.03924472630023956,0.001991946017369628,0.12023282051086426,0.0,0.0,0.0,0.0,-0.0012947466457262635,-0.0005144721362739801,0.0006567363161593676,1.0000331401824951,0.0,0.0,0.0,-19.750547409057617,5.3265299797058105,-2.246922254562378,3574.888427734375,0
336.1110000000008,-0.038909394294023514,0.0032612981740385294,0.11995953321456909,0.0,0.0,0.0,0.0,0.00019145471742376685,-0.004851180594414473,-0.002096099080517888,1.001073956489563,0.0,0.0,0.0,-19.691959381103516,5.596266746520996,-2.233262062072754,3564.283935546875,0
345.987000000001,-0.039084095507860184,0.002260644920170307,0.11896362900733948,0.0,0.0,0.0,0.0,-0.0028493483550846577,-0.0008478425443172455,0.0009623515070416033,0.9994916915893555,0.0,0.0,0.0,-19.73777198791504,5.441295623779297,-2.0991904735565186,3572.576171875,0
355.8729999999996,-0.038801614195108414,0.003388975514099002,0.11866050958633423,0.0,0.0,0.0,0.0,0.0001704695023363456,0.0011630976805463433,-0.000436234287917614,1.0015640258789062,0.0,0.0,0.0,-19.685144424438477,5.684325218200684,-2.0786538124084473,3563.050048828125,0
365.7559999999994,-0.03885561227798462,0.002464822493493557,0.1177230104804039,0.0,0.0,0.0,0.0,-0.0006642767693847418,0.0037653855979442596,-0.0021101327147334814,0.9992172718048096,0.0,0.0,0.0,-19.73027801513672,5.545151710510254,-1.9406204223632812,3571.2197265625,0
375.6419999999998,-0.038620032370090485,0.0034623988904058933,0.11739063262939453,0.0,0.0,0.0,0.0,0.0012712300522252917,-0.001728737261146307,-0.0004662920837290585,0.9986199140548706,0.0,0.0,0.0,-19.669797897338867,5.756006240844727,-1.9277658462524414,3560.2724609375,0
385.52599999999984,-0.03863416984677315,0.0026429316494613886,0.1165318489074707,0.0,0.0,0.0,0.0,-0.0005045844591222703,0.0007085602264851332,2.8986540201003663e-05,0.9985357522964478,0.0,0.0,0.0,-19.71580696105957,5.633419990539551,-1.7996420860290527,3568.6005859375,0
395.41300000000047,-0.038404323160648346,0.0035864554811269045,0.11612527817487717,0.0,0.0,0.0,0.0,-0.000746809528209269,-0.002161741955205798,-0.0019524901872500777,1.0023778676986694,0.0,0.0,0.0,-19.660303115844727,5.83148193359375,-1.7854753732681274,3558.55419921875,0
405.2980000000007,-0.03844475746154785,0.002925744978711009,0.11541774868965149,0.0,0.0,0.0,0.0,0.0013529850402846932,0.00019493377476464957,-0.0029266667552292347,1.0001124143600464,0.0,0.0,0.0,-19.71912384033203,5.735978603363037,-1.6760231256484985,3569.20068359375,0
415.1849999999995,-0.038264963775873184,0.0037324391305446625,0.11501796543598175,0.0,0.0,0.0,0.0,-7.686426397413015e-05,-0.0011671577813103795,0.0017938712844625115,0.9986056089401245,0.0,0.0,0.0,-19.66956329345703,5.903666973114014,-1.6708546876907349,3560.22998046875,0
425.0720000000001,-0.038289736956357956,0.0031530442647635937,0.11435558646917343,0.0,0.0,0.0,0.0,0.0015870424685999751,-0.0014566030586138368,-0.004409975837916136,1.0014138221740723,0.0,0.0,0.0,-19.713533401489258,5.820524215698242,-1.5649982690811157,3568.188720703125,0
434.95100000000093,-0.0381317101418972,0.003874893533065915,0.11393697559833527,0.0,0.0,0.0,0.0,-0.00022808551148045808,0.0027185946237295866,-1.855643313319888e-05,0.9990240335464478,0.0,0.0,0.0,-19.666109085083008,5.971725940704346,-1.562582015991211,3559.604736328125,0
444.83799999999974,-0.038136452436447144,0.003424902679398656,0.11342521756887436,0.0,0.0,0.0,0.0,0.001848444459028542,0.0014124750159680843,0.0010491458233445883,0.9968864917755127,0.0,0.0,0.0,-19.707685470581055,5.90539026260376,-1.462409496307373,3567.1298828125,0
454.71900000000096,-0.03802161291241646,0.004033151548355818,0.11302677541971207,0.0,0.0,0.0,0.0,-0.002887379378080368,-0.0021789686288684607,-0.00039888135506771505,0.9994091987609863,0.0,0.0,0.0,-19.66119956970215,6.034631252288818,-1.459702491760254,3558.71630859375,0
464.6090000000004,-0.03800756484270096,0.00365488906390965,0.11256757378578186,0.0,0.0,0.0,0.0,0.0018911291845142841,0.00659462483599782,-0.0016808236250653863,0.9980694651603699,0.0,0.0,0.0,-19.70765495300293,5.9817304611206055,-1.3593621253967285,3567.12451171875,0
504.15300000000025,-0.03759660944342613,0.004017265979200602,0.11119982600212097,0.0,0.0,0.0,0.0,0.0009582230122759938,0.004322605673223734,0.0007328284555114806,1.0006601810455322,0.0,0.0,0.0,-19.703401565551758,6.096037864685059,-1.1205941438674927,3566.354736328125,0
514.0280000000002,-0.037427764385938644,0.0043450817465782166,0.11098022758960724,0.0,0.0,0.0,0.0,0.0017160369316115975,0.0031718406826257706,9.567267989041284e-05,0.9988622069358826,0.0,0.0,0.0,-19.673521041870117,6.167696475982666,-1.1163285970687866,3560.9462890625,0
523.9300000000003,-0.03748280927538872,0.004171405918896198,0.11065627634525299,0.0,0.0,0.0,0.0,0.0031992595177143812,-0.0013819162268191576,0.0008601967711001635,0.9994045495986938,0.0,0.0,0.0,-19.701923370361328,6.140532970428467,-1.0271196365356445,3566.0869140625,0
533.8000000000011,-0.03748114034533501,0.004412176087498665,0.11038832366466522,0.0,0.0,0.0,0.0,0.000961853307671845,-0.0014589751372113824,0.0007278359262272716,1.00221848487854,0.0,0.0,0.0,-19.64107322692871,6.1831817626953125,-1.0146849155426025,3555.0732421875,0
543.7029999999995,-0.03737274184823036,0.004269962199032307,0.1101982519030571,0.0,0.0,0.0,0.0,0.0019349412759765983,-0.0007938226917758584,0.0003829489287454635,1.0007390975952148,0.0,0.0,0.0,-19.67464828491211,6.172068119049072,-0.9203479290008545,3561.150146484375,0
553.5720000000001,-0.03729253634810448,0.004428118001669645,0.11009398847818375,0.0,0.0,0.0,0.0,0.000478873320389539,-0.0010670276824384928,0.002685577142983675,0.9989794492721558,0.0,0.0,0.0,-19.645896911621094,6.206631183624268,-0.9168609976768494,3555.946533203125,0
563.4670000000006,-0.037297263741493225,0.004367954563349485,0.10987109690904617,0.0,0.0,0.0,0.0,-0.0003666773554868996,0.0035342928022146225,-0.0020735689904540777,0.9976436495780945,0.0,0.0,0.0,-19.666324615478516,6.203974723815918,-0.8272016048431396,3559.64404296875,0
573.3389999999999,-0.03722492977976799,0.0045135789550840855,0.1097773015499115,0.0,0.0,0.0,0.0,-0.002830494660884142,-0.005135247949510813,0.000685877981595695,1.0004926919937134,0.0,0.0,0.0,-19.627180099487305,6.235279560089111,-0.82269686460495,3552.558837890625,0
583.2330000000002,-0.037205733358860016,0.004490239080041647,0.10957325994968414,0.0,0.0,0.0,0.0,0.0030661087948828936,-1.0369886695116293e-05,0.002169696381315589,0.9989790320396423,0.0,0.0,0.0,-19.6601619720459,6.232482433319092,-0.7392510771751404,3558.5283203125,0
593.1110000000008,-0.037147797644138336,0.004605717957019806,0.10949789732694626,0.0,0.0,0.0,0.0,-0.0011309051187708974,0.0007569805020466447,0.0009330480243079364,0.9990063905715942,0.0,0.0,0.0,-19.630884170532227,6.257636547088623,-0.7358586192131042,3553.229248046875,0
603.0130000000008,-0.03709012269973755,0.004609700292348862,0.10929553955793381,0.0,0.0,0.0,0.0,0.0009708309080451727,-0.0003715426428243518,-0.00018410409393254668,0.9998717308044434,0.0,0.0,0.0,-19.64637565612793,6.250155448913574,-0.668881356716156,3556.032958984375,0
612.8809999999994,-0.03704724833369255,0.004698308650404215,0.10923955589532852,0.0,0.0,0.0,0.0,0.0008663766784593463,0.0009245810215361416,-0.0031098828185349703,1.0019232034683228,0.0,0.0,0.0,-19.610334396362305,6.269091606140137,-0.6648797392845154,3549.509765625,0
622.7800000000007,-0.036969661712646484,0.0047301859594881535,0.10907129943370819,0.0,0.0,0.0,0.0,-0.0027145971544086933,0.004914879333227873,-0.00011188615462742746,1.002078890800476,0.0,0.0,0.0,-19.638795852661133,6.259953022003174,-0.5964149832725525,3554.6611328125,0
632.652,-0.03697185590863228,0.004730900749564171,0.10907457023859024,0.0,0.0,0.0,0.0,-0.0015733414329588413,-0.005225905682891607,-0.000652661023195833,1.0005545616149902,0.0,0.0,0.0,-19.608850479125977,6.25890588760376,-0.5933528542518616,3549.240966796875,0
642.5590000000011,-0.03693898767232895,0.004798400215804577,0.10894834250211716,0.0,0.0,0.0,0.0,-0.0002067538007395342,0.0024932725355029106,0.0007267756736837327,0.9981616139411926,0.0,0.0,0.0,-19.63140296936035,6.263132095336914,-0.5209757089614868,3553.322998046875,0
652.4220000000005,-0.036957036703825,0.004768088459968567,0.10897239297628403,0.0,0.0,0.0,0.0,0.0030980592127889395,-0.0017301889602094889,0.0021288548596203327,0.9994598031044006,0.0,0.0,0.0,-19.605751037597656,6.255072116851807,-0.5184603929519653,3548.679931640625,0
662.3160000000007,-0.036901265382766724,0.004850941244512796,0.10888456553220749,0.0,0.0,0.0,0.0,-0.00188679457642138,0.0020697354339063168,-0.0002819518849719316,0.9993279576301575,0.0,0.0,0.0,-19.63728141784668,6.26133918762207,-0.46578022837638855,3554.38720703125,0
672.1929999999993,-0.03691494092345238,0.004832012113183737,0.10890312492847443,0.0,0.0,0.0,0.0,-0.0032599882688373327,0.00420457124710083,-0.00013929982378613204,0.9984081983566284,0.0,0.0,0.0,-19.599849700927734,6.255062580108643,-0.46204131841659546,3547.612060546875,0
682.0889999999999,-0.03685411438345909,0.004911936819553375,0.10880117118358612,0.0,0.0,0.0,0.0,-2.7048006813856773e-05,0.006111780181527138,-0.0012914696708321571,1.0028102397918701,0.0,0.0,0.0,-19.619510650634766,6.265927314758301,-0.4214598536491394,3551.17041015625,0
691.9670000000006,-0.03689198940992355,0.004844426643103361,0.10885132104158401,0.0,0.0,0.0,0.0,4.8011072067311034e-05,0.0008340943604707718,0.0008503666613250971,1.0012739896774292,0.0,0.0,0.0,-19.590051651000977,6.249041557312012,-0.4186825454235077,3545.838134765625,0
701.8629999999994,-0.036841582506895065,0.004961335565894842,0.10882191359996796,0.0,0.0,0.0,0.0,0.0007012643618509173,0.0033453619107604027,-0.0023287609219551086,0.9999999403953552,0.0,0.0,0.0,-19.61858367919922,6.255522727966309,-0.39612358808517456,3551.00244140625,0
711.7350000000006,-0.03687561675906181,0.004903293214738369,0.10886712372303009,0.0,0.0,0.0,0.0,-0.0009153432329185307,0.0024497322738170624,-0.0017251836834475398,1.0001667737960815,0.0,0.0,0.0,-19.584609985351562,6.240227222442627,-0.3928840160369873,3544.853271484375,0
721.6350000000002,-0.036831822246313095,0.0050138141959905624,0.10881941765546799,0.0,0.0,0.0,0.0,-0.0014719530008733273,-0.0008349465788342059,0.0021343007683753967,1.0009206533432007,0.0,0.0,0.0,-19.60368537902832,6.244643688201904,-0.3691032826900482,3548.305908203125,0
731.5169999999998,-0.036874860525131226,0.004938503261655569,0.10887640714645386,0.0,0.0,0.0,0.0,0.001004522549919784,0.0008833625470288098,-0.002163016702979803,1.0014311075210571,0.0,0.0,0.0,-19.568172454833984,6.2253217697143555,-0.3657768964767456,3541.8779296875,0
741.4009999999998,-0.03675948828458786,0.0050245244055986404,0.1088312640786171,0.0,0.0,0.0,0.0,0.001298729213885963,0.0026408275589346886,-0.0029535579960793257,1.0003618001937866,0.0,0.0,0.0,-19.59901237487793,6.223658084869385,-0.32349205017089844,3547.460205078125,0
751.2759999999998,-0.0368526354432106,0.0048513514921069145,0.1089538112282753,0.0,0.0,0.0,0.0,0.0025126950349658728,0.0001914346794364974,0.0003584884398151189,0.9989899396896362,0.0,0.0,0.0,-19.569374084472656,6.182176113128662,-0.32106149196624756,3542.095458984375,0
761.1720000000005,-0.036777008324861526,0.004939445294439793,0.10893387347459793,0.0,0.0,0.0,0.0,-0.003714952152222395,-0.012226024642586708,0.0012221981305629015,0.999971330165863,0.0,0.0,0.0,-19.60037612915039,6.1771240234375,-0.2823539674282074,3547.707275390625,0
771.0470000000005,-0.03684045746922493,0.004825475160032511,0.10901758819818497,0.0,0.0,0.0,0.0,0.002258425345644355,-0.0020759606268256903,-0.00011553100921446458,1.0021312236785889,0.0,0.0,0.0,-19.566884994506836,6.148613929748535,-0.2794105112552643,3541.645263671875,0
780.9470000000001,-0.03671213984489441,0.004873633850365877,0.10897337645292282,0.0,0.0,0.0,0.0,0.0005829508299939334,0.004732673522084951,0.000169118182384409,1.0001088380813599,0.0,0.0,0.0,-19.597253799438477,6.140777111053467,-0.22022417187690735,3547.141845703125,0
790.8189999999995,-0.03677244856953621,0.004765358753502369,0.10905297845602036,0.0,0.0,0.0,0.0,0.0007994957268238068,-0.003059704788029194,0.0033731625881046057,0.9999480843544006,0.0,0.0,0.0,-19.56073760986328,6.1135430335998535,-0.2169954627752304,3540.532470703125,0
800.7150000000001,-0.036725252866744995,0.004787778947502375,0.1090424507856369,0.0,0.0,0.0,0.0,0.0003952744882553816,-0.001686902018263936,-0.0026650866493582726,1.0017743110656738,0.0,0.0,0.0,-19.599966049194336,6.108275890350342,-0.19991914927959442,3547.633056640625,0
810.5959999999995,-0.03666182979941368,0.004763412289321423,0.10905729234218597,0.0,0.0,0.0,0.0,-0.0007424471550621092,0.0013331295922398567,-0.0019868032541126013,1.0012145042419434,0.0,0.0,0.0,-19.551836013793945,6.085904121398926,-0.19472239911556244,3538.92138671875,0
820.4809999999998,-0.036746274679899216,0.0048165046609938145,0.10907138884067535,0.0,0.0,0.0,0.0,-0.0003814712690655142,-0.0055569675751030445,0.00037806935142725706,1.001452922821045,0.0,0.0,0.0,-19.590213775634766,6.088333606719971,-0.17710793018341064,3545.867431640625,0
830.3590000000004,-0.0366775207221508,0.004794054199010134,0.10909530520439148,0.0,0.0,0.0,0.0,-8.82753447513096e-05,-0.00014268295490182936,-0.0037310784682631493,0.9989317059516907,0.0,0.0,0.0,-19.544248580932617,6.067193984985352,-0.17470471560955048,3537.5478515625,0
840.2569999999996,-0.03673635795712471,0.004832508973777294,0.10910291969776154,0.0,0.0,0.0,0.0,0.0016919034533202648,0.002991705434396863,0.004385356791317463,1.0000873804092407,0.0,0.0,0.0,-19.580707550048828,6.066147327423096,-0.15850403904914856,3544.14697265625,0
850.134,-0.03664759173989296,0.004840579815208912,0.10911646485328674,0.0,0.0,0.0,0.0,0.0005663898773491383,-0.0025225114077329636,0.002149464562535286,0.9981823563575745,0.0,0.0,0.0,-19.52479362487793,6.051102161407471,-0.15022802352905273,3534.0263671875,0
860.0290000000005,-0.0367095023393631,0.004894103854894638,0.10914392024278641,0.0,0.0,0.0,0.0,0.0034913276322185993,0.0002709556429181248,-0.0031166004482656717,0.9979912042617798,0.0,0.0,0.0,-19.580183029174805,6.052792072296143,-0.129312202334404,3544.052001953125,0
869.9009999999998,-0.03659242019057274,0.004941118415445089,0.10913222283124924,0.0,0.0,0.0,0.0,-0.000908000161871314,-0.008044231683015823,0.002152620581910014,1.0000872611999512,0.0,0.0,0.0,-19.56108856201172,6.044147968292236,-0.12722918391227722,3540.595947265625,0
879.7929999999997,-0.03671715408563614,0.005001314450055361,0.10910234600305557,0.0,0.0,0.0,0.0,-0.0014225010527297854,-0.003637324320152402,-0.001597448717802763,1.000581979751587,0.0,0.0,0.0,-19.612606048583984,6.036890983581543,-0.11522708833217621,3549.920654296875,0
889.6710000000003,-0.03666817396879196,0.004923931788653135,0.10919943451881409,0.0,0.0,0.0,0.0,0.004304235801100731,0.00047460655332542956,-0.0020965407602488995,0.9989156723022461,0.0,0.0,0.0,-19.557193756103516,6.001317977905273,-0.1072525754570961,3539.89111328125,0
899.5709999999999,-0.036747708916664124,0.004953340161591768,0.1091650202870369,0.0,0.0,0.0,0.0,-0.004946404602378607,0.0027384739369153976,-0.002548305317759514,0.9987572431564331,0.0,0.0,0.0,-19.606426239013672,5.98984432220459,-0.09500745683908463,3548.802490234375,0
909.4420000000009,-0.03667862340807915,0.004899703431874514,0.10923699289560318,0.0,0.0,0.0,0.0,-0.0009636350441724062,-0.0014772550202906132,0.0003032966051250696,0.9998650550842285,0.0,0.0,0.0,-19.559370040893555,5.952827453613281,-0.1018134355545044,3540.284912109375,0
919.3400000000001,-0.03678020089864731,0.004925754386931658,0.10920248180627823,0.0,0.0,0.0,0.0,-0.00012837153917644173,0.006320959888398647,-0.0005968991317786276,1.0004534721374512,0.0,0.0,0.0,-19.608043670654297,5.954855442047119,-0.09858640283346176,3549.094970703125,0
929.2129999999997,-0.03668619319796562,0.00491375895217061,0.10923925787210464,0.0,0.0,0.0,0.0,-0.0007767642382532358,-0.003468693932518363,0.0015749441226944327,0.9985582232475281,0.0,0.0,0.0,-19.553171157836914,5.941057205200195,-0.0907471626996994,3539.162841796875,0
939.107,-0.036699727177619934,0.004914998542517424,0.10920242965221405,0.0,0.0,0.0,0.0,-0.001760095008648932,-0.005941832438111305,0.0010852848645299673,0.999899685382843,0.0,0.0,0.0,-19.594314575195312,5.935932636260986,-0.0687776729464531,3546.610107421875,0
948.9840000000004,-0.03660077601671219,0.004889094270765781,0.10924550890922546,0.0,0.0,0.0,0.0,-0.0008279266185127199,0.0027086418122053146,-0.0019798658322542906,1.0005749464035034,0.0,0.0,0.0,-19.539560317993164,5.919358730316162,-0.046856045722961426,3536.698974609375,0
958.875,-0.03667178377509117,0.004913447890430689,0.10922792553901672,0.0,0.0,0.0,0.0,0.00014905462739989161,0.000370401976397261,-0.0017089894972741604,1.0010056495666504,0.0,0.0,0.0,-19.594221115112305,5.915141582489014,-0.044676218181848526,3546.59326171875,0
968.7540000000008,-0.036561764776706696,0.004896622616797686,0.10926713049411774,0.0,0.0,0.0,0.0,0.00012263334065210074,-0.0021330537274479866,0.001978035317733884,0.9989138245582581,0.0,0.0,0.0,-19.54077911376953,5.898571968078613,-0.038704901933670044,3536.919677734375,0
978.6579999999994,-0.03662417456507683,0.004893825389444828,0.10919346660375595,0.0,0.0,0.0,0.0,0.0024266333784908056,0.00047339455340988934,-0.0005721325869672,0.9979068636894226,0.0,0.0,0.0,-19.58409309387207,5.893014430999756,-0.028826061636209488,3544.759765625,0
988.5310000000009,-0.03652884438633919,0.004836252424865961,0.10925585776567459,0.0,0.0,0.0,0.0,0.0028598159551620483,0.004531409591436386,-0.0005202587344683707,0.9995221495628357,0.0,0.0,0.0,-19.53650665283203,5.86394739151001,-0.015207971446216106,3536.146484375,0
998.4189999999999,-0.03662309795618057,0.004852392245084047,0.10921221226453781,0.0,0.0,0.0,0.0,-1.2262178643140942e-05,-0.0028321626596152782,0.002149859443306923,1.0014660358428955,0.0,0.0,0.0,-19.589662551879883,5.856439590454102,-0.016694922000169754,3545.76806640625,0
1008.2960000000003,-0.03653380647301674,0.0047756521962583065,0.10928653925657272,0.0,0.0,0.0,0.0,-0.0016202442348003387,-0.002475473564118147,0.0021143509075045586,1.0000792741775513,0.0,0.0,0.0,-19.53569984436035,5.817060470581055,-0.017389219254255295,3536.00048828125,0
1018.1880000000001,-0.03655724227428436,0.004770535044372082,0.10924637317657471,0.0,0.0,0.0,0.0,-0.0009134917054325342,0.003277371870353818,-0.0023717761505395174,0.9992210268974304,0.0,0.0,0.0,-19.579256057739258,5.818600654602051,-0.0035153261851519346,3543.88427734375,0
1028.067000000001,-0.036463361233472824,0.004682386759668589,0.10932562500238419,0.0,0.0,0.0,0.0,-0.0009935774141922593,-0.004529143217951059,-7.4162679084111e-05,1.0019772052764893,0.0,0.0,0.0,-19.533742904663086,5.791558742523193,-0.0012244826648384333,3535.646240234375,0
1037.955,-0.036561623215675354,0.0047122519463300705,0.10932831466197968,0.0,0.0,0.0,0.0,0.001509093795903027,0.0049232300370931625,-0.0006329669849947095,1.0005155801773071,0.0,0.0,0.0,-19.5826473236084,5.790538787841797,0.010700472630560398,3544.498046875,0
1047.8400000000001,-0.036449722945690155,0.0046458775177598,0.10939647257328033,0.0,0.0,0.0,0.0,-0.0006547477096319199,0.0010737653356045485,0.003268416738137603,1.0016804933547974,0.0,0.0,0.0,-19.534255981445312,5.762404918670654,0.005005369894206524,3535.7392578125,0
1057.7350000000006,-0.03658511862158775,0.00466948701068759,0.10937725007534027,0.0,0.0,0.0,0.0,0.000783502880949527,0.0026219715364277363,0.0011310974368825555,0.9984068274497986,0.0,0.0,0.0,-19.573856353759766,5.7509765625,-0.0036593114491552114,3542.90673828125,0
1067.607,-0.036434877663850784,0.004668326582759619,0.10939954221248627,0.0,0.0,0.0,0.0,-0.0008307253592647612,0.001527726068161428,-5.667601362802088e-05,1.0002224445343018,0.0,0.0,0.0,-19.531457901000977,5.735939979553223,-0.001211134367622435,3535.232666015625,0
1077.4920000000002,-0.03659321740269661,0.004688724875450134,0.10935989022254944,0.0,0.0,0.0,0.0,0.0037481929175555706,0.0036698037292808294,0.0008035559440031648,0.9991886019706726,0.0,0.0,0.0,-19.578824996948242,5.730929851531982,-0.009236935526132584,3543.80615234375,0
1087.3770000000004,-0.03644359111785889,0.004682986997067928,0.10938282310962677,0.0,0.0,0.0,0.0,-0.0007374411216005683,-0.0012841782299801707,0.0008099774713627994,0.9999738335609436,0.0,0.0,0.0,-19.536598205566406,5.7206196784973145,-0.013875363394618034,3536.1630859375,0
1097.2620000000006,-0.03662556782364845,0.00472682248800993,0.10937430709600449,0.0,0.0,0.0,0.0,0.001700727385468781,-0.0013179873349145055,-0.00024981569731608033,1.0003832578659058,0.0,0.0,0.0,-19.582365036010742,5.712197303771973,-0.03213243931531906,3544.44677734375,0
1107.1489999999994,-0.036475665867328644,0.004718275740742683,0.10940007865428925,0.0,0.0,0.0,0.0,-0.0009558558231219649,0.0008871488971635699,0.00014430307783186436,0.9993883371353149,0.0,0.0,0.0,-19.538619995117188,5.70386266708374,-0.015283066779375076,3536.529052734375,0
1117.0370000000003,-0.036634765565395355,0.004757294896990061,0.10939019918441772,0.0,0.0,0.0,0.0,-0.0008060535765253007,0.0008978141704574227,-5.050990148447454e-05,1.0002105236053467,0.0,0.0,0.0,-19.587045669555664,5.696478843688965,-0.03050525300204754,3545.294189453125,0
1126.9169999999995,-0.036491312086582184,0.004730357322841883,0.10942909121513367,0.0,0.0,0.0,0.0,0.0010372941615059972,-0.00564666697755456,0.0039031198248267174,0.9995921850204468,0.0,0.0,0.0,-19.544618606567383,5.677480220794678,-0.022277869284152985,3537.61474609375,0
1136.8109999999997,-0.036646440625190735,0.004755821544677019,0.1093987450003624,0.0,0.0,0.0,0.0,0.0018354333005845547,0.004005280323326588,0.0018315947381779552,1.0011522769927979,0.0,0.0,0.0,-19.59219741821289,5.674499988555908,-0.030453966930508614,3546.226806640625,0
1146.6939999999995,-0.0364982895553112,0.004731009714305401,0.10943297296762466,0.0,0.0,0.0,0.0,0.0008219410083256662,-0.005185437388718128,-0.0010110700968652964,1.0003257989883423,0.0,0.0,0.0,-19.54707908630371,5.653724670410156,-0.029597651213407516,3538.06005859375,0
1156.5720000000001,-0.03671223297715187,0.00477946363389492,0.10942135006189346,0.0,0.0,0.0,0.0,0.00042812011088244617,-0.0003706909774336964,-0.0004981932579539716,1.0018168687820435,0.0,0.0,0.0,-19.585695266723633,5.646723747253418,-0.05733534321188927,3545.0498046875,0
1166.460000000001,-0.036569200456142426,0.004749460611492395,0.10946180671453476,0.0,0.0,0.0,0.0,-0.0017316782614216208,0.0015204893425107002,-0.0011295336298644543,1.0008795261383057,0.0,0.0,0.0,-19.54268455505371,5.628565311431885,-0.04550230875611305,3537.2646484375,0
1176.3430000000008,-0.036709319800138474,0.004794458393007517,0.10948123782873154,0.0,0.0,0.0,0.0,-0.002810293808579445,0.0020570051856338978,0.002884158631786704,1.0011248588562012,0.0,0.0,0.0,-19.587846755981445,5.626737117767334,-0.05402003973722458,3545.439208984375,0
1186.2330000000002,-0.03656446188688278,0.004769534338265657,0.10952454060316086,0.0,0.0,0.0,0.0,-0.0028932515997439623,-0.0014540448319166899,-0.00020984045113436878,0.9991642832756042,0.0,0.0,0.0,-19.54408073425293,5.617244243621826,-0.040793441236019135,3537.517333984375,0
1196.1170000000002,-0.03676154837012291,0.004752377048134804,0.10954934358596802,0.0,0.0,0.0,0.0,-0.002006498398259282,-0.0032582348212599754,-0.0014195453841239214,0.9980686902999878,0.0,0.0,0.0,-19.560720443725586,5.595189094543457,-0.04915071651339531,3540.529052734375,0
1206.0,-0.036910530179739,0.004766465630382299,0.10951680690050125,0.0,0.0,0.0,0.0,-0.0015349810710176826,0.004902707412838936,-0.00047813382116146386,0.9985393285751343,0.0,0.0,0.0,-19.596633911132812,5.59971284866333,-0.05652429908514023,3547.02978515625,0
1215.8909999999996,-0.03676464781165123,0.004738868214190006,0.1095569059252739,0.0,0.0,0.0,0.0,0.00038789238897152245,0.001063167699612677,0.000359048048267141,0.9991592764854431,0.0,0.0,0.0,-19.55657958984375,5.584775924682617,-0.06045515090227127,3539.77978515625,0
1225.7720000000008,-0.03686697408556938,0.004729558248072863,0.10949935764074326,0.0,0.0,0.0,0.0,0.00234525790438056,-0.0021048279013484716,0.0024230245035141706,1.0022324323654175,0.0,0.0,0.0,-19.60129165649414,5.576106071472168,-0.05798725783824921,3547.872802734375,0
1235.6560000000009,-0.03670875355601311,0.004715327639132738,0.10952393710613251,0.0,0.0,0.0,0.0,0.0017747418023645878,-0.004563286434859037,0.0007391729741357267,1.002166986465454,0.0,0.0,0.0,-19.559362411499023,5.56075382232666,-0.05869266018271446,3540.283447265625,0
1245.5529999999999,-0.036831360310316086,0.004729439504444599,0.1095002070069313,0.0,0.0,0.0,0.0,-0.0010076732141897082,0.0040445090271532536,-0.00028304578154347837,1.0012092590332031,0.0,0.0,0.0,-19.607826232910156,5.557925224304199,-0.07482623308897018,3549.055908203125,0
1255.4259999999995,-0.03667113929986954,0.004711959511041641,0.10952816158533096,0.0,0.0,0.0,0.0,0.00027152252732776105,-0.0007503856322728097,0.00017508237215224653,1.0026308298110962,0.0,0.0,0.0,-19.56522560119629,5.551809787750244,-0.058694854378700256,3541.3447265625,0
1265.3179999999993,-0.03682154417037964,0.004728423897176981,0.10950347036123276,0.0,0.0,0.0,0.0,0.0005747174145653844,-0.001691443962045014,-0.0011819382198154926,1.0016071796417236,0.0,0.0,0.0,-19.611251831054688,5.54434061050415,-0.0735955536365509,3549.675537109375,0
1275.1970000000001,-0.03669542446732521,0.0046466956846416,0.10957691073417664,0.0,0.0,0.0,0.0,0.00022592031746171415,0.00513883400708437,-0.000435336260125041,0.9997585415840149,0.0,0.0,0.0,-19.565853118896484,5.519946575164795,-0.07304830104112625,3541.4580078125,0
1285.0869999999995,-0.03685429319739342,0.004655416123569012,0.10954863578081131,0.0,0.0,0.0,0.0,0.0030043304432183504,-0.005326054058969021,0.0002700889017432928,0.9994893670082092,0.0,0.0,0.0,-19.611286163330078,5.514646053314209,-0.08201417326927185,3549.681884765625,0
1294.9709999999995,-0.03671419620513916,0.004596834070980549,0.10960540920495987,0.0,0.0,0.0,0.0,-0.0008602702291682363,-0.001102461013942957,0.0005023385747335851,1.0006674528121948,0.0,0.0,0.0,-19.569637298583984,5.489856243133545,-0.0869356170296669,3542.14306640625,0
1304.862000000001,-0.0368308499455452,0.004576425533741713,0.10955247282981873,0.0,0.0,0.0,0.0,0.002245076699182391,-0.00034315508673898876,0.001887305174022913,1.0004616975784302,0.0,0.0,0.0,-19.605974197387695,5.4754557609558105,-0.08325284719467163,3548.72021484375,0
1314.741,-0.03664768487215042,0.004586381372064352,0.10955657064914703,0.0,0.0,0.0,0.0,-0.002804578049108386,7.453891885234043e-05,-0.0028926159720867872,0.9999715685844421,0.0,0.0,0.0,-19.566164016723633,5.47066068649292,-0.07533381134271622,3541.5146484375,0
1324.625,-0.03684750199317932,0.004599427804350853,0.10952460020780563,0.0,0.0,0.0,0.0,-0.0018281408119946718,0.005566883832216263,0.0010430194670334458,1.0017677545547485,0.0,0.0,0.0,-19.597660064697266,5.4625115394592285,-0.09724368900060654,3547.21533203125,0
1334.5100000000002,-0.036681342869997025,0.004580746870487928,0.10954803973436356,0.0,0.0,0.0,0.0,0.0001002427379717119,0.003934836946427822,-0.002588636241853237,1.0011578798294067,0.0,0.0,0.0,-19.546337127685547,5.450052261352539,-0.10091138631105423,3537.92578125,0
1344.3999999999996,-0.03687354922294617,0.0045914254151284695,0.1095193400979042,0.0,0.0,0.0,0.0,0.001067956443876028,0.004699258599430323,0.0006934390985406935,0.9992642402648926,0.0,0.0,0.0,-19.58067512512207,5.448219299316406,-0.12964318692684174,3544.14111328125,0
1354.2849999999999,-0.036704666912555695,0.004578986205160618,0.10953661799430847,0.0,0.0,0.0,0.0,-0.002117002848535776,-0.0033683667425066233,-0.005287330597639084,0.9987856149673462,0.0,0.0,0.0,-19.535259246826172,5.441073894500732,-0.13188530504703522,3535.9208984375,0
1364.1640000000007,-0.03686850890517235,0.004582600202411413,0.10951129347085953,0.0,0.0,0.0,0.0,-0.00036783836549147964,-0.0023915935307741165,0.000580014253500849,1.001198410987854,0.0,0.0,0.0,-19.56993865966797,5.432977199554443,-0.14390866458415985,3542.19775390625,0
1374.0529999999999,-0.036714259535074234,0.004539505112916231,0.10954443365335464,0.0,0.0,0.0,0.0,-0.000325944391079247,0.0028492046985775232,0.0007816238794475794,0.9990559220314026,0.0,0.0,0.0,-19.531578063964844,5.418171405792236,-0.14242194592952728,3535.25439453125,0
1383.9480000000003,-0.036878157407045364,0.004553843755275011,0.10954064875841141,0.0,0.0,0.0,0.0,0.001741360523737967,-0.0019523591035977006,-0.003086988115683198,0.9999631643295288,0.0,0.0,0.0,-19.566614151000977,5.414651870727539,-0.14432001113891602,3541.595947265625,0
1393.8220000000001,-0.03669897839426994,0.004560546018183231,0.10954346507787704,0.0,0.0,0.0,0.0,0.000826002680696547,0.0007887398242019117,0.0024716476909816265,1.00147545337677,0.0,0.0,0.0,-19.514673233032227,5.411957740783691,-0.14617793262004852,3532.19482421875,0
1403.7109999999993,-0.036865368485450745,0.004582702182233334,0.10955208539962769,0.0,0.0,0.0,0.0,0.0011805492686107755,-0.004490287508815527,-0.0012437853729352355,1.0002011060714722,0.0,0.0,0.0,-19.561399459838867,5.4098029136657715,-0.14987759292125702,3540.652099609375,0
1413.5910000000003,-0.03670657053589821,0.004545055329799652,0.10958241671323776,0.0,0.0,0.0,0.0,0.0022254369687289,-0.0063451784662902355,0.0034940503537654877,1.001135230064392,0.0,0.0,0.0,-19.522705078125,5.396591663360596,-0.14348344504833221,3533.648681640625,0
1423.4840000000004,-0.0368785485625267,0.004557210020720959,0.10957629233598709,0.0,0.0,0.0,0.0,0.0016474148724228144,0.003958519082516432,-0.0029329387471079826,1.0005688667297363,0.0,0.0,0.0,-19.566219329833984,5.392426013946533,-0.15176093578338623,3541.5244140625,0
1433.3649999999998,-0.03668488562107086,0.004586407914757729,0.10956373065710068,0.0,0.0,0.0,0.0,-0.0025748906191438437,-0.0014024983393028378,-1.4396892765944358e-05,1.0010212659835815,0.0,0.0,0.0,-19.524660110473633,5.395510673522949,-0.1444699466228485,3534.00244140625,0
1443.259,-0.03686324879527092,0.004595359321683645,0.10954149812459946,0.0,0.0,0.0,0.0,0.000664527527987957,0.002575320191681385,0.0009723205002956092,1.001240611076355,0.0,0.0,0.0,-19.56123161315918,5.3903889656066895,-0.16438043117523193,3540.621826171875,0
1453.134,-0.0366843082010746,0.004601339343935251,0.1095438003540039,0.0,0.0,0.0,0.0,0.005948266945779324,0.0033545999322086573,-0.001146913506090641,0.9975784420967102,0.0,0.0,0.0,-19.521648406982422,5.38817024230957,-0.1505473107099533,3533.457275390625,0
1463.023000000001,-0.03686013072729111,0.0046151066198945045,0.10953037440776825,0.0,0.0,0.0,0.0,-0.0014679465675726533,0.000541962159331888,-0.0015769125893712044,1.0006470680236816,0.0,0.0,0.0,-19.568960189819336,5.3787970542907715,-0.16848920285701752,3542.020751953125,0
1472.902,-0.03666907176375389,0.004646805580705404,0.10951495915651321,0.0,0.0,0.0,0.0,-0.0007974090985953808,-0.00042915382073260844,-0.0005461492692120373,1.0005182027816772,0.0,0.0,0.0,-19.52130699157715,5.378065586090088,-0.17705988883972168,3533.3955078125,0
1482.7890000000007,-0.036803971976041794,0.004631577990949154,0.10946428030729294,0.0,0.0,0.0,0.0,0.0022768229246139526,0.0010751192457973957,0.000843407295178622,0.9985057711601257,0.0,0.0,0.0,-19.560396194458008,5.3685688972473145,-0.17470517754554749,3540.470458984375,0
1492.6720000000005,-0.036630548536777496,0.004619430750608444,0.10947085171937943,0.0,0.0,0.0,0.0,-0.00016296211106237024,0.0008099867845885456,0.0023741587065160275,0.9988248348236084,0.0,0.0,0.0,-19.52122688293457,5.362536907196045,-0.16562744975090027,3533.381103515625,0
1502.559000000001,-0.03675860911607742,0.004592273849993944,0.10940466821193695,0.0,0.0,0.0,0.0,0.002917012432590127,-0.003486132947728038,0.00035817446769215167,0.9996206760406494,0.0,0.0,0.0,-19.558082580566406,5.3519439697265625,-0.16115686297416687,3540.0517578125,0
1512.4429999999993,-0.03657523915171623,0.004594300873577595,0.10939519107341766,0.0,0.0,0.0,0.0,-0.0014891927130520344,-0.002746927086263895,-0.001866467879153788,0.999421238899231,0.0,0.0,0.0,-19.514543533325195,5.346490859985352,-0.1614302396774292,3532.171142578125,0
1522.3289999999997,-0.03675616532564163,0.004602332133799791,0.10936447232961655,0.0,0.0,0.0,0.0,0.004243714734911919,-0.005967719480395317,0.0025636781938374043,1.00027596950531,0.0,0.0,0.0,-19.556699752807617,5.34438419342041,-0.15477275848388672,3539.801513671875,0
1532.2150000000001,-0.03657693788409233,0.004585261456668377,0.10936097055673599,0.0,0.0,0.0,0.0,-0.0007142485119402409,0.003973350394517183,0.0010722068836912513,1.0005781650543213,0.0,0.0,0.0,-19.51553726196289,5.3379340171813965,-0.14747856557369232,3532.351318359375,0
1542.1000000000004,-0.03680099546909332,0.004616212099790573,0.10935970395803452,0.0,0.0,0.0,0.0,0.0003017519775312394,-0.00033077134867198765,0.000947610882576555,0.9999738931655884,0.0,0.0,0.0,-19.550233840942383,5.331215858459473,-0.16049927473068237,3538.631103515625,0
1551.9840000000004,-0.036645907908678055,0.004550264682620764,0.10938962548971176,0.0,0.0,0.0,0.0,-0.00042996901902370155,0.0010191429173573852,0.0024488631170243025,1.0003551244735718,0.0,0.0,0.0,-19.506898880004883,5.317255020141602,-0.16115015745162964,3530.787841796875,0
1561.8700000000008,-0.036819975823163986,0.00455545075237751,0.10937149077653885,0.0,0.0,0.0,0.0,0.001651667058467865,0.0021970763336867094,-0.0015122146578505635,1.0004632472991943,0.0,0.0,0.0,-19.542558670043945,5.311887741088867,-0.16050679981708527,3537.2421875,0
1571.7600000000002,-0.03664173185825348,0.004532892722636461,0.10937199741601944,0.0,0.0,0.0,0.0,-0.000186718869372271,-0.004789829719811678,-0.0002229855308542028,1.000279188156128,0.0,0.0,0.0,-19.49466323852539,5.305984973907471,-0.16344083845615387,3528.572998046875,0
1581.6409999999996,-0.03685666248202324,0.004567657597362995,0.1093951016664505,0.0,0.0,0.0,0.0,0.00206131674349308,0.003555595874786377,-0.00018308969447389245,1.0004273653030396,0.0,0.0,0.0,-19.545804977416992,5.311380863189697,-0.17328310012817383,3537.829833984375,0
1591.5280000000002,-0.036676086485385895,0.004545626696199179,0.10939358174800873,0.0,0.0,0.0,0.0,0.0008220318704843521,0.0008701452170498669,-0.0018791552865877748,1.0022008419036865,0.0,0.0,0.0,-19.526561737060547,5.297542095184326,-0.16417749226093292,3534.346435546875,0
1601.4130000000005,-0.03681373596191406,0.004555841442197561,0.10939992964267731,0.0,0.0,0.0,0.0,-0.0012285362463444471,0.008530926890671253,-0.0017538188258185983,1.0031579732894897,0.0,0.0,0.0,-19.561609268188477,5.298676013946533,-0.18456010520458221,3540.68994140625,0
1611.2960000000003,-0.03663982078433037,0.004527662415057421,0.10941072553396225,0.0,0.0,0.0,0.0,0.0025928597897291183,-0.003093780018389225,-0.0015588871901854873,1.000530481338501,0.0,0.0,0.0,-19.511486053466797,5.288215637207031,-0.1945742815732956,3531.61767578125,0
1621.183000000001,-0.03690311312675476,0.004560455679893494,0.10942211747169495,0.0,0.0,0.0,0.0,0.0015400617849081755,0.003726477036252618,0.0018369517056271434,1.0000275373458862,0.0,0.0,0.0,-19.554492950439453,5.2921462059021,-0.23178142309188843,3539.402099609375,0
1631.067000000001,-0.036698032170534134,0.004604351706802845,0.10938401520252228,0.0,0.0,0.0,0.0,0.00149999326094985,0.004032950848340988,-0.0011230369564145803,0.9991943836212158,0.0,0.0,0.0,-19.508262634277344,5.298752784729004,-0.23384717106819153,3531.034423828125,0
1640.9570000000003,-0.0368473157286644,0.004613111726939678,0.10939125716686249,0.0,0.0,0.0,0.0,-0.002970194909721613,-0.0026314842980355024,0.0023419801145792007,0.9989441633224487,0.0,0.0,0.0,-19.54557991027832,5.2946391105651855,-0.25219249725341797,3537.78857421875,0
1650.8379999999997,-0.03669588640332222,0.00455498369410634,0.10942930728197098,0.0,0.0,0.0,0.0,0.00027574709383770823,-0.0010550925508141518,-0.0018632810097187757,1.0008625984191895,0.0,0.0,0.0,-19.504140853881836,5.274932384490967,-0.25871947407722473,3530.28857421875,0
1660.723,-0.036859698593616486,0.004566296469420195,0.10944365710020065,0.0,0.0,0.0,0.0,-0.0017931534675881267,-0.0012027283664792776,-0.002229702891781926,1.002213716506958,0.0,0.0,0.0,-19.54217529296875,5.277369499206543,-0.25642940402030945,3537.17236328125,0
1670.6149999999998,-0.03666146099567413,0.004598858766257763,0.10941825807094574,0.0,0.0,0.0,0.0,-0.0023488225415349007,-0.0005701542249880731,0.000831871759146452,1.0002421140670776,0.0,0.0,0.0,-19.492618560791016,5.28270149230957,-0.24582913517951965,3528.202880859375,0
1680.4969999999994,-0.03682136908173561,0.004614774603396654,0.10943818092346191,0.0,0.0,0.0,0.0,0.0024902147706598043,0.002917645499110222,-0.0022662440314888954,0.997631847858429,0.0,0.0,0.0,-19.5407772064209,5.284308910369873,-0.25210654735565186,3536.91943359375,0
1690.3790000000008,-0.03664373606443405,0.004607945680618286,0.1094430536031723,0.0,0.0,0.0,0.0,0.0008589218487031758,-0.0003281967656221241,-0.0015612103743478656,1.0005896091461182,0.0,0.0,0.0,-19.500524520874023,5.276640892028809,-0.26006218791007996,3529.6337890625,0
1700.2649999999994,-0.03688642010092735,0.004617423750460148,0.1094057708978653,0.0,0.0,0.0,0.0,0.0013408290687948465,0.003270612331107259,0.002357394900172949,0.9991762638092041,0.0,0.0,0.0,-19.544523239135742,5.269694805145264,-0.2943534255027771,3537.597412109375,0
1710.152,-0.036699868738651276,0.004640193656086922,0.1093875840306282,0.0,0.0,0.0,0.0,0.0021937042474746704,0.004524643067270517,0.0017623897874727845,0.9997033476829529,0.0,0.0,0.0,-19.49519157409668,5.270913124084473,-0.2874695658683777,3528.668701171875,0
1720.0400000000009,-0.03685960918664932,0.004645030479878187,0.10937835276126862,0.0,0.0,0.0,0.0,0.002985152881592512,5.861547379026888e-06,0.0020062883850187063,0.9984145164489746,0.0,0.0,0.0,-19.53428840637207,5.263984203338623,-0.30262672901153564,3535.7451171875,0
1729.9189999999999,-0.03669382631778717,0.004634069744497538,0.10937918722629547,0.0,0.0,0.0,0.0,0.0008848427678458393,-0.0013223872520029545,0.0007470949785783887,0.9993998408317566,0.0,0.0,0.0,-19.495031356811523,5.2572784423828125,-0.30669403076171875,3528.6396484375,0
1739.8050000000003,-0.036785487085580826,0.004616029094904661,0.10936220735311508,0.0,0.0,0.0,0.0,0.0027383549604564905,0.0017336972523480654,0.0003586047678254545,1.0016766786575317,0.0,0.0,0.0,-19.538028717041016,5.253435134887695,-0.30068978667259216,3536.422119140625,0
1749.6900000000005,-0.03661992773413658,0.004598373081535101,0.10936325043439865,0.0,0.0,0.0,0.0,-0.001982823247089982,-0.004347966983914375,0.001212432631291449,0.9995647668838501,0.0,0.0,0.0,-19.499080657958984,5.244735240936279,-0.29989126324653625,3529.372314453125,0
1759.5810000000001,-0.03677794337272644,0.004598846193403006,0.10935340821743011,0.0,0.0,0.0,0.0,0.0003165036323480308,-0.0037255326751619577,0.001107934513129294,0.9994968175888062,0.0,0.0,0.0,-19.540082931518555,5.239278793334961,-0.3018796443939209,3536.7939453125,0
1769.464,-0.03659314289689064,0.004612923599779606,0.10933447629213333,0.0,0.0,0.0,0.0,-0.0008982504368759692,0.0055376035161316395,-0.0031752961222082376,0.9998065233230591,0.0,0.0,0.0,-19.492938995361328,5.245665073394775,-0.2813751697540283,3528.260498046875,0
1779.3459999999995,-0.036798663437366486,0.004645340610295534,0.10935595631599426,0.0,0.0,0.0,0.0,0.0041127558797597885,0.0006771212792955339,-0.0012564295902848244,0.999424934387207,0.0,0.0,0.0,-19.538440704345703,5.249070644378662,-0.3058728873729706,3536.49658203125,0
1789.2330000000002,-0.03666815534234047,0.0045622834004461765,0.10940315574407578,0.0,0.0,0.0,0.0,-0.0005317838513292372,-0.0006374884978868067,-0.0015443944139406085,0.9995183944702148,0.0,0.0,0.0,-19.499563217163086,5.226602554321289,-0.3113729953765869,3529.459716796875,0
1799.1180000000004,-0.03685479238629341,0.004581459332257509,0.10941849648952484,0.0,0.0,0.0,0.0,-0.0030975749250501394,0.005354241468012333,-0.0006775481160730124,0.9991750717163086,0.0,0.0,0.0,-19.534406661987305,5.2254815101623535,-0.3233524262905121,3535.7666015625,0
1809.0020000000004,-0.0366673618555069,0.004608499817550182,0.10939360409975052,0.0,0.0,0.0,0.0,0.002433285117149353,-0.0013250872725620866,0.0032240350265055895,0.9990479946136475,0.0,0.0,0.0,-19.489439010620117,5.233809471130371,-0.3157390058040619,3527.627197265625,0
1818.8970000000008,-0.03684202954173088,0.004625511355698109,0.10940885543823242,0.0,0.0,0.0,0.0,0.0012807742459699512,0.0023063533008098602,0.003140861401334405,0.9996120929718018,0.0,0.0,0.0,-19.538728713989258,5.23321533203125,-0.3540319502353668,3536.548828125,0
1828.7759999999998,-0.03666682913899422,0.004621478728950024,0.10940086841583252,0.0,0.0,0.0,0.0,-0.0008574444800615311,-0.0008204935002140701,0.0004982714308425784,1.0001740455627441,0.0,0.0,0.0,-19.494281768798828,5.2286834716796875,-0.3497394919395447,3528.50390625,0
1838.6640000000007,-0.03684103116393089,0.00462839100509882,0.109402596950531,0.0,0.0,0.0,0.0,0.004187922924757004,-0.0006795471417717636,-0.002913146512582898,1.0008341073989868,0.0,0.0,0.0,-19.53984260559082,5.224874973297119,-0.35920146107673645,3536.750244140625,0
1848.5509999999995,-0.036683205515146255,0.004589972086250782,0.10941671580076218,0.0,0.0,0.0,0.0,-0.0031691358890384436,0.0014852253952994943,0.0007144839619286358,1.0010281801223755,0.0,0.0,0.0,-19.493148803710938,5.216920852661133,-0.36005210876464844,3528.299072265625,0
1858.4349999999995,-0.03685247525572777,0.004602675326168537,0.10943508893251419,0.0,0.0,0.0,0.0,-0.004187216050922871,0.003394057508558035,-1.9602401152951643e-05,1.0029505491256714,0.0,0.0,0.0,-19.541770935058594,5.213266372680664,-0.37539297342300415,3537.099365234375,0
1868.3160000000007,-0.036681219935417175,0.004592038691043854,0.10943349450826645,0.0,0.0,0.0,0.0,-0.0007327697239816189,0.00458460533991456,-0.0007397710578516126,1.0002164840698242,0.0,0.0,0.0,-19.50401496887207,5.207535266876221,-0.37534791231155396,3530.265625,0
1878.210000000001,-0.036847203969955444,0.00460700411349535,0.10946150869131088,0.0,0.0,0.0,0.0,-0.000927381101064384,0.002938083838671446,0.0001902213116409257,0.9990046620368958,0.0,0.0,0.0,-19.551992416381836,5.208859920501709,-0.39799532294273376,3538.94970703125,0
1888.0840000000007,-0.03668168559670448,0.004583772737532854,0.10947032272815704,0.0,0.0,0.0,0.0,-0.002565894043073058,0.0045687174424529076,-0.0033770541194826365,1.0009746551513672,0.0,0.0,0.0,-19.53265380859375,5.201303958892822,-0.40175095200538635,3535.44921875,0
1897.9699999999993,-0.03682110458612442,0.004593508318066597,0.10948771238327026,0.0,0.0,0.0,0.0,0.0010742316953837872,0.00010709940397646278,-0.0011570390779525042,0.9988088607788086,0.0,0.0,0.0,-19.580759048461914,5.206051349639893,-0.41545695066452026,3544.15625,0
1907.8549999999996,-0.036645080894231796,0.004599946551024914,0.1094769611954689,0.0,0.0,0.0,0.0,-0.0002135278336936608,0.003618143033236265,0.0010525950929149985,1.0002098083496094,0.0,0.0,0.0,-19.53997230529785,5.212767124176025,-0.4160800278186798,3536.773681640625,0
1917.741,-0.03683090582489967,0.004611079581081867,0.10948726534843445,0.0,0.0,0.0,0.0,0.0022304290905594826,0.0055152373388409615,0.0020421084482222795,1.0017224550247192,0.0,0.0,0.0,-19.590665817260742,5.209147930145264,-0.4318825304508209,3545.94921875,0
1927.6260000000002,-0.03665187209844589,0.004633275326341391,0.1094687208533287,0.0,0.0,0.0,0.0,-0.0006386090535670519,0.0018282542005181313,-0.0027933823876082897,0.9995604157447815,0.0,0.0,0.0,-19.542449951171875,5.209560394287109,-0.4445779621601105,3537.22216796875,0
1937.514000000001,-0.03684639185667038,0.004634852521121502,0.10945277661085129,0.0,0.0,0.0,0.0,0.0020917525980621576,-0.0017062637489289045,-0.0030558465514332056,0.9996860027313232,0.0,0.0,0.0,-19.58160400390625,5.199980735778809,-0.4786125421524048,3544.30908203125,0
1947.3999999999996,-0.03668184205889702,0.004628648050129414,0.10945392400026321,0.0,0.0,0.0,0.0,-0.0004862459027208388,0.0038226116448640823,0.0034346752800047398,1.0005102157592773,0.0,0.0,0.0,-19.541316986083984,5.196154594421387,-0.47123590111732483,3537.01708984375,0
1957.282000000001,-0.036847807466983795,0.004626232665032148,0.10944519191980362,0.0,0.0,0.0,0.0,0.004997778218239546,0.001209825393743813,-0.0010425071232020855,1.0006245374679565,0.0,0.0,0.0,-19.580883026123047,5.190741062164307,-0.47203654050827026,3544.178955078125,0
1967.1669999999995,-0.03666902706027031,0.004643340595066547,0.10942954570055008,0.0,0.0,0.0,0.0,0.0006649181596003473,-0.007364196237176657,0.00031490795663557947,0.9990700483322144,0.0,0.0,0.0,-19.533233642578125,5.192105293273926,-0.47937390208244324,3535.55419921875,0
1977.0529999999999,-0.036844514310359955,0.0046473778784275055,0.10942994058132172,0.0,0.0,0.0,0.0,0.0032566722948104143,0.0066240038722753525,-0.002643261570483446,0.9993169903755188,0.0,0.0,0.0,-19.58302879333496,5.182989597320557,-0.49111977219581604,3544.56689453125,0
1986.938,-0.03671099990606308,0.00457811402156949,0.10947082936763763,0.0,0.0,0.0,0.0,-0.0006361763807944953,-0.00036692628054879606,-0.0007717201369814575,1.0011417865753174,0.0,0.0,0.0,-19.54163360595703,5.16682767868042,-0.4824710190296173,3537.074462890625,0
1996.826000000001,-0.03687538951635361,0.004587885458022356,0.1094985082745552,0.0,0.0,0.0,0.0,0.0006276571657508612,0.0018619010224938393,0.0031876766588538885,1.000433087348938,0.0,0.0,0.0,-19.591506958007812,5.165910243988037,-0.4928613007068634,3546.1015625,0
2006.7080000000005,-0.03671787679195404,0.004564788658171892,0.10951033979654312,0.0,0.0,0.0,0.0,0.0013466086238622665,-0.0034606417175382376,0.004282544367015362,1.0002121925354004,0.0,0.0,0.0,-19.541305541992188,5.1605424880981445,-0.4769127666950226,3537.01513671875,0
2016.5959999999995,-0.0368696004152298,0.004565269220620394,0.10953361541032791,0.0,0.0,0.0,0.0,-0.0007554168114438653,-0.00413811719045043,-6.0503793065436184e-05,0.9990638494491577,0.0,0.0,0.0,-19.587360382080078,5.16353178024292,-0.48325076699256897,3545.35107421875,0
2026.4789999999994,-0.036708470433950424,0.00454752380028367,0.10954269766807556,0.0,0.0,0.0,0.0,0.0019883757922798395,-0.0036660893820226192,0.001766999950632453,0.9993038177490234,0.0,0.0,0.0,-19.5424861907959,5.159193515777588,-0.46521925926208496,3537.228759765625,0
2036.3639999999996,-0.036831293255090714,0.004523290321230888,0.10953403264284134,0.0,0.0,0.0,0.0,0.001861334778368473,0.00202823500148952,-0.0008028510492295027,1.000448226928711,0.0,0.0,0.0,-19.581403732299805,5.155947208404541,-0.45915845036506653,3544.27294921875,0
2046.2540000000008,-0.03666633367538452,0.004513360559940338,0.10953500866889954,0.0,0.0,0.0,0.0,-0.002593561075627804,0.002170640043914318,-0.0019938067998737097,1.001447319984436,0.0,0.0,0.0,-19.52968406677246,5.150511264801025,-0.4544774889945984,3534.91162109375,0
2056.134,-0.03688720613718033,0.004517166409641504,0.10953112691640854,0.0,0.0,0.0,0.0,-0.0016307976329699159,-0.006809593643993139,-8.512071508448571e-05,1.0004074573516846,0.0,0.0,0.0,-19.565580368041992,5.149845600128174,-0.4624011516571045,3541.4091796875,0
2066.0200000000004,-0.03673449158668518,0.004491988103836775,0.109542116522789,0.0,0.0,0.0,0.0,0.0012624370865523815,0.008120657876133919,-0.0023708066437393427,0.9994267225265503,0.0,0.0,0.0,-19.524322509765625,5.1434855461120605,-0.4616272449493408,3533.94140625,0
2075.9050000000007,-0.036865852773189545,0.004467128776013851,0.1095266118645668,0.0,0.0,0.0,0.0,0.000462250696728006,-0.0014244898920878768,0.0009439759305678308,1.0005662441253662,0.0,0.0,0.0,-19.568897247314453,5.139059066772461,-0.4560635983943939,3542.00927734375,0
2085.7980000000007,-0.03669068217277527,0.004487656522542238,0.10950873047113419,0.0,0.0,0.0,0.0,-0.002214502776041627,-0.004570824559777975,-0.0013623855775222182,1.0007271766662598,0.0,0.0,0.0,-19.516576766967773,5.1423749923706055,-0.4603382647037506,3532.539306640625,0
2095.6769999999997,-0.0368940569460392,0.0045065064914524555,0.10953325033187866,0.0,0.0,0.0,0.0,0.0009828227339312434,0.002180035226047039,-0.0032306525390595198,1.0008249282836914,0.0,0.0,0.0,-19.565101623535156,5.134834289550781,-0.472042053937912,3541.322509765625,0
2105.5609999999997,-0.0367131382226944,0.004541294649243355,0.10950673371553421,0.0,0.0,0.0,0.0,-0.00027317364583723247,3.3298649213975295e-05,0.0017333001596853137,1.0005683898925781,0.0,0.0,0.0,-19.525983810424805,5.145177364349365,-0.4707123637199402,3534.241943359375,0
2115.446,-0.03688053786754608,0.004545105621218681,0.10951638966798782,0.0,0.0,0.0,0.0,-0.00330614042468369,-0.005205514840781689,0.0008910063770599663,0.9983677268028259,0.0,0.0,0.0,-19.57342529296875,5.14760160446167,-0.4732712507247925,3542.82861328125,0
2125.3320000000003,-0.03672768920660019,0.004524720832705498,0.10952549427747726,0.0,0.0,0.0,0.0,0.0008996218093670905,0.000683148275129497,0.00015212816651910543,0.9997740983963013,0.0,0.0,0.0,-19.554319381713867,5.1405415534973145,-0.4757731854915619,3539.37060546875,0
2135.228000000001,-0.0368640311062336,0.004535958636552095,0.10954415053129196,0.0,0.0,0.0,0.0,0.00015930188237689435,0.0013787851203233004,0.0006409732159227133,0.9996070265769958,0.0,0.0,0.0,-19.602264404296875,5.145808219909668,-0.48522526025772095,3548.048828125,0
2145.1020000000008,-0.03669150918722153,0.004556886851787567,0.10952268540859222,0.0,0.0,0.0,0.0,-0.0003496990248095244,-0.0040697380900382996,0.004395179450511932,0.9989169239997864,0.0,0.0,0.0,-19.558490753173828,5.147453308105469,-0.49003422260284424,3540.125732421875,0
2154.9879999999994,-0.036862168461084366,0.0045700594782829285,0.1095363050699234,0.0,0.0,0.0,0.0,-0.00020695744024123996,-0.0013684603618457913,-0.0021369389723986387,1.001323938369751,0.0,0.0,0.0,-19.60626983642578,5.149668216705322,-0.5006493926048279,3548.774169921875,0
2164.8729999999996,-0.03669392690062523,0.004592380486428738,0.10951796174049377,0.0,0.0,0.0,0.0,-0.001793231233023107,-0.00037299745599739254,0.0006698475335724652,1.001006841659546,0.0,0.0,0.0,-19.56165313720703,5.1599578857421875,-0.4838715195655823,3540.697998046875,0
2174.758,-0.03686186298727989,0.0046041058376431465,0.10953093320131302,0.0,0.0,0.0,0.0,-0.0004837926244363189,-0.0009731175377964973,0.0009408044861629605,1.0009945631027222,0.0,0.0,0.0,-19.611581802368164,5.164125442504883,-0.5022874474525452,3549.735107421875,0
2184.6489999999994,-0.036698274314403534,0.004615986719727516,0.10952411592006683,0.0,0.0,0.0,0.0,-0.002362174214795232,0.0021003265865147114,-0.0012252677697688341,1.000208854675293,0.0,0.0,0.0,-19.568099975585938,5.1629719734191895,-0.4994409680366516,3541.865234375,0
2194.5290000000005,-0.03685378283262253,0.004607413895428181,0.10950346291065216,0.0,0.0,0.0,0.0,-0.0015144451754167676,0.0022063576616346836,0.0007273172377608716,0.999857485294342,0.0,0.0,0.0,-19.602880477905273,5.163909912109375,-0.4945245683193207,3548.16015625,0
