timestamp,stateEstimate.x,stateEstimate.y,stateEstimate.z,controller.cmd_thrust,controller.cmd_roll,controller.cmd_pitch,controller.cmd_yaw,controller.r_roll,controller.r_pitch,controller.r_yaw,controller.accelz,controller.actuatorThrust,controller.roll,controller.pitch,controller.yaw,controller.rollRate,controller.pitchRate,controller.yawRate,controller.ctr_yaw
0.0,0.02457195334136486,-0.11107642203569412,0.015853263437747955,0.0,0.0,0.0,0.0,0.0024408777244389057,-0.0037446815986186266,0.0012460950529202819,1.0,0.0,0.0,0.0,0.793276846408844,2.8991544246673584,3.1062636375427246,-143.58468627929688,0
9.8799999999992,0.0257329773157835,-0.11273477971553802,0.015031150542199612,0.0,0.0,0.0,0.0,-0.0023441517259925604,-0.0006208349368534982,0.0025891494005918503,0.999026358127594,0.0,0.0,0.0,0.7921858429908752,2.888094663619995,3.1053714752197266,-143.38720703125,0
19.77599999999984,0.02690187282860279,-0.11440932750701904,0.01420860830694437,0.0,0.0,0.0,0.0,-0.000649340043310076,-0.001901249517686665,0.0016596870264038444,0.9992649555206299,0.0,0.0,0.0,0.7915688753128052,2.885643243789673,3.1028270721435547,-143.2755584716797,0
29.653000000000247,0.028079314157366753,-0.11610090732574463,0.013385720551013947,0.0,0.0,0.0,0.0,0.001882944256067276,-0.003800084348767996,0.0001356911816401407,1.002455472946167,0.0,0.0,0.0,0.7911568880081177,2.885930061340332,3.1043951511383057,-143.20098876953125,0
39.542999999999665,0.0013187917647883296,-0.06790659576654434,0.04452098160982132,0.0,0.0,0.0,0.0,-0.00022409824305213988,0.005500089377164841,0.002892871620133519,1.0002543926239014,0.0,0.0,0.0,0.7458145618438721,13.999751091003418,-2.101714611053467,-134.99391174316406,0
49.42000000000007,0.0012063279282301664,-0.06697109341621399,0.04543226957321167,0.0,0.0,0.0,0.0,-0.0010355411795899272,-0.0002274827129440382,-0.00028119992930442095,0.9998875260353088,0.0,0.0,0.0,0.7451120615005493,13.988146781921387,-2.110017776489258,-134.86676025390625,0
59.3119999999999,0.0010865941876545548,-0.06602256000041962,0.04634399712085724,0.0,0.0,0.0,0.0,-0.0018235001480206847,0.002030229428783059,0.0012083126930519938,1.0007655620574951,0.0,0.0,0.0,0.7441553473472595,13.974555015563965,-2.101839780807495,-134.69361877441406,0
69.1919999999991,0.0009589939145371318,-0.06506039947271347,0.047256387770175934,0.0,0.0,0.0,0.0,0.0010517156915739179,-0.0019651073962450027,-0.0034718646202236414,0.9997892379760742,0.0,0.0,0.0,0.743529200553894,13.962249755859375,-2.0982446670532227,-134.58026123046875,0
79.08599999999933,-0.006445730105042458,-0.05034185200929642,0.06027604267001152,0.0,0.0,0.0,0.0,-0.00015218110638670623,0.0007821228355169296,7.438260217895731e-05,0.9981637597084045,0.0,0.0,0.0,0.6549166440963745,17.14411163330078,-3.474898338317871,-118.54121398925781,0
88.96199999999953,-0.006907715927809477,-0.0486135333776474,0.06178891658782959,0.0,0.0,0.0,0.0,0.000934588722884655,0.005096514243632555,-0.0029106512665748596,0.9978285431861877,0.0,0.0,0.0,0.6548455953598022,17.1303768157959,-3.4646573066711426,-118.52836608886719,0
98.86000000000058,-0.00782887265086174,-0.044799551367759705,0.06562827527523041,0.0,0.0,0.0,0.0,0.0001257216790691018,0.003982754424214363,0.0011312520364299417,0.9967052936553955,0.0,0.0,0.0,0.5566828846931458,17.64126968383789,-3.4979045391082764,-100.76071166992188,0
108.73199999999997,-0.008321206085383892,-0.042907923460006714,0.06726758182048798,0.0,0.0,0.0,0.0,-0.0004898839979432523,0.0029172361828386784,0.0014354385202750564,0.9998415112495422,0.0,0.0,0.0,0.556580662727356,17.61785888671875,-3.5044360160827637,-100.7422103881836,0
118.62700000000041,-0.008823877200484276,-0.04099148139357567,0.06890564411878586,0.0,0.0,0.0,0.0,0.005675849970430136,-0.0003330160106997937,0.00023888079158496112,1.0001832246780396,0.0,0.0,0.0,0.556056559085846,17.602447509765625,-3.506911039352417,-100.64734649658203,0
128.5030000000006,-0.0093369847163558,-0.039050351828336716,0.07054391503334045,0.0,0.0,0.0,0.0,0.0026064037811011076,0.005587622988969088,0.00218334817327559,0.9999518990516663,0.0,0.0,0.0,0.5549890995025635,17.576053619384766,-3.5042641162872314,-100.4541244506836,0
138.39500000000044,-0.008486681617796421,-0.03856739029288292,0.0704084187746048,0.0,0.0,0.0,0.0,0.0017385006649419665,0.0019202583935111761,-0.00252790586091578,1.0001087188720703,0.0,0.0,0.0,0.44826576113700867,16.97311782836914,-3.0175647735595703,-81.13700103759766,0
148.27700000000004,-0.008928867988288403,-0.03667958453297615,0.07195472717285156,0.0,0.0,0.0,0.0,-0.000977729563601315,-0.004152968991547823,0.0017693076515570283,1.0003037452697754,0.0,0.0,0.0,0.44722920656204224,16.95405387878418,-3.0229392051696777,-80.94937133789062,0
158.17799999999988,-0.009381124749779701,-0.03476680442690849,0.07350108027458191,0.0,0.0,0.0,0.0,-0.0005532664363272488,-0.004310787655413151,-0.0012625178787857294,0.9981796145439148,0.0,0.0,0.0,0.44763675332069397,16.939878463745117,-3.018383741378784,-81.02313995361328,0
168.04399999999987,-0.023131880909204483,-0.06181132793426514,0.1099134162068367,0.0,0.0,0.0,0.0,0.0020439177751541138,0.003104542847722769,0.0006162644713185728,0.9990724921226501,0.0,0.0,0.0,0.5468219518661499,10.697803497314453,-5.80996561050415,-98.9758529663086,0
177.9439999999995,-0.020652566105127335,-0.06271623075008392,0.10837359726428986,0.0,0.0,0.0,0.0,-0.0009992331033572555,0.0020968576427549124,6.582405330846086e-05,1.0006500482559204,0.0,0.0,0.0,0.43367430567741394,9.750749588012695,-4.672797203063965,-78.49591064453125,0
187.8119999999999,-0.023707689717411995,-0.06624536961317062,0.115912526845932,0.0,0.0,0.0,0.0,7.263967563631013e-05,0.005385066848248243,-0.0011457360815256834,0.9989883899688721,0.0,0.0,0.0,0.48171913623809814,8.790741920471191,-4.986583709716797,-87.1921157836914,0
197.70700000000033,-0.024721870198845863,-0.06595318764448166,0.11867175996303558,0.0,0.0,0.0,0.0,0.0022660496179014444,-0.00014628168719355017,0.0006745059508830309,0.9983335733413696,0.0,0.0,0.0,0.4810476303100586,8.78380298614502,-4.986552715301514,-87.07057189941406,0
207.58300000000054,-0.026478981599211693,-0.0672408863902092,0.12304973602294922,0.0,0.0,0.0,0.0,-0.0011431319871917367,0.0023741552140563726,-0.003373966319486499,0.9987520575523376,0.0,0.0,0.0,0.5240997076034546,8.425737380981445,-5.0945868492126465,-94.86308288574219,0
217.48500000000058,-0.023642325773835182,-0.06973341852426529,0.12004457414150238,0.0,0.0,0.0,0.0,0.0009500808664597571,0.004526606295257807,-0.0031089496333152056,0.9992200136184692,0.0,0.0,0.0,0.44111013412475586,7.315429210662842,-4.207940578460693,-79.84181213378906,0
227.35299999999916,-0.0248021949082613,-0.07015874981880188,0.12298979610204697,0.0,0.0,0.0,0.0,-0.0007633835193701088,-0.002963622799143195,0.0013989279977977276,0.9998545050621033,0.0,0.0,0.0,0.4766494333744049,7.217347145080566,-4.233448028564453,-86.27449035644531,0
237.253999999999,-0.02372334524989128,-0.0721215084195137,0.1214030385017395,0.0,0.0,0.0,0.0,-0.0005376515910029411,0.001530610490590334,0.00016537043848074973,0.9991207122802734,0.0,0.0,0.0,0.3972300887107849,6.592928886413574,-3.944098949432373,-71.89942932128906,0
247.1260000000002,-0.024456346407532692,-0.07187853008508682,0.12346494942903519,0.0,0.0,0.0,0.0,0.0017493817722424865,-0.004835944157093763,-0.0018968639196828008,1.0004221200942993,0.0,0.0,0.0,0.44106993079185486,6.64491081237793,-3.9197235107421875,-79.83453369140625,0
257.021999999999,-0.024031614884734154,-0.07370053976774216,0.1225188672542572,0.0,0.0,0.0,0.0,-0.0015422176802530885,0.0002173091343138367,0.0028184920083731413,1.000106692314148,0.0,0.0,0.0,0.36717504262924194,6.174461364746094,-3.739696502685547,-66.45941162109375,0
266.89600000000064,-0.024441152811050415,-0.07293163239955902,0.12395665049552917,0.0,0.0,0.0,0.0,0.0008397960336878896,0.0025716545060276985,0.003505523083731532,0.9979656338691711,0.0,0.0,0.0,0.4069460928440094,6.328789234161377,-3.679710626602173,-73.65805053710938,0
276.78800000000047,-0.024296073243021965,-0.07472836971282959,0.12323173880577087,0.0,0.0,0.0,0.0,0.002044842578470707,0.003756735473871231,0.0034225196577608585,0.9988168478012085,0.0,0.0,0.0,0.3449954092502594,5.921188831329346,-3.5586700439453125,-62.444854736328125,0
286.66899999999987,-0.02450261078774929,-0.07363473623991013,0.1242481917142868,0.0,0.0,0.0,0.0,-0.002031506272032857,0.0001938081404659897,0.00010444924555486068,1.0000550746917725,0.0,0.0,0.0,0.37868961691856384,6.137040615081787,-3.493283987045288,-68.5435791015625,0
296.5589999999993,-0.025358155369758606,-0.07378530502319336,0.1261506974697113,0.0,0.0,0.0,0.0,-0.0007922998047433794,0.0005089132464490831,-0.001045543933287263,0.9984025955200195,0.0,0.0,0.0,0.37793922424316406,6.131368637084961,-3.489060401916504,-68.40775299072266,0
306.4359999999997,-0.025767065584659576,-0.07277285307645798,0.12742017209529877,0.0,0.0,0.0,0.0,-0.0015113633126020432,-0.0013305640313774347,-0.00038877082988619804,0.9977400302886963,0.0,0.0,0.0,0.41693517565727234,6.370508670806885,-3.393857955932617,-75.46609497070312,0
316.33699999999953,-0.026628147810697556,-0.07290041446685791,0.12929421663284302,0.0,0.0,0.0,0.0,0.001560715725645423,0.0004215963708702475,-0.0015747336437925696,0.9985018372535706,0.0,0.0,0.0,0.41600412130355835,6.366647243499756,-3.377865791320801,-75.29756927490234,0
326.21700000000055,-0.015680158510804176,-0.06893008202314377,0.09574628621339798,0.0,0.0,0.0,0.0,0.00017422978999093175,0.0003979779430665076,0.0055893524549901485,0.9985332489013672,0.0,0.0,0.0,0.4461628198623657,6.528522491455078,-0.5719631910324097,-80.75636291503906,0
336.1080000000002,-0.01602684147655964,-0.0690133348107338,0.09573698043823242,0.0,0.0,0.0,0.0,-0.002211398910731077,-0.002162629272788763,-0.0012861271388828754,0.9991095662117004,0.0,0.0,0.0,0.44590646028518677,6.525331974029541,-0.5755472779273987,-80.70995330810547,0
345.97500000000036,-0.006986544467508793,-0.07064985483884811,0.06501077115535736,0.0,0.0,0.0,0.0,9.740232053445652e-05,0.0035258049611002207,0.0005478098173625767,1.0005394220352173,0.0,0.0,0.0,0.48212873935699463,5.747939109802246,2.1433098316192627,-87.2662582397461,0
355.869999999999,-0.011937621980905533,-0.0628228709101677,0.06950195878744125,0.0,0.0,0.0,0.0,-0.0003537515294738114,0.003608248895034194,0.0030320461373776197,0.9993684887886047,0.0,0.0,0.0,0.4368523359298706,7.686847686767578,1.0821129083633423,-79.07115173339844,0
365.7459999999992,-0.007220808882266283,-0.06493987143039703,0.055507756769657135,0.0,0.0,0.0,0.0,-0.0006212969892658293,-0.005775926634669304,-0.001108585624024272,1.0010647773742676,0.0,0.0,0.0,0.4876919090747833,7.142996311187744,1.7998305559158325,-88.27320861816406,0
375.6419999999998,-0.009642845951020718,-0.05759517103433609,0.05862406641244888,0.0,0.0,0.0,0.0,0.00015760844689793885,-0.000717774557415396,0.000739135779440403,1.000635027885437,0.0,0.0,0.0,0.45150232315063477,8.426774978637695,1.6150741577148438,-81.72281646728516,0
385.51800000000003,-0.007239887490868568,-0.06208920478820801,0.04973730817437172,0.0,0.0,0.0,0.0,-0.0013251748168841004,0.0037391686346381903,-0.0018043431919068098,1.0006537437438965,0.0,0.0,0.0,0.49667906761169434,7.634892463684082,1.8982068300247192,-89.89989471435547,0
395.41399999999885,-0.008535673841834068,-0.05471229925751686,0.052403487265110016,0.0,0.0,0.0,0.0,-0.0023812728468328714,-0.0037620554212480783,0.0008741377387195826,1.0011061429977417,0.0,0.0,0.0,0.4608958959579468,8.707975387573242,1.80486261844635,-83.4230728149414,0
405.29399999999987,-0.007577591110020876,-0.060717158019542694,0.04544636607170105,0.0,0.0,0.0,0.0,0.0034482863266021013,-0.0009917117422446609,-0.0026841519866138697,1.0013446807861328,0.0,0.0,0.0,0.5175496935844421,7.77281379699707,1.9606804847717285,-93.67752838134766,0
415.1810000000005,-0.007446931209415197,-0.06060757115483284,0.04321134835481644,0.0,0.0,0.0,0.0,-6.330428732326254e-05,0.00719702523201704,-3.139742329949513e-05,0.9997584223747253,0.0,0.0,0.0,0.515646755695343,7.759518146514893,1.9579722881317139,-93.33308410644531,0
425.0619999999999,-0.006651801057159901,-0.06657268106937408,0.036460623145103455,0.0,0.0,0.0,0.0,-0.0001437357277609408,-0.004542042035609484,0.0012433205265551805,0.9983316659927368,0.0,0.0,0.0,0.5577517747879028,6.649991512298584,2.1282575130462646,-100.95418548583984,0
434.9519999999993,-0.007686550263315439,-0.056071937084198,0.04198857769370079,0.0,0.0,0.0,0.0,-0.00396577175706625,0.0012007716577500105,0.0031138283666223288,0.9992221593856812,0.0,0.0,0.0,0.5142008662223816,8.42797565460205,2.0070033073425293,-93.0713882446289,0
444.8299999999999,-0.008077257312834263,-0.06296695023775101,0.03672254458069801,0.0,0.0,0.0,0.0,-1.3451962331600953e-05,-0.0015112102264538407,-0.0011241360334679484,0.997609555721283,0.0,0.0,0.0,0.5606850981712341,7.245692253112793,2.0076770782470703,-101.48511505126953,0
454.7340000000004,-0.007915396243333817,-0.06297307461500168,0.03450503200292587,0.0,0.0,0.0,0.0,0.0015265761176124215,-0.00176972895860672,0.0008528250618837774,1.0006849765777588,0.0,0.0,0.0,0.5600869655609131,7.239792823791504,2.0015709400177,-101.37684631347656,0
464.60199999999895,-0.007773447781801224,-0.06882277876138687,0.029156828299164772,0.0,0.0,0.0,0.0,0.0007372445543296635,-0.0024157315492630005,0.002405654639005661,1.0003923177719116,0.0,0.0,0.0,0.6061285734176636,6.055540561676025,2.043093681335449,-109.71047973632812,0
474.4959999999992,-0.007564192172139883,-0.05695108324289322,0.03687898814678192,0.0,0.0,0.0,0.0,-0.00027080459403805435,-0.0019675896037369967,-0.0017252889228984714,1.0019581317901611,0.0,0.0,0.0,0.5666691064834595,8.270001411437988,2.0958871841430664,-102.5682373046875,0
484.3729999999996,-0.008549291640520096,-0.06410925090312958,0.032817475497722626,0.0,0.0,0.0,0.0,-0.0009218258783221245,-0.0036856827791780233,0.0004574804625008255,0.9984431862831116,0.0,0.0,0.0,0.608693540096283,6.940334796905518,1.9985709190368652,-110.17473602294922,0
494.2620000000006,-0.00734260119497776,-0.05415029078722,0.038912415504455566,0.0,0.0,0.0,0.0,-0.00023840891662985086,0.0012785725994035602,0.0011716416338458657,0.9980350136756897,0.0,0.0,0.0,0.5653764605522156,8.575276374816895,2.1017301082611084,-102.33425903320312,0
504.1419999999998,-0.008609733544290066,-0.061945077031850815,0.0354456901550293,0.0,0.0,0.0,0.0,-0.00040767871541902423,-0.002131853485479951,-0.0012843325966969132,0.9985160231590271,0.0,0.0,0.0,0.6086815595626831,7.18241024017334,1.993302822113037,-110.17257690429688,0
514.0429999999997,-0.008408617228269577,-0.061967864632606506,0.03396884351968765,0.0,0.0,0.0,0.0,0.0002509444020688534,0.002319464460015297,-0.001302126096561551,0.9981693625450134,0.0,0.0,0.0,0.6078721284866333,7.1738080978393555,1.9842058420181274,-110.02605438232422,0
523.9200000000001,-0.008372328244149685,-0.0681934729218483,0.0295398086309433,0.0,0.0,0.0,0.0,-0.0012293546460568905,0.0024808745365589857,0.00022387399803847075,0.996482253074646,0.0,0.0,0.0,0.648963212966919,5.846314430236816,1.978015661239624,-117.46363067626953,0
533.8079999999991,-0.007657317910343409,-0.056704167276620865,0.03787849470973015,0.0,0.0,0.0,0.0,0.0016344256000593305,0.0008112291689030826,0.0008849410223774612,0.9993438720703125,0.0,0.0,0.0,0.612910807132721,8.16761302947998,2.1325860023498535,-110.93807983398438,0
543.6810000000005,-0.008497591130435467,-0.06390879303216934,0.03443317487835884,0.0,0.0,0.0,0.0,0.003054393921047449,0.0009212298900820315,0.0029764478094875813,0.9990853667259216,0.0,0.0,0.0,0.653366208076477,6.7309370040893555,2.0291876792907715,-118.26057434082031,0
553.5730000000003,-0.007352469954639673,-0.05419604107737541,0.040996719151735306,0.0,0.0,0.0,0.0,0.0005753772566094995,0.005386983044445515,0.0025287780445069075,0.9984905123710632,0.0,0.0,0.0,0.6066974997520447,8.465086936950684,2.157285451889038,-109.81344604492188,0
563.4609999999993,-0.008229551836848259,-0.06179948151111603,0.03781967610120773,0.0,0.0,0.0,0.0,0.0015708059072494507,0.004418715834617615,-0.003120304550975561,0.9983225464820862,0.0,0.0,0.0,0.6497581005096436,7.01005744934082,2.06805157661438,-117.60750579833984,0
573.3439999999991,-0.007269271183758974,-0.05309450998902321,0.043754346668720245,0.0,0.0,0.0,0.0,-0.0013843887718394399,-0.0006007461342960596,0.0006057149730622768,0.9992241859436035,0.0,0.0,0.0,0.6021069288253784,8.516112327575684,2.158325433731079,-108.9825439453125,0
583.2219999999998,-0.00792830903083086,-0.06083236262202263,0.040521685034036636,0.0,0.0,0.0,0.0,0.0012940079905092716,0.004036926664412022,0.0003087865770794451,0.9993137121200562,0.0,0.0,0.0,0.6402472853660583,7.043912410736084,2.112659454345703,-115.88603210449219,0
593.1260000000002,-0.007634065579622984,-0.060877278447151184,0.0399734266102314,0.0,0.0,0.0,0.0,0.0021452009677886963,0.004219181835651398,-0.0027853944338858128,0.9980196356773376,0.0,0.0,0.0,0.6404458284378052,7.030673027038574,2.100080728530884,-115.92196655273438,0
602.9959999999992,-0.006970362272113562,-0.06725526601076126,0.035510919988155365,0.0,0.0,0.0,0.0,-0.002465079305693507,-0.00122624181676656,0.0016803754260763526,1.0000096559524536,0.0,0.0,0.0,0.6801186800003052,5.582643032073975,2.2081968784332275,-123.10282897949219,0
612.8899999999994,-0.006639394909143448,-0.06761761009693146,0.034682855010032654,0.0,0.0,0.0,0.0,-0.0023996070958673954,-0.0005539722624234855,0.0002474349457770586,1.0013803243637085,0.0,0.0,0.0,0.6802160143852234,5.57912015914917,2.209412097930908,-123.12045288085938,0
622.762999999999,-0.00574497040361166,-0.07287778705358505,0.030431844294071198,0.0,0.0,0.0,0.0,-0.0012271041050553322,-0.006785242818295956,-0.0012147050583735108,0.9965890049934387,0.0,0.0,0.0,0.7104476094245911,4.2879791259765625,2.385566234588623,-128.59242248535156,0
632.6569999999992,-0.005366877187043428,-0.07353567332029343,0.02935139834880829,0.0,0.0,0.0,0.0,-0.00203367555513978,-0.0021641897037625313,-0.001808175235055387,0.9971832633018494,0.0,0.0,0.0,0.7098939418792725,4.284858226776123,2.396583318710327,-128.49221801757812,0
642.539999999999,-0.004513440188020468,-0.07764162868261337,0.025713786482810974,0.0,0.0,0.0,0.0,-0.0005597305134870112,-0.0024953517131507397,0.0001726080517983064,0.9989103078842163,0.0,0.0,0.0,0.7428314089775085,3.2824199199676514,2.547375440597534,-134.45394897460938,0
652.4290000000001,-0.004091612994670868,-0.0785389319062233,0.024440594017505646,0.0,0.0,0.0,0.0,-0.00024992538965307176,-0.0012079904554411769,-0.0032180179841816425,1.0005733966827393,0.0,0.0,0.0,0.7425954341888428,3.281125545501709,2.552433967590332,-134.41123962402344,0
662.3040000000001,-0.0034242025576531887,-0.08168815076351166,0.02161085233092308,0.0,0.0,0.0,0.0,-0.0017113848589360714,0.001857119146734476,0.0013066137908026576,1.000362753868103,0.0,0.0,0.0,0.7713010907173157,2.581599712371826,2.6167354583740234,-139.60702514648438,0
672.2029999999995,-0.007574484217911959,-0.06437109410762787,0.03438366949558258,0.0,0.0,0.0,0.0,-0.0031873288098722696,0.004905515816062689,-0.0009683847893029451,0.9989119172096252,0.0,0.0,0.0,0.7310748100280762,7.714334487915039,1.5618394613265991,-132.32598876953125,0
682.0740000000005,-0.00769184110686183,-0.06963805109262466,0.031154433265328407,0.0,0.0,0.0,0.0,0.0002627083449624479,0.0006771650514565408,-0.0025315317325294018,0.9991156458854675,0.0,0.0,0.0,0.7703631520271301,6.482334613800049,1.5064332485198975,-139.437255859375,0
691.9679999999989,-0.0074864719063043594,-0.06988605856895447,0.03058496303856373,0.0,0.0,0.0,0.0,-0.0005264604114927351,-0.00348364538513124,0.0007712614024057984,1.000799536705017,0.0,0.0,0.0,0.7690650224685669,6.476498126983643,1.5028377771377563,-139.2023162841797,0
701.8449999999993,-0.007063257973641157,-0.07427950203418732,0.027215784415602684,0.0,0.0,0.0,0.0,0.0025621717795729637,-0.0013821515021845698,-0.0004774747649207711,1.000555157661438,0.0,0.0,0.0,0.8030065298080444,5.473132610321045,1.5926905870437622,-145.34576416015625,0
711.7420000000002,-0.007942100055515766,-0.06037627533078194,0.037996698170900345,0.0,0.0,0.0,0.0,0.0008789541898295283,-0.001992860808968544,0.0007974678301252425,0.9995655417442322,0.0,0.0,0.0,0.7498868703842163,8.608413696289062,1.4990442991256714,-135.73101806640625,0
721.6229999999996,-0.008138221688568592,-0.06634627282619476,0.035024866461753845,0.0,0.0,0.0,0.0,-0.0005352049483917654,-0.0006017301348038018,0.0001504855026723817,0.9993646740913391,0.0,0.0,0.0,0.7862827181816101,7.3875732421875,1.4941848516464233,-142.3187255859375,0
731.509,-0.007800570223480463,-0.0558546707034111,0.042824141681194305,0.0,0.0,0.0,0.0,0.0001322122261626646,0.001588936778716743,-0.0007148089352995157,0.9993383884429932,0.0,0.0,0.0,0.7312098145484924,9.241156578063965,1.5473352670669556,-132.35043334960938,0
741.3860000000004,-0.008060742169618607,-0.06255847215652466,0.03995535895228386,0.0,0.0,0.0,0.0,-0.0011879653902724385,0.003536225063726306,0.002860523760318756,0.9994194507598877,0.0,0.0,0.0,0.7639599442481995,8.0029878616333,1.5403392314910889,-138.27825927734375,0
751.2839999999997,-0.007619485724717379,-0.05378646031022072,0.04664647951722145,0.0,0.0,0.0,0.0,-0.0008544447482563555,-0.0012969973031431437,0.0028833786491304636,1.0010665655136108,0.0,0.0,0.0,0.7121066451072693,9.392382621765137,1.5843925476074219,-128.89271545410156,0
761.1569999999992,-0.007650470826774836,-0.060741838067770004,0.04356575384736061,0.0,0.0,0.0,0.0,0.0011859680525958538,-0.0023373698350042105,0.0005111476639285684,1.001491665840149,0.0,0.0,0.0,0.756282389163971,8.163955688476562,1.6237881183624268,-136.88861083984375,0
771.0489999999991,-0.007611862849444151,-0.052911270409822464,0.04951833188533783,0.0,0.0,0.0,0.0,0.0003390343626961112,-0.0018330863676965237,0.004492590669542551,1.0010368824005127,0.0,0.0,0.0,0.7044036388397217,9.361353874206543,1.6386724710464478,-127.49846649169922,0
780.9310000000005,-0.0073483833111822605,-0.059891313314437866,0.04611536115407944,0.0,0.0,0.0,0.0,0.0005404365947470069,-0.000754756445530802,8.42097433633171e-05,1.0001212358474731,0.0,0.0,0.0,0.7440169453620911,8.138055801391602,1.6968424320220947,-134.66854858398438,0
790.8220000000001,-0.007654471322894096,-0.052569422870874405,0.05162428691983223,0.0,0.0,0.0,0.0,0.001733574434183538,0.002194443251937628,7.219118560897186e-05,0.9994422793388367,0.0,0.0,0.0,0.7021316289901733,9.258293151855469,1.6854634284973145,-127.08721923828125,0
800.6970000000001,-0.007114863023161888,-0.05949500948190689,0.047891683876514435,0.0,0.0,0.0,0.0,-0.0028701559640467167,9.723094262881204e-05,-0.0007948852726258337,0.9996008276939392,0.0,0.0,0.0,0.7344435453414917,8.03773307800293,1.7781825065612793,-132.93572998046875,0
810.5959999999995,-0.0068110148422420025,-0.05938935652375221,0.04836931824684143,0.0,0.0,0.0,0.0,0.001553390990011394,0.005824674386531115,-0.0029639245476573706,0.9987198114395142,0.0,0.0,0.0,0.7333709597587585,8.034637451171875,1.7689634561538696,-132.74159240722656,0
820.4679999999989,-0.005373265594244003,-0.0656912550330162,0.043468184769153595,0.0,0.0,0.0,0.0,0.0006746697472408414,-0.004261842928826809,0.002431241562590003,0.9981275796890259,0.0,0.0,0.0,0.770650327205658,6.6899824142456055,2.0394129753112793,-139.48924255371094,0
830.3629999999994,-0.005002301651984453,-0.06588772684335709,0.043576184660196304,0.0,0.0,0.0,0.0,0.00039006705628708005,1.6801634046714753e-05,0.0009978156303986907,0.9979199171066284,0.0,0.0,0.0,0.7702844142913818,6.678864002227783,2.0341145992279053,-139.42300415039062,0
840.2379999999994,-0.003485559718683362,-0.0714048370718956,0.038859203457832336,0.0,0.0,0.0,0.0,0.0009579451289027929,0.005282186903059483,0.0008971876231953502,1.0009706020355225,0.0,0.0,0.0,0.8017786145210266,5.379546165466309,2.3819327354431152,-145.12351989746094,0
850.1309999999994,-0.007519193924963474,-0.059039656072854996,0.04668835550546646,0.0,0.0,0.0,0.0,0.0007532461313530803,-0.0055702365934848785,-0.0005123267183080316,0.9996050596237183,0.0,0.0,0.0,0.7626180052757263,8.268193244934082,1.5328147411346436,-138.03538513183594,0
860.0079999999998,-0.006732545793056488,-0.06499385833740234,0.04249643534421921,0.0,0.0,0.0,0.0,0.004198011010885239,0.006458170246332884,0.002202116884291172,0.9994088411331177,0.0,0.0,0.0,0.7941744327545166,7.023323059082031,1.6693460941314697,-143.7471466064453,0
869.902,-0.0064306361600756645,-0.06513576209545135,0.04251151159405708,0.0,0.0,0.0,0.0,0.002104171784594655,0.0025644898414611816,0.0007055922760628164,1.000403881072998,0.0,0.0,0.0,0.793451189994812,7.007968425750732,1.6529324054718018,-143.6162567138672,0
879.7790000000005,-0.005110159050673246,-0.07039426267147064,0.037813812494277954,0.0,0.0,0.0,0.0,0.003484379732981324,0.0015796385705471039,-0.0007892830763012171,0.9986734390258789,0.0,0.0,0.0,0.8258072733879089,5.828861236572266,1.9423638582229614,-149.47276306152344,0
889.6810000000005,-0.007762549910694361,-0.05860672891139984,0.04584880545735359,0.0,0.0,0.0,0.0,0.000566760718356818,-0.0003393900697119534,0.0014367970870807767,0.9990910887718201,0.0,0.0,0.0,0.7791992425918579,8.38835334777832,1.478043556213379,-141.03662109375,0
899.5499999999993,-0.007058499380946159,-0.06453393399715424,0.041766587644815445,0.0,0.0,0.0,0.0,-0.0029444389510899782,0.001177329453639686,-0.0019011241383850574,1.0002553462982178,0.0,0.0,0.0,0.8141974210739136,7.194725513458252,1.5891183614730835,-147.37135314941406,0
909.4419999999991,-0.007746724411845207,-0.05533841624855995,0.048303283751010895,0.0,0.0,0.0,0.0,0.00017333918367512524,-0.0018473889213055372,0.0016534399474039674,1.0003142356872559,0.0,0.0,0.0,0.7629626989364624,8.839287757873535,1.5144187211990356,-138.09776306152344,0
919.3199999999997,-0.007218895014375448,-0.061854276806116104,0.04441362991929054,0.0,0.0,0.0,0.0,0.0009651047294028103,0.004127064254134893,-0.0008029351010918617,1.0009855031967163,0.0,0.0,0.0,0.8026764392852783,7.627122402191162,1.6053189039230347,-145.28602600097656,0
929.2150000000001,-0.007701279129832983,-0.053819458931684494,0.050189752131700516,0.0,0.0,0.0,0.0,0.0016569715226069093,-0.004532810300588608,-0.0020111347548663616,0.9996672868728638,0.0,0.0,0.0,0.7575238347053528,8.94477367401123,1.5415481328964233,-137.1133270263672,0
939.0910000000003,-0.0071227289736270905,-0.060583461076021194,0.046271052211523056,0.0,0.0,0.0,0.0,-0.0005386434495449066,-0.0014583637239411473,0.002389699686318636,1.000643253326416,0.0,0.0,0.0,0.7967711091041565,7.739253044128418,1.6608326435089111,-144.21714782714844,0
948.9789999999994,-0.00760283786803484,-0.05312860384583473,0.051641762256622314,0.0,0.0,0.0,0.0,-0.0020378241315484047,-0.0021926367189735174,-0.0007454670849256217,1.0013002157211304,0.0,0.0,0.0,0.7524733543395996,8.934611320495605,1.6134746074676514,-136.19918823242188,0
958.8709999999992,-0.00690818065777421,-0.05994924157857895,0.047610092908144,0.0,0.0,0.0,0.0,0.0007480324129574001,0.002594791352748871,-0.0007536810589954257,1.0010665655136108,0.0,0.0,0.0,0.7833360433578491,7.732398986816406,1.7243094444274902,-141.78538513183594,0
968.7530000000006,-0.00753979803994298,-0.05284116044640541,0.05267825722694397,0.0,0.0,0.0,0.0,-0.002115863375365734,-0.00464758463203907,-0.0024226829409599304,1.000939130783081,0.0,0.0,0.0,0.7418519258499146,8.871692657470703,1.6428322792053223,-134.27667236328125,0
978.6329999999998,-0.0067811827175319195,-0.05975794419646263,0.04854282736778259,0.0,0.0,0.0,0.0,-0.004188810475170612,-0.001055079628713429,-0.00034273407072760165,1.0008697509765625,0.0,0.0,0.0,0.7740913033485413,7.644967555999756,1.7811298370361328,-140.112060546875,0
988.5429999999997,-0.007528859656304121,-0.05281973257660866,0.05344312638044357,0.0,0.0,0.0,0.0,0.00148167519364506,-0.0020880335941910744,0.00015401598648168147,0.9998429417610168,0.0,0.0,0.0,0.7229929566383362,8.77985954284668,1.7001910209655762,-130.8631591796875,0
998.4040000000005,-0.006673634517937899,-0.059743765741586685,0.04917389154434204,0.0,0.0,0.0,0.0,0.004057955462485552,0.008726084604859352,-0.0025977108161896467,0.9974983334541321,0.0,0.0,0.0,0.7608022689819336,7.526182651519775,1.8251672983169556,-137.7067413330078,0
1008.289999999999,-0.007599595468491316,-0.05292235687375069,0.053907204419374466,0.0,0.0,0.0,0.0,0.004751057364046574,0.005027610808610916,0.003237298456951976,1.0001736879348755,0.0,0.0,0.0,0.7134770154953003,8.654808044433594,1.7060953378677368,-129.14077758789062,0
1018.1800000000003,-0.006589984521269798,-0.05973291024565697,0.04945503920316696,0.0,0.0,0.0,0.0,-0.005112285725772381,-0.0014566726749762893,0.0013423608615994453,1.0014275312423706,0.0,0.0,0.0,0.7529368996620178,7.407497406005859,1.8538082838058472,-136.2830810546875,0
1028.065999999999,-0.0075271036475896835,-0.05293700471520424,0.0541403628885746,0.0,0.0,0.0,0.0,0.0011147396871820092,0.0006238305941224098,0.0004159946402069181,1.0004653930664062,0.0,0.0,0.0,0.7009404301643372,8.559962272644043,1.7330435514450073,-126.87161254882812,0
1037.9439999999995,-0.006445695646107197,-0.0597539097070694,0.04956912249326706,0.0,0.0,0.0,0.0,-0.001789009547792375,-0.0007748341886326671,0.0006683458341285586,1.0001965761184692,0.0,0.0,0.0,0.7374398708343506,7.307517051696777,1.8956351280212402,-133.47808837890625,0
1047.8349999999991,-0.0075365821830928326,-0.05299390107393265,0.0541316382586956,0.0,0.0,0.0,0.0,-0.002731884131208062,-0.005036285147070885,-0.002968795830383897,0.9993122816085815,0.0,0.0,0.0,0.6956556439399719,8.467497825622559,1.7617429494857788,-125.9150619506836,0
1057.714,-0.006437981501221657,-0.05982734262943268,0.04950400069355965,0.0,0.0,0.0,0.0,-0.00024301857047248632,0.00033607336808927357,-0.001744898734614253,0.9980049133300781,0.0,0.0,0.0,0.729421854019165,7.208395957946777,1.9508687257766724,-132.0268096923828,0
1067.6100000000006,-0.007485180161893368,-0.053035199642181396,0.05407014861702919,0.0,0.0,0.0,0.0,0.0016295828390866518,-0.006144783925265074,-0.00037259876262396574,0.9973515868186951,0.0,0.0,0.0,0.6923630833625793,8.388799667358398,1.8120942115783691,-125.31908416748047,0
1077.4850000000006,-0.006410498172044754,-0.05995501950383186,0.04941719397902489,0.0,0.0,0.0,0.0,-0.002049514325335622,-0.002472258871421218,0.0038862472865730524,0.9969748258590698,0.0,0.0,0.0,0.7258852124214172,7.101149082183838,1.9949942827224731,-131.3866729736328,0
1087.3739999999998,-0.00748568307608366,-0.053116071969270706,0.05396939441561699,0.0,0.0,0.0,0.0,-0.001417262596078217,-0.0057214051485061646,-0.0007467818795703351,0.9965389370918274,0.0,0.0,0.0,0.6854870915412903,8.308609962463379,1.8485515117645264,-124.07453155517578,0
1097.2549999999992,-0.006414687726646662,-0.06005517393350601,0.049292366951704025,0.0,0.0,0.0,0.0,-0.0015922746388241649,0.0017686373321339488,-0.0022339364513754845,1.000633716583252,0.0,0.0,0.0,0.720853328704834,7.019610404968262,2.028275728225708,-130.4758758544922,0
1107.1409999999996,-0.007493800017982721,-0.05317416414618492,0.0538412369787693,0.0,0.0,0.0,0.0,0.0018657890614122152,0.0016657814849168062,0.0012864322634413838,0.9996353983879089,0.0,0.0,0.0,0.677809476852417,8.241715431213379,1.8764057159423828,-122.68486785888672,0
1117.0249999999996,-0.006415536627173424,-0.06011992692947388,0.049139536917209625,0.0,0.0,0.0,0.0,0.00019577846978791058,0.0032834536395967007,0.0008052498451434076,0.9986220002174377,0.0,0.0,0.0,0.7125252485275269,6.942700386047363,2.0411055088043213,-128.96847534179688,0
1126.914999999999,-0.007431501522660255,-0.053261395543813705,0.05367032438516617,0.0,0.0,0.0,0.0,-0.001578320749104023,-0.00536193186417222,0.003179433522745967,0.9983399510383606,0.0,0.0,0.0,0.6664004921913147,8.172457695007324,1.8951513767242432,-120.61981964111328,0
1136.7999999999993,-0.00631785998120904,-0.06016683951020241,0.04893296957015991,0.0,0.0,0.0,0.0,-0.0007441499037668109,0.002595946192741394,-0.0015192311257123947,0.9978710412979126,0.0,0.0,0.0,0.7023645639419556,6.882601261138916,2.0818252563476562,-127.12937927246094,0
1146.6810000000005,-0.005814670585095882,-0.060378555208444595,0.04882803559303284,0.0,0.0,0.0,0.0,-0.0023483959957957268,0.008134079165756702,-0.0022933748550713062,0.9983196258544922,0.0,0.0,0.0,0.7020878195762634,6.877635478973389,2.0714948177337646,-127.07928466796875,0
1156.5769999999993,-0.004065449349582195,-0.06699521094560623,0.04324307292699814,0.0,0.0,0.0,0.0,-0.0013288932386785746,-0.00919488538056612,0.0009617002797313035,0.9995970129966736,0.0,0.0,0.0,0.7299910187721252,5.432897567749023,2.414438009262085,-132.1298370361328,0
1166.4619999999995,-0.007312064524739981,-0.05688806250691414,0.04925632104277611,0.0,0.0,0.0,0.0,-3.2817279134178534e-05,-0.00025680672843009233,0.004160257056355476,0.9987756609916687,0.0,0.0,0.0,0.6891686916351318,7.694010257720947,1.7505701780319214,-124.74089813232422,0
1176.339,-0.006238535512238741,-0.06336695700883865,0.044414058327674866,0.0,0.0,0.0,0.0,-0.0008970390190370381,-0.0010233073262497783,0.0009815142257139087,1.0003010034561157,0.0,0.0,0.0,0.718243420124054,6.377025604248047,1.9263869524002075,-130.0034942626953,0
1186.2289999999994,-0.007454592734575272,-0.054972756654024124,0.04986199364066124,0.0,0.0,0.0,0.0,0.0014551591593772173,0.0030984797049313784,-0.002835166174918413,0.9996629953384399,0.0,0.0,0.0,0.6820676326751709,8.0109224319458,1.7372517585754395,-123.45560455322266,0
1196.1080000000002,-0.006643696688115597,-0.061797577887773514,0.04535839334130287,0.0,0.0,0.0,0.0,0.0013590313028544188,0.0018219009507447481,-0.0020338816102594137,0.9994025826454163,0.0,0.0,0.0,0.7127758860588074,6.708728313446045,1.8574790954589844,-129.01385498046875,0
1205.9940000000006,-0.007401572074741125,-0.05401250347495079,0.05054274573922157,0.0,0.0,0.0,0.0,-0.00018695172911975533,-0.0003739055246114731,0.0009972983971238136,1.0001397132873535,0.0,0.0,0.0,0.669475257396698,8.132427215576172,1.7379168272018433,-121.17635345458984,0
1215.8780000000006,-0.0066223773173987865,-0.06096620485186577,0.046159353107213974,0.0,0.0,0.0,0.0,-0.0007870260742492974,0.004548016469925642,-0.0038269765209406614,0.9972571134567261,0.0,0.0,0.0,0.7014865875244141,6.846052646636963,1.8626245260238647,-126.97047424316406,0
1225.7639999999992,-0.00733854528516531,-0.05353759974241257,0.05110950395464897,0.0,0.0,0.0,0.0,-0.0007033299771137536,0.004171240143477917,-0.002080947859212756,0.9984390735626221,0.0,0.0,0.0,0.6644793152809143,8.177133560180664,1.7316820621490479,-120.27207946777344,0
1235.6479999999992,-0.006560242734849453,-0.06062134727835655,0.046743880957365036,0.0,0.0,0.0,0.0,-0.001339938840828836,0.0033952631056308746,0.004187548998743296,0.9997120499610901,0.0,0.0,0.0,0.7014157772064209,6.8799543380737305,1.8522768020629883,-126.95765686035156,0
1245.539999999999,-0.007337971590459347,-0.0533924363553524,0.05153850093483925,0.0,0.0,0.0,0.0,0.0037749449256807566,0.007138411980122328,0.0006830062484368682,1.000136137008667,0.0,0.0,0.0,0.6565871238708496,8.17297077178955,1.72092866897583,-118.84357452392578,0
1255.4189999999999,-0.006544487550854683,-0.06050451099872589,0.04718658700585365,0.0,0.0,0.0,0.0,0.001634784508496523,-0.0017841473454609513,0.0008955607772804797,0.9952772259712219,0.0,0.0,0.0,0.695988655090332,6.862514972686768,1.834612250328064,-125.97533416748047,0
1265.312,-0.0060311718843877316,-0.060752760618925095,0.047017838805913925,0.0,0.0,0.0,0.0,0.0038699249271303415,0.004016506019979715,0.0006741388933733106,1.0001213550567627,0.0,0.0,0.0,0.695820689201355,6.854525089263916,1.8411527872085571,-125.94493103027344,0
1275.1900000000005,-0.0044494504109025,-0.06731108576059341,0.04175751283764839,0.0,0.0,0.0,0.0,-0.00387648050673306,-0.004738448653370142,0.006277639884501696,1.001185655593872,0.0,0.0,0.0,0.7289178371429443,5.4431915283203125,2.1565399169921875,-131.93557739257812,0
1285.0769999999993,-0.007215451914817095,-0.057063028216362,0.04812122881412506,0.0,0.0,0.0,0.0,-0.0018196005839854479,-0.00012392674398142844,0.0008844526018947363,0.9989576935768127,0.0,0.0,0.0,0.6877257823944092,7.714179039001465,1.6047425270080566,-124.479736328125,0
1294.9599999999991,-0.006353412289172411,-0.06367998570203781,0.043608393520116806,0.0,0.0,0.0,0.0,-0.0021928814239799976,-0.011264875531196594,0.00480782613158226,0.9996574521064758,0.0,0.0,0.0,0.7252195477485657,6.404275417327881,1.7361100912094116,-131.2661895751953,0
1304.848,-0.005857629235833883,-0.06405933201313019,0.04324819892644882,0.0,0.0,0.0,0.0,-0.0009388306643813848,-0.005206235218793154,7.613794150529429e-05,0.999172568321228,0.0,0.0,0.0,0.7255935072898865,6.400801658630371,1.7548187971115112,-131.3338623046875,0
1314.7299999999996,-0.004453178029507399,-0.07009713351726532,0.038280051201581955,0.0,0.0,0.0,0.0,0.0011948634637519717,-0.0028394367545843124,0.00032805645605549216,0.9991115927696228,0.0,0.0,0.0,0.7562968730926514,5.09183931350708,2.046760082244873,-136.8912353515625,0
1324.616,-0.003883535973727703,-0.07079613208770752,0.03757794201374054,0.0,0.0,0.0,0.0,0.0001249177730642259,-0.0006862689042463899,0.001877207774668932,0.9985463619232178,0.0,0.0,0.0,0.754575788974762,5.086187362670898,2.0551908016204834,-136.5797119140625,0
1334.5010000000002,-0.002426681574434042,-0.0758286714553833,0.03310472518205643,0.0,0.0,0.0,0.0,-0.0004679917183239013,-0.0005277395830489695,0.0019903951324522495,0.9986300468444824,0.0,0.0,0.0,0.7832707762718201,3.9695401191711426,2.349766731262207,-141.77357482910156,0
1344.3870000000006,-0.007240782957524061,-0.06150384619832039,0.04201836138963699,0.0,0.0,0.0,0.0,0.0004494034801609814,-0.0013024508953094482,0.00033668000833131373,0.9985939860343933,0.0,0.0,0.0,0.7397226095199585,7.602748870849609,1.1917355060577393,-133.89126586914062,0
1354.271999999999,-0.006673538591712713,-0.06735540181398392,0.037882328033447266,0.0,0.0,0.0,0.0,-0.003181357868015766,0.000512804661411792,0.004886182956397533,0.9961454272270203,0.0,0.0,0.0,0.7772936820983887,6.388651371002197,1.2765964269638062,-140.6916961669922,0
1364.1579999999994,-0.007525207474827766,-0.056990332901477814,0.04489727318286896,0.0,0.0,0.0,0.0,-0.0001876158348750323,0.001821230398491025,-0.0028928464744240046,0.9979200959205627,0.0,0.0,0.0,0.7263728380203247,8.434895515441895,1.168810248374939,-131.4749298095703,0
1374.0419999999995,-0.007246865425258875,-0.06360982358455658,0.04116078466176987,0.0,0.0,0.0,0.0,-0.0009217966580763459,-0.0015647540567442775,-0.0014611623482778668,1.001607894897461,0.0,0.0,0.0,0.7566272616386414,7.197188377380371,1.2206132411956787,-136.95103454589844,0
1383.9300000000003,-0.007498328574001789,-0.05484403669834137,0.04731930419802666,0.0,0.0,0.0,0.0,-0.001095833838917315,-0.0004642382846213877,0.00018623704090714455,1.0017149448394775,0.0,0.0,0.0,0.7053042650222778,8.72740364074707,1.1876657009124756,-127.66148376464844,0
1393.8240000000005,-0.007188701070845127,-0.06177888810634613,0.043632108718156815,0.0,0.0,0.0,0.0,-0.0028316027019172907,0.004338061437010765,-0.00016561518714297563,1.001875638961792,0.0,0.0,0.0,0.7389234304428101,7.50009298324585,1.248160719871521,-133.7466278076172,0
1403.6980000000003,-0.007481778971850872,-0.0538179837167263,0.04926501587033272,0.0,0.0,0.0,0.0,0.0005489130853675306,0.004574056714773178,-0.0020254598930478096,1.0004304647445679,0.0,0.0,0.0,0.6947637796401978,8.829340934753418,1.2025314569473267,-125.75361633300781,0
1413.5849999999991,-0.007037156727164984,-0.060859568417072296,0.04546567052602768,0.0,0.0,0.0,0.0,-0.002119063399732113,0.004722780082374811,-0.001312433392740786,0.9990781545639038,0.0,0.0,0.0,0.7304386496543884,7.594594478607178,1.2791239023208618,-132.21084594726562,0
1423.467999999999,-0.006635983940213919,-0.061004869639873505,0.04549126327037811,0.0,0.0,0.0,0.0,-0.00013456873421091586,0.0034987921826541424,0.001242570928297937,0.9974501729011536,0.0,0.0,0.0,0.7293546199798584,7.5915303230285645,1.2690300941467285,-132.0146484375,0
1433.3539999999994,-0.005263754166662693,-0.06728749722242355,0.0406266488134861,0.0,0.0,0.0,0.0,-0.0007425913354381919,-7.7921969932504e-05,-0.0037774003576487303,0.9977889060974121,0.0,0.0,0.0,0.7629945278167725,6.30161190032959,1.5064656734466553,-138.10353088378906,0
1443.244999999999,-0.004796603228896856,-0.06773482263088226,0.040308624505996704,0.0,0.0,0.0,0.0,-0.0021532243117690086,-0.00022974956664256752,-0.0011860786471515894,0.9990785121917725,0.0,0.0,0.0,0.7610746622085571,6.299559593200684,1.5007606744766235,-137.75604248046875,0
1453.1239999999998,-0.0033019594848155975,-0.07300766557455063,0.03573618456721306,0.0,0.0,0.0,0.0,-0.0029849724378436804,-0.0013919706689193845,0.00027282361406832933,0.9992007613182068,0.0,0.0,0.0,0.7874058485031128,5.128307342529297,1.8112319707870483,-142.52203369140625,0
1463.0159999999996,-0.0027524095494300127,-0.07373761385679245,0.03510793671011925,0.0,0.0,0.0,0.0,-0.0020154102239757776,0.003322147997096181,-0.002068462548777461,0.9995189309120178,0.0,0.0,0.0,0.7868233323097229,5.126579284667969,1.8092865943908691,-142.41659545898438,0
1472.8940000000002,-0.0013427091762423515,-0.07806102931499481,0.031156927347183228,0.0,0.0,0.0,0.0,-0.0007750627119094133,0.0025698950048536062,-0.0021222317591309547,1.0015720129013062,0.0,0.0,0.0,0.8138905167579651,4.174213886260986,2.091062545776367,-147.31581115722656,0
1482.7839999999997,-0.007228471338748932,-0.06249977648258209,0.04063371941447258,0.0,0.0,0.0,0.0,-0.00302357436157763,-0.0027846614830195904,0.00207576178945601,1.0014370679855347,0.0,0.0,0.0,0.7672445774078369,8.19638729095459,0.6726281046867371,-138.872802734375,0
1492.664999999999,-0.006756686605513096,-0.06802112609148026,0.03672817721962929,0.0,0.0,0.0,0.0,-8.578573761042207e-05,0.003113976214081049,-0.0020050948951393366,0.9984036684036255,0.0,0.0,0.0,0.8025582432746887,7.040152549743652,0.7614571452140808,-145.2646484375,0
1502.5599999999995,-0.006451515946537256,-0.0683409795165062,0.03634663671255112,0.0,0.0,0.0,0.0,0.0019457570742815733,0.0015075905248522758,0.0020804982632398605,1.0000728368759155,0.0,0.0,0.0,0.8009161949157715,7.034016132354736,0.7480912804603577,-144.96742248535156,0
1512.4449999999997,-0.005516593344509602,-0.07312359660863876,0.032312050461769104,0.0,0.0,0.0,0.0,0.0022733891382813454,-0.006414629053324461,0.0004781178431585431,0.9985846877098083,0.0,0.0,0.0,0.8347126841545105,6.013015270233154,0.9346981644630432,-151.0846405029297,0
1522.3279999999995,-0.007741115055978298,-0.05998063459992409,0.041526854038238525,0.0,0.0,0.0,0.0,0.002086835214868188,0.002906781155616045,-0.003433515317738056,0.9970115423202515,0.0,0.0,0.0,0.781082272529602,8.852019309997559,0.5771533846855164,-141.37744140625,0
1532.2060000000001,-0.007458189502358437,-0.06590944528579712,0.03797457367181778,0.0,0.0,0.0,0.0,0.004964249674230814,0.0052665225230157375,-0.0014032840263098478,0.9985163807868958,0.0,0.0,0.0,0.8143236637115479,7.698605537414551,0.6263047456741333,-147.39419555664062,0
1542.1080000000002,-0.007758336141705513,-0.05595695599913597,0.04513111338019371,0.0,0.0,0.0,0.0,0.001243959297426045,0.005016205832362175,0.00010588363511487842,0.9988684058189392,0.0,0.0,0.0,0.7624965906143188,9.420891761779785,0.5989048480987549,-138.01341247558594,0
1551.976999999999,-0.00762817170470953,-0.06261195242404938,0.041715119034051895,0.0,0.0,0.0,0.0,0.0008883718401193619,-0.0007603401318192482,0.0016654549399390817,0.9981437921524048,0.0,0.0,0.0,0.7977697253227234,8.238725662231445,0.6328747868537903,-144.39791870117188,0
1561.8739999999998,-0.007695431355386972,-0.05412788316607475,0.04794720560312271,0.0,0.0,0.0,0.0,0.0003005382604897022,-0.000111344204924535,-0.0008481147815473378,0.9971680045127869,0.0,0.0,0.0,0.7500628232955933,9.579361915588379,0.6361271142959595,-135.7628631591797,0
1571.7469999999994,-0.007468548137694597,-0.061013709753751755,0.0444878414273262,0.0,0.0,0.0,0.0,-0.0033535929396748543,-0.005051966290920973,-0.0029788422398269176,0.9998178482055664,0.0,0.0,0.0,0.7851533889770508,8.398967742919922,0.6987821459770203,-142.1143341064453,0
1581.6419999999998,-0.007168375421315432,-0.061014074832201004,0.04469258710741997,0.0,0.0,0.0,0.0,-0.0028858918230980635,0.0034667672589421272,2.6518326194491237e-05,0.9978435039520264,0.0,0.0,0.0,0.7838363647460938,8.395243644714355,0.7084886431694031,-141.87594604492188,0
1591.518,-0.005992405582219362,-0.06708521395921707,0.04011976346373558,0.0,0.0,0.0,0.0,0.0022421376779675484,-0.002226630924269557,-0.003949360456317663,0.9979552030563354,0.0,0.0,0.0,0.8163359761238098,7.1671342849731445,0.9085152745246887,-147.7584228515625,0
1601.411,-0.005638787988573313,-0.0673665851354599,0.03999245911836624,0.0,0.0,0.0,0.0,0.0021678698249161243,0.0059455810114741325,0.0012406111927703023,0.9990350008010864,0.0,0.0,0.0,0.8143073320388794,7.151772499084473,0.90653395652771,-147.39126586914062,0
1611.2880000000005,-0.004326809663325548,-0.07248381525278091,0.03558547794818878,0.0,0.0,0.0,0.0,-0.0037985157687216997,-0.0033701916690915823,0.0006344520952552557,0.9997398853302002,0.0,0.0,0.0,0.8435012698173523,6.009459495544434,1.1772561073303223,-152.6754150390625,0
1621.182999999999,-0.0039029563777148724,-0.07302875816822052,0.03515027090907097,0.0,0.0,0.0,0.0,0.0021725716069340706,-0.004018717911094427,0.0012937604915350676,0.9991407990455627,0.0,0.0,0.0,0.8431137800216675,6.008904933929443,1.1872392892837524,-152.60528564453125,0
1631.0589999999993,-0.0026606637984514236,-0.0772395208477974,0.03125990927219391,0.0,0.0,0.0,0.0,0.00015890008944552392,0.009532606229186058,0.0008238214650191367,0.9976873993873596,0.0,0.0,0.0,0.8724151849746704,5.059112548828125,1.4582799673080444,-157.9088897705078,0
1640.950999999999,-0.007575894705951214,-0.06215249374508858,0.041119903326034546,0.0,0.0,0.0,0.0,0.0005868388107046485,-0.0004254144732840359,0.000752905267290771,0.9999687075614929,0.0,0.0,0.0,0.8279056549072266,8.811247825622559,0.35681071877479553,-149.8525848388672,0
1650.8289999999997,-0.007092647720128298,-0.06753329932689667,0.03729982301592827,0.0,0.0,0.0,0.0,0.0033806299325078726,-0.003694603918120265,-0.0020480186212807894,0.9991645812988281,0.0,0.0,0.0,0.8539260029792786,7.683505535125732,0.4393363296985626,-154.5623016357422,0
1660.7240000000002,-0.007774159777909517,-0.05684895068407059,0.04485611990094185,0.0,0.0,0.0,0.0,-0.0008646633941680193,-0.0039782156236469746,0.0020783329382538795,0.9993769526481628,0.0,0.0,0.0,0.7923581600189209,9.665719032287598,0.40477657318115234,-143.41839599609375,0
1670.6000000000004,-0.00762293953448534,-0.0632704421877861,0.04142285883426666,0.0,0.0,0.0,0.0,-0.0013822265900671482,-0.00014509096217807382,-0.0016993548488244414,0.9975537061691284,0.0,0.0,0.0,0.8251800537109375,8.472575187683105,0.4651699364185333,-149.35922241210938,0
1680.4940000000006,-0.007366855628788471,-0.06327754259109497,0.04151114448904991,0.0,0.0,0.0,0.0,0.0014544815057888627,-0.0023343274369835854,-0.002542391186580062,1.001373052597046,0.0,0.0,0.0,0.82369065284729,8.46556282043457,0.4592688977718353,-149.0896453857422,0
1690.369999999999,-0.00633483100682497,-0.06878617405891418,0.03713008761405945,0.0,0.0,0.0,0.0,0.0020472740288823843,-0.004546488635241985,-0.0004594857164192945,1.001285195350647,0.0,0.0,0.0,0.8498860001564026,7.33001184463501,0.6644109487533569,-153.8310546875,0
1700.262999999999,-0.007939847186207771,-0.057579945772886276,0.04533190652728081,0.0,0.0,0.0,0.0,-0.00022321546566672623,0.0010396071011200547,-0.0003234971081838012,0.997972846031189,0.0,0.0,0.0,0.797408401966095,9.518413543701172,0.4792715907096863,-144.33251953125,0
1710.1399999999994,-0.007465199567377567,-0.06372670084238052,0.04155753180384636,0.0,0.0,0.0,0.0,0.001158711384050548,-0.0006010045763105154,-0.0022322344593703747,0.9995365738868713,0.0,0.0,0.0,0.8254057765007019,8.353716850280762,0.5701439380645752,-149.40008544921875,0
1720.0329999999994,-0.007816131226718426,-0.05476301908493042,0.048130374401807785,0.0,0.0,0.0,0.0,0.000365178391803056,0.00108275783713907,0.0010984345572069287,1.003118634223938,0.0,0.0,0.0,0.770240306854248,9.847251892089844,0.5576280951499939,-139.4150390625,0
1729.911,-0.00740670133382082,-0.061341285705566406,0.04444685950875282,0.0,0.0,0.0,0.0,0.0023820430506020784,-0.0030715581960976124,0.001267672749236226,0.9996421337127686,0.0,0.0,0.0,0.8061649799346924,8.669462203979492,0.6372343897819519,-145.91746520996094,0
1739.8060000000005,-0.007721297908574343,-0.053441472351551056,0.05027284100651741,0.0,0.0,0.0,0.0,-0.00025262258714064956,-0.0036497979890555143,0.0015061418525874615,0.996324360370636,0.0,0.0,0.0,0.7580928802490234,9.91139030456543,0.6284241080284119,-137.21630859375,0
1749.6839999999993,-0.007217735052108765,-0.060255300253629684,0.04647258296608925,0.0,0.0,0.0,0.0,-0.001732076401822269,-0.0022983925882726908,-0.0004731028457172215,0.9986754059791565,0.0,0.0,0.0,0.7945508360862732,8.714747428894043,0.7228485345840454,-143.81527709960938,0
1759.5769999999993,-0.006919453386217356,-0.06018920987844467,0.04678017646074295,0.0,0.0,0.0,0.0,-0.003418225795030594,-0.0013190069003030658,0.0029375350568443537,0.9997905492782593,0.0,0.0,0.0,0.7934010028839111,8.708538055419922,0.7241562008857727,-143.60716247558594,0
1769.4539999999997,-0.0055875880643725395,-0.06637001782655716,0.04190758988261223,0.0,0.0,0.0,0.0,-0.0008424158440902829,-0.00030456233071163297,-0.0015245579415932298,1.0001765489578247,0.0,0.0,0.0,0.8298803567886353,7.416083812713623,0.9880956411361694,-150.20999145507812,0
1779.3459999999995,-0.005229909438639879,-0.06659701466560364,0.04185262322425842,0.0,0.0,0.0,0.0,-0.0020686474163085222,-0.0013769336510449648,0.004656090866774321,0.9983102083206177,0.0,0.0,0.0,0.8282449245452881,7.415083408355713,0.9898414611816406,-149.9139862060547,0
1789.2240000000002,-0.003792215371504426,-0.07189588993787766,0.03715163469314575,0.0,0.0,0.0,0.0,0.0005951534258201718,0.0019850132521241903,-0.001162924338132143,0.9993173480033875,0.0,0.0,0.0,0.8611322641372681,6.198709487915039,1.3268355131149292,-155.8666534423828,0
1799.1180000000004,-0.007488894741982222,-0.05928019806742668,0.04541968181729317,0.0,0.0,0.0,0.0,0.00022481320775114,0.00031394921825267375,-0.000846702023409307,0.9999420046806335,0.0,0.0,0.0,0.8146887421607971,9.104409217834473,0.5703394412994385,-147.46029663085938,0
1808.9930000000004,-0.0068176742643117905,-0.06520380079746246,0.04128392040729523,0.0,0.0,0.0,0.0,-0.00017082225531339645,0.002431861823424697,-0.0014301498886197805,0.9977928400039673,0.0,0.0,0.0,0.8478919267654419,7.881385803222656,0.684593915939331,-153.4701385498047,0
1818.8899999999994,-0.007773731369525194,-0.055722855031490326,0.047904983162879944,0.0,0.0,0.0,0.0,-0.0003942090552300215,-0.0008963653817772865,-0.001826669555157423,0.9981482625007629,0.0,0.0,0.0,0.7959253191947937,9.626646041870117,0.5897529721260071,-144.06407165527344,0
1828.7639999999992,-0.007295651827007532,-0.06218494847416878,0.04400985315442085,0.0,0.0,0.0,0.0,-0.0027559841983020306,0.0027918252162635326,0.004386754706501961,0.9991524815559387,0.0,0.0,0.0,0.8278263211250305,8.405875205993652,0.6818307638168335,-149.83822631835938,0
1838.655999999999,-0.007694043219089508,-0.053987979888916016,0.04993262141942978,0.0,0.0,0.0,0.0,0.00038775501889176667,0.0018545284401625395,0.002033117925748229,0.998611330986023,0.0,0.0,0.0,0.7698699831962585,9.774988174438477,0.6395082473754883,-139.34799194335938,0
1848.5380000000005,-0.007200906053185463,-0.06073487550020218,0.04606080800294876,0.0,0.0,0.0,0.0,-0.0023813520092517138,-0.003537604119628668,0.001266311970539391,0.9997042417526245,0.0,0.0,0.0,0.8071269392967224,8.549417495727539,0.7311833500862122,-146.09158325195312,0
1858.4310000000005,-0.007622718811035156,-0.0532289482653141,0.05149735510349274,0.0,0.0,0.0,0.0,0.0011785132810473442,0.0017084423452615738,0.001280877273529768,1.0007503032684326,0.0,0.0,0.0,0.7584196925163269,9.759607315063477,0.7040550708770752,-137.2754669189453,0
1868.3050000000003,-0.0070180329494178295,-0.060112155973911285,0.04748845472931862,0.0,0.0,0.0,0.0,-0.002253721933811903,-0.007254629861563444,0.0031495580915361643,1.0013028383255005,0.0,0.0,0.0,0.7910017371177673,8.523293495178223,0.8090337514877319,-143.1728973388672,0
1878.1980000000003,-0.007610362023115158,-0.05293827876448631,0.05262915790081024,0.0,0.0,0.0,0.0,0.002199704060330987,0.0029908898286521435,-7.474185258615762e-05,0.9985589981079102,0.0,0.0,0.0,0.737873911857605,9.683594703674316,0.7499978542327881,-133.55665588378906,0
1888.074999999999,-0.006862489972263575,-0.05977759510278702,0.048465702682733536,0.0,0.0,0.0,0.0,-0.001001714263111353,0.0018944797338917851,-0.0037940572947263718,0.9994267225265503,0.0,0.0,0.0,0.7744698524475098,8.446343421936035,0.8608278036117554,-140.1805877685547,0
1897.9709999999995,-0.00651858514174819,-0.059752363711595535,0.04869420453906059,0.0,0.0,0.0,0.0,0.0017853379249572754,-0.0044715083204209805,0.003583174664527178,0.9999130964279175,0.0,0.0,0.0,0.7732282280921936,8.437461853027344,0.8656463027000427,-139.9558563232422,0
1907.8549999999996,-0.004974660463631153,-0.06610209494829178,0.043425675481557846,0.0,0.0,0.0,0.0,-0.0014590475475415587,-0.0009818938560783863,0.0025066793896257877,1.0000393390655518,0.0,0.0,0.0,0.8105294704437256,7.06106424331665,1.1868096590042114,-146.7074432373047,0
1917.7379999999994,-0.007592782378196716,-0.056288108229637146,0.0498102530837059,0.0,0.0,0.0,0.0,0.0011355439200997353,0.00015152287960518152,0.0001818096061469987,0.9977805018424988,0.0,0.0,0.0,0.7672544121742249,9.102508544921875,0.7602964043617249,-138.8745880126953,0
1927.616,-0.006686218548566103,-0.06272240728139877,0.045243002474308014,0.0,0.0,0.0,0.0,0.0001912971492856741,-0.00014119558909442276,-0.0006361376726999879,0.9960832595825195,0.0,0.0,0.0,0.8000314831733704,7.81697416305542,0.909347414970398,-144.80728149414062,0
1937.5169999999998,-0.007681300863623619,-0.05445121228694916,0.05093000829219818,0.0,0.0,0.0,0.0,-0.0005100028938613832,0.00020605142344720662,0.001582726021297276,0.9997482299804688,0.0,0.0,0.0,0.7506575584411621,9.323267936706543,0.8046252131462097,-135.87051391601562,0
1947.3860000000004,-0.006890776101499796,-0.06110094115138054,0.04654427245259285,0.0,0.0,0.0,0.0,-0.002224516589194536,-0.0037522718776017427,0.001987132476642728,0.9983832240104675,0.0,0.0,0.0,0.7854169607162476,8.059232711791992,0.9397293329238892,-142.1620330810547,0
1957.2790000000005,-0.0065267737954854965,-0.06116802617907524,0.04655728116631508,0.0,0.0,0.0,0.0,-0.0004593627527356148,-0.0007848291425034404,0.0044557792134583,0.9994412660598755,0.0,0.0,0.0,0.7852474451065063,8.054306983947754,0.9450639486312866,-142.13136291503906,0
1967.1569999999992,-0.00507667800411582,-0.06739277392625809,0.04129073768854141,0.0,0.0,0.0,0.0,0.001988302916288376,0.0025625936686992645,4.795560744241811e-05,0.9995948076248169,0.0,0.0,0.0,0.8211584091186523,6.6970906257629395,1.2445204257965088,-148.63131713867188,0
1977.0499999999993,-0.007601146586239338,-0.056978560984134674,0.04816758632659912,0.0,0.0,0.0,0.0,0.0003464209439698607,-0.003540985519066453,0.001789274625480175,1.0006656646728516,0.0,0.0,0.0,0.7746891975402832,8.918586730957031,0.7953479290008545,-140.2202911376953,0
1986.9279999999999,-0.006816174369305372,-0.06335228681564331,0.04373406991362572,0.0,0.0,0.0,0.0,0.00011971858475590125,0.006078938953578472,8.16465399111621e-06,0.9978271126747131,0.0,0.0,0.0,0.810744047164917,7.635590076446533,0.9314383864402771,-146.7462921142578,0
1996.8230000000003,-0.007648907136172056,-0.054761771112680435,0.04964346066117287,0.0,0.0,0.0,0.0,0.0014048948651179671,-0.0007099639624357224,-0.0004097142373211682,0.9975416660308838,0.0,0.0,0.0,0.7610193490982056,9.2223539352417,0.816813588142395,-137.7460174560547,0
2006.6980000000003,-0.006977308075875044,-0.061446405947208405,0.045373138040304184,0.0,0.0,0.0,0.0,-0.0003091659164056182,-0.0018710524309426546,-0.0017526091542094946,0.9995161890983582,0.0,0.0,0.0,0.794584333896637,7.953272342681885,0.9277561902999878,-143.8213348388672,0
2016.5910000000003,-0.007505621295422316,-0.05371048301458359,0.05077744647860527,0.0,0.0,0.0,0.0,-0.0029656640253961086,-0.006526682525873184,0.0062895650044083595,0.9993993639945984,0.0,0.0,0.0,0.7481109499931335,9.299164772033691,0.8707716464996338,-135.40956115722656,0
2026.4689999999991,-0.006872850004583597,-0.06061762198805809,0.04660499095916748,0.0,0.0,0.0,0.0,-0.001232096110470593,-0.0005713552236557007,0.0015863546868786216,1.0010528564453125,0.0,0.0,0.0,0.7860112190246582,8.022991180419922,0.9988840818405151,-142.26959228515625,0
2036.3619999999992,-0.007443178910762072,-0.05328558757901192,0.05171217396855354,0.0,0.0,0.0,0.0,-0.0032074060291051865,-0.002260207664221525,-0.0005313383298926055,1.0002682209014893,0.0,0.0,0.0,0.7322940230369568,9.277837753295898,0.932091236114502,-132.5466766357422,0
2046.2399999999998,-0.006777442991733551,-0.06029871851205826,0.0475190132856369,0.0,0.0,0.0,0.0,0.0025809016078710556,0.0006975234718993306,0.00255901413038373,0.9981608390808105,0.0,0.0,0.0,0.766510546207428,7.9873857498168945,1.0566576719284058,-138.7399139404297,0
2056.1370000000006,-0.006369610317051411,-0.060379888862371445,0.047537196427583694,0.0,0.0,0.0,0.0,-0.00031816144473850727,0.0013510779244825244,0.0032550685573369265,0.9975031614303589,0.0,0.0,0.0,0.7657692432403564,7.978653907775879,1.045609474182129,-138.6057586669922,0
2066.01,-0.004865579307079315,-0.06680388003587723,0.042266685515642166,0.0,0.0,0.0,0.0,-0.0018682964146137238,0.0013015209697186947,0.0009070602827705443,0.9968879222869873,0.0,0.0,0.0,0.7950915694236755,6.581771373748779,1.3356149196624756,-143.9131622314453,0
2075.9040000000005,-0.007473231293261051,-0.05665156617760658,0.04882926121354103,0.0,0.0,0.0,0.0,0.00016449399117846042,0.001474845572374761,0.002900531981140375,0.9981985688209534,0.0,0.0,0.0,0.7413361668586731,8.767314910888672,0.848987877368927,-134.18331909179688,0
2085.7800000000007,-0.0066577838733792305,-0.06318646669387817,0.04433394595980644,0.0,0.0,0.0,0.0,-0.00034569110721349716,0.00166507123503834,-0.004302325192838907,0.9989126920700073,0.0,0.0,0.0,0.7736574411392212,7.447486400604248,0.9888467192649841,-140.0335235595703,0
2095.672999999999,-0.0062491875141859055,-0.06339835375547409,0.04412386938929558,0.0,0.0,0.0,0.0,0.0008037863299250603,0.002072391100227833,-0.0004342349129728973,0.9996673464775085,0.0,0.0,0.0,0.7713183164596558,7.438470840454102,0.9920889735221863,-139.6101531982422,0
2105.5509999999995,-0.004834840074181557,-0.06931868940591812,0.03901742398738861,0.0,0.0,0.0,0.0,0.0004704891180153936,-0.007154211867600679,0.001339418231509626,0.9981194734573364,0.0,0.0,0.0,0.799769401550293,6.118287086486816,1.2911229133605957,-144.75985717773438,0
2115.4539999999997,-0.007498735561966896,-0.058011703193187714,0.04645758494734764,0.0,0.0,0.0,0.0,-0.00023994428920559585,0.005305389408022165,0.00012772851914633065,0.9999824166297913,0.0,0.0,0.0,0.7530229091644287,8.659798622131348,0.7906196713447571,-136.2986602783203,0
2125.321,-0.006753431633114815,-0.06428772211074829,0.04207788035273552,0.0,0.0,0.0,0.0,0.001191512681543827,-0.007084309123456478,0.000678059586789459,0.9992334246635437,0.0,0.0,0.0,0.7894510626792908,7.368651866912842,0.9084571003913879,-142.8922119140625,0
2135.215,-0.007619055919349194,-0.05525708198547363,0.04820463806390762,0.0,0.0,0.0,0.0,0.00015544476627837867,0.002645675325766206,0.0014591189101338387,0.9979544878005981,0.0,0.0,0.0,0.7361243367195129,9.082209587097168,0.8060932159423828,-133.23997497558594,0
2145.0920000000006,-0.007104180753231049,-0.061992865055799484,0.0441276878118515,0.0,0.0,0.0,0.0,0.0009764565620571375,0.00016911511193029583,0.0022798674181103706,0.9997259974479675,0.0,0.0,0.0,0.7680993676185608,7.794353485107422,0.8950360417366028,-139.0275115966797,0
2154.9850000000006,-0.007594972383230925,-0.053950585424900055,0.04969702661037445,0.0,0.0,0.0,0.0,-0.000909688591491431,-7.519078644691035e-05,9.19322410481982e-05,1.0018962621688843,0.0,0.0,0.0,0.7195536494255066,9.207404136657715,0.8409836888313293,-130.24063110351562,0
