timestamp,stateEstimate.x,stateEstimate.y,stateEstimate.z,controller.cmd_thrust,controller.cmd_roll,controller.cmd_pitch,controller.cmd_yaw,controller.r_roll,controller.r_pitch,controller.r_yaw,controller.accelz,controller.actuatorThrust,controller.roll,controller.pitch,controller.yaw,controller.rollRate,controller.pitchRate,controller.yawRate,controller.ctr_yaw
0.0,-0.02943573333323002,-0.022318143397569656,-0.007018786855041981,0.0,0.0,0.0,0.0,-0.0015487105119973421,-0.006420012563467026,-0.00019407307263463736,1.0005213022232056,0.0,0.0,0.0,7.787762641906738,6.842189311981201,1.6109344959259033,-1409.6005859375,0
9.880000000001019,-0.029310686513781548,-0.022380344569683075,-0.006934981793165207,0.0,0.0,0.0,0.0,0.0018133851699531078,0.0018876561662182212,0.00028051534900441766,1.0009679794311523,0.0,0.0,0.0,7.779898166656494,6.8456830978393555,1.620668888092041,-1408.1771240234375,0
19.77400000000125,-0.02948896586894989,-0.022297615185379982,-0.007044168654829264,0.0,0.0,0.0,0.0,0.0017798147164285183,0.001030885730870068,-0.0012917534913867712,1.000104308128357,0.0,0.0,0.0,7.784387588500977,6.847740173339844,1.6286662817001343,-1408.9896240234375,0
29.65099999999984,-0.029365243390202522,-0.02236250974237919,-0.006959447171539068,0.0,0.0,0.0,0.0,-0.00090955407358706,-0.0002635314594954252,-0.0001396801380906254,1.000113606452942,0.0,0.0,0.0,7.777062892913818,6.8420729637146,1.6235692501068115,-1407.663818359375,0
39.54100000000108,-0.02950981631875038,-0.022296976298093796,-0.0070612733252346516,0.0,0.0,0.0,0.0,-0.0032149413600564003,-0.006528583355247974,0.0001389246026519686,1.0007340908050537,0.0,0.0,0.0,7.78571081161499,6.842735290527344,1.6273982524871826,-1409.2291259765625,0
49.42100000000028,-0.029385099187493324,-0.022360458970069885,-0.006976976525038481,0.0,0.0,0.0,0.0,-0.0030000321567058563,0.00016701988351996988,-0.0009876247495412827,0.9997760057449341,0.0,0.0,0.0,7.776927471160889,6.841492176055908,1.6252851486206055,-1407.639404296875,0
59.3080000000009,-0.02949715033173561,-0.02231152169406414,-0.007061351556330919,0.0,0.0,0.0,0.0,-0.001680441782809794,-0.004115707706660032,0.001770839444361627,0.999539315700531,0.0,0.0,0.0,7.7789130210876465,6.844479560852051,1.627368450164795,-1407.9986572265625,0
69.19100000000071,-0.029371872544288635,-0.02237476035952568,-0.006977418903261423,0.0,0.0,0.0,0.0,0.0003849396016448736,-0.0033423216082155704,-0.002476633759215474,1.0009721517562866,0.0,0.0,0.0,7.770812511444092,6.841771125793457,1.6400779485702515,-1406.532470703125,0
79.08500000000095,-0.029430406168103218,-0.022346992045640945,-0.007033420726656914,0.0,0.0,0.0,0.0,0.00031942472560331225,-0.002174895955249667,0.002155574504286051,1.0024316310882568,0.0,0.0,0.0,7.78244161605835,6.851104736328125,1.6575655937194824,-1408.6375732421875,0
88.96300000000156,-0.029301928356289864,-0.022409876808524132,-0.006949468981474638,0.0,0.0,0.0,0.0,0.0016363079193979502,-0.005290829110890627,0.00017250253586098552,1.001857876777649,0.0,0.0,0.0,7.773882865905762,6.84916877746582,1.6591851711273193,-1407.0882568359375,0
98.85100000000057,-0.029104478657245636,-0.022423524409532547,-0.006875472608953714,0.0,0.0,0.0,0.0,-0.002228308003395796,-0.0017272233963012695,-0.000741040799766779,0.9998023509979248,0.0,0.0,0.0,7.7787604331970215,6.859642028808594,1.6945555210113525,-1407.97119140625,0
108.72600000000057,-0.028969990089535713,-0.022484712302684784,-0.0067899273708462715,0.0,0.0,0.0,0.0,-0.0008729124674573541,0.0019318669801577926,0.0005433544283732772,0.9996147751808167,0.0,0.0,0.0,7.771249771118164,6.861377716064453,1.6900714635849,-1406.611572265625,0
118.62700000000041,-0.02914780005812645,-0.02237745001912117,-0.006942516192793846,0.0,0.0,0.0,0.0,-0.0005503061111085117,-0.0015732585452497005,0.00024508548085577786,1.001163363456726,0.0,0.0,0.0,7.782481670379639,6.869931697845459,1.6895188093185425,-1408.644775390625,0
128.4940000000006,-0.02901098132133484,-0.022440167143940926,-0.006858987733721733,0.0,0.0,0.0,0.0,0.001200569444335997,-0.0014876894420012832,-0.0037844881881028414,1.0027339458465576,0.0,0.0,0.0,7.774909019470215,6.8629255294799805,1.6922881603240967,-1407.27392578125,0
138.39800000000105,-0.029068412259221077,-0.022374283522367477,-0.006908833049237728,0.0,0.0,0.0,0.0,-0.004043975844979286,-0.004042288288474083,0.0029319324530661106,1.0010449886322021,0.0,0.0,0.0,7.780155181884766,6.877696514129639,1.7036439180374146,-1408.2235107421875,0
148.26600000000144,-0.028926320374011993,-0.02243712730705738,-0.0068223620764911175,0.0,0.0,0.0,0.0,-0.0014123900327831507,-0.0008381052175536752,0.0015270245494320989,1.0010473728179932,0.0,0.0,0.0,7.771483421325684,6.880005836486816,1.706930160522461,-1406.6539306640625,0
158.17000000000007,-0.02919650822877884,-0.022368235513567924,-0.0069893887266516685,0.0,0.0,0.0,0.0,0.00048024291754700243,-0.00024891243083402514,-0.0007279350538738072,1.0005496740341187,0.0,0.0,0.0,7.7826056480407715,6.871821880340576,1.6968719959259033,-1408.667236328125,0
168.03499999999985,-0.029056210070848465,-0.022432740777730942,-0.0069002676755189896,0.0,0.0,0.0,0.0,-0.00349014182575047,-0.003437525825574994,-0.002829641569405794,0.9970385432243347,0.0,0.0,0.0,7.775148868560791,6.857282638549805,1.69468092918396,-1407.3173828125,0
177.9330000000009,-0.029202505946159363,-0.02240927331149578,-0.006968316156417131,0.0,0.0,0.0,0.0,-0.0012953703990206122,0.0013084105448797345,-0.0010750526562333107,1.0002529621124268,0.0,0.0,0.0,7.786844730377197,6.848354339599609,1.6858336925506592,-1409.4344482421875,0
187.8090000000011,-0.0290632713586092,-0.02247677557170391,-0.006879539228975773,0.0,0.0,0.0,0.0,0.0019167321734130383,-0.006521007511764765,-0.0015681127551943064,1.0018937587738037,0.0,0.0,0.0,7.778282165527344,6.84555721282959,1.6808156967163086,-1407.884521484375,0
197.70100000000093,-0.029283985495567322,-0.0223932396620512,-0.006996551062911749,0.0,0.0,0.0,0.0,0.001868595601990819,-0.00044933651224710047,0.004627765156328678,1.000959038734436,0.0,0.0,0.0,7.7918195724487305,6.84684419631958,1.6765902042388916,-1410.3349609375,0
207.59200000000055,-0.02914264053106308,-0.022460224106907845,-0.0069054109044373035,0.0,0.0,0.0,0.0,0.001299555297009647,0.0034593534655869007,-0.002284707734361291,1.0019581317901611,0.0,0.0,0.0,7.784877777099609,6.83926248550415,1.6835201978683472,-1409.078369140625,0
217.47100000000137,-0.02928008884191513,-0.02238669991493225,-0.006985385902225971,0.0,0.0,0.0,0.0,0.0037726329173892736,-0.0005148051423020661,-0.0031923726201057434,0.9998213052749634,0.0,0.0,0.0,7.793411731719971,6.844205379486084,1.6804125308990479,-1410.623046875,0
227.34900000000016,-0.029137661680579185,-0.02245476096868515,-0.006890830583870411,0.0,0.0,0.0,0.0,0.0017877916106954217,0.0015591676346957684,-0.0021429613698273897,0.9986128211021423,0.0,0.0,0.0,7.784661769866943,6.831326961517334,1.6807268857955933,-1409.0394287109375,0
237.246000000001,-0.029261119663715363,-0.022396180778741837,-0.006963662803173065,0.0,0.0,0.0,0.0,0.002599326428025961,0.0005955978995189071,-5.7703386119101197e-05,0.9967029094696045,0.0,0.0,0.0,7.7917633056640625,6.831817150115967,1.6770756244659424,-1410.32470703125,0
247.1170000000002,-0.029117824509739876,-0.02246713638305664,-0.006870363838970661,0.0,0.0,0.0,0.0,-0.0003618799091782421,0.005113895982503891,0.0041127391159534454,0.99772047996521,0.0,0.0,0.0,7.785008907318115,6.820867538452148,1.6703526973724365,-1409.1021728515625,0
257.01900000000023,-0.028972862288355827,-0.022540094330906868,-0.0067793941125273705,0.0,0.0,0.0,0.0,-0.0003383293515071273,-0.000670139619614929,0.0009006023756228387,0.9994823336601257,0.0,0.0,0.0,7.777728080749512,6.813863277435303,1.6608226299285889,-1407.7841796875,0
266.89000000000124,-0.02882729098200798,-0.022615689784288406,-0.0066904062405228615,0.0,0.0,0.0,0.0,0.0030669819097965956,-0.002103053266182542,-0.0008435513009317219,1.000342607498169,0.0,0.0,0.0,7.769471168518066,6.804065227508545,1.6587440967559814,-1406.2896728515625,0
276.78499999999985,-0.02900172770023346,-0.022540831938385963,-0.006786775775253773,0.0,0.0,0.0,0.0,-0.0030622121412307024,-8.999866986414418e-05,0.0006678252830170095,1.0004597902297974,0.0,0.0,0.0,7.780451774597168,6.808928966522217,1.6638535261154175,-1408.2772216796875,0
286.66899999999987,-0.028859242796897888,-0.022617444396018982,-0.006697407457977533,0.0,0.0,0.0,0.0,-0.0003968039818573743,0.001002143369987607,-0.0015159602044150233,1.0005295276641846,0.0,0.0,0.0,7.7727837562561035,6.803681373596191,1.6611989736557007,-1406.8892822265625,0
296.5560000000005,-0.02913825586438179,-0.02245340123772621,-0.006863580550998449,0.0,0.0,0.0,0.0,-0.001708810101263225,0.0038378143217414618,0.0011900026584044099,0.9998272061347961,0.0,0.0,0.0,7.782750606536865,6.826014518737793,1.6576638221740723,-1408.693359375,0
306.4330000000009,-0.029001235961914062,-0.02252659574151039,-0.006772469729185104,0.0,0.0,0.0,0.0,-0.0002960097626782954,-0.001797151518985629,0.0007925282698124647,1.000436782836914,0.0,0.0,0.0,7.774899482727051,6.824924945831299,1.6424070596694946,-1407.272216796875,0
316.32700000000114,-0.029067503288388252,-0.02244536392390728,-0.006859569810330868,0.0,0.0,0.0,0.0,-0.0009748931042850018,-0.0024013156071305275,0.00023998403048608452,1.0037070512771606,0.0,0.0,0.0,7.786805629730225,6.837547302246094,1.6571972370147705,-1409.4273681640625,0
326.2000000000007,-0.028928952291607857,-0.022518489509820938,-0.006769723724573851,0.0,0.0,0.0,0.0,-0.0006707352586090565,-0.002251740312203765,0.0015238949563354254,1.0014094114303589,0.0,0.0,0.0,7.779866695404053,6.826698303222656,1.6569186449050903,-1408.1712646484375,0
336.09500000000116,-0.029020601883530617,-0.022433342412114143,-0.006856085732579231,0.0,0.0,0.0,0.0,-0.0016588724683970213,-0.002235203981399536,-8.642504326417111e-06,1.000078797340393,0.0,0.0,0.0,7.790322303771973,6.845306873321533,1.6829313039779663,-1410.0638427734375,0
345.97100000000137,-0.02917827107012272,-0.022388111799955368,-0.006947449408471584,0.0,0.0,0.0,0.0,0.0014411637093871832,0.0028498955070972443,-0.00574083486571908,1.0007725954055786,0.0,0.0,0.0,7.799467086791992,6.844112873077393,1.6825515031814575,-1411.718994140625,0
355.8690000000006,-0.02903977781534195,-0.022459952160716057,-0.006854010745882988,0.0,0.0,0.0,0.0,-0.0008512925123795867,0.00014018837828189135,0.00041853488073684275,0.9985516667366028,0.0,0.0,0.0,7.79054594039917,6.84201192855835,1.6687202453613281,-1410.1043701171875,0
365.7490000000016,-0.029310649260878563,-0.022403201088309288,-0.007020127028226852,0.0,0.0,0.0,0.0,0.003269825829192996,0.0049026403576135635,0.004126559942960739,0.9986787438392639,0.0,0.0,0.0,7.79914665222168,6.84104061126709,1.6521687507629395,-1411.6611328125,0
375.64100000000144,-0.02917354367673397,-0.02247677743434906,-0.0069279796443879604,0.0,0.0,0.0,0.0,-0.00023119991237763315,-0.0037311662454158068,0.001856920076534152,1.0003738403320312,0.0,0.0,0.0,7.7916412353515625,6.824742317199707,1.6413363218307495,-1410.3026123046875,0
385.5120000000006,-0.029374459758400917,-0.02238297648727894,-0.007047681137919426,0.0,0.0,0.0,0.0,-0.0011511477641761303,0.004965729080140591,0.0027007597964257,0.9991927742958069,0.0,0.0,0.0,7.804310321807861,6.834109306335449,1.639155626296997,-1412.595703125,0
395.40400000000045,-0.02923533506691456,-0.02245534397661686,-0.006955800112336874,0.0,0.0,0.0,0.0,-0.002194399479776621,-0.004947055596858263,8.491116022923961e-05,0.998816967010498,0.0,0.0,0.0,7.796236991882324,6.8306450843811035,1.6365166902542114,-1411.134521484375,0
405.28400000000147,-0.02948247268795967,-0.02234433963894844,-0.0071027036756277084,0.0,0.0,0.0,0.0,-0.0013318824348971248,-0.0037484162021428347,0.00042808172293007374,0.9999672770500183,0.0,0.0,0.0,7.803268909454346,6.841685771942139,1.6336584091186523,-1412.4072265625,0
415.1800000000003,-0.029344679787755013,-0.022415269166231155,-0.007011997047811747,0.0,0.0,0.0,0.0,-0.0011823383392766118,0.0044866884127259254,-0.0019946880638599396,0.999412477016449,0.0,0.0,0.0,7.795891284942627,6.8325982093811035,1.6310975551605225,-1411.0718994140625,0
425.0540000000001,-0.02943659946322441,-0.022372066974639893,-0.007079824339598417,0.0,0.0,0.0,0.0,-0.0012000673450529575,0.0010633496567606926,7.89602127042599e-05,0.998582124710083,0.0,0.0,0.0,7.796903610229492,6.84299373626709,1.644903302192688,-1411.2550048828125,0
434.95200000000114,-0.02929685264825821,-0.02244342491030693,-0.006990419700741768,0.0,0.0,0.0,0.0,-0.0016837682342156768,0.0019467644160613418,0.0024349121376872063,0.9986532330513,0.0,0.0,0.0,7.790013790130615,6.838131904602051,1.6335153579711914,-1410.008056640625,0
444.8250000000007,-0.02929001860320568,-0.02237778715789318,-0.007025096565485001,0.0,0.0,0.0,0.0,-0.0012092855758965015,0.001972382189705968,-1.546082057757303e-05,1.000206470489502,0.0,0.0,0.0,7.804823398590088,6.861392498016357,1.6457070112228394,-1412.6885986328125,0
454.7220000000016,-0.029145721346139908,-0.02244746685028076,-0.006939220242202282,0.0,0.0,0.0,0.0,-0.0017534217331558466,0.002978338161483407,-0.001308065839111805,0.9995365738868713,0.0,0.0,0.0,7.7965803146362305,6.860965728759766,1.6468347311019897,-1411.196533203125,0
464.59400000000096,-0.02917562611401081,-0.022389456629753113,-0.006981761194765568,0.0,0.0,0.0,0.0,0.00014290054969023913,-0.00530110253021121,0.0011550021590664983,0.9992915987968445,0.0,0.0,0.0,7.806718826293945,6.881687164306641,1.6532717943191528,-1413.0316162109375,0
494.26700000000164,-0.028949009254574776,-0.02245916798710823,-0.006875577382743359,0.0,0.0,0.0,0.0,0.0024635381996631622,0.0019347809720784426,-0.002541532274335623,0.9986496567726135,0.0,0.0,0.0,7.805175304412842,6.88481330871582,1.668314814567566,-1412.752197265625,0
504.1360000000004,-0.02879803441464901,-0.022528663277626038,-0.006787527352571487,0.0,0.0,0.0,0.0,0.0006543973577208817,0.0040456801652908325,-0.003240721533074975,0.9995599389076233,0.0,0.0,0.0,7.79739236831665,6.8770318031311035,1.6650352478027344,-1411.343505859375,0
514.0360000000001,-0.02864648960530758,-0.02259880118072033,-0.006699770223349333,0.0,0.0,0.0,0.0,0.0015541553730145097,-0.0032084351405501366,-0.00037766474997624755,0.9983037710189819,0.0,0.0,0.0,7.788707733154297,6.865827560424805,1.6613632440567017,-1409.771728515625,0
523.9060000000009,-0.029086884111166,-0.022424213588237762,-0.006931498646736145,0.0,0.0,0.0,0.0,0.0026840900536626577,0.005593068897724152,-0.0018643197836354375,1.000646948814392,0.0,0.0,0.0,7.7997331619262695,6.875817775726318,1.6548255681991577,-1411.767333984375,0
533.8100000000013,-0.028943685814738274,-0.02249409630894661,-0.006842024624347687,0.0,0.0,0.0,0.0,-0.0012705730041489005,0.0011434633051976562,0.0010947857517749071,1.0011882781982422,0.0,0.0,0.0,7.791532516479492,6.860332012176514,1.6449283361434937,-1410.2828369140625,0
543.6760000000013,-0.02943435125052929,-0.022298170253634453,-0.007083896081894636,0.0,0.0,0.0,0.0,0.002105114981532097,0.0019988841377198696,0.0018554532434791327,0.9978001713752747,0.0,0.0,0.0,7.80601167678833,6.87168550491333,1.623626947402954,-1412.9036865234375,0
553.5720000000001,-0.029296908527612686,-0.022362317889928818,-0.006990084890276194,0.0,0.0,0.0,0.0,-0.002518645254895091,-0.0012763077393174171,-0.0025530909188091755,0.9989213347434998,0.0,0.0,0.0,7.798961639404297,6.864434719085693,1.6112569570541382,-1411.627685546875,0
563.4540000000015,-0.029554953798651695,-0.02229766733944416,-0.007110791280865669,0.0,0.0,0.0,0.0,2.9966342481202446e-05,0.00012808367318939418,-0.0017264409689232707,1.0000883340835571,0.0,0.0,0.0,7.811074733734131,6.8589091300964355,1.595461130142212,-1413.820068359375,0
573.344000000001,-0.029422301799058914,-0.02236132323741913,-0.007016750518232584,0.0,0.0,0.0,0.0,-0.0005621172022074461,0.002170434221625328,0.0025329613126814365,1.0020421743392944,0.0,0.0,0.0,7.802865505218506,6.852217674255371,1.591921091079712,-1412.3341064453125,0
583.219000000001,-0.02953152544796467,-0.02233407273888588,-0.007098822388797998,0.0,0.0,0.0,0.0,0.002644286723807454,0.0008090749615803361,-0.004399156663566828,1.00075101852417,0.0,0.0,0.0,7.817348957061768,6.848017692565918,1.5908668041229248,-1414.9556884765625,0
593.1180000000004,-0.02939651720225811,-0.022400129586458206,-0.0070038181729614735,0.0,0.0,0.0,0.0,0.0008881278918124735,-0.0008185128681361675,-0.003238400910049677,1.0017685890197754,0.0,0.0,0.0,7.809488296508789,6.839643478393555,1.5813536643981934,-1413.532958984375,0
602.9930000000004,-0.029260139912366867,-0.02246824838221073,-0.006907116621732712,0.0,0.0,0.0,0.0,-0.002867750823497772,0.003473827848210931,0.0016923993825912476,1.002695083618164,0.0,0.0,0.0,7.801420211791992,6.837109565734863,1.5742875337600708,-1412.072509765625,0
612.8860000000004,-0.029122717678546906,-0.022538509219884872,-0.00680848304182291,0.0,0.0,0.0,0.0,0.00225903675891459,0.00021652839495800436,0.0021114263217896223,1.0028693675994873,0.0,0.0,0.0,7.794125556945801,6.834669589996338,1.576361894607544,-1410.752197265625,0
622.768,-0.029293540865182877,-0.022423187270760536,-0.006910140626132488,0.0,0.0,0.0,0.0,-0.003654426196590066,-0.0023693786934018135,0.001949614379554987,1.0027371644973755,0.0,0.0,0.0,7.803069591522217,6.850406169891357,1.5626270771026611,-1412.37109375,0
632.652,-0.02915588952600956,-0.02249228209257126,-0.006806675344705582,0.0,0.0,0.0,0.0,0.00022693643404636532,-0.004698024597018957,-4.239722329657525e-05,1.0025700330734253,0.0,0.0,0.0,7.795975685119629,6.843335151672363,1.5556975603103638,-1411.087158203125,0
642.5300000000007,-0.029106682166457176,-0.022436432540416718,-0.00682422798126936,0.0,0.0,0.0,0.0,-0.00036275290767662227,0.002499302849173546,-0.0004198759270366281,1.0012080669403076,0.0,0.0,0.0,7.809512138366699,6.867578029632568,1.5949900150299072,-1413.5372314453125,0
652.4279999999999,-0.02896430902183056,-0.02250402420759201,-0.0067183575592935085,0.0,0.0,0.0,0.0,0.0009762444533407688,0.0010015572188422084,-0.0010919739725068212,0.99900221824646,0.0,0.0,0.0,7.8030500411987305,6.856105804443359,1.5947115421295166,-1412.36767578125,0
662.3020000000015,-0.028942499309778214,-0.022460445761680603,-0.006728979293256998,0.0,0.0,0.0,0.0,-0.0009832308860495687,-0.002612511860206723,0.0037881408352404833,0.9997081160545349,0.0,0.0,0.0,7.808976173400879,6.865047931671143,1.604299545288086,-1413.440185546875,0
672.2040000000015,-0.02879587560892105,-0.0225246399641037,-0.006624019239097834,0.0,0.0,0.0,0.0,-0.0008312080171890557,0.00014372108853422105,-0.0012425293680280447,1.0018366575241089,0.0,0.0,0.0,7.800233364105225,6.862382411956787,1.6146366596221924,-1411.8577880859375,0
682.0730000000003,-0.02864799275994301,-0.02258826419711113,-0.006518630310893059,0.0,0.0,0.0,0.0,0.0014696232974529266,-0.0013230913318693638,-0.0011748317629098892,1.000047206878662,0.0,0.0,0.0,7.792140483856201,6.86259651184082,1.6085987091064453,-1410.3929443359375,0
691.9710000000014,-0.02849910967051983,-0.022652463987469673,-0.006412122398614883,0.0,0.0,0.0,0.0,-0.0036381117533892393,-0.007037100847810507,0.0017935058567672968,1.0002018213272095,0.0,0.0,0.0,7.783712863922119,6.854323863983154,1.6228022575378418,-1408.8675537109375,0
701.8430000000008,-0.02834993600845337,-0.02271842584013939,-0.0063047856092453,0.0,0.0,0.0,0.0,-0.0031061063054949045,-0.0010762109886854887,0.0007836879813112319,0.9994562864303589,0.0,0.0,0.0,7.776533603668213,6.844733238220215,1.6297760009765625,-1407.5679931640625,0
711.7480000000014,-0.028199905529618263,-0.0227862186729908,-0.006197180133312941,0.0,0.0,0.0,0.0,-0.0024519977159798145,0.0011827845592051744,-0.0016148855211213231,1.0023996829986572,0.0,0.0,0.0,7.769230365753174,6.845573425292969,1.6359643936157227,-1406.24609375,0
721.6220000000012,0.0237705260515213,-0.04156944155693054,0.0311221182346344,0.0,0.0,0.0,0.0,0.0008897098596207798,0.000738676346372813,8.39824861031957e-05,1.0017143487930298,0.0,0.0,0.0,7.672672271728516,6.603312969207764,2.0787534713745117,-1388.7689208984375,0
731.5060000000012,0.024309784173965454,-0.04178117960691452,0.031490061432123184,0.0,0.0,0.0,0.0,-0.001554314629174769,0.001741468207910657,0.003564237616956234,0.9999110698699951,0.0,0.0,0.0,7.665853023529053,6.600707530975342,2.0749144554138184,-1387.53466796875,0
741.4000000000015,0.024852436035871506,-0.04199404641985893,0.03185971826314926,0.0,0.0,0.0,0.0,-0.001344299060292542,-0.0014245101483538747,-0.002130204578861594,0.9976677298545837,0.0,0.0,0.0,7.659152507781982,6.595483779907227,2.069033145904541,-1386.3218994140625,0
751.2759999999998,0.025396546348929405,-0.042207252234220505,0.0322294607758522,0.0,0.0,0.0,0.0,0.0007174310158006847,-0.0068433210253715515,0.0013590020826086402,0.9991466999053955,0.0,0.0,0.0,7.651556491851807,6.590775489807129,2.072951078414917,-1384.9468994140625,0
761.1560000000009,0.025942133739590645,-0.04242159053683281,0.03259781375527382,0.0,0.0,0.0,0.0,-0.0011869465233758092,-0.00460124621167779,0.0026501344982534647,0.9997526407241821,0.0,0.0,0.0,7.644221782684326,6.5820088386535645,2.0730626583099365,-1383.6192626953125,0
771.0510000000013,0.02649025060236454,-0.042638979852199554,0.03296539932489395,0.0,0.0,0.0,0.0,-0.0035413966979831457,-0.00634565856307745,-0.0009379629045724869,1.0004680156707764,0.0,0.0,0.0,7.638116359710693,6.576124668121338,2.090437412261963,-1382.5142822265625,0
780.9310000000005,0.027040714398026466,-0.042859140783548355,0.033333078026771545,0.0,0.0,0.0,0.0,-5.800154667667812e-06,-0.003749780124053359,0.0003297329240012914,1.0002598762512207,0.0,0.0,0.0,7.629618167877197,6.578035831451416,2.103315830230713,-1380.97607421875,0
790.8230000000003,0.02759290486574173,-0.0430813692510128,0.03370123356580734,0.0,0.0,0.0,0.0,-0.00030669174157083035,-0.0031410271767526865,0.0008263389463536441,1.002268671989441,0.0,0.0,0.0,7.621904373168945,6.5787153244018555,2.1015141010284424,-1379.579833984375,0
800.6970000000001,0.028146876022219658,-0.043306633830070496,0.03407030180096626,0.0,0.0,0.0,0.0,-0.0015300019877031446,-0.0006272656610235572,0.00026078795781359076,1.0003974437713623,0.0,0.0,0.0,7.614834785461426,6.5754804611206055,2.110522508621216,-1378.30029296875,0
810.5960000000014,0.028702951967716217,-0.043535009026527405,0.03444062918424606,0.0,0.0,0.0,0.0,-0.002464447170495987,0.0015801038825884461,-0.000246095412876457,1.0014370679855347,0.0,0.0,0.0,7.607664108276367,6.571556091308594,2.1205849647521973,-1377.0023193359375,0
820.4740000000002,0.029261015355587006,-0.04376639425754547,0.03481233865022659,0.0,0.0,0.0,0.0,-8.787853585090488e-05,-0.0008317916071973741,0.0003404900198802352,1.0021668672561646,0.0,0.0,0.0,7.60000467300415,6.575624942779541,2.12534499168396,-1375.615966796875,0
830.3600000000006,0.02982124127447605,-0.044000934809446335,0.03518553078174591,0.0,0.0,0.0,0.0,-0.0002547370095271617,0.008233967237174511,0.003262908896431327,1.0023859739303589,0.0,0.0,0.0,7.592586517333984,6.569666862487793,2.11578369140625,-1374.273193359375,0
840.2510000000002,0.03038451261818409,-0.04423876851797104,0.03556107357144356,0.0,0.0,0.0,0.0,-0.0027219001203775406,-0.0012281251838430762,-0.0002487408637534827,1.002285122871399,0.0,0.0,0.0,7.583559513092041,6.566096782684326,2.1097805500030518,-1372.6392822265625,0
850.1450000000004,0.030950993299484253,-0.04447969049215317,0.03593950346112251,0.0,0.0,0.0,0.0,0.00238570268265903,0.0012757921358570457,-0.003521709004417062,0.9999661445617676,0.0,0.0,0.0,7.577125549316406,6.561661243438721,2.091911554336548,-1371.4747314453125,0
860.014000000001,0.03151910379528999,-0.0447230339050293,0.036319904029369354,0.0,0.0,0.0,0.0,-0.001674562692642212,-0.0011426334967836738,0.0008012966718524694,0.9989661574363708,0.0,0.0,0.0,7.569800853729248,6.5595574378967285,2.089317560195923,-1370.1490478515625,0
869.9030000000002,0.032087452709674835,-0.044968701899051666,0.03670103847980499,0.0,0.0,0.0,0.0,0.0013349129585549235,0.0033079730346798897,0.0007130155572667718,0.9988479018211365,0.0,0.0,0.0,7.561041831970215,6.551140308380127,2.089505910873413,-1368.5635986328125,0
879.7800000000007,0.03265762701630592,-0.045217230916023254,0.03708153963088989,0.0,0.0,0.0,0.0,0.0013299061683937907,0.006861596368253231,0.0006085967179387808,1.000375509262085,0.0,0.0,0.0,7.5543107986450195,6.54434061050415,2.0878372192382812,-1367.34521484375,0
889.6730000000007,0.033231910318136215,-0.04546910896897316,0.03746146708726883,0.0,0.0,0.0,0.0,0.0005310308770276606,-0.002204656833782792,-0.0011107076425105333,1.0005559921264648,0.0,0.0,0.0,7.546886444091797,6.5356926918029785,2.071563720703125,-1366.0015869140625,0
899.5570000000007,0.033534642308950424,-0.04503197222948074,0.03822607174515724,0.0,0.0,0.0,0.0,-0.001364562544040382,-0.0051549687050282955,0.0020250799134373665,1.0019673109054565,0.0,0.0,0.0,7.591239929199219,6.650145530700684,2.048257827758789,-1374.029541015625,0
909.4630000000016,0.0341067872941494,-0.04525723680853844,0.038622740656137466,0.0,0.0,0.0,0.0,-0.0020170521456748247,-0.007120294030755758,-0.0013406425714492798,1.0005297660827637,0.0,0.0,0.0,7.584029197692871,6.647082328796387,2.0612919330596924,-1372.724365234375,0
919.3240000000005,0.03460566699504852,-0.0453396737575531,0.03908627852797508,0.0,0.0,0.0,0.0,0.0020544803701341152,0.0016340299043804407,-0.00248853606171906,1.0006119012832642,0.0,0.0,0.0,7.617600917816162,6.665494441986084,2.069002389907837,-1378.8009033203125,0
929.2300000000014,0.03518195450305939,-0.04556238278746605,0.03948831558227539,0.0,0.0,0.0,0.0,-9.679255890659988e-05,0.0002470352337695658,0.004611440934240818,1.000423789024353,0.0,0.0,0.0,7.610116958618164,6.659722328186035,2.073235511779785,-1377.4462890625,0
939.1020000000008,0.03570786863565445,-0.04577998071908951,0.03989212214946747,0.0,0.0,0.0,0.0,0.0012670010328292847,0.0018019682029262185,-0.0013825338101014495,0.9996287822723389,0.0,0.0,0.0,7.638059139251709,6.650294780731201,2.0565521717071533,-1382.50390625,0
948.9860000000008,0.03628764674067497,-0.04600539803504944,0.040296100080013275,0.0,0.0,0.0,0.0,0.0018751349998638034,0.0053832451812922955,0.0009177285828627646,1.0011043548583984,0.0,0.0,0.0,7.629976749420166,6.64112663269043,2.0552587509155273,-1381.041015625,0
958.862000000001,0.03681561350822449,-0.04615312069654465,0.04070628061890602,0.0,0.0,0.0,0.0,-0.00022814662952441722,-0.005163450259715319,0.001497573801316321,1.0011565685272217,0.0,0.0,0.0,7.661435604095459,6.646468639373779,2.042703628540039,-1386.735107421875,0
968.759,0.03739912807941437,-0.046378664672374725,0.04111256077885628,0.0,0.0,0.0,0.0,-1.3620430763694458e-05,-0.0018925346666947007,-0.0030489570926874876,0.9995003342628479,0.0,0.0,0.0,7.654619216918945,6.642032623291016,2.0445680618286133,-1385.501220703125,0
978.6330000000016,0.037924814969301224,-0.04658850282430649,0.04149704799056053,0.0,0.0,0.0,0.0,-0.0005270056426525116,0.0004792105464730412,-0.0004969178116880357,0.998701274394989,0.0,0.0,0.0,7.678187370300293,6.632331371307373,2.0455830097198486,-1389.7672119140625,0
988.527,0.03850940987467766,-0.04681635648012161,0.0419045090675354,0.0,0.0,0.0,0.0,-0.001612566178664565,0.0005212659016251564,0.0012351011391729116,1.000933289527893,0.0,0.0,0.0,7.670886039733887,6.630246639251709,2.0447893142700195,-1388.4456787109375,0
998.4040000000005,0.039031125605106354,-0.04702398180961609,0.04227635636925697,0.0,0.0,0.0,0.0,0.004147413186728954,0.001965770497918129,0.0034604647662490606,1.0013718605041504,0.0,0.0,0.0,7.696331977844238,6.625794887542725,2.047017812728882,-1393.0513916015625,0
1008.3070000000007,0.039613787084817886,-0.047256022691726685,0.04268328472971916,0.0,0.0,0.0,0.0,-0.0002548622142057866,0.0018089417135342956,0.0004459274641703814,0.9988301396369934,0.0,0.0,0.0,7.6890177726745605,6.615886211395264,2.045189619064331,-1391.7275390625,0
1018.1760000000013,0.040176961570978165,-0.0474090650677681,0.04305911436676979,0.0,0.0,0.0,0.0,0.00030433625215664506,0.002309159142896533,0.0010134020121768117,1.0006405115127563,0.0,0.0,0.0,7.71390438079834,6.6279168128967285,2.05966854095459,-1396.23193359375,0
1028.0880000000016,0.040764905512332916,-0.047641605138778687,0.04346470534801483,0.0,0.0,0.0,0.0,0.00151173141784966,-0.0016849561361595988,-2.2423020709538832e-05,0.9999570250511169,0.0,0.0,0.0,7.706140995025635,6.623064041137695,2.0561442375183105,-1394.8267822265625,0
1037.9470000000001,0.04125133529305458,-0.047776248306035995,0.04383956640958786,0.0,0.0,0.0,0.0,-0.001682861940935254,0.006853199563920498,-0.00014092569472268224,0.999168872833252,0.0,0.0,0.0,7.727118968963623,6.638189792633057,2.044473648071289,-1398.6239013671875,0
1047.8460000000014,0.04183875024318695,-0.04800698906183243,0.04424571990966797,0.0,0.0,0.0,0.0,0.0008470416069030762,0.00041008659172803164,0.0011003708932548761,1.0001275539398193,0.0,0.0,0.0,7.720309257507324,6.63149881362915,2.0378668308258057,-1397.391357421875,0
1057.7200000000012,0.04230635613203049,-0.04820043221116066,0.04459352418780327,0.0,0.0,0.0,0.0,-5.508050526259467e-05,0.0029551652260124683,0.003349707927554846,0.9999175667762756,0.0,0.0,0.0,7.736444473266602,6.632303714752197,2.0087273120880127,-1400.3118896484375,0
1067.6150000000016,0.04289164021611214,-0.04843264818191528,0.0449989028275013,0.0,0.0,0.0,0.0,0.0005690009566023946,0.002124077407643199,-0.004712383262813091,1.0008383989334106,0.0,0.0,0.0,7.728886127471924,6.621532917022705,2.001984119415283,-1398.9437255859375,0
1077.4880000000012,0.0433201864361763,-0.048579420894384384,0.04534536227583885,0.0,0.0,0.0,0.0,0.00150362029671669,0.0002724847581703216,-0.0005394365871325135,0.9997828602790833,0.0,0.0,0.0,7.7474164962768555,6.631168842315674,1.9910931587219238,-1402.2977294921875,0
1087.3960000000006,0.0439053550362587,-0.048811279237270355,0.04575277864933014,0.0,0.0,0.0,0.0,-0.00027381876134313643,-0.0017439357470721006,-0.0009313931805081666,1.0001970529556274,0.0,0.0,0.0,7.739619255065918,6.620654582977295,1.9893840551376343,-1400.886474609375,0
1097.2610000000004,0.044335391372442245,-0.048949889838695526,0.04609129950404167,0.0,0.0,0.0,0.0,-0.002202757401391864,-0.001618598704226315,0.0001077045890269801,1.002286672592163,0.0,0.0,0.0,7.757890701293945,6.63279914855957,1.9768450260162354,-1404.193603515625,0
1107.1599999999999,0.0449223592877388,-0.04918389022350311,0.046499527990818024,0.0,0.0,0.0,0.0,-0.00224738079123199,-0.0008471007458865643,-0.0013846689835190773,1.0005186796188354,0.0,0.0,0.0,7.750153064727783,6.628781795501709,1.972169280052185,-1402.793212890625,0
1117.045,0.04551156982779503,-0.049421124160289764,0.04690926522016525,0.0,0.0,0.0,0.0,-0.005585287697613239,-8.64184221427422e-06,0.0016276368405669928,1.0001022815704346,0.0,0.0,0.0,7.742896556854248,6.62899112701416,1.9822806119918823,-1401.479736328125,0
1126.9230000000007,0.04610223323106766,-0.04966040700674057,0.0473201684653759,0.0,0.0,0.0,0.0,-0.0032731767278164625,-1.0488707630429417e-05,-5.9919071645708755e-05,0.999523401260376,0.0,0.0,0.0,7.733756065368652,6.629544734954834,1.9822413921356201,-1399.8253173828125,0
1136.8020000000015,0.046533457934856415,-0.0497983917593956,0.047640297561883926,0.0,0.0,0.0,0.0,-0.0035889751743525267,-0.0005683337221853435,-0.002552633173763752,1.0019721984863281,0.0,0.0,0.0,7.7532572746276855,6.647494792938232,1.9763845205307007,-1403.35498046875,0
1146.6940000000013,0.0471227802336216,-0.05003641918301582,0.04805058240890503,0.0,0.0,0.0,0.0,0.00031108371331356466,0.0007220826810225844,-0.0019387012580409646,1.0009068250656128,0.0,0.0,0.0,7.7446417808532715,6.64900016784668,1.9762921333312988,-1401.795654296875,0
1156.5810000000001,0.04749993979930878,-0.05014386773109436,0.04835949465632439,0.0,0.0,0.0,0.0,-0.0005633648834191263,0.0069739134050905704,-0.0017082605045288801,0.9995930790901184,0.0,0.0,0.0,7.765158176422119,6.671549320220947,1.9529551267623901,-1405.509033203125,0
1166.4770000000008,0.04808769375085831,-0.05038199573755264,0.048772141337394714,0.0,0.0,0.0,0.0,0.0006457280833274126,-0.0006774560897611082,-0.0002261990448459983,1.0007351636886597,0.0,0.0,0.0,7.756921768188477,6.661962985992432,1.942543387413025,-1404.0181884765625,0
1176.344000000001,0.04838227480649948,-0.05050131678581238,0.04905867204070091,0.0,0.0,0.0,0.0,-0.002014571102336049,0.008400456979870796,-0.0026844071689993143,1.0001251697540283,0.0,0.0,0.0,7.776394367218018,6.666234970092773,1.9127261638641357,-1407.542724609375,0
1186.2360000000008,0.0489627979695797,-0.050741322338581085,0.04947308823466301,0.0,0.0,0.0,0.0,0.0022651306353509426,-0.0007918777409940958,-0.00023599149426445365,1.0020650625228882,0.0,0.0,0.0,7.769033908843994,6.659829139709473,1.8888392448425293,-1406.210693359375,0
1196.1150000000016,0.04926622286438942,-0.050853390246629715,0.04974517598748207,0.0,0.0,0.0,0.0,0.0020714527927339077,0.006839238107204437,-0.00012635606981348246,1.0013262033462524,0.0,0.0,0.0,7.78662109375,6.671234607696533,1.8664308786392212,-1409.3939208984375,0
1206.0200000000004,0.04984333738684654,-0.05109401419758797,0.050161443650722504,0.0,0.0,0.0,0.0,0.0014996306272223592,0.0007576033240184188,-0.0026805608067661524,0.9991687536239624,0.0,0.0,0.0,7.777987003326416,6.658629417419434,1.8598504066467285,-1407.8311767578125,0
1215.8970000000008,0.05022368207573891,-0.05120385065674782,0.050422921776771545,0.0,0.0,0.0,0.0,0.0019683444406837225,-0.0013904271181672812,0.0041257762350142,0.9984206557273865,0.0,0.0,0.0,7.783372402191162,6.6729936599731445,1.8593544960021973,-1408.805908203125,0
1225.7840000000015,0.050803087651729584,-0.05144375190138817,0.05083620175719261,0.0,0.0,0.0,0.0,-0.0010965989204123616,0.001041120383888483,-0.0002869584131985903,1.0009095668792725,0.0,0.0,0.0,7.776027202606201,6.6605448722839355,1.8569347858428955,-1407.476318359375,0
1235.6620000000003,0.05117904394865036,-0.051551442593336105,0.051083751022815704,0.0,0.0,0.0,0.0,0.0031212002504616976,0.0022282619029283524,0.0028537127654999495,1.0003091096878052,0.0,0.0,0.0,7.786487579345703,6.681130409240723,1.855441689491272,-1409.3697509765625,0
1245.5470000000005,0.051757991313934326,-0.05178939551115036,0.05149218067526817,0.0,0.0,0.0,0.0,-0.0019946321845054626,0.003861034521833062,-0.0007441223715431988,0.9971528053283691,0.0,0.0,0.0,7.7780561447143555,6.673420429229736,1.8466335535049438,-1407.843505859375,0
1255.4260000000013,0.052163273096084595,-0.05184318870306015,0.05174507200717926,0.0,0.0,0.0,0.0,-0.0008855181513354182,0.0034786222968250513,0.002171181607991457,0.9997829794883728,0.0,0.0,0.0,7.793320655822754,6.712404727935791,1.8572487831115723,-1410.6065673828125,0
1265.3200000000015,0.05274226889014244,-0.052072737365961075,0.05214754492044449,0.0,0.0,0.0,0.0,-0.004301536362618208,-0.006227582227438688,0.0053045134991407394,1.0020959377288818,0.0,0.0,0.0,7.784759044647217,6.706299781799316,1.8537153005599976,-1409.056884765625,0
1275.2020000000011,0.05308191850781441,-0.05212150886654854,0.05235367268323898,0.0,0.0,0.0,0.0,0.0008343993686139584,0.0041277166455984116,7.034320151433349e-05,0.9992260932922363,0.0,0.0,0.0,7.795249938964844,6.7417216300964355,1.8598744869232178,-1410.955810546875,0
1285.0930000000008,0.053661346435546875,-0.05234226584434509,0.05275225639343262,0.0,0.0,0.0,0.0,-5.544686791836284e-05,0.001329534687101841,-0.0022769274655729532,0.9988714456558228,0.0,0.0,0.0,7.78902006149292,6.73881721496582,1.8730034828186035,-1409.828125,0
1294.973,0.05424271896481514,-0.05256447196006775,0.05315069854259491,0.0,0.0,0.0,0.0,0.0012387201422825456,0.0012717213248834014,-0.002552360063418746,1.001895546913147,0.0,0.0,0.0,7.781482219696045,6.729048728942871,1.8542650938034058,-1408.463623046875,0
1304.8600000000006,0.0548262745141983,-0.05278879031538963,0.05354873090982437,0.0,0.0,0.0,0.0,-0.0032700616866350174,-0.001853093272075057,0.0005121405702084303,1.0001055002212524,0.0,0.0,0.0,7.772862434387207,6.722723960876465,1.8550539016723633,-1406.903564453125,0
1314.7430000000004,0.0549042709171772,-0.052740443497896194,0.053673241287469864,0.0,0.0,0.0,0.0,-0.0002734741719905287,-0.0014801699435338378,0.003923067823052406,0.9987540245056152,0.0,0.0,0.0,7.793015956878662,6.756828784942627,1.825211763381958,-1410.5513916015625,0
1324.6330000000016,0.055481813848018646,-0.05295903980731964,0.0540718249976635,0.0,0.0,0.0,0.0,0.0017082507256418467,-0.0005121835274621844,0.0006499862065538764,0.9989545345306396,0.0,0.0,0.0,7.785660266876221,6.756053924560547,1.8265039920806885,-1409.2200927734375,0
1334.5160000000014,0.05545130372047424,-0.05296773463487625,0.054137781262397766,0.0,0.0,0.0,0.0,-0.0031104618683457375,-0.0011589095229282975,-0.002000772627070546,0.9994511008262634,0.0,0.0,0.0,7.8050360679626465,6.755190849304199,1.7942594289779663,-1412.72705078125,0
1344.4040000000005,0.05601586028933525,-0.053186625242233276,0.05453319475054741,0.0,0.0,0.0,0.0,-0.0021467956248670816,-8.084527507890016e-05,-0.002379809273406863,0.9989804625511169,0.0,0.0,0.0,7.797245979309082,6.747117042541504,1.7957472801208496,-1411.3170166015625,0
1354.2930000000015,0.056080885231494904,-0.053186044096946716,0.05460093170404434,0.0,0.0,0.0,0.0,-0.0008686752407811582,-0.001456542988307774,-0.002330382354557514,0.9997484683990479,0.0,0.0,0.0,7.808757781982422,6.7683587074279785,1.774688720703125,-1413.400634765625,0
1364.184000000001,0.05663770064711571,-0.05340595543384552,0.05499061569571495,0.0,0.0,0.0,0.0,0.004827492870390415,-0.0013340992154553533,0.0007317208219319582,1.0022135972976685,0.0,0.0,0.0,7.8006792068481445,6.766726016998291,1.7729257345199585,-1411.9384765625,0
1374.059000000001,0.05719675496220589,-0.0536290742456913,0.055380210280418396,0.0,0.0,0.0,0.0,-0.0005686096847057343,-0.005184214562177658,0.002022514818236232,1.0018457174301147,0.0,0.0,0.0,7.792366027832031,6.754518032073975,1.7647584676742554,-1410.4337158203125,0
1383.9450000000015,0.05775683373212814,-0.053853970021009445,0.055771857500076294,0.0,0.0,0.0,0.0,0.0013942504301667213,0.004334417171776295,0.0020034180488437414,1.0004782676696777,0.0,0.0,0.0,7.7848100662231445,6.7437920570373535,1.7656527757644653,-1409.066162109375,0
1393.83,0.05763735622167587,-0.053810689598321915,0.05575310066342354,0.0,0.0,0.0,0.0,-0.002317067701369524,0.0006670858128927648,0.0004985734121873975,0.9996311068534851,0.0,0.0,0.0,7.801121711730957,6.761591911315918,1.7448723316192627,-1412.0186767578125,0
1403.7220000000016,0.0581863708794117,-0.05403372645378113,0.05614375323057175,0.0,0.0,0.0,0.0,-0.00028565365937538445,-0.006285480223596096,-0.000114061200292781,1.000308871269226,0.0,0.0,0.0,7.7942304611206055,6.75447416305542,1.7225377559661865,-1410.771240234375,0
1413.5990000000002,0.05805467814207077,-0.053980130702257156,0.056109338998794556,0.0,0.0,0.0,0.0,0.0009526650537736714,0.0030293746385723352,0.0006361751002259552,1.0003836154937744,0.0,0.0,0.0,7.808844089508057,6.775420665740967,1.7082246541976929,-1413.416259765625,0
1423.4930000000004,0.05859558284282684,-0.054198816418647766,0.05649595335125923,0.0,0.0,0.0,0.0,-0.0021133851259946823,0.0007334803813137114,-0.00011344222002662718,0.9992468953132629,0.0,0.0,0.0,7.801094055175781,6.771157264709473,1.7089730501174927,-1412.0135498046875,0
1433.3690000000006,0.058597855269908905,-0.05416131392121315,0.0564798004925251,0.0,0.0,0.0,0.0,-0.0034118674229830503,-0.0031832584645599127,0.0006478503346443176,1.00096595287323,0.0,0.0,0.0,7.8063063621521,6.790452003479004,1.6946063041687012,-1412.95703125,0
1443.2570000000014,0.05913626775145531,-0.054373156279325485,0.05685956031084061,0.0,0.0,0.0,0.0,-0.00132240098901093,-0.002191199455410242,-0.003376095788553357,1.002431035041809,0.0,0.0,0.0,7.7990851402282715,6.78534460067749,1.6967271566390991,-1411.6500244140625,0
1453.1420000000016,0.05907569080591202,-0.05431026965379715,0.05681155249476433,0.0,0.0,0.0,0.0,0.002104977611452341,0.002041164319962263,-0.0016959027852863073,0.9993007779121399,0.0,0.0,0.0,7.8066205978393555,6.819161891937256,1.6930623054504395,-1413.0137939453125,0
1463.0330000000013,0.059607092291116714,-0.05451727658510208,0.057187389582395554,0.0,0.0,0.0,0.0,-0.002690727822482586,0.0007934084278531373,0.0008484727586619556,1.0005505084991455,0.0,0.0,0.0,7.798576354980469,6.810676097869873,1.673115849494934,-1411.5579833984375,0
1472.9270000000015,0.05950070545077324,-0.054424844682216644,0.057104647159576416,0.0,0.0,0.0,0.0,0.0032633859664201736,0.004266687203198671,-0.001070673461072147,1.0000121593475342,0.0,0.0,0.0,7.808655261993408,6.845812797546387,1.6670122146606445,-1413.382080078125,0
1482.7980000000007,0.06002756580710411,-0.054625000804662704,0.05747406184673309,0.0,0.0,0.0,0.0,0.0011146657634526491,-0.00036403440753929317,0.002684313803911209,1.000218152999878,0.0,0.0,0.0,7.800495624542236,6.837891578674316,1.6516989469528198,-1411.9052734375,0
1492.6930000000011,0.0598289929330349,-0.054550882428884506,0.057327836751937866,0.0,0.0,0.0,0.0,0.0007884926744736731,-0.00036465920857153833,-0.004064127802848816,1.0017250776290894,0.0,0.0,0.0,7.804041385650635,6.848212718963623,1.6256343126296997,-1412.5469970703125,0
1502.5770000000011,0.060345541685819626,-0.05474754422903061,0.057690370827913284,0.0,0.0,0.0,0.0,0.00012184045772301033,-0.004301127977669239,0.0010398022131994367,1.0009785890579224,0.0,0.0,0.0,7.794749736785889,6.840915679931641,1.6327629089355469,-1410.8653564453125,0
1512.4580000000005,0.060234010219573975,-0.05465446040034294,0.05757534131407738,0.0,0.0,0.0,0.0,-0.0009424043819308281,-0.0009614541777409613,0.0014857223723083735,1.0000667572021484,0.0,0.0,0.0,7.811142921447754,6.8687543869018555,1.635804295539856,-1413.8323974609375,0
1522.3510000000006,0.06074118614196777,-0.05484871193766594,0.057932063937187195,0.0,0.0,0.0,0.0,0.002188561949878931,3.837548865703866e-05,-0.0033644374925643206,1.0016980171203613,0.0,0.0,0.0,7.803046703338623,6.857254981994629,1.639154314994812,-1412.366943359375,0
1532.2390000000014,0.060548678040504456,-0.054727040231227875,0.05776721239089966,0.0,0.0,0.0,0.0,0.0004279069253243506,-0.0024207178503274918,0.002752539934590459,0.9988643527030945,0.0,0.0,0.0,7.809267997741699,6.882592678070068,1.6230790615081787,-1413.4930419921875,0
1542.1280000000006,0.06104835495352745,-0.05491803586483002,0.05811707675457001,0.0,0.0,0.0,0.0,-0.0023740206379443407,-0.002024931600317359,-0.002587907249107957,1.00009024143219,0.0,0.0,0.0,7.801731109619141,6.878911018371582,1.630341649055481,-1412.12890625,0
1552.0130000000008,0.060717713087797165,-0.054762713611125946,0.057860925793647766,0.0,0.0,0.0,0.0,-0.0011431202292442322,-0.0068487441167235374,0.0033611722756177187,1.0021703243255615,0.0,0.0,0.0,7.8192033767700195,6.900389194488525,1.6326649188995361,-1415.291259765625,0
1561.8830000000016,0.06120781600475311,-0.054948657751083374,0.05820169299840927,0.0,0.0,0.0,0.0,0.0009431319194845855,0.003288445994257927,0.0004761622694786638,0.9993898868560791,0.0,0.0,0.0,7.811861991882324,6.903466701507568,1.64778470993042,-1413.962646484375,0
1571.7740000000013,0.060858599841594696,-0.0547962449491024,0.05793872848153114,0.0,0.0,0.0,0.0,0.003967480268329382,0.005801834166049957,5.6721255532465875e-05,0.9990705251693726,0.0,0.0,0.0,7.830777168273926,6.923398017883301,1.6299548149108887,-1417.38623046875,0
1581.6599999999999,0.06133956089615822,-0.05497496575117111,0.058272216469049454,0.0,0.0,0.0,0.0,-0.0017777595203369856,0.004140650387853384,-0.002008772687986493,1.0008434057235718,0.0,0.0,0.0,7.824133396148682,6.915788650512695,1.6116106510162354,-1416.1837158203125,0
1591.5470000000005,0.06075923144817352,-0.05477846786379814,0.05788752809166908,0.0,0.0,0.0,0.0,-0.0018751304596662521,9.719262016005814e-05,0.002607964677736163,1.0000109672546387,0.0,0.0,0.0,7.826660633087158,6.922712802886963,1.5753936767578125,-1416.64111328125,0
1601.434000000001,0.06122370809316635,-0.05495324358344078,0.0582132488489151,0.0,0.0,0.0,0.0,-0.0032523784320801497,-0.002799003617838025,0.0009907505009323359,0.9986004829406738,0.0,0.0,0.0,7.819427967071533,6.9070868492126465,1.5621472597122192,-1415.33203125,0
1611.308000000001,0.060625020414590836,-0.05474090203642845,0.05781202018260956,0.0,0.0,0.0,0.0,-0.001920859096571803,0.0009054954862222075,-0.0008271447150036693,1.0016297101974487,0.0,0.0,0.0,7.825988292694092,6.925053596496582,1.5277729034423828,-1416.5194091796875,0
1621.192000000001,0.061075609177351,-0.054911792278289795,0.058129001408815384,0.0,0.0,0.0,0.0,-0.0013001317856833339,-0.004635110031813383,0.0024498545099049807,1.0017659664154053,0.0,0.0,0.0,7.8181843757629395,6.919549465179443,1.523922324180603,-1415.10693359375,0
1631.08,0.06036467105150223,-0.054625969380140305,0.05766668543219566,0.0,0.0,0.0,0.0,-0.0027246777899563313,-0.000930965703446418,-0.003853835631161928,0.9985739588737488,0.0,0.0,0.0,7.828479766845703,6.944954872131348,1.4972132444381714,-1416.9703369140625,0
1640.9710000000014,0.0607990063726902,-0.054793521761894226,0.057978514581918716,0.0,0.0,0.0,0.0,0.002440500073134899,0.006410506088286638,-0.0004014707519672811,0.9977255463600159,0.0,0.0,0.0,7.821066379547119,6.943648338317871,1.5004792213439941,-1415.6285400390625,0
1650.8510000000006,0.060120802372694016,-0.05452338233590126,0.05752510204911232,0.0,0.0,0.0,0.0,-0.000585320289246738,-0.0015764551935717463,0.001197774545289576,1.0006482601165771,0.0,0.0,0.0,7.8282647132873535,6.960761547088623,1.4707475900650024,-1416.931396484375,0
1660.7430000000004,0.06053974851965904,-0.05468747019767761,0.05782613158226013,0.0,0.0,0.0,0.0,0.0011462033726274967,0.002589594107121229,0.0013829442905262113,1.0014972686767578,0.0,0.0,0.0,7.820314407348633,6.955646514892578,1.4812712669372559,-1415.492431640625,0
1670.6240000000016,0.059903986752033234,-0.054477982223033905,0.05737033486366272,0.0,0.0,0.0,0.0,-0.002547984244301915,0.006717624142765999,0.0012987266527488828,0.9997938275337219,0.0,0.0,0.0,7.828990459442139,6.963014602661133,1.4521222114562988,-1417.0628662109375,0
1680.5020000000004,0.060311153531074524,-0.05463966354727745,0.057662926614284515,0.0,0.0,0.0,0.0,0.0015775326173752546,0.000711416476406157,-0.0028952041175216436,1.002225637435913,0.0,0.0,0.0,7.82197904586792,6.961996078491211,1.4462624788284302,-1415.793701171875,0
1690.398000000001,0.05947645381093025,-0.054321952164173126,0.057102203369140625,0.0,0.0,0.0,0.0,0.0005561113939620554,0.004362333100289106,-0.0002411719033261761,1.0010619163513184,0.0,0.0,0.0,7.83152437210083,6.982788562774658,1.4060230255126953,-1417.521484375,0
1700.2759999999998,0.05986855924129486,-0.05447851121425629,0.05738816782832146,0.0,0.0,0.0,0.0,-0.0012140716426074505,-0.0036704426165670156,0.003944505006074905,1.000174641609192,0.0,0.0,0.0,7.823182106018066,6.978524208068848,1.396060824394226,-1416.011474609375,0
1710.1599999999999,0.05908318981528282,-0.05417487025260925,0.056835681200027466,0.0,0.0,0.0,0.0,0.0010551544837653637,-0.0033989818766713142,-0.00028012748225592077,0.9985969662666321,0.0,0.0,0.0,7.825175762176514,6.994121551513672,1.3621817827224731,-1416.372314453125,0
1720.0480000000007,0.05946340784430504,-0.054321154952049255,0.057112596929073334,0.0,0.0,0.0,0.0,0.002829425735399127,0.006278137676417828,0.00011341073695803061,0.9975560903549194,0.0,0.0,0.0,7.817039966583252,6.987092018127441,1.3687702417373657,-1414.8997802734375,0
1729.934000000001,0.058824848383665085,-0.05405455827713013,0.05661185830831528,0.0,0.0,0.0,0.0,0.0030666443053632975,0.002835758961737156,0.0006544524803757668,1.0017247200012207,0.0,0.0,0.0,7.829809188842773,7.007741928100586,1.3580304384231567,-1417.2109375,0
1739.8190000000013,0.05919794365763664,-0.054194435477256775,0.05687512829899788,0.0,0.0,0.0,0.0,-0.0017038522055372596,0.003364093601703644,-0.0027097577694803476,1.0001188516616821,0.0,0.0,0.0,7.823050498962402,6.998073101043701,1.3601313829421997,-1415.98779296875,0
1749.6990000000005,0.05827618017792702,-0.05388615280389786,0.05623497813940048,0.0,0.0,0.0,0.0,0.0009352603228762746,0.0018487445777282119,-0.004102610982954502,0.9998955726623535,0.0,0.0,0.0,7.834364891052246,6.999521255493164,1.3203591108322144,-1418.03564453125,0
1759.585000000001,0.058632224798202515,-0.054021600633859634,0.05648931860923767,0.0,0.0,0.0,0.0,0.00033814646303653717,0.00018518218712415546,0.0031746134627610445,1.0003386735916138,0.0,0.0,0.0,7.825545310974121,6.992489337921143,1.3118928670883179,-1416.439208984375,0
1769.4680000000008,0.05782724544405937,-0.05369756370782852,0.05587195232510567,0.0,0.0,0.0,0.0,0.002133153611794114,0.0017015229677781463,0.0011818698840215802,0.9998373985290527,0.0,0.0,0.0,7.82924747467041,7.009423732757568,1.2916243076324463,-1417.1092529296875,0
1779.3600000000006,0.058172084391117096,-0.05382834002375603,0.05611424893140793,0.0,0.0,0.0,0.0,4.182893826509826e-05,-3.1412502721650526e-05,-0.004510052967816591,0.9979262351989746,0.0,0.0,0.0,7.822259426116943,7.005340099334717,1.2829687595367432,-1415.8446044921875,0
1789.2400000000016,0.05707936733961105,-0.053437430411577225,0.055358659476041794,0.0,0.0,0.0,0.0,-0.003629749407991767,0.0004907069378532469,0.0004167977022007108,0.9986405968666077,0.0,0.0,0.0,7.833961009979248,7.014769554138184,1.2586450576782227,-1417.9625244140625,0
1799.1230000000014,0.057404495775699615,-0.05356675758957863,0.05558941885828972,0.0,0.0,0.0,0.0,-0.00013091274013277143,-0.00169860920868814,-0.0003572852292563766,0.9987350702285767,0.0,0.0,0.0,7.825472831726074,7.009424686431885,1.262573480606079,-1416.4261474609375,0
1809.027,0.05630433186888695,-0.05316658690571785,0.05481891334056854,0.0,0.0,0.0,0.0,0.0007304209866560996,0.0016060578636825085,0.00031868970836512744,1.001821756362915,0.0,0.0,0.0,7.834344387054443,7.029603481292725,1.232280969619751,-1418.031982421875,0
1818.8940000000002,0.05661166459321976,-0.053290899842977524,0.05503728985786438,0.0,0.0,0.0,0.0,0.0010865109506994486,-0.003948321100324392,-0.0011302431812509894,0.998759388923645,0.0,0.0,0.0,7.826207160949707,7.031061172485352,1.2378703355789185,-1416.55908203125,0
1828.7810000000009,0.05553321912884712,-0.052905913442373276,0.054271116852760315,0.0,0.0,0.0,0.0,0.0021592769771814346,0.0029272993560880423,-0.0002449305320624262,0.9978519678115845,0.0,0.0,0.0,7.832099914550781,7.035048961639404,1.198391079902649,-1417.6256103515625,0
1838.6730000000007,0.05582500994205475,-0.05302542448043823,0.054478831589221954,0.0,0.0,0.0,0.0,0.0006958362064324319,0.0006831468199379742,-0.0024771143216639757,1.0001949071884155,0.0,0.0,0.0,7.824887275695801,7.025527000427246,1.2026262283325195,-1416.320068359375,0
1848.5650000000005,0.054495666176080704,-0.052553314715623856,0.05358543619513512,0.0,0.0,0.0,0.0,-0.004369958303868771,0.006899597123265266,0.0001238393597304821,0.9980904459953308,0.0,0.0,0.0,7.828636169433594,7.042063236236572,1.1545227766036987,-1416.9986572265625,0
1858.4450000000015,0.05476873368024826,-0.05266793444752693,0.053782109171152115,0.0,0.0,0.0,0.0,0.0004485198587644845,0.0018422340508550406,-0.002604280598461628,0.9975420832633972,0.0,0.0,0.0,7.821072578430176,7.037938594818115,1.1370675563812256,-1415.629638671875,0
1868.3330000000005,0.05370883643627167,-0.05229652673006058,0.052993595600128174,0.0,0.0,0.0,0.0,-0.002086490159854293,-0.008286143653094769,-0.0005591528606601059,0.9995423555374146,0.0,0.0,0.0,7.825209617614746,7.0452117919921875,1.1031943559646606,-1416.3785400390625,0
1878.2030000000013,0.05396583303809166,-0.05241033062338829,0.05317499861121178,0.0,0.0,0.0,0.0,0.001612932188436389,0.00022865900245960802,0.0009751749457791448,1.0019268989562988,0.0,0.0,0.0,7.815783977508545,7.043341636657715,1.1099662780761719,-1414.67236328125,0
1888.0960000000014,0.0528731495141983,-0.052041638642549515,0.05237605422735214,0.0,0.0,0.0,0.0,-0.0034532893914729357,-0.00643980922177434,-0.0005025455029681325,1.002277135848999,0.0,0.0,0.0,7.820558547973633,7.046865463256836,1.0889145135879517,-1415.53662109375,0
1897.9770000000008,0.05311327427625656,-0.05215277895331383,0.05254732817411423,0.0,0.0,0.0,0.0,0.003820587880909443,-0.0010877300519496202,-0.0013007262023165822,1.0023796558380127,0.0,0.0,0.0,7.8117356300354,7.037766933441162,1.0953041315078735,-1413.939697265625,0
1907.866,0.0518832802772522,-0.051693618297576904,0.0516701377928257,0.0,0.0,0.0,0.0,0.003272732486948371,0.002949279733002186,-0.0032698160503059626,0.9991253018379211,0.0,0.0,0.0,7.814820289611816,7.062991619110107,1.077328085899353,-1414.498046875,0
1917.7560000000012,0.05210693180561066,-0.051797084510326385,0.051834430545568466,0.0,0.0,0.0,0.0,0.0031172791495919228,0.0017410285072401166,-0.004345426335930824,0.9984581470489502,0.0,0.0,0.0,7.807186603546143,7.051268100738525,1.0855826139450073,-1413.1163330078125,0
1927.6360000000004,0.050868455320596695,-0.051336269825696945,0.05094705522060394,0.0,0.0,0.0,0.0,-0.002409592969343066,0.006190468091517687,3.584683145163581e-05,0.9991580843925476,0.0,0.0,0.0,7.812306880950928,7.062453746795654,1.0599784851074219,-1414.043212890625,0
1937.5150000000012,0.05107705667614937,-0.05143439769744873,0.051098912954330444,0.0,0.0,0.0,0.0,-9.191176650347188e-05,-0.003579661948606372,0.0034777200780808926,0.9985377192497253,0.0,0.0,0.0,7.8041863441467285,7.047918319702148,1.0514851808547974,-1412.5732421875,0
1947.416000000001,0.05128505080938339,-0.051534999161958694,0.05125006288290024,0.0,0.0,0.0,0.0,-0.0021070123184472322,-0.0018762602703645825,-0.0028608920983970165,1.0005420446395874,0.0,0.0,0.0,7.795362949371338,7.043180465698242,1.0402610301971436,-1410.976318359375,0
1957.295,0.0514916330575943,-0.051637936383485794,0.0514005571603775,0.0,0.0,0.0,0.0,0.005178384482860565,0.003982058260589838,0.00241644075140357,1.001345157623291,0.0,0.0,0.0,7.787895679473877,7.028164863586426,1.0455243587493896,-1409.624755859375,0
1967.1850000000013,0.05027514696121216,-0.05112290382385254,0.050495509058237076,0.0,0.0,0.0,0.0,-0.002285860013216734,0.002115400740876794,-0.0011567901819944382,1.0018621683120728,0.0,0.0,0.0,7.796572685241699,7.070039749145508,1.0456374883651733,-1411.1951904296875,0
1977.0650000000005,0.05046670883893967,-0.05121506005525589,0.05063513293862343,0.0,0.0,0.0,0.0,0.0010128403082489967,-0.0028041983023285866,-0.0002076143427984789,1.0008801221847534,0.0,0.0,0.0,7.789018154144287,7.062466621398926,1.0433930158615112,-1409.8277587890625,0
1986.9530000000013,0.04923424869775772,-0.05075874179601669,0.049718812108039856,0.0,0.0,0.0,0.0,-0.0022827303037047386,0.00011859922960866243,0.0009594467701390386,0.9999377727508545,0.0,0.0,0.0,7.794033527374268,7.075154781341553,1.039401888847351,-1410.735595703125,0
1996.8270000000011,0.049412015825510025,-0.05084285885095596,0.049848128110170364,0.0,0.0,0.0,0.0,-0.0009681793744675815,0.003659728681668639,0.0014321991475299,0.9996005892753601,0.0,0.0,0.0,7.786147117614746,7.072944641113281,1.0296956300735474,-1409.3082275390625,0
2006.7240000000002,0.04791329428553581,-0.05029718577861786,0.04881179332733154,0.0,0.0,0.0,0.0,-0.003973657730966806,-0.0007134078186936677,-0.0012074210681021214,1.0006177425384521,0.0,0.0,0.0,7.791226863861084,7.0903706550598145,1.001845121383667,-1410.2275390625,0
2016.612000000001,0.04807111993432045,-0.05037563666701317,0.04893095791339874,0.0,0.0,0.0,0.0,0.0008805611869320273,-0.004374001175165176,0.005188773851841688,0.9990841746330261,0.0,0.0,0.0,7.783622741699219,7.084793567657471,0.9952479004859924,-1408.851318359375,0
2026.4970000000012,0.04659387096762657,-0.04985067620873451,0.04789987578988075,0.0,0.0,0.0,0.0,-0.0005530992639251053,0.0002884764107875526,-0.000761116505600512,0.9997677206993103,0.0,0.0,0.0,7.796537399291992,7.0973029136657715,0.9728846549987793,-1411.188720703125,0
2036.3740000000016,0.04673315957188606,-0.049923792481422424,0.04800848662853241,0.0,0.0,0.0,0.0,0.00012908989447169006,0.0054206643253564835,0.002368439920246601,1.0007009506225586,0.0,0.0,0.0,7.788552284240723,7.089643955230713,0.9780276417732239,-1409.7435302734375,0
2046.2580000000016,0.045396413654088974,-0.04943804815411568,0.047036781907081604,0.0,0.0,0.0,0.0,-0.0002840504457708448,0.0034445219207555056,-0.0008106149034574628,1.00272536277771,0.0,0.0,0.0,7.801271915435791,7.101782321929932,0.9533771276473999,-1412.0457763671875,0
2056.1400000000012,0.04552188888192177,-0.04950563982129097,0.0471346341073513,0.0,0.0,0.0,0.0,0.0007662388379685581,3.6189670936437324e-05,0.0028448589146137238,0.9992883801460266,0.0,0.0,0.0,7.792907238006592,7.0968918800354,0.9613267183303833,-1410.53173828125,0
2066.0330000000013,0.04432550072669983,-0.04900548607110977,0.046203553676605225,0.0,0.0,0.0,0.0,0.0005975409876555204,0.0007821365143172443,0.0019384262850508094,0.9995883107185364,0.0,0.0,0.0,7.802309036254883,7.125374794006348,0.9556321501731873,-1412.2333984375,0
2075.9090000000015,0.04444028437137604,-0.04906390979886055,0.04628896713256836,0.0,0.0,0.0,0.0,0.0001349499507341534,-0.0008033159538172185,2.0885405319859274e-05,1.000335454940796,0.0,0.0,0.0,7.794787406921387,7.118419647216797,0.956391453742981,-1410.8720703125,0
2085.8050000000003,0.04302598536014557,-0.04848906770348549,0.04527131840586662,0.0,0.0,0.0,0.0,0.0010899456683546305,0.001506331143900752,-0.0008425870910286903,1.0013943910598755,0.0,0.0,0.0,7.802714824676514,7.1498308181762695,0.9564082622528076,-1412.306884765625,0
2095.696,0.04312490299344063,-0.04853556677699089,0.045346472412347794,0.0,0.0,0.0,0.0,-0.0018418768886476755,-0.000527910131495446,0.0030461642891168594,1.0015946626663208,0.0,0.0,0.0,7.793969631195068,7.145394325256348,0.9609887003898621,-1410.7239990234375,0
2105.571,0.04174845665693283,-0.048007234930992126,0.04434853419661522,0.0,0.0,0.0,0.0,-9.069561201613396e-05,0.00042455660877749324,-0.0009176756138913333,0.9999691843986511,0.0,0.0,0.0,7.804516792297363,7.161658763885498,0.9471649527549744,-1412.6331787109375,0
2115.4580000000005,0.0418301597237587,-0.04804746434092522,0.04441531375050545,0.0,0.0,0.0,0.0,-0.0017197782872244716,0.002475332235917449,-0.0025236853398382664,1.0011311769485474,0.0,0.0,0.0,7.797246932983398,7.1555705070495605,0.9403067231178284,-1411.3172607421875,0
2125.3430000000008,0.04050534591078758,-0.047525908797979355,0.04341014474630356,0.0,0.0,0.0,0.0,0.0013531374279409647,0.0009548484231345356,-0.002105612540617585,1.0008606910705566,0.0,0.0,0.0,7.808085918426514,7.176549434661865,0.9251288175582886,-1413.279052734375,0
2135.2300000000014,0.04057442769408226,-0.04755924269556999,0.04346541687846184,0.0,0.0,0.0,0.0,-0.004262853879481554,0.007984294556081295,0.003302269848063588,1.000335454940796,0.0,0.0,0.0,7.798563480377197,7.16845178604126,0.9101608395576477,-1411.5555419921875,0
2145.1180000000004,0.039245013147592545,-0.04703928902745247,0.04247371107339859,0.0,0.0,0.0,0.0,-0.0003452329256106168,-0.0021598332095891237,-0.00448857294395566,0.9982452988624573,0.0,0.0,0.0,7.806420803070068,7.189446926116943,0.9007611870765686,-1412.9776611328125,0
2155.009,0.03929920122027397,-0.04706776514649391,0.04251805692911148,0.0,0.0,0.0,0.0,-0.0006064124754630029,0.0004302247252780944,0.0005403222166933119,1.001068115234375,0.0,0.0,0.0,7.800114154815674,7.188467502593994,0.904984712600708,-1411.836181640625,0
2164.881000000001,0.03795866295695305,-0.04654219001531601,0.041514329612255096,0.0,0.0,0.0,0.0,-0.0022480275947600603,0.0015623008366674185,-0.0023736071307212114,0.9986563920974731,0.0,0.0,0.0,7.79978084564209,7.2042107582092285,0.8979613780975342,-1411.77587890625,0
2174.7650000000012,0.03799809515476227,-0.04656662419438362,0.041545942425727844,0.0,0.0,0.0,0.0,-0.002058793790638447,-0.0030535494443029165,0.0006742338300682604,1.0006399154663086,0.0,0.0,0.0,7.792030334472656,7.202264308929443,0.8921082615852356,-1410.373046875,0
2184.6550000000007,0.03638780489563942,-0.04599833860993385,0.04042832553386688,0.0,0.0,0.0,0.0,0.00018799091049004346,0.002205787692219019,-0.0007916025351732969,1.002140760421753,0.0,0.0,0.0,7.799583911895752,7.210087299346924,0.8686779141426086,-1411.740234375,0
2194.541000000001,0.03640712425112724,-0.04601626098155975,0.0404510460793972,0.0,0.0,0.0,0.0,-0.0008586142212152481,0.0036887191236019135,0.001906246761791408,1.0011751651763916,0.0,0.0,0.0,7.790404796600342,7.208961486816406,0.8815121054649353,-1410.0787353515625,0
