timestamp,stateEstimate.x,stateEstimate.y,stateEstimate.z,controller.cmd_thrust,controller.cmd_roll,controller.cmd_pitch,controller.cmd_yaw,controller.r_roll,controller.r_pitch,controller.r_yaw,controller.accelz,controller.actuatorThrust,controller.roll,controller.pitch,controller.yaw,controller.rollRate,controller.pitchRate,controller.yawRate,controller.ctr_yaw
0.0,-4.9461967137176543e-05,-0.00020961250993423164,-0.00010895533341681585,0.0,0.0,0.0,0.0,0.0001896120811579749,0.0006863406160846353,0.001916533219628036,0.9988468289375305,0.0,0.0,0.0,0.26705649495124817,1.8269760608673096,4.709151268005371,-48.33776092529297,0
9.893000000000029,-0.00010364587069489062,-0.0002551910874899477,-0.00011970980995101854,0.0,0.0,0.0,0.0,0.0011468380689620972,-0.0010674967197701335,0.0010208465391770005,0.9989160299301147,0.0,0.0,0.0,0.2678345739841461,1.8252846002578735,4.70025110244751,-48.47858810424805,0
19.80500000000029,-9.196187602356076e-05,-0.00018025907047558576,-8.648832590552047e-05,0.0,0.0,0.0,0.0,-0.0022927995305508375,-0.0008007572032511234,0.00240132212638855,0.998634934425354,0.0,0.0,0.0,0.27289900183677673,1.8254343271255493,4.691288948059082,-49.395259857177734,0
29.715000000000146,-0.0001512159506091848,-0.0002297327882843092,-9.630522254155949e-05,0.0,0.0,0.0,0.0,-0.0021367634180933237,-0.0017011852469295263,0.0020386071410030127,0.9997323751449585,0.0,0.0,0.0,0.27319982647895813,1.828331708908081,4.690503120422363,-49.44970703125,0
39.62700000000041,-9.271380986319855e-05,-0.00014662984176538885,-0.00011304772488074377,0.0,0.0,0.0,0.0,9.020297875395045e-05,-0.004599974025040865,0.000148957667988725,0.9989416003227234,0.0,0.0,0.0,0.2731970250606537,1.8297975063323975,4.688892364501953,-49.4492073059082,0
49.53600000000006,-0.0001539423828944564,-0.00019607644935604185,-0.00012460618745535612,0.0,0.0,0.0,0.0,0.0015168783720582724,-0.0022702254354953766,-0.0003812550858128816,0.9983309507369995,0.0,0.0,0.0,0.27404582500457764,1.8267524242401123,4.692417144775391,-49.602840423583984,0
59.44800000000032,-0.0001334583794232458,-0.00011494558566482738,-0.00016601367678958923,0.0,0.0,0.0,0.0,0.0035369964316487312,-0.0006435250397771597,0.001014287699945271,0.9985920190811157,0.0,0.0,0.0,0.274054616689682,1.8224036693572998,4.692039489746094,-49.60443115234375,0
69.36100000000079,-0.00019585067639127374,-0.00016471973503939807,-0.00018222058133687824,0.0,0.0,0.0,0.0,-0.00012516797869466245,0.0031579670030623674,-9.185601811623201e-05,0.9988036751747131,0.0,0.0,0.0,0.27387046813964844,1.8136026859283447,4.684885501861572,-49.571102142333984,0
79.27499999999964,-0.00024138152366504073,-0.00016853246779646724,-0.00020896043861284852,0.0,0.0,0.0,0.0,0.0015818247338756919,0.0005065456498414278,5.110719212098047e-05,1.000693678855896,0.0,0.0,0.0,0.2725420892238617,1.8094123601913452,4.673210620880127,-49.33066177368164,0
89.18000000000029,-0.00030720027280040085,-0.00022042686759959906,-0.00022718202671967447,0.0,0.0,0.0,0.0,-0.005043537821620703,0.004404423292726278,0.0019189706072211266,0.9999122023582458,0.0,0.0,0.0,0.27270057797431946,1.8039013147354126,4.6711955070495605,-49.35934829711914,0
99.09100000000035,-0.00022762242588214576,-0.00017322710482403636,-0.00017344926891382784,0.0,0.0,0.0,0.0,0.001957538304850459,0.001473299809731543,-0.002125450875610113,0.9999589920043945,0.0,0.0,0.0,0.27294325828552246,1.8059537410736084,4.656918048858643,-49.40327072143555,0
109.00799999999981,-0.00029276873101480305,-0.000225365802180022,-0.00018647564866114408,0.0,0.0,0.0,0.0,0.0005292478599585593,0.0009314705966971815,0.0035088856238871813,0.9978692531585693,0.0,0.0,0.0,0.27250033617019653,1.8016633987426758,4.6493024826049805,-49.32310485839844,0
118.91799999999967,-0.00032717452268116176,-0.00021224711963441223,-0.00022287639148999006,0.0,0.0,0.0,0.0,0.0025145201943814754,-0.0002285487571498379,-0.002532483544200659,0.9982924461364746,0.0,0.0,0.0,0.2734360694885254,1.7969175577163696,4.644007205963135,-49.49247360229492,0
128.82699999999932,-0.0003962244954891503,-0.00026556968805380166,-0.0002399370860075578,0.0,0.0,0.0,0.0,1.4977176761021838e-05,-0.0007140109082683921,-0.0036550152581185102,0.9974917769432068,0.0,0.0,0.0,0.27279162406921387,1.7966289520263672,4.642427921295166,-49.37582778930664,0
138.73899999999958,-0.0003977745654992759,-0.00019440990581642836,-0.00033427399466745555,0.0,0.0,0.0,0.0,-0.00045796934864483774,0.002299930900335312,9.893332025967538e-05,0.9995579719543457,0.0,0.0,0.0,0.27093207836151123,1.833103060722351,4.670846462249756,-49.03924560546875,0
148.64600000000064,-0.0004670567868743092,-0.00024456976098008454,-0.00036115103284828365,0.0,0.0,0.0,0.0,0.0012969609815627337,0.0010682872962206602,-0.0008126642787829041,0.998336136341095,0.0,0.0,0.0,0.2707780599594116,1.8306714296340942,4.651546955108643,-49.01136779785156,0
158.5669999999991,-9.603405487723649e-05,-0.00021398592798504978,-0.000229570476221852,0.0,0.0,0.0,0.0,0.0017090978799387813,0.0055581009946763515,-0.0010475543094798923,0.9998472332954407,0.0,0.0,0.0,0.269069105386734,1.8209738731384277,4.734494209289551,-48.70204162597656,0
168.46700000000055,-0.00015047735359985381,-0.0002649084781296551,-0.0002480607945472002,0.0,0.0,0.0,0.0,-2.7936184778809547e-05,-0.004874292761087418,0.0025084251537919044,1.0008516311645508,0.0,0.0,0.0,0.26891908049583435,1.8110361099243164,4.717648506164551,-48.674888610839844,0
178.39500000000044,-7.241538696689531e-05,-0.0001581068499945104,-0.00023278582375496626,0.0,0.0,0.0,0.0,-0.0022103118244558573,-0.0005033600609749556,0.0025442843325436115,1.001150369644165,0.0,0.0,0.0,0.2688794732093811,1.8075385093688965,4.722865581512451,-48.667720794677734,0
188.29099999999926,-0.00012968273949809372,-0.0002068750764010474,-0.00024798643426038325,0.0,0.0,0.0,0.0,0.0015709971776232123,-0.0021859665866941214,-0.00017760079936124384,0.9996823072433472,0.0,0.0,0.0,0.26964884996414185,1.811373233795166,4.720162868499756,-48.806976318359375,0
198.21099999999933,-0.00010580199159448966,-0.00013180621317587793,-0.00025408054352737963,0.0,0.0,0.0,0.0,-0.00035134932841174304,0.0020308070816099644,-0.0007283463492058218,0.9995220303535461,0.0,0.0,0.0,0.26957422494888306,1.8069325685501099,4.719208717346191,-48.79347229003906,0
208.11000000000058,-0.00016598508227616549,-0.00017995887901633978,-0.0002682163321878761,0.0,0.0,0.0,0.0,0.0018123479094356298,-0.003400894347578287,-0.0004927684785798192,0.9992491006851196,0.0,0.0,0.0,0.26889461278915405,1.8050411939620972,4.704591751098633,-48.67045974731445,0
218.02800000000025,-0.00023251102538779378,-0.0001973714679479599,-0.0002609768998809159,0.0,0.0,0.0,0.0,-0.0008026852156035602,5.10424688400235e-05,-0.001798818469978869,1.000774621963501,0.0,0.0,0.0,0.26908165216445923,1.7987473011016846,4.708385944366455,-48.704315185546875,0
227.9339999999993,-0.00010290512000210583,-0.00018767997971735895,-0.00015640939818695188,0.0,0.0,0.0,0.0,0.0010000236798077822,0.0017334910808131099,-0.0012347266310825944,1.0011928081512451,0.0,0.0,0.0,0.26884281635284424,1.7990353107452393,4.7051825523376465,-48.66108322143555,0
237.84900000000016,-9.179939661407843e-05,-0.00015143259952310473,-0.00021859614935237914,0.0,0.0,0.0,0.0,0.001846969942562282,0.001434730482287705,0.0020636622793972492,1.0019843578338623,0.0,0.0,0.0,0.2681698203086853,1.7927777767181396,4.693633556365967,-48.53927230834961,0
247.76100000000042,-0.00015344300481956452,-0.00020226594642736018,-0.00022472375712823123,0.0,0.0,0.0,0.0,0.0038964455015957355,0.004320982377976179,0.00016914856678340584,1.0001466274261475,0.0,0.0,0.0,0.26844143867492676,1.790763258934021,4.681824684143066,-48.588436126708984,0
257.6700000000001,-0.00019997193885501474,-0.00017546408344060183,-0.00022399640874937177,0.0,0.0,0.0,0.0,-0.0005590937798842788,-0.001138709718361497,0.0028163972310721874,0.9979241490364075,0.0,0.0,0.0,0.2674453854560852,1.7836312055587769,4.666316509246826,-48.408145904541016,0
267.5759999999991,-0.000266309711150825,-0.00022685591829940677,-0.00022923157666809857,0.0,0.0,0.0,0.0,-8.159244316630065e-05,-0.003087024437263608,0.0027670578565448523,0.999538242816925,0.0,0.0,0.0,0.26783180236816406,1.7851823568344116,4.665220260620117,-48.47808837890625,0
277.491,-0.0003077189903706312,-0.00016202428378164768,-0.00023452291497960687,0.0,0.0,0.0,0.0,-0.0003579373296815902,-0.0020573101937770844,0.0006636953912675381,1.0003331899642944,0.0,0.0,0.0,0.27087196707725525,1.8213801383972168,4.678416728973389,-49.02836608886719,0
287.39500000000044,-0.00012045149196637794,-0.00017899427621159703,-7.111908053047955e-05,0.0,0.0,0.0,0.0,0.002670309506356716,0.001976156374439597,0.004072047304362059,1.0036474466323853,0.0,0.0,0.0,0.2659664452075958,1.8289240598678589,4.743284225463867,-48.14045333862305,0
297.3179999999993,-0.00014232507965061814,-0.00018597839516587555,-9.190411219606176e-05,0.0,0.0,0.0,0.0,-0.0016356856795027852,0.002906528301537037,0.004600993357598782,1.000809907913208,0.0,0.0,0.0,0.2667810022830963,1.8190596103668213,4.732426166534424,-48.28788757324219,0
307.21999999999935,-0.00017378051416017115,-0.00014389849093277007,-4.133917536819354e-05,0.0,0.0,0.0,0.0,0.0006561639020219445,0.0016976395854726434,-0.0016153015894815326,1.0008455514907837,0.0,0.0,0.0,0.2674177289009094,1.8196824789047241,4.724936008453369,-48.403141021728516,0
317.1389999999992,-0.00019617326324805617,-0.00014798311167396605,-6.36764380033128e-05,0.0,0.0,0.0,0.0,0.003294906811788678,0.0014356293249875307,0.0008351535070687532,0.9993864893913269,0.0,0.0,0.0,0.27230000495910645,1.8231911659240723,4.717566967010498,-49.286842346191406,0
327.04199999999946,-0.00020294892601668835,-0.00012720070662908256,-9.357117960462347e-06,0.0,0.0,0.0,0.0,-0.0019320885185152292,0.0021537095308303833,0.003098550485447049,0.999642014503479,0.0,0.0,0.0,0.2719532549381256,1.8166179656982422,4.7063212394714355,-49.22407913208008,0
336.96999999999935,-0.00021715823095291853,-0.000128211933770217,-4.537769564194605e-05,0.0,0.0,0.0,0.0,0.0001399743923684582,-0.001971581717953086,0.00020859776122961193,0.9999755024909973,0.0,0.0,0.0,0.27217671275138855,1.81260347366333,4.6994781494140625,-49.2645263671875,0
346.86199999999917,-0.00013770580699201673,-0.00016490915731992573,1.6144802430062555e-05,0.0,0.0,0.0,0.0,0.001052459585480392,0.00038862749352119863,0.00023156247334554791,1.0002453327178955,0.0,0.0,0.0,0.27190229296684265,1.8135926723480225,4.6942362785339355,-49.2148551940918,0
356.77800000000025,-0.000149564424646087,-0.0001527092099422589,-1.4428113900066819e-05,0.0,0.0,0.0,0.0,0.0019112542504444718,-0.0006204248056747019,0.0007968597928993404,1.000238299369812,0.0,0.0,0.0,0.2715553045272827,1.8127856254577637,4.6926045417785645,-49.15205001831055,0
366.6919999999991,-0.00013963923265691847,-0.00015024817548692226,4.21405493398197e-05,0.0,0.0,0.0,0.0,0.0001958676875801757,0.000733874156139791,0.0006990660331211984,0.9992788434028625,0.0,0.0,0.0,0.2721993923187256,1.808043360710144,4.6869401931762695,-49.26863098144531,0
376.6090000000004,-0.0001384613278787583,-0.0001142770197475329,7.76346951170126e-07,0.0,0.0,0.0,0.0,-0.000615091877989471,0.003992769401520491,0.0038562696427106857,0.9993563294410706,0.0,0.0,0.0,0.2717333734035492,1.8053829669952393,4.680222034454346,-49.18428039550781,0
386.5020000000004,-0.0001141665197792463,-0.0001500143262092024,4.6776392991887406e-05,0.0,0.0,0.0,0.0,-7.378574809990823e-05,-0.0014488260494545102,-0.00113346753641963,0.9991967678070068,0.0,0.0,0.0,0.26621633768081665,1.8118098974227905,4.674330234527588,-48.185691833496094,0
396.4290000000001,-0.00011198698484804481,-0.00011921939585590735,-3.894227120326832e-06,0.0,0.0,0.0,0.0,0.001390544231981039,-0.00016244493599515408,0.0003962167538702488,0.998363733291626,0.0,0.0,0.0,0.26552626490592957,1.8126791715621948,4.675717830657959,-48.0607795715332,0
406.3269999999993,-9.370687621412799e-05,-0.0001430369884474203,4.392288610688411e-05,0.0,0.0,0.0,0.0,-0.001971085788682103,0.002159095136448741,0.004704277962446213,0.9984279274940491,0.0,0.0,0.0,0.264857679605484,1.8083795309066772,4.6726884841918945,-47.93976593017578,0
416.2430000000004,-7.664996519451961e-05,-0.0001252803485840559,-4.0172537410398945e-05,0.0,0.0,0.0,0.0,0.0011260341852903366,-0.0001223225553985685,0.0007160758250392973,0.9996441602706909,0.0,0.0,0.0,0.2652117908000946,1.8123469352722168,4.66563606262207,-48.00386428833008,0
426.14600000000064,-7.130612357286736e-05,-0.00016992662858683616,-1.1787784387706779e-05,0.0,0.0,0.0,0.0,0.0010168494191020727,0.0012896923581138253,0.0017041414976119995,0.9993138313293457,0.0,0.0,0.0,0.26505106687545776,1.8093664646148682,4.656540870666504,-47.974769592285156,0
436.0689999999995,-5.283457721816376e-05,-0.00010896898311330006,-8.689081005286425e-05,0.0,0.0,0.0,0.0,-0.002110416302457452,0.003892149543389678,-0.0015359342796728015,1.0023845434188843,0.0,0.0,0.0,0.26525992155075073,1.8013496398925781,4.646692276000977,-48.012577056884766,0
445.97400000000016,-0.00012801987759303302,-0.00016434825374744833,-8.95398115972057e-05,0.0,0.0,0.0,0.0,-0.00041759584564715624,-0.0006935255951248109,-0.0024793408811092377,1.0022237300872803,0.0,0.0,0.0,0.2648763358592987,1.8049521446228027,4.634635925292969,-47.94314193725586,0
455.8909999999996,-0.00014676705177407712,-0.00013442042109090835,-0.00014490856847260147,0.0,0.0,0.0,0.0,0.00011663542682072148,0.003489810274913907,0.0007660575211048126,1.000409722328186,0.0,0.0,0.0,0.26449066400527954,1.8049211502075195,4.634826183319092,-47.87334060668945,0
465.78999999999905,-0.00022375179105438292,-0.0001905989774968475,-0.0001476484612794593,0.0,0.0,0.0,0.0,-0.0007271319045685232,-0.004248735494911671,-0.00011212760728085414,0.9990717172622681,0.0,0.0,0.0,0.26493149995803833,1.8033316135406494,4.62935733795166,-47.953128814697266,0
475.70600000000013,-0.00025337288388982415,-0.00014739923062734306,-0.00019336440891493112,0.0,0.0,0.0,0.0,0.0022603552788496017,0.004492687527090311,0.0005251514376141131,0.9989813566207886,0.0,0.0,0.0,0.2649705708026886,1.8012315034866333,4.63067626953125,-47.960201263427734,0
485.6149999999998,-0.00033009631442837417,-0.00020074512576684356,-0.00019998675270471722,0.0,0.0,0.0,0.0,-0.0007319857249967754,-0.0026543873827904463,1.0819790986715816e-05,0.9979923963546753,0.0,0.0,0.0,0.26511043310165405,1.7952786684036255,4.621710300445557,-47.98551559448242,0
495.53000000000065,-0.0003805496380664408,-0.0001846023806137964,-0.0002316625468665734,0.0,0.0,0.0,0.0,0.0030300174839794636,0.0007516308105550706,-0.0016345150070264935,0.9991588592529297,0.0,0.0,0.0,0.26522448658943176,1.7907530069351196,4.613565921783447,-48.006160736083984,0
505.4349999999995,-0.000153559900354594,-0.00021759474475402385,-3.140604530926794e-05,0.0,0.0,0.0,0.0,-0.00039128525531850755,-0.00018669971905183047,0.005264758598059416,1.001809000968933,0.0,0.0,0.0,0.2607811391353607,1.7926896810531616,4.688594341278076,-47.201904296875,0
515.3670000000002,-0.00016892101848497987,-0.0002012473705690354,-6.11771538387984e-05,0.0,0.0,0.0,0.0,0.003135909792035818,-0.001187450485303998,9.106394281843677e-05,1.0003795623779297,0.0,0.0,0.0,0.26145657896995544,1.7916096448898315,4.681959629058838,-47.324161529541016,0
525.2520000000004,-0.00011253072443651035,-0.00021172664128243923,-1.882476567516278e-06,0.0,0.0,0.0,0.0,-0.0025983734522014856,0.0008282619528472424,0.0009034558897837996,1.0003358125686646,0.0,0.0,0.0,0.2608491778373718,1.7814191579818726,4.679688930511475,-47.21421813964844,0
535.1700000000001,-8.79615472513251e-05,-0.00015607009117957205,-6.155533628771082e-05,0.0,0.0,0.0,0.0,0.0020530179608613253,-0.0024999184533953667,0.002783598843961954,0.9998902678489685,0.0,0.0,0.0,0.25995564460754395,1.7861930131912231,4.66735315322876,-47.052486419677734,0
545.0730000000003,-5.7954155636252835e-05,-0.0002027217560680583,-2.834720362443477e-05,0.0,0.0,0.0,0.0,-0.0037584309466183186,-0.0021384682040661573,-0.004281546454876661,0.9999012351036072,0.0,0.0,0.0,0.2516767680644989,1.7791424989700317,4.679620742797852,-45.553993225097656,0
554.9930000000004,1.4596480468753725e-05,-9.345697617391124e-05,-0.0001326938217971474,0.0,0.0,0.0,0.0,0.001175341778434813,0.0007245974848046899,0.0028872948605567217,0.997673511505127,0.0,0.0,0.0,0.25013941526412964,1.7822240591049194,4.677285671234131,-45.27573013305664,0
564.8950000000004,-4.214710497763008e-05,-0.00014825387916062027,-0.000136590184411034,0.0,0.0,0.0,0.0,0.0018647145479917526,0.000897240184713155,0.0008170859073288739,0.998820960521698,0.0,0.0,0.0,0.25069883465766907,1.7778781652450562,4.673122882843018,-45.376983642578125,0
574.8099999999995,-5.5751570471329615e-05,-8.793602319201455e-05,-0.00016421910549979657,0.0,0.0,0.0,0.0,-0.0002213184052379802,0.00019985483959317207,0.0016983695095404983,0.9989523887634277,0.0,0.0,0.0,0.2505316436290741,1.7684504985809326,4.667912483215332,-45.34672546386719,0
584.7160000000003,-0.00011640901357168332,-0.00014443875988945365,-0.00017224437033291906,0.0,0.0,0.0,0.0,-0.006334337871521711,-0.0007021056953817606,-0.001488720066845417,0.998831570148468,0.0,0.0,0.0,0.2521476745605469,1.7687017917633057,4.66216516494751,-45.63922882080078,0
594.6280000000006,-0.0001499751815572381,-0.0001349921221844852,-0.0002113351074513048,0.0,0.0,0.0,0.0,0.00022021267795935273,-0.00044638849794864655,-0.0011652415851131082,0.9996623992919922,0.0,0.0,0.0,0.2508435547351837,1.771601915359497,4.658412933349609,-45.40318298339844,0
604.5390000000007,-8.713225543033332e-05,-0.00014447284047491848,-0.00013251698692329228,0.0,0.0,0.0,0.0,0.0014388285344466567,0.00401586527004838,0.0019589324947446585,1.0016433000564575,0.0,0.0,0.0,0.24958515167236328,1.7687724828720093,4.6544294357299805,-45.175411224365234,0
614.4509999999991,-0.00010095717152580619,-0.00012431692448444664,-0.00017403290257789195,0.0,0.0,0.0,0.0,7.218257087515667e-05,-0.0004421328485477716,0.002891428302973509,0.9997290372848511,0.0,0.0,0.0,0.250018835067749,1.7605304718017578,4.644337177276611,-45.253910064697266,0
624.3600000000006,-3.85419734811876e-05,-0.00018876485410146415,-0.00014513207133859396,0.0,0.0,0.0,0.0,-0.0007414916763082147,0.000868186994921416,0.0006218768539838493,0.9993923306465149,0.0,0.0,0.0,0.259194016456604,1.7560452222824097,4.648558616638184,-46.91463088989258,0
634.2710000000006,-6.554082938237116e-05,-0.00017124049190897495,-0.00017234828555956483,0.0,0.0,0.0,0.0,0.001809348352253437,0.003975536674261093,-0.00047288669156841934,1.0000147819519043,0.0,0.0,0.0,0.25930386781692505,1.7547019720077515,4.639062881469727,-46.93451690673828,0
644.1859999999997,-8.89174552867189e-05,-0.00010821708565345034,-0.00011686026846291497,0.0,0.0,0.0,0.0,-0.0013610261958092451,-1.6322219380526803e-05,-0.0016047166427597404,0.9990285634994507,0.0,0.0,0.0,0.2602902054786682,1.7490990161895752,4.627182960510254,-47.113040924072266,0
654.0969999999998,-0.00018261639343108982,-0.00014495482901111245,-8.13074511825107e-05,0.0,0.0,0.0,0.0,0.002466710517182946,0.00349039607681334,-0.00285230646841228,0.9968527555465698,0.0,0.0,0.0,0.2687992751598358,1.7508301734924316,4.61909818649292,-48.653202056884766,0
664.0049999999992,-0.00010311555524822325,-0.0001753946562530473,-2.13889707083581e-05,0.0,0.0,0.0,0.0,-0.000544989772606641,0.0038974029012024403,0.002419419353827834,0.9994760751724243,0.0,0.0,0.0,0.26800569891929626,1.745659351348877,4.604532241821289,-48.50956344604492,0
673.9169999999995,-0.00014006643323227763,-0.00018340162932872772,-6.0419642977649346e-05,0.0,0.0,0.0,0.0,-0.0020884787663817406,-0.00023146859894040972,0.0003257904027123004,0.9991151690483093,0.0,0.0,0.0,0.268947035074234,1.7436960935592651,4.59587287902832,-48.67994689941406,0
683.8269999999993,-0.00021806012955494225,-0.0002430402673780918,-6.244934047572315e-05,0.0,0.0,0.0,0.0,0.0021273205056786537,0.0036900753621011972,0.0015704706311225891,0.9977532029151917,0.0,0.0,0.0,0.26919451355934143,1.7411366701126099,4.592676162719727,-48.72473907470703,0
693.7459999999992,-0.00024691977887414396,-0.00022662700212094933,-0.00011364618694642559,0.0,0.0,0.0,0.0,0.0011302432976663113,0.0010733476374298334,-0.006949207279831171,0.9996941685676575,0.0,0.0,0.0,0.2695706784725189,1.738588571548462,4.581338882446289,-48.79283142089844,0
703.6479999999992,-9.654897439759225e-05,-0.00028845915221609175,-2.1666457541869022e-05,0.0,0.0,0.0,0.0,-0.0013940114295110106,-0.0035747147630900145,8.747529500396922e-05,1.0009636878967285,0.0,0.0,0.0,0.2777470052242279,1.7322056293487549,4.608071327209473,-50.27275848388672,0
713.5579999999991,-0.00010454199946252629,-0.00022307527251541615,-5.406387208495289e-05,0.0,0.0,0.0,0.0,-0.0008937240927480161,-0.0009395527304150164,0.0006656114128418267,1.00038480758667,0.0,0.0,0.0,0.2773338854312897,1.7317816019058228,4.611495018005371,-50.19797897338867,0
723.4670000000006,-0.0001804378698579967,-0.00028848362853750587,-5.560067074839026e-05,0.0,0.0,0.0,0.0,-0.0013851880794391036,0.0016609551385045052,-0.0038799340836703777,0.9986372590065002,0.0,0.0,0.0,0.27713894844055176,1.730025291442871,4.599530220031738,-50.16270065307617,0
733.3780000000006,-0.00025809695944190025,-0.00035741052124649286,-5.7143872254528105e-05,0.0,0.0,0.0,0.0,0.0011003377148881555,-0.0030371996108442545,7.390396785922348e-05,0.9986661076545715,0.0,0.0,0.0,0.27648645639419556,1.7323179244995117,4.587222576141357,-50.04460144042969,0
743.2919999999995,-0.0002718334726523608,-0.00029156956588849425,-0.00010453956201672554,0.0,0.0,0.0,0.0,-0.0014692679978907108,-0.00015863582666497678,0.0007324737962335348,0.999254584312439,0.0,0.0,0.0,0.275156706571579,1.725420355796814,4.590493679046631,-49.80391311645508,0
753.2000000000007,-0.00030494999373331666,-0.0002712433924898505,-0.00015770201571285725,0.0,0.0,0.0,0.0,-0.001291010994464159,-0.002357437275350094,0.0006033070385456085,0.9980675578117371,0.0,0.0,0.0,0.27550870180130005,1.7241759300231934,4.585147857666016,-49.86762237548828,0
763.1119999999992,-0.00038274674443528056,-0.00033373621408827603,-0.0001698255364317447,0.0,0.0,0.0,0.0,0.00013673852663487196,0.0004723277816083282,-0.0034671640023589134,0.997833251953125,0.0,0.0,0.0,0.27489733695983887,1.7232989072799683,4.587462425231934,-49.75696563720703,0
773.0220000000008,-0.000463662639958784,-0.0003984163049608469,-0.0001835992734413594,0.0,0.0,0.0,0.0,-0.001997467363253236,-0.0018506302731111646,0.00308239390142262,1.0000134706497192,0.0,0.0,0.0,0.2734467685222626,1.7216682434082031,4.585344314575195,-49.494407653808594,0
782.9400000000005,-0.000499125977512449,-0.00028348888736218214,-0.0002144647150998935,0.0,0.0,0.0,0.0,0.0017049196176230907,0.006430538836866617,-0.002877634484320879,0.9983576536178589,0.0,0.0,0.0,0.27745530009269714,1.7772027254104614,4.60037088394165,-50.2199592590332,0
792.8459999999995,-0.0005827366258017719,-0.0003393565712030977,-0.00023188670456875116,0.0,0.0,0.0,0.0,0.000265375740127638,-0.0007703425944782794,-0.0034550775308161974,0.9990008473396301,0.0,0.0,0.0,0.2764274775981903,1.7788771390914917,4.586181640625,-50.0339241027832,0
802.7620000000006,-0.0006701009115204215,-0.00039786682464182377,-0.00025004061171784997,0.0,0.0,0.0,0.0,0.001740104053169489,0.006251312326639891,-0.0021503537427634,0.9990029335021973,0.0,0.0,0.0,0.2748091220855713,1.773086428642273,4.576066017150879,-49.740997314453125,0
812.664999999999,-0.000759381044190377,-0.00045928917825222015,-0.0002690624678507447,0.0,0.0,0.0,0.0,-0.0014759062323719263,0.0031445131171494722,-0.002978132339194417,0.9997982382774353,0.0,0.0,0.0,0.27476435899734497,1.7660496234893799,4.563615798950195,-49.73289489746094,0
822.5769999999993,-0.0008508031605742872,-0.0005227126530371606,-0.0002884880523197353,0.0,0.0,0.0,0.0,0.001780509832315147,0.0038639409467577934,0.004562907852232456,1.00001060962677,0.0,0.0,0.0,0.27392029762268066,1.766815423965454,4.55435037612915,-49.58012008666992,0
832.4869999999992,-0.0007765833870507777,-0.00023275596322491765,-0.0004289650241844356,0.0,0.0,0.0,0.0,-0.0004795945424120873,0.002588020171970129,-0.0034946142695844173,1.0007654428482056,0.0,0.0,0.0,0.2686174213886261,1.8860031366348267,4.609781265258789,-48.62028884887695,0
842.4099999999999,-0.0008582841255702078,-0.0002725804806686938,-0.0004590118769556284,0.0,0.0,0.0,0.0,0.0006387560861185193,-0.0067003872245550156,0.002427144208922982,1.000353455543518,0.0,0.0,0.0,0.2676122188568115,1.8876999616622925,4.59873104095459,-48.43834686279297,0
852.3160000000007,-0.0008217641152441502,-0.00013404582568909973,-0.0005954377120360732,0.0,0.0,0.0,0.0,-0.0016175167402252555,0.003223244333639741,0.002155819209292531,0.9994465708732605,0.0,0.0,0.0,0.26760485768318176,1.9462136030197144,4.650195598602295,-48.43701171875,0
862.2199999999993,-0.000897722493391484,-0.00016334484098479152,-0.000633550516795367,0.0,0.0,0.0,0.0,-0.0005413373000919819,0.00046724508865736425,0.0007429220713675022,0.9994063973426819,0.0,0.0,0.0,0.26631230115890503,1.9465529918670654,4.632517337799072,-48.20305633544922,0
872.1370000000006,-0.0009076889255084097,-5.541318023460917e-05,-0.0007137712091207504,0.0,0.0,0.0,0.0,-9.820942068472505e-05,0.004493206273764372,-0.0024857912212610245,1.0013314485549927,0.0,0.0,0.0,0.26926374435424805,1.9916081428527832,4.659200668334961,-48.73727035522461,0
882.0390000000007,-0.0009844154119491577,-7.50794933992438e-05,-0.000755930901505053,0.0,0.0,0.0,0.0,0.0022504765074700117,0.0053128814324736595,-0.002496361033990979,0.9995374083518982,0.0,0.0,0.0,0.2685178220272064,1.991832971572876,4.648943901062012,-48.602264404296875,0
891.9519999999993,-0.001064482843503356,-9.587810200173408e-05,-0.0007973200408741832,0.0,0.0,0.0,0.0,-0.0011182946618646383,-0.0015669116983190179,0.004999077413231134,0.9994212985038757,0.0,0.0,0.0,0.2687925100326538,1.9869967699050903,4.632752418518066,-48.651981353759766,0
901.8639999999996,-0.0011473780032247305,-0.0001187761445180513,-0.0008388967253267765,0.0,0.0,0.0,0.0,-0.0017335334559902549,-0.00016365818737540394,0.003156847320497036,1.000215768814087,0.0,0.0,0.0,0.26915377378463745,1.9901304244995117,4.629024028778076,-48.71736526489258,0
911.7739999999994,-0.0011512236669659615,-1.2354923455859534e-05,-0.0009378250688314438,0.0,0.0,0.0,0.0,0.001503689563833177,0.002154750283807516,-0.002873651683330536,0.9979799389839172,0.0,0.0,0.0,0.27080899477005005,2.0418331623077393,4.656824588775635,-49.0169677734375,0
921.6820000000007,-0.0012353810016065836,-2.704706639633514e-05,-0.0009859178680926561,0.0,0.0,0.0,0.0,0.00272490456700325,-0.0014359556371346116,-0.0017844262765720487,0.9965779185295105,0.0,0.0,0.0,0.26949578523635864,2.039870023727417,4.654094219207764,-48.77927017211914,0
931.6000000000004,-0.0013231205521151423,-4.239044210407883e-05,-0.0010362608591094613,0.0,0.0,0.0,0.0,0.002331043826416135,0.0034275741782039404,0.0007598235970363021,1.0001603364944458,0.0,0.0,0.0,0.2693119943141937,2.0349647998809814,4.646108627319336,-48.74600601196289,0
941.5030000000006,-0.001413955120369792,-5.866030551260337e-05,-0.0010883797658607364,0.0,0.0,0.0,0.0,0.0004433039284776896,-0.002875544363632798,0.001168881426565349,1.000093698501587,0.0,0.0,0.0,0.26949721574783325,2.028548002243042,4.643500804901123,-48.77952575683594,0
951.4200000000001,-0.0015071111265569925,-7.710311911068857e-05,-0.0011404803954064846,0.0,0.0,0.0,0.0,0.0003723790869116783,0.0009222541702911258,0.0012594986474141479,0.9982098340988159,0.0,0.0,0.0,0.26967012882232666,2.027888536453247,4.645730495452881,-48.81082534790039,0
961.3259999999991,-0.001602001255378127,-9.886480984278023e-05,-0.0011929299216717482,0.0,0.0,0.0,0.0,0.001204758184030652,-0.0016004969365894794,0.0032719860319048166,0.9978126883506775,0.0,0.0,0.0,0.2701266407966614,2.020585060119629,4.638384819030762,-48.893455505371094,0
971.2450000000008,-0.0017000478692352772,-0.00012297541252337396,-0.001246961997821927,0.0,0.0,0.0,0.0,0.000954620772972703,-0.002496782224625349,0.005243079271167517,0.9990965127944946,0.0,0.0,0.0,0.2696605622768402,2.0216867923736572,4.6411261558532715,-48.80909729003906,0
981.1530000000002,-0.0018016687827184796,-0.0001483167288824916,-0.0013025241205468774,0.0,0.0,0.0,0.0,0.001870413077995181,-0.0007848629611544311,0.0016964203678071499,1.0013911724090576,0.0,0.0,0.0,0.27028077840805054,2.0202267169952393,4.644772529602051,-48.92136001586914,0
991.0579999999991,-0.0019064204534515738,-0.00017509525059722364,-0.0013579699443653226,0.0,0.0,0.0,0.0,0.0005906506557948887,0.0016810110537335277,0.0019887390080839396,1.001307725906372,0.0,0.0,0.0,0.2701174020767212,2.014185667037964,4.641462326049805,-48.89179229736328,0
1000.982,-0.00019946988322772086,-0.00037423960748128593,5.907311424380168e-05,0.0,0.0,0.0,0.0,-0.0009545861976221204,0.0027979458682239056,-0.0030059553682804108,0.9995536208152771,0.0,0.0,0.0,0.2811456024646759,2.022780418395996,4.9006781578063965,-50.88791275024414,0
1010.884,-0.0002384524850640446,-0.0004054793971590698,6.112417759140953e-05,0.0,0.0,0.0,0.0,-0.0013383629266172647,-0.0010756682604551315,0.0012840762501582503,0.9989280104637146,0.0,0.0,0.0,0.2807559370994568,2.022139549255371,4.9040327072143555,-50.8173828125,0
1020.7989999999991,-0.0002801863010972738,-0.00043920939788222313,6.28489869995974e-05,0.0,0.0,0.0,0.0,-0.00049940514145419,-0.0033046435564756393,0.0029212043154984713,1.000164270401001,0.0,0.0,0.0,0.2813633382320404,2.017850637435913,4.898537635803223,-50.92732238769531,0
1030.7099999999991,-0.0003253530594520271,-0.00047467692638747394,6.40336875221692e-05,0.0,0.0,0.0,0.0,-0.0005485324654728174,0.0030280817300081253,-0.0026595403905957937,0.9993329644203186,0.0,0.0,0.0,0.28183165192604065,2.0118160247802734,4.89697265625,-51.012088775634766,0
1040.6299999999992,-0.0003744499117601663,-0.0005114650120958686,6.513218249892816e-05,0.0,0.0,0.0,0.0,-0.0006204241653904319,0.001964568393304944,8.038822852540761e-05,0.9979657530784607,0.0,0.0,0.0,0.2810261845588684,2.0128402709960938,4.891842365264893,-50.86629867553711,0
1050.5220000000008,-0.00042729449342004955,-0.0005494373617693782,6.560663314303383e-05,0.0,0.0,0.0,0.0,0.0020282533951103687,0.0011789858108386397,0.0012656014878302813,0.9989848732948303,0.0,0.0,0.0,0.2817772328853607,2.01214861869812,4.883528232574463,-51.00223922729492,0
1060.4449999999997,-0.00048350897850468755,-0.0005881008110009134,6.464684702223167e-05,0.0,0.0,0.0,0.0,0.002406967803835869,0.0011600243160501122,0.003394399769604206,1.0009709596633911,0.0,0.0,0.0,0.2828865349292755,2.0106446743011475,4.8776326179504395,-51.203025817871094,0
1070.3449999999993,-0.0005423515103757381,-0.0006278317887336016,6.330091127892956e-05,0.0,0.0,0.0,0.0,0.001209844253025949,0.0014017138164490461,0.002671741181984544,0.9988320469856262,0.0,0.0,0.0,0.28365612030029297,2.011237859725952,4.864529132843018,-51.34231948852539,0
1080.2620000000006,-0.0003490941890049726,-0.00044994871132075787,0.0003712762554641813,0.0,0.0,0.0,0.0,-0.0009616099996492267,-0.0013870305847376585,0.003715558210387826,0.9999889135360718,0.0,0.0,0.0,0.27905815839767456,2.06634783744812,4.922708988189697,-50.51008224487305,0
1090.164999999999,-0.0003991808043792844,-0.0004810125974472612,0.00038835100713185966,0.0,0.0,0.0,0.0,0.000901062972843647,0.003246650332584977,0.0005294055445119739,0.9997183680534363,0.0,0.0,0.0,0.27942588925361633,2.0638606548309326,4.923675060272217,-50.57664108276367,0
1100.0900000000001,-0.00040852706297300756,-0.0004532872117124498,0.0004813064879272133,0.0,0.0,0.0,0.0,0.0011857282370328903,-0.0032501586247235537,0.0021992195397615433,0.9999985098838806,0.0,0.0,0.0,0.27983617782592773,2.058335542678833,4.914425849914551,-50.650901794433594,0
1109.9920000000002,-0.0004611072363331914,-0.0004832227132283151,0.0005034497007727623,0.0,0.0,0.0,0.0,0.0016785967163741589,0.00271843234077096,-0.0002174197434214875,0.9986134171485901,0.0,0.0,0.0,0.2800061106681824,2.050365924835205,4.911155700683594,-50.68166732788086,0
1119.905999999999,-0.0005164593458175659,-0.0005140315624885261,0.0005251337424851954,0.0,0.0,0.0,0.0,-0.0003454542893450707,-0.005368704441934824,0.002555077662691474,1.0004308223724365,0.0,0.0,0.0,0.27973780035972595,2.041354179382324,4.90508508682251,-50.63309860229492,0
1129.8140000000003,-0.0005735452868975699,-0.0005454621277749538,0.0005464492132887244,0.0,0.0,0.0,0.0,0.0024167648516595364,0.0032994518987834454,0.0026724739000201225,1.0014210939407349,0.0,0.0,0.0,0.27996572852134705,2.038510322570801,4.912026405334473,-50.67435836791992,0
1139.7330000000002,-0.0006320997490547597,-0.0005777467740699649,0.0005682806367985904,0.0,0.0,0.0,0.0,-0.003330493113026023,-0.00027250105631537735,0.0013856535078957677,1.0026590824127197,0.0,0.0,0.0,0.27968859672546387,2.0321884155273438,4.909225940704346,-50.62419509887695,0
1149.6290000000008,-0.0006926493369974196,-0.0006118757883086801,0.0005922479322180152,0.0,0.0,0.0,0.0,0.0015120815951377153,0.003680774010717869,0.0016514996532350779,0.9971849918365479,0.0,0.0,0.0,0.27956750988960266,2.029458522796631,4.895286560058594,-50.60227966308594,0
1159.548999999999,-0.0007562826503999531,-0.000648039800580591,0.0006171365384943783,0.0,0.0,0.0,0.0,-0.0013593236217275262,-0.005120552144944668,0.0014123166911303997,1.0010405778884888,0.0,0.0,0.0,0.2804566025733948,2.022858142852783,4.888517379760742,-50.763206481933594,0
1169.4529999999995,-0.0004163566918577999,-0.00017542044224683195,-0.0003253790782764554,0.0,0.0,0.0,0.0,-0.001104346476495266,-0.0019809661898761988,0.0004573098267428577,0.9996403455734253,0.0,0.0,0.0,0.28025877475738525,2.137969493865967,4.973020553588867,-50.727394104003906,0
1179.3780000000006,-0.0004688407643698156,-0.00019020526087842882,-0.0003360531118232757,0.0,0.0,0.0,0.0,0.0016945922980085015,0.0038519538938999176,-0.0029588902834802866,0.9992917776107788,0.0,0.0,0.0,0.2802774906158447,2.1381025314331055,4.963929653167725,-50.73078155517578,0
1189.2749999999996,-0.0004529994912445545,-8.130192145472392e-05,-0.0004624489229172468,0.0,0.0,0.0,0.0,0.0004929750575684011,-0.0010892407735809684,0.00318249873816967,0.999384343624115,0.0,0.0,0.0,0.2794856131076813,2.133708953857422,4.950894355773926,-50.58745193481445,0
1199.1929999999993,-4.086748231202364e-05,-0.00016302111907862127,-0.00020777391910087317,0.0,0.0,0.0,0.0,0.0011267145164310932,0.003218383528292179,0.0007803175831213593,0.9991362690925598,0.0,0.0,0.0,0.2939743995666504,2.1074252128601074,5.088529109954834,-53.20995330810547,0
1209.098,-3.2684030884411186e-05,-0.00012700801016762853,-0.0002430307649774477,0.0,0.0,0.0,0.0,0.0014693135162815452,0.004182455129921436,-0.0020267441868782043,0.9989510178565979,0.0,0.0,0.0,0.29292649030685425,2.0979182720184326,5.077962398529053,-53.02028274536133,0
1219.0130000000008,-6.0592519730562344e-05,-0.00014309071411844343,-0.00024369369202759117,0.0,0.0,0.0,0.0,-0.002799391746520996,0.000903867301531136,-0.001861249329522252,0.9986504912376404,0.0,0.0,0.0,0.2926035225391388,2.0915541648864746,5.069229602813721,-52.961822509765625,0
1228.914999999999,-7.137929060263559e-05,-0.00012790897744707763,-0.0002609546354506165,0.0,0.0,0.0,0.0,-0.002276928396895528,0.003534962423145771,-0.0011770431883633137,0.9985028505325317,0.0,0.0,0.0,0.29195302724838257,2.0987257957458496,5.073523044586182,-52.84407424926758,0
1238.8430000000008,-0.00010368801304139197,-0.0001478276972193271,-0.00026434395113028586,0.0,0.0,0.0,0.0,0.0023032634053379297,-0.000543008150998503,-0.004290799144655466,0.9970106482505798,0.0,0.0,0.0,0.2904432713985443,2.099946975708008,5.06097412109375,-52.5708122253418,0
1248.7450000000008,-0.00012009896454401314,-0.0001269908680114895,-0.0002913039061240852,0.0,0.0,0.0,0.0,0.0003796672390308231,0.00401223823428154,-0.00015606444503646344,0.9982239603996277,0.0,0.0,0.0,0.2899817228317261,2.096158504486084,5.0427069664001465,-52.48727035522461,0
1258.6589999999997,-0.00015591429837513715,-0.00014838149945717305,-0.0003003864549100399,0.0,0.0,0.0,0.0,0.0037287515588104725,0.0014199314173310995,-0.0007477614562958479,0.9978881478309631,0.0,0.0,0.0,0.29000377655029297,2.0906007289886475,5.037777900695801,-52.49125671386719,0
1268.5650000000005,-0.00020594807574525476,-0.0001773006224539131,-0.00027893739752471447,0.0,0.0,0.0,0.0,-0.0006971450056880713,0.002146482700482011,-0.0007274308009073138,0.9981774091720581,0.0,0.0,0.0,0.2892357110977173,2.0797908306121826,5.021380424499512,-52.352237701416016,0
1278.482,-0.00024636765010654926,-0.00020003397366963327,-0.0002884191053453833,0.0,0.0,0.0,0.0,-0.0008627325296401978,0.0011051598703488708,0.0034068580716848373,0.9983567595481873,0.0,0.0,0.0,0.28918156027793884,2.0819222927093506,5.012300968170166,-52.342437744140625,0
1288.3909999999996,-0.00028842230676673353,-0.00018028794147539884,-0.0002830917655956,0.0,0.0,0.0,0.0,8.451755275018513e-05,-0.0024848319590091705,-6.212208973011002e-05,0.9971683621406555,0.0,0.0,0.0,0.288542777299881,2.0837533473968506,5.001317024230957,-52.22681427001953,0
1298.3109999999997,-0.00011515081860125065,-0.000162033480592072,-0.00010819724411703646,0.0,0.0,0.0,0.0,0.0020281891338527203,0.004409224726259708,0.001945683266967535,0.9988580346107483,0.0,0.0,0.0,0.2840392291545868,2.0911383628845215,5.0336127281188965,-51.41166687011719,0
1308.2019999999993,-0.00013172633771318942,-0.0001292558736167848,-0.00011692587577272207,0.0,0.0,0.0,0.0,-0.0012082954635843635,0.0019431059481576085,-0.000989447464235127,0.9999017715454102,0.0,0.0,0.0,0.2848956286907196,2.084111452102661,5.01320219039917,-51.56667709350586,0
1318.1200000000008,-0.000174940621946007,-0.0001557720242999494,-0.00012119555321987718,0.0,0.0,0.0,0.0,0.0013855453580617905,0.001504433574154973,-0.0017734563443809748,0.9983768463134766,0.0,0.0,0.0,0.2828855812549591,2.0866153240203857,5.000343322753906,-51.202850341796875,0
1328.0239999999994,-0.00017416945775039494,-0.0001019778719637543,-0.00016690648044459522,0.0,0.0,0.0,0.0,0.001473589800298214,-0.0007375911809504032,0.003456606762483716,1.0025428533554077,0.0,0.0,0.0,0.2825714945793152,2.082915782928467,4.984986305236816,-51.14600372314453,0
1337.9490000000005,-0.00022066589735914022,-0.00013065370148979127,-0.00017534184735268354,0.0,0.0,0.0,0.0,-0.0015724007971584797,0.0012250113068148494,0.0033373276237398386,1.001219391822815,0.0,0.0,0.0,0.28130900859832764,2.077446222305298,4.979904651641846,-50.91748809814453,0
1347.8469999999998,-0.0002319340273970738,-0.00011205225018784404,-0.00024154045968316495,0.0,0.0,0.0,0.0,0.00048152433009818196,-0.0014225465711206198,-0.00025757457478903234,1.0017907619476318,0.0,0.0,0.0,0.2820116877555847,2.078230142593384,4.9804768562316895,-51.044677734375,0
1357.7659999999996,-0.00027943970053456724,-0.00014213321264833212,-0.0002516553795430809,0.0,0.0,0.0,0.0,-0.0014908959856256843,-0.003600403433665633,0.004391820169985294,1.0007520914077759,0.0,0.0,0.0,0.2817637026309967,2.0768179893493652,4.980649948120117,-50.999794006347656,0
1367.6730000000007,-0.0003009917272720486,-0.00011448363511590287,-0.000305762339849025,0.0,0.0,0.0,0.0,0.0015113329282030463,0.0024392008781433105,-0.0011550025083124638,0.9997276067733765,0.0,0.0,0.0,0.282436728477478,2.0704212188720703,4.981364727020264,-51.12160873413086,0
1377.5930000000008,-0.0001331663370365277,-0.00016001220501493663,-0.00018299971998203546,0.0,0.0,0.0,0.0,0.0028985056560486555,-0.0005078071844764054,0.0005181736196391284,0.9991028308868408,0.0,0.0,0.0,0.2808224558830261,2.0634067058563232,5.025450229644775,-50.82942581176758,0
1387.4920000000002,-0.00012843689182773232,-0.00012065816554240882,-0.00021569700038526207,0.0,0.0,0.0,0.0,-0.0007905351812951267,0.0007907973485998809,-0.0004291255900170654,0.9988798499107361,0.0,0.0,0.0,0.2877010405063629,2.073866605758667,5.0205583572387695,-52.074462890625,0
1397.4130000000005,-0.00016800074081402272,-0.00014955269580241293,-0.00022184084809850901,0.0,0.0,0.0,0.0,0.002537691267207265,0.0028697308152914047,-0.0010785154299810529,0.9985269904136658,0.0,0.0,0.0,0.2889896333217621,2.0675344467163086,5.022124767303467,-52.307701110839844,0
1407.3109999999997,-0.00020230244263075292,-0.0001276936091016978,-0.0002152429660782218,0.0,0.0,0.0,0.0,0.0008751039858907461,0.002439877949655056,-0.002255896106362343,0.998288631439209,0.0,0.0,0.0,0.28860151767730713,2.0663018226623535,5.015303134918213,-52.23744583129883,0
1417.2369999999992,-0.0002458633098285645,-0.00015980680473148823,-0.00022268513566814363,0.0,0.0,0.0,0.0,-0.0009899386204779148,0.002597028622403741,-0.0018737270729616284,0.9990151524543762,0.0,0.0,0.0,0.2876288592815399,2.0625412464141846,5.010509490966797,-52.061397552490234,0
1427.1329999999998,-0.00027694308664649725,-0.00012514875561464578,-0.0002336960897082463,0.0,0.0,0.0,0.0,0.0009377324604429305,0.001265469822101295,-0.00046532900887541473,0.9990045428276062,0.0,0.0,0.0,0.2867497503757477,2.0577943325042725,4.994757652282715,-51.90227127075195,0
1437.0509999999995,-8.366636029677466e-05,-0.0001881040952866897,-0.00011117841495433822,0.0,0.0,0.0,0.0,-0.0015864013694226742,0.003847515443339944,0.001971299760043621,1.000847339630127,0.0,0.0,0.0,0.28376927971839905,2.0523934364318848,5.032742023468018,-51.3628044128418,0
1446.9539999999997,-0.00011664192425087094,-0.00021596999431494623,-0.0001228594919666648,0.0,0.0,0.0,0.0,-0.0011582745937630534,0.0011373667512089014,-0.0034995432943105698,0.9997079372406006,0.0,0.0,0.0,0.28358855843544006,2.047930955886841,5.0137619972229,-51.3300895690918,0
1456.8739999999998,-0.00016064180817920715,-0.00025296671083197,-0.0001241440186277032,0.0,0.0,0.0,0.0,0.00017308833776041865,0.0020305539947003126,0.001408404903486371,0.9985024929046631,0.0,0.0,0.0,0.28400713205337524,2.0497281551361084,5.004801273345947,-51.40585708618164,0
1466.7749999999996,-0.00015403253200929612,-0.00019596569472923875,-0.0001692717632977292,0.0,0.0,0.0,0.0,0.0007956394692882895,0.001299857976846397,0.000100147066405043,0.9989027380943298,0.0,0.0,0.0,0.2914399802684784,2.0643601417541504,5.008266448974609,-52.751216888427734,0
1476.700999999999,-0.00012476654956117272,-0.0001866044185589999,-0.00012184015213279054,0.0,0.0,0.0,0.0,-0.00125928467605263,0.004021953791379929,-0.0024059866555035114,1.0000829696655273,0.0,0.0,0.0,0.29132983088493347,2.059231758117676,5.0028581619262695,-52.73127746582031,0
1486.5959999999995,-0.00010487639519851655,-0.00015256351616699249,-0.00018550342065282166,0.0,0.0,0.0,0.0,-0.0002914882206823677,0.0035647281911224127,-0.0017138505354523659,1.0005842447280884,0.0,0.0,0.0,0.29084905982017517,2.0542521476745605,5.001683712005615,-52.64426040649414,0
1496.5190000000002,-0.00015191442798823118,-0.0001892193831736222,-0.00019289489137008786,0.0,0.0,0.0,0.0,0.0014005298726260662,0.0057176691479980946,-0.0009864821331575513,0.9986841082572937,0.0,0.0,0.0,0.29070621728897095,2.0601987838745117,4.981966495513916,-52.61840057373047,0
1506.4159999999993,-0.0001502818922745064,-0.00014942311099730432,-0.0002470386098138988,0.0,0.0,0.0,0.0,-0.005395278334617615,0.0022044177167117596,-0.0013014465803280473,0.9991745948791504,0.0,0.0,0.0,0.2900429964065552,2.0574657917022705,4.959719181060791,-52.498355865478516,0
1516.3469999999998,-0.00019819726003333926,-0.00018514810653869063,-0.00025823304895311594,0.0,0.0,0.0,0.0,-0.0028773737139999866,0.002486991696059704,0.0020158416591584682,1.0015782117843628,0.0,0.0,0.0,0.28912144899368286,2.0576109886169434,4.951807498931885,-52.33155822753906,0
1526.2450000000008,-0.00024722839589230716,-0.0001340934686595574,-0.00023419340141117573,0.0,0.0,0.0,0.0,-0.0007242644787766039,-0.0005515906377695501,0.0009382180287502706,1.0015474557876587,0.0,0.0,0.0,0.2954306900501251,2.081055164337158,4.937816143035889,-53.473541259765625,0
1536.1659999999993,-0.0002974291273858398,-0.0001677988184383139,-0.00024201444466598332,0.0,0.0,0.0,0.0,-0.0018581902841106057,0.0017008447321131825,-0.0042618694715201855,1.0003584623336792,0.0,0.0,0.0,0.29627764225006104,2.0823516845703125,4.938100814819336,-53.62683868408203,0
1546.0599999999995,-0.0003378717810846865,-0.00011829564755316824,-0.00023953263007570058,0.0,0.0,0.0,0.0,-0.0012916610576212406,0.002592972246930003,-0.0011029413435608149,0.999110996723175,0.0,0.0,0.0,0.2966901957988739,2.0816996097564697,4.93125581741333,-53.701515197753906,0
1555.9920000000002,-0.00038966789725236595,-0.0001505679974798113,-0.0002447721781209111,0.0,0.0,0.0,0.0,-0.0017918290104717016,0.0024666981771588326,0.00020176588441245258,1.000494360923767,0.0,0.0,0.0,0.2965858578681946,2.0813348293304443,4.922524929046631,-53.6826286315918,0
1565.8809999999994,-0.000426428479840979,-8.219172013923526e-05,-0.0002489576581865549,0.0,0.0,0.0,0.0,0.0006286065909080207,0.0001957520144060254,-0.002623993903398514,0.9998254179954529,0.0,0.0,0.0,0.29546430706977844,2.0832595825195312,4.906646251678467,-53.4796257019043,0
1575.8029999999999,-0.000477965222671628,-0.000111112225567922,-0.00025483162607997656,0.0,0.0,0.0,0.0,0.0016310305800288916,0.00031804697937332094,0.0010516038164496422,0.999051034450531,0.0,0.0,0.0,0.29438915848731995,2.082164764404297,4.903860092163086,-53.28501892089844,0
1585.7019999999993,-0.0004880558408331126,-6.923845648998395e-05,-0.000327790534356609,0.0,0.0,0.0,0.0,-0.0013213312486186624,-0.0011267302324995399,0.00023039396910462528,0.9971916079521179,0.0,0.0,0.0,0.2939322590827942,2.0785608291625977,4.901130199432373,-53.20232391357422,0
1595.6209999999992,-0.0001949536963365972,-0.00012187826359877363,-9.030231012729928e-05,0.0,0.0,0.0,0.0,0.0017923041014000773,-0.0021073520183563232,0.0018589363899081945,1.0020356178283691,0.0,0.0,0.0,0.2930310070514679,2.0727813243865967,4.975718975067139,-53.03919982910156,0
1605.5290000000005,-0.00019649874593596905,-7.90251579019241e-05,-9.992055856855586e-05,0.0,0.0,0.0,0.0,-0.002643764251843095,0.00029244631878100336,-0.0005403247778303921,0.9989826083183289,0.0,0.0,0.0,0.2931899428367615,2.067493438720703,4.970606803894043,-53.06796646118164,0
1615.4539999999997,-0.0001451475836802274,-9.815662633627653e-05,-6.827400648035109e-05,0.0,0.0,0.0,0.0,0.0016613397747278214,-0.0038233071099966764,-0.0025662584230303764,0.9994833469390869,0.0,0.0,0.0,0.2933434844017029,2.072908401489258,4.971617698669434,-53.09575271606445,0
1625.3539999999994,-0.00011295602598693222,-6.882250454509631e-05,-0.00013431003026198596,0.0,0.0,0.0,0.0,0.001535619143396616,-0.001365632750093937,-0.0015686523402109742,1.0011439323425293,0.0,0.0,0.0,0.29104894399642944,2.0655014514923096,4.965471267700195,-52.68043518066406,0
1635.2669999999998,-0.0001472203730372712,-9.682084782980382e-05,-0.0001368499215459451,0.0,0.0,0.0,0.0,-0.0022260400000959635,-0.0002795369946397841,-0.0021538196597248316,0.9999434947967529,0.0,0.0,0.0,0.2921984791755676,2.0581326484680176,4.967103481292725,-52.88850021362305,0
1645.1669999999995,-0.00015235861064866185,-7.966471457621083e-05,-0.00016715827223379165,0.0,0.0,0.0,0.0,-0.0009822150459513068,0.001629228238016367,0.0006202460499480367,1.0006039142608643,0.0,0.0,0.0,0.29079127311706543,2.0513381958007812,4.97047758102417,-52.63379669189453,0
1655.0859999999993,-0.00018749885202851146,-0.00011010161688318476,-0.00017078786913771182,0.0,0.0,0.0,0.0,-0.0012044704053550959,-0.00651360722258687,-0.0017741102492436767,1.0003751516342163,0.0,0.0,0.0,0.29068514704704285,2.049325466156006,4.962903022766113,-52.614585876464844,0
1664.9930000000004,-0.00021852637291885912,-0.00012423629232216626,-0.0001777244033291936,0.0,0.0,0.0,0.0,0.002969740889966488,0.0030605634674429893,0.00020262436009943485,0.9998803734779358,0.0,0.0,0.0,0.2905854880809784,2.0417840480804443,4.959515571594238,-52.59654998779297,0
1674.9169999999995,-0.0002585293841548264,-0.0001570699823787436,-0.0001803714840207249,0.0,0.0,0.0,0.0,-0.0008936958620324731,-0.003105117240920663,0.0031934096477925777,0.9994252324104309,0.0,0.0,0.0,0.2901645004749298,2.040297746658325,4.946368217468262,-52.52035140991211,0
1684.813,-0.0002857820363715291,-0.00011695283319568262,-0.00019217369845137,0.0,0.0,0.0,0.0,-0.003000702243298292,-0.0019914712756872177,0.002302485518157482,0.9990816116333008,0.0,0.0,0.0,0.2908448278903961,2.032616138458252,4.947827339172363,-52.643489837646484,0
1694.7309999999998,-8.256464207079262e-05,-0.00015293897013179958,-3.0448250981862657e-05,0.0,0.0,0.0,0.0,-0.0007504687528125942,0.00015871773939579725,-0.0014662828762084246,1.000635027885437,0.0,0.0,0.0,0.28289738297462463,2.031043767929077,4.994634628295898,-51.204986572265625,0
1704.6470000000008,-9.791200136533007e-05,-0.0001481432991567999,-3.292761539341882e-05,0.0,0.0,0.0,0.0,-0.002333348151296377,-0.001076214830391109,-0.0015485555632039905,1.000555396080017,0.0,0.0,0.0,0.2940022945404053,2.044100761413574,4.9983906745910645,-53.215003967285156,0
1714.5570000000007,-4.1231975046684965e-05,-0.00020931311883032322,-6.5782887759269215e-06,0.0,0.0,0.0,0.0,-0.00038005318492650986,-0.00035466966801322997,-0.00358515209518373,1.000532865524292,0.0,0.0,0.0,0.29363182187080383,2.0452332496643066,4.994597911834717,-53.147945404052734,0
1724.455,-4.67663339804858e-05,-0.0002050781768048182,-1.970324774447363e-05,0.0,0.0,0.0,0.0,0.002371103037148714,0.003254433861002326,-0.0008245597709901631,0.9988090395927429,0.0,0.0,0.0,0.3001200556755066,2.05661678314209,5.000185489654541,-54.32232666015625,0
1734.3719999999994,-4.048021219205111e-05,-0.00017068842134904116,2.7690870410879143e-05,0.0,0.0,0.0,0.0,0.0021378444507718086,0.003192997071892023,0.00030424873693846166,0.9971058964729309,0.0,0.0,0.0,0.3000451624393463,2.0453548431396484,4.9829254150390625,-54.30876541137695,0
1744.2800000000007,-3.8599755498580635e-05,-0.00015083902690093964,6.7927253439847846e-06,0.0,0.0,0.0,0.0,-0.0008808048442006111,-7.970422302605584e-05,-0.003123039612546563,0.9985398054122925,0.0,0.0,0.0,0.29979151487350464,2.041290521621704,4.977861404418945,-54.26285934448242,0
1754.2029999999995,-7.579685188829899e-05,-0.00018692368757911026,1.1839270882774144e-05,0.0,0.0,0.0,0.0,0.0008803913951851428,-0.002847307361662388,0.0019111878937110305,1.0005923509597778,0.0,0.0,0.0,0.2992675006389618,2.0423431396484375,4.965118408203125,-54.16801452636719,0
1764.1080000000002,-8.608925418229774e-05,-0.00015231741417665035,2.342529086263312e-07,0.0,0.0,0.0,0.0,0.0025446328800171614,0.005404977593570948,-0.0014298992464318871,0.9973706603050232,0.0,0.0,0.0,0.29882413148880005,2.040734052658081,4.965408802032471,-54.087764739990234,0
1774.0229999999992,-0.0001656678068684414,-0.00012169036926934496,5.855015842826106e-06,0.0,0.0,0.0,0.0,0.0017310056136921048,0.0012788358144462109,0.0015016439137980342,1.0007147789001465,0.0,0.0,0.0,0.2986008822917938,2.0406174659729004,4.957369804382324,-54.04735565185547,0
1783.9179999999997,-0.00015585207438562065,-7.630128675373271e-05,-3.063508484046906e-05,0.0,0.0,0.0,0.0,0.0002430368767818436,-0.00737389549612999,0.003193044336512685,1.001386046409607,0.0,0.0,0.0,0.2981252074241638,2.033543825149536,4.934126377105713,-53.96125030517578,0
1793.8430000000008,-0.0001993593614315614,-0.00011103224824182689,-3.1983290682546794e-05,0.0,0.0,0.0,0.0,0.0038923146203160286,0.006526735611259937,0.0009583603823557496,1.0001939535140991,0.0,0.0,0.0,0.29757997393608093,2.0278971195220947,4.935718059539795,-53.86256790161133,0
1803.7440000000006,-0.00021670419664587826,-0.000140292540891096,-7.412527338601649e-05,0.0,0.0,0.0,0.0,0.0021541989408433437,-0.0010370761156082153,0.001537875272333622,1.0006773471832275,0.0,0.0,0.0,0.2972353398799896,2.0201101303100586,4.944854259490967,-53.80018997192383,0
1813.6630000000005,-0.00026202734443359077,-0.0001778839505277574,-7.67430174164474e-05,0.0,0.0,0.0,0.0,-0.0010565714910626411,-0.0008278650930151343,0.000611837487667799,1.000494122505188,0.0,0.0,0.0,0.2984986901283264,2.021116256713867,4.932818412780762,-54.02885818481445,0
1823.5650000000005,-0.0002584581379778683,-0.00012699175567831844,-0.00014005161938257515,0.0,0.0,0.0,0.0,0.001146849594078958,-2.6404688469483517e-05,-0.0020199527498334646,1.0009785890579224,0.0,0.0,0.0,0.2980825901031494,2.01456880569458,4.9195966720581055,-53.95354080200195,0
1833.4760000000006,-8.833220636006445e-05,-0.00014093246136326343,-2.8141255370428553e-06,0.0,0.0,0.0,0.0,-0.00115156767424196,0.006769685540348291,0.0013949437998235226,1.0004390478134155,0.0,0.0,0.0,0.29348814487457275,2.016298294067383,4.961672782897949,-53.1219367980957,0
1843.384,-6.017207488184795e-05,-0.00012497766874730587,-6.936504360055551e-05,0.0,0.0,0.0,0.0,-0.0007278025150299072,-0.0005187900387682021,-0.0005640655290335417,1.0009173154830933,0.0,0.0,0.0,0.29258978366851807,2.015655994415283,4.955056667327881,-52.95933532714844,0
1853.2970000000005,-5.87456306675449e-05,-0.00015629216795787215,-5.831743328599259e-05,0.0,0.0,0.0,0.0,-0.0003844406164716929,0.0011814297176897526,-0.0013474284205585718,0.999722957611084,0.0,0.0,0.0,0.29219502210617065,2.0101141929626465,4.934554100036621,-52.88787841796875,0
1863.205,-3.9772425225237384e-05,-0.00012955249985679984,-0.00011395345063647255,0.0,0.0,0.0,0.0,0.0009772750781849027,0.002049458911642432,0.0010631987825036049,1.000171184539795,0.0,0.0,0.0,0.293209433555603,2.0078017711639404,4.932589530944824,-53.07149124145508,0
1873.1149999999998,-8.360904757864773e-05,-0.00016639914247207344,-0.00011625707702478394,0.0,0.0,0.0,0.0,-0.00167237245477736,-0.002935654716566205,6.465578189818189e-05,0.9977655410766602,0.0,0.0,0.0,0.2915014624595642,2.0087320804595947,4.920796871185303,-52.7623405456543,0
1883.0280000000002,-7.65731674619019e-05,-0.00010832936823135242,-0.00016314421372953802,0.0,0.0,0.0,0.0,0.002040738705545664,0.0031396031845360994,-0.005933921784162521,0.9970044493675232,0.0,0.0,0.0,0.291812002658844,2.0073659420013428,4.913325309753418,-52.81855392456055,0
1892.9400000000005,-2.518859582778532e-05,-0.00012983722263015807,-0.00012311592581681907,0.0,0.0,0.0,0.0,0.0007717206608504057,-0.003054984612390399,0.00010957724589388818,0.9978038668632507,0.0,0.0,0.0,0.29090332984924316,2.0034821033477783,4.911731719970703,-52.654083251953125,0
1902.8520000000008,1.6602996765868738e-05,-6.625848618568853e-05,-0.00020308134844526649,0.0,0.0,0.0,0.0,-0.0016368345823138952,0.001500179641880095,0.0014040259411558509,1.0005664825439453,0.0,0.0,0.0,0.28947994112968445,1.994113564491272,4.899925708770752,-52.396446228027344,0
1912.759,6.632368604186922e-05,-0.00010635268699843436,-0.00019711983622983098,0.0,0.0,0.0,0.0,0.000750521314330399,6.007265255902894e-05,-0.0007833332638256252,0.9990631341934204,0.0,0.0,0.0,0.2985904812812805,1.997107982635498,4.9011125564575195,-54.04547119140625,0
1922.6689999999999,4.383407213026658e-05,-8.774637535680085e-05,-0.0002133286470780149,0.0,0.0,0.0,0.0,-0.0005259337485767901,0.0031064513605087996,-0.002381297992542386,0.9991719126701355,0.0,0.0,0.0,0.29880428314208984,1.993393063545227,4.892047882080078,-54.084171295166016,0
1932.5810000000001,7.243615982588381e-07,-0.00012612348655238748,-0.00022679295216221362,0.0,0.0,0.0,0.0,-0.002157473936676979,-0.0009894034592434764,-0.0034428047947585583,1.0009154081344604,0.0,0.0,0.0,0.29919806122779846,1.9902702569961548,4.880882263183594,-54.15544891357422,0
1942.4930000000004,-3.3403437555534765e-05,-0.0001237172109540552,-0.00023866941046435386,0.0,0.0,0.0,0.0,0.0025237458758056164,0.0017874386394396424,0.0009202809887938201,1.0001190900802612,0.0,0.0,0.0,0.29951027035713196,1.9859168529510498,4.866668701171875,-54.21195602416992,0
1952.4009999999998,2.6798550607054494e-05,-0.00017685216153040528,-0.00022028133389540017,0.0,0.0,0.0,0.0,0.002097028773277998,-0.00555715337395668,-2.7678073820425197e-05,1.0003408193588257,0.0,0.0,0.0,0.31029605865478516,1.984647512435913,4.872912406921387,-56.16420364379883,0
1962.3109999999997,-3.43722895195242e-05,-0.0001871561398729682,-0.00019335678371135145,0.0,0.0,0.0,0.0,-0.0007861946942284703,-0.004690271336585283,-0.0015652058646082878,0.9991969466209412,0.0,0.0,0.0,0.3092796206474304,1.9789941310882568,4.865045070648193,-55.980224609375,0
1972.2299999999996,-8.200568845495582e-05,-0.0002339856291655451,-0.00020089161989744753,0.0,0.0,0.0,0.0,0.0030756036285310984,-0.0037924512289464474,0.0004929103306494653,1.0002107620239258,0.0,0.0,0.0,0.3094384968280792,1.9752711057662964,4.873692989349365,-56.00898361206055,0
1982.1329999999998,-0.0001256131799891591,-0.00023042343673296273,-0.00019444877398200333,0.0,0.0,0.0,0.0,5.396265987656079e-05,0.003955287393182516,0.00029666535556316376,1.0002508163452148,0.0,0.0,0.0,0.3084477484226227,1.9753172397613525,4.877777576446533,-55.829654693603516,0
1992.045,-0.0001781264436431229,-0.00027873317594639957,-0.0002010655589401722,0.0,0.0,0.0,0.0,-0.003023810451850295,0.004785643424838781,0.0016434870194643736,0.9991470575332642,0.0,0.0,0.0,0.3066754937171936,1.9746122360229492,4.871608734130859,-55.50887680053711,0
2001.9609999999993,-0.0002130638313246891,-0.00021917362755630165,-0.0001997540966840461,0.0,0.0,0.0,0.0,0.0005973363877274096,0.005503639578819275,0.0018117879517376423,0.9996853470802307,0.0,0.0,0.0,0.30701780319213867,1.9790972471237183,4.855055809020996,-55.570831298828125,0
2011.866,-8.635076665086672e-05,-0.00018608612299431115,-5.834717012476176e-05,0.0,0.0,0.0,0.0,0.00047287289635278285,-0.0010697729885578156,0.0021034518722444773,0.9991394877433777,0.0,0.0,0.0,0.3020264208316803,1.998809576034546,4.882701873779297,-54.667381286621094,0
2021.777,-0.00011906658619409427,-0.00021741862292401493,-7.41358453524299e-05,0.0,0.0,0.0,0.0,0.0011997227557003498,-0.0017031962051987648,-0.0006761190597899258,0.9988991618156433,0.0,0.0,0.0,0.3022083044052124,1.996242880821228,4.87723970413208,-54.70030212402344,0
2031.700999999999,-0.00016703197616152465,-0.0002629479859024286,-7.266138709383085e-05,0.0,0.0,0.0,0.0,0.0008174823597073555,-0.004256656859070063,-0.0010822727344930172,1.0013636350631714,0.0,0.0,0.0,0.30263569951057434,1.986967921257019,4.872029781341553,-54.77766418457031,0
2041.6020000000008,-0.00017828919226303697,-0.00024403349380008876,-0.00010282683069817722,0.0,0.0,0.0,0.0,0.001736094243824482,0.0030980815645307302,0.0010604881681501865,1.000253677368164,0.0,0.0,0.0,0.302931547164917,1.9919962882995605,4.878669261932373,-54.83121109008789,0
2051.518,-0.0002267729287268594,-0.0002887061273213476,-0.00010380675666965544,0.0,0.0,0.0,0.0,-0.0033164434134960175,-0.0011959167895838618,-0.00269861938431859,0.9994210004806519,0.0,0.0,0.0,0.3022576570510864,1.9952149391174316,4.878131866455078,-54.709232330322266,0
2061.4310000000005,-0.00021643651416525245,-0.00022154605539981276,-0.00016842441982589662,0.0,0.0,0.0,0.0,0.0027322194073349237,0.003976922016590834,-0.0013859426835551858,0.999936044216156,0.0,0.0,0.0,0.3005466163158417,1.9945331811904907,4.861871242523193,-54.3995361328125,0
2071.3410000000003,-0.00018650041602086276,-0.0001671764039201662,-8.463758422294632e-05,0.0,0.0,0.0,0.0,0.0003851274959743023,-0.000946942949667573,0.00343698519282043,0.9999242424964905,0.0,0.0,0.0,0.30079853534698486,1.9955482482910156,4.856927394866943,-54.445133209228516,0
2081.242,-0.00015878182603046298,-0.0001234781666425988,-0.0001537898788228631,0.0,0.0,0.0,0.0,0.002102440223097801,-0.0009588039247319102,-0.0025099082849919796,0.9985615611076355,0.0,0.0,0.0,0.3002663254737854,1.9839824438095093,4.843118667602539,-54.34879684448242,0
2091.1659999999993,-0.00012266352132428437,-0.0001416249870089814,-0.00012972106924280524,0.0,0.0,0.0,0.0,0.004373622126877308,0.0022398706059902906,0.004402905702590942,1.001077651977539,0.0,0.0,0.0,0.29940739274024963,1.983362078666687,4.839159965515137,-54.19333267211914,0
2101.062,-0.00016349827637895942,-0.000151378262671642,-0.00013582145038526505,0.0,0.0,0.0,0.0,0.0019934482406824827,0.0037647222634404898,0.0008747047395445406,0.9970870614051819,0.0,0.0,0.0,0.29947853088378906,1.9750769138336182,4.824585437774658,-54.20621109008789,0
2110.9930000000004,-5.2314844651846215e-05,-0.00014117143291514367,-6.958364247111604e-05,0.0,0.0,0.0,0.0,-0.0021901202853769064,-0.0035136633086949587,-0.00042274597217328846,0.9964993000030518,0.0,0.0,0.0,0.2991476356983185,1.9702872037887573,4.812989711761475,-54.14631652832031,0
