timestamp,stateEstimate.x,stateEstimate.y,stateEstimate.z,controller.cmd_thrust,controller.cmd_roll,controller.cmd_pitch,controller.cmd_yaw,controller.r_roll,controller.r_pitch,controller.r_yaw,controller.accelz,controller.actuatorThrust,controller.roll,controller.pitch,controller.yaw,controller.rollRate,controller.pitchRate,controller.yawRate,controller.ctr_yaw
0.0,0.0019309627823531628,-0.005075620487332344,-0.00010731287329690531,0.0,0.0,0.0,0.0,-0.0018604405922815204,0.000453988672234118,0.000566992734093219,1.000045895576477,0.0,0.0,0.0,-17.389244079589844,1.2907261848449707,3.607269525527954,3147.48779296875,0
9.898999999999432,0.0019403392216190696,-0.005070897750556469,-9.98527611955069e-05,0.0,0.0,0.0,0.0,-0.0037148131523281336,0.0016836891882121563,0.00133744184859097,1.0015848875045776,0.0,0.0,0.0,-17.41104507446289,1.298189640045166,3.608055591583252,3151.43408203125,0
19.8229999999985,0.0019287385512143373,-0.00507699977606535,-0.00010069939162349328,0.0,0.0,0.0,0.0,-0.000270568038104102,-0.0028980206698179245,-0.0006873247330076993,0.999584436416626,0.0,0.0,0.0,-17.39307403564453,1.304951548576355,3.605363607406616,3148.1806640625,0
29.721999999999753,0.0018709796713665128,-0.005095557309687138,-5.910167237743735e-05,0.0,0.0,0.0,0.0,-0.0012549113016575575,0.0027598862070590258,-0.000960587349254638,1.0016918182373047,0.0,0.0,0.0,-17.46949005126953,1.3115606307983398,3.609011650085449,3162.01220703125,0
39.638999999999214,0.0018588168313726783,-0.00510266050696373,-5.577999399974942e-05,0.0,0.0,0.0,0.0,-0.0010072941659018397,0.005238470155745745,-0.0047998311929404736,1.0017905235290527,0.0,0.0,0.0,-17.45238494873047,1.3084009885787964,3.5949456691741943,3158.91650390625,0
49.552999999999884,0.001865382306277752,-0.005097833927720785,-3.519242090987973e-05,0.0,0.0,0.0,0.0,0.0002877458755392581,0.00034647449501790106,0.0016297879628837109,0.999369740486145,0.0,0.0,0.0,-17.472383499145508,1.3113434314727783,3.582308292388916,3162.5361328125,0
59.46599999999853,0.0018539339071139693,-0.005107020493596792,-2.8425489290384576e-05,0.0,0.0,0.0,0.0,-0.003215309465304017,0.0002490755869075656,0.0026273331604897976,0.9982330799102783,0.0,0.0,0.0,-17.45372200012207,1.3090370893478394,3.5796737670898438,3159.158447265625,0
69.36299999999937,0.0018880494171753526,-0.005076736677438021,-0.00011468093725852668,0.0,0.0,0.0,0.0,7.321403245441616e-05,-0.00013898714678362012,0.00017328934336546808,0.9999311566352844,0.0,0.0,0.0,-17.4819278717041,1.3238571882247925,3.575237989425659,3164.263916015625,0
79.28199999999924,0.0018781468970701098,-0.00508375046774745,-0.0001154844940174371,0.0,0.0,0.0,0.0,-0.00037863472243770957,0.004983873106539249,0.00217962427996099,1.0006027221679688,0.0,0.0,0.0,-17.464130401611328,1.3213077783584595,3.566610097885132,3161.0419921875,0
89.18499999999949,0.0019017457962036133,-0.005062871612608433,-0.00011812827870016918,0.0,0.0,0.0,0.0,0.0031363090965896845,-0.0016279092524200678,-0.002879737177863717,1.0004452466964722,0.0,0.0,0.0,-17.524690628051758,1.3347678184509277,3.5664777755737305,3172.00390625,0
99.10999999999876,0.0018947033677250147,-0.005067924503237009,-0.00011816087499028072,0.0,0.0,0.0,0.0,0.0010416399454697967,-0.0037074536085128784,-0.002017495222389698,1.0012203454971313,0.0,0.0,0.0,-17.507518768310547,1.326502799987793,3.571056604385376,3168.8955078125,0
109.01399999999921,0.0019049652619287372,-0.005061528645455837,-0.00010178619413636625,0.0,0.0,0.0,0.0,0.0010637225350365043,0.0003025922633241862,-0.0008652577525936067,0.9999733567237854,0.0,0.0,0.0,-17.5221004486084,1.3272535800933838,3.576491355895996,3171.53515625,0
118.93499999999949,0.0018992633558809757,-0.005063079297542572,-9.906114428304136e-05,0.0,0.0,0.0,0.0,-0.0006905412301421165,0.0009213665616698563,0.0013874764554202557,1.000872015953064,0.0,0.0,0.0,-17.505260467529297,1.3209967613220215,3.5683200359344482,3168.48681640625,0
128.82999999999993,0.001976529834792018,-0.005035771988332272,-0.00020305445650592446,0.0,0.0,0.0,0.0,0.0030117507558315992,0.005983008071780205,-0.00363345630466938,0.9992629289627075,0.0,0.0,0.0,-17.556798934936523,1.3347630500793457,3.5739023685455322,3177.815673828125,0
138.7479999999996,0.0019751538056880236,-0.005032206419855356,-0.00020731022232212126,0.0,0.0,0.0,0.0,-0.004136623814702034,-0.0017798703629523516,-0.0002588464121799916,1.0005520582199097,0.0,0.0,0.0,-17.540077209472656,1.321271300315857,3.5592427253723145,3174.788818359375,0
148.65899999999965,0.0019927355460822582,-0.0050192964263260365,-0.0002006960567086935,0.0,0.0,0.0,0.0,0.003232719609513879,-0.00358840124681592,0.0017316326266154647,1.0029308795928955,0.0,0.0,0.0,-17.548866271972656,1.329547643661499,3.5645017623901367,3176.379638671875,0
158.57799999999952,0.0019943625666201115,-0.005014876369386911,-0.0002027053851634264,0.0,0.0,0.0,0.0,0.0011428046273067594,0.001840636134147644,-0.0025504727382212877,1.0013525485992432,0.0,0.0,0.0,-17.529991149902344,1.3226932287216187,3.5668249130249023,3172.96337890625,0
168.48399999999856,0.0019713249057531357,-0.005004871636629105,-0.00019938866898883134,0.0,0.0,0.0,0.0,-0.0024379706010222435,-0.003191741881892085,-0.000513417471665889,1.0003278255462646,0.0,0.0,0.0,-17.545625686645508,1.3206707239151,3.557018280029297,3175.793212890625,0
178.41699999999946,0.001973142148926854,-0.005005057901144028,-0.0001978788204723969,0.0,0.0,0.0,0.0,-0.0005900721880607307,-0.0012743572006002069,-0.003211077768355608,0.9994681477546692,0.0,0.0,0.0,-17.527252197265625,1.3182224035263062,3.5608913898468018,3172.4677734375,0
188.3099999999995,0.0019802700262516737,-0.005026967264711857,-0.00019951110880356282,0.0,0.0,0.0,0.0,-0.0019385300111025572,3.70408633898478e-05,-0.0006993634742684662,0.9998223781585693,0.0,0.0,0.0,-17.535465240478516,1.3124139308929443,3.5646629333496094,3173.954345703125,0
198.24499999999898,0.0019821557216346264,-0.005030614323914051,-0.00019847053044941276,0.0,0.0,0.0,0.0,0.001647803233936429,0.0019114690367132425,0.002369697205722332,0.9978094696998596,0.0,0.0,0.0,-17.51741600036621,1.3131314516067505,3.5657336711883545,3170.6875,0
208.1309999999994,0.0020040383096784353,-0.004991057328879833,-0.00017604984168428928,0.0,0.0,0.0,0.0,-0.0007947665289975703,-0.001919295871630311,-8.827679266687483e-05,0.9989781975746155,0.0,0.0,0.0,-17.53194808959961,1.3217062950134277,3.5596797466278076,3173.317626953125,0
218.04799999999886,0.0020043335389345884,-0.004992977250367403,-0.00017520111578051,0.0,0.0,0.0,0.0,0.0015699882060289383,0.0023742523044347763,0.0007346068159677088,0.9996508955955505,0.0,0.0,0.0,-17.514739990234375,1.3253542184829712,3.5605413913726807,3170.202392578125,0
227.9489999999987,0.0020495436619967222,-0.005019522737711668,-0.00017217932327184826,0.0,0.0,0.0,0.0,-0.0006583522190339863,-0.00029637073748745024,0.003669368801638484,0.9995541572570801,0.0,0.0,0.0,-17.529916763305664,1.3149865865707397,3.5654654502868652,3172.949951171875,0
237.8719999999994,0.002051203977316618,-0.00502522848546505,-0.0001720277505228296,0.0,0.0,0.0,0.0,-4.040468775201589e-05,0.0003995970473624766,0.0014487357111647725,0.9994361996650696,0.0,0.0,0.0,-17.511201858520508,1.3139965534210205,3.564218044281006,3169.562255859375,0
247.7639999999992,0.002026581671088934,-0.005030535161495209,-0.0001847617531893775,0.0,0.0,0.0,0.0,0.0006411100039258599,0.0003152351127937436,0.0026566318701952696,0.9992063045501709,0.0,0.0,0.0,-17.519113540649414,1.30966317653656,3.55346941947937,3170.99462890625,0
257.6819999999989,0.002024990739300847,-0.005038029048591852,-0.00018636671302374452,0.0,0.0,0.0,0.0,-0.0014920212561264634,0.004850727505981922,0.002891355426982045,1.0006345510482788,0.0,0.0,0.0,-17.501094818115234,1.3066452741622925,3.5540220737457275,3167.73291015625,0
267.59199999999873,0.001987422350794077,-0.005017438903450966,-0.0001974231272470206,0.0,0.0,0.0,0.0,0.001990716904401779,-0.0015969554660841823,0.0026416194159537554,1.0003799200057983,0.0,0.0,0.0,-17.516271591186523,1.3155041933059692,3.5175302028656006,3170.47998046875,0
277.52899999999863,0.0019433663692325354,-0.005059141665697098,-0.0001978145883185789,0.0,0.0,0.0,0.0,-0.00038585992297157645,-0.0054264431819319725,0.001112675410695374,0.9978542327880859,0.0,0.0,0.0,-17.54263687133789,1.3134233951568604,3.5164904594421387,3175.25244140625,0
287.40999999999985,0.0018798522651195526,-0.004994609858840704,-0.00017024076078087091,0.0,0.0,0.0,0.0,0.0022000079043209553,0.0052457465790212154,0.001297816401347518,0.9997580647468567,0.0,0.0,0.0,-17.5555477142334,1.3316317796707153,3.5114777088165283,3177.589111328125,0
297.3269999999993,0.0018692915327847004,-0.0050009009428322315,-0.00017156865214928985,0.0,0.0,0.0,0.0,0.0012781248660758138,-0.00317409448325634,0.0032800333574414253,1.0007822513580322,0.0,0.0,0.0,-17.537574768066406,1.3284293413162231,3.4971506595611572,3174.3359375,0
307.23099999999977,0.0019389857770875096,-0.005026808939874172,-0.00015746393182780594,0.0,0.0,0.0,0.0,0.0003464501351118088,-0.0025396214332431555,-0.002424948150292039,1.0006946325302124,0.0,0.0,0.0,-17.543193817138672,1.3316526412963867,3.513035774230957,3175.353271484375,0
317.146999999999,0.0019301072461530566,-0.005034305155277252,-0.000156868583871983,0.0,0.0,0.0,0.0,0.0001117102219723165,-0.002917284145951271,-0.0011183228343725204,1.0000067949295044,0.0,0.0,0.0,-17.52614402770996,1.3273320198059082,3.5172667503356934,3172.26708984375,0
327.0529999999999,0.0019203382544219494,-0.005042202305048704,-0.0001557898212922737,0.0,0.0,0.0,0.0,-0.001598638016730547,0.002121338387951255,0.0005248850793577731,1.000221610069275,0.0,0.0,0.0,-17.50823974609375,1.3278040885925293,3.5192086696624756,3169.026123046875,0
336.97099999999955,0.0019100880017504096,-0.005049947649240494,-0.00015440255810972303,0.0,0.0,0.0,0.0,0.0014688794035464525,-0.0014816921902820468,0.003965527284890413,1.0012073516845703,0.0,0.0,0.0,-17.490564346313477,1.3321958780288696,3.508955240249634,3165.826904296875,0
346.8769999999986,0.001952325226739049,-0.005061210133135319,-0.0001389848330290988,0.0,0.0,0.0,0.0,-0.0016622798284515738,0.0014233196852728724,0.0017780129564926028,1.000730037689209,0.0,0.0,0.0,-17.500089645385742,1.3312867879867554,3.5277276039123535,3167.55078125,0
356.79699999999866,0.0019472540589049459,-0.00506747979670763,-0.00013489702541846782,0.0,0.0,0.0,0.0,-0.0012890358921140432,-0.0017953027272596955,-0.0003745687718037516,1.000671625137329,0.0,0.0,0.0,-17.482696533203125,1.331239104270935,3.5235331058502197,3164.40283203125,0
366.6959999999999,0.001926874159835279,-0.005056442227214575,-0.00012566844816319644,0.0,0.0,0.0,0.0,-0.0037291233893483877,-0.0005966552416794002,-0.0015056685078889132,1.0001943111419678,0.0,0.0,0.0,-17.49714469909668,1.3384729623794556,3.5230464935302734,3167.01806640625,0
376.6279999999988,0.0019368992652744055,-0.0050513045862317085,-0.00020945907454006374,0.0,0.0,0.0,0.0,-0.00023289804812520742,0.0012635047314688563,0.003978291526436806,1.000199794769287,0.0,0.0,0.0,-17.52854347229004,1.3494576215744019,3.523392915725708,3172.701171875,0
386.52299999999923,0.0019182583782821894,-0.005025120917707682,-0.00017906208813656121,0.0,0.0,0.0,0.0,7.970922160893679e-05,-0.008778342045843601,0.0017367516411468387,1.0013419389724731,0.0,0.0,0.0,-17.544113159179688,1.3580957651138306,3.518155813217163,3175.51953125,0
396.4369999999999,0.0019114387687295675,-0.005030116066336632,-0.00019355474796611816,0.0,0.0,0.0,0.0,-0.00031482396298088133,0.007889063097536564,-0.0013608592562377453,0.9999045133590698,0.0,0.0,0.0,-17.57002067565918,1.3569260835647583,3.5332467555999756,3180.208740234375,0
406.35199999999895,0.001960966968908906,-0.005051374901086092,-0.0001619697140995413,0.0,0.0,0.0,0.0,0.0012490017106756568,0.0011861767852678895,-0.0016382546164095402,0.9995697736740112,0.0,0.0,0.0,-17.57577896118164,1.3564586639404297,3.526625394821167,3181.250732421875,0
416.2609999999986,0.0019592822063714266,-0.005057371687144041,-0.00017604269669391215,0.0,0.0,0.0,0.0,-0.0034773582592606544,-0.0033523254096508026,-0.001063322415575385,1.0016372203826904,0.0,0.0,0.0,-17.59905433654785,1.356471300125122,3.5240070819854736,3185.463623046875,0
426.1700000000001,0.002032006159424782,-0.005091235041618347,-0.00014176240074448287,0.0,0.0,0.0,0.0,0.00209626997821033,0.0026836886536329985,0.0008406339911743999,1.001617431640625,0.0,0.0,0.0,-17.60195541381836,1.3606209754943848,3.5456008911132812,3185.989013671875,0
436.0779999999995,0.0020276778377592564,-0.005087430123239756,-0.00014304957585409284,0.0,0.0,0.0,0.0,0.0023281131871044636,-0.002412553643807769,0.003430781187489629,1.000495433807373,0.0,0.0,0.0,-17.62271499633789,1.3613781929016113,3.538137674331665,3189.74658203125,0
445.98499999999876,0.0020176523830741644,-0.005091281607747078,-0.00013459438923746347,0.0,0.0,0.0,0.0,0.00322056096047163,0.001236624433659017,0.002544756978750229,1.001918077468872,0.0,0.0,0.0,-17.60440444946289,1.3548688888549805,3.540027379989624,3186.432373046875,0
455.89799999999923,0.0020080171525478363,-0.005095562897622585,-0.0001252077054232359,0.0,0.0,0.0,0.0,-0.0016717296093702316,-0.0013588547008112073,0.0005072295316495001,1.0012357234954834,0.0,0.0,0.0,-17.58639907836914,1.3446263074874878,3.5362937450408936,3183.173095703125,0
465.8130000000001,0.0019562430679798126,-0.0050797355361282825,-0.00010965158435283229,0.0,0.0,0.0,0.0,0.002750511048361659,0.001677695894613862,0.0016185553977265954,0.9989399313926697,0.0,0.0,0.0,-17.591075897216797,1.349926471710205,3.5304133892059326,3184.01953125,0
475.71699999999873,0.0019444222562015057,-0.005082591902464628,-9.829649206949398e-05,0.0,0.0,0.0,0.0,0.003205407876521349,8.01247515482828e-05,0.0005366550176404417,1.0004490613937378,0.0,0.0,0.0,-17.573078155517578,1.3493900299072266,3.523231267929077,3180.76220703125,0
485.6399999999994,0.0018603516509756446,-0.004990347195416689,-5.667706864187494e-05,0.0,0.0,0.0,0.0,0.00032433413434773684,0.00309840333648026,0.00020933432097081095,1.0024657249450684,0.0,0.0,0.0,-17.58730125427246,1.358182430267334,3.5094234943389893,3183.33642578125,0
495.54099999999926,0.001828297390602529,-0.0050410679541528225,-5.426257848739624e-05,0.0,0.0,0.0,0.0,-0.003311765380203724,-0.0027613656129688025,0.0012694592587649822,1.0021333694458008,0.0,0.0,0.0,-17.607402801513672,1.353355050086975,3.4948296546936035,3186.97509765625,0
505.4579999999987,0.001856928807683289,-0.005042749922722578,-1.183515450975392e-05,0.0,0.0,0.0,0.0,0.002339937025681138,0.0006962712504900992,-0.0011960037518292665,1.0007386207580566,0.0,0.0,0.0,-17.606252670288086,1.3585772514343262,3.498772144317627,3186.7666015625,0
515.3679999999986,0.0018660447094589472,-0.0050220852717757225,-2.8800177460652776e-05,0.0,0.0,0.0,0.0,0.0006879712454974651,0.004698238335549831,-0.00043506608926691115,1.001345157623291,0.0,0.0,0.0,-17.62909507751465,1.3634111881256104,3.5003578662872314,3190.901123046875,0
525.2749999999996,0.001833402900956571,-0.0049837492406368256,1.196101675304817e-05,0.0,0.0,0.0,0.0,-0.00045146344928070903,-0.0038710483349859715,0.0009699618094600737,1.002049207687378,0.0,0.0,0.0,-17.6363525390625,1.364357590675354,3.4930739402770996,3192.21484375,0
535.1949999999997,0.0018193251453340054,-0.0049794442020356655,3.3708271075738594e-05,0.0,0.0,0.0,0.0,0.0026294966228306293,-0.0024305409751832485,0.001542898709885776,1.000996708869934,0.0,0.0,0.0,-17.61897087097168,1.3630341291427612,3.4991915225982666,3189.06884765625,0
545.0969999999998,0.0018937144195660949,-0.005032107699662447,6.151619891170412e-05,0.0,0.0,0.0,0.0,0.0013088065898045897,-0.0024660080671310425,0.0009722728282213211,1.0015777349472046,0.0,0.0,0.0,-17.624778747558594,1.358765721321106,3.5126819610595703,3190.119873046875,0
555.009,0.0018811090849339962,-0.005031069740653038,8.692110714036971e-05,0.0,0.0,0.0,0.0,-0.0020733990240842104,-0.005643096752464771,-0.0005227485671639442,1.0025875568389893,0.0,0.0,0.0,-17.606901168823242,1.3534313440322876,3.512880802154541,3186.884033203125,0
564.9179999999997,0.0019031268311664462,-0.005072159692645073,0.00011092310887761414,0.0,0.0,0.0,0.0,-0.002144100144505501,0.004079265985637903,-0.005682064685970545,1.0014671087265015,0.0,0.0,0.0,-17.611820220947266,1.3449715375900269,3.527730941772461,3187.774658203125,0
574.8459999999995,0.0019556041806936264,-0.005032645538449287,1.0876865417230874e-05,0.0,0.0,0.0,0.0,0.0018762743566185236,0.0021317547652870417,0.0038471012376248837,0.999810516834259,0.0,0.0,0.0,-17.63482093811035,1.356500267982483,3.523219585418701,3191.9375,0
584.7429999999986,0.0019989688880741596,-0.00509010860696435,3.830423520412296e-05,0.0,0.0,0.0,0.0,-0.0005759153282269835,-0.0012237877817824483,0.002526393160223961,1.0009275674819946,0.0,0.0,0.0,-17.63532257080078,1.3461517095565796,3.5270979404449463,3192.028564453125,0
594.655999999999,0.0019917101599276066,-0.005092952400445938,5.984636663924903e-05,0.0,0.0,0.0,0.0,0.0020662483293563128,0.0018163820495828986,-0.005820849910378456,1.0002515316009521,0.0,0.0,0.0,-17.61656379699707,1.3470460176467896,3.523928642272949,3188.633056640625,0
604.5619999999999,0.0019126794068142772,-0.005100079346448183,7.129822915885597e-05,0.0,0.0,0.0,0.0,-0.0005783562664873898,0.002431948436424136,0.002891900483518839,0.9989737272262573,0.0,0.0,0.0,-17.620521545410156,1.3380240201950073,3.501638650894165,3189.349609375,0
614.4849999999988,0.0019016610458493233,-0.005103499162942171,9.193680307362229e-05,0.0,0.0,0.0,0.0,9.67775922617875e-05,0.002555352635681629,0.0018578451126813889,1.0001164674758911,0.0,0.0,0.0,-17.602848052978516,1.3351696729660034,3.489588975906372,3186.150634765625,0
624.384,0.0018973761470988393,-0.0051255179569125175,0.00011141876166220754,0.0,0.0,0.0,0.0,0.003032905515283346,0.004259324632585049,0.002304905792698264,1.0001252889633179,0.0,0.0,0.0,-17.60755157470703,1.3287330865859985,3.488274574279785,3187.001708984375,0
634.3119999999999,0.0019585236441344023,-0.005062182433903217,-1.827005689847283e-05,0.0,0.0,0.0,0.0,0.0030098585411906242,-0.0012755506904795766,0.0015469042118638754,1.0008379220962524,0.0,0.0,0.0,-17.627717971801758,1.3365105390548706,3.492027759552002,3190.65185546875,0
644.2179999999989,0.001916344161145389,-0.005059051793068647,-3.509003363433294e-06,0.0,0.0,0.0,0.0,-6.81411984260194e-05,-0.0052225952968001366,9.269293514080346e-05,1.0010452270507812,0.0,0.0,0.0,-17.63015365600586,1.3338624238967896,3.485678195953369,3191.0927734375,0
654.1409999999996,0.001950599136762321,-0.0050410134717822075,-7.243749860208482e-05,0.0,0.0,0.0,0.0,0.0022331990767270327,0.0022942740470170975,0.004035487305372953,1.0015789270401,0.0,0.0,0.0,-17.650192260742188,1.3411999940872192,3.499403715133667,3194.719970703125,0
664.0279999999984,0.0019381646998226643,-0.005040846765041351,-6.46334228804335e-05,0.0,0.0,0.0,0.0,0.0014818625058978796,0.0039457096718251705,-0.0005359484348446131,1.0008571147918701,0.0,0.0,0.0,-17.630958557128906,1.3336269855499268,3.48934268951416,3191.23828125,0
673.9459999999999,0.0019250112818554044,-0.005040576681494713,-5.553818482439965e-05,0.0,0.0,0.0,0.0,0.002152523258700967,-0.0008676836732774973,0.0016636507352814078,1.0013316869735718,0.0,0.0,0.0,-17.614652633666992,1.3295270204544067,3.4762063026428223,3188.287353515625,0
683.8580000000002,0.0019192887702956796,-0.005089031532406807,-5.124653034727089e-05,0.0,0.0,0.0,0.0,-0.00372209120541811,0.0016374249244108796,-0.00037421216256916523,0.998292863368988,0.0,0.0,0.0,-17.62225341796875,1.3186079263687134,3.490830421447754,3189.66259765625,0
693.7749999999996,0.0019131465815007687,-0.005078230053186417,-5.1709408580791205e-05,0.0,0.0,0.0,0.0,-0.0035906352568417788,0.000204793774173595,-0.0006312188343144953,0.9988836646080017,0.0,0.0,0.0,-17.641210556030273,1.3280906677246094,3.4859955310821533,3193.093994140625,0
703.6729999999989,0.001920915674418211,-0.005101008340716362,-3.570943226804957e-05,0.0,0.0,0.0,0.0,0.002647934714332223,-0.0006476769340224564,0.0015294263139367104,0.9979663491249084,0.0,0.0,0.0,-17.640207290649414,1.3322904109954834,3.491833448410034,3192.912841796875,0
713.5999999999985,0.0019130940781906247,-0.0051038493402302265,-2.9168113542255014e-05,0.0,0.0,0.0,0.0,-0.0015712262829765677,-0.0028345531318336725,-0.0005677721346728504,0.9996194243431091,0.0,0.0,0.0,-17.622493743896484,1.3312028646469116,3.487872838973999,3189.7060546875,0
723.494999999999,0.0019161271629855037,-0.005095016676932573,-1.2314843843341805e-05,0.0,0.0,0.0,0.0,1.0778808245959226e-06,-0.006365920417010784,0.00020411063451319933,1.0025417804718018,0.0,0.0,0.0,-17.625999450683594,1.3372089862823486,3.4948441982269287,3190.3408203125,0
733.4239999999991,0.001906963880173862,-0.005097485147416592,-3.932649633497931e-06,0.0,0.0,0.0,0.0,0.003566208528354764,-0.0030414757784456015,0.0008030841127038002,0.9997898936271667,0.0,0.0,0.0,-17.608383178710938,1.3341790437698364,3.5057103633880615,3187.152587890625,0
743.3169999999991,0.001900889677926898,-0.005100785288959742,7.4256658990634605e-06,0.0,0.0,0.0,0.0,0.002370682777836919,-0.0005687092780135572,-0.0005565514438785613,0.9991355538368225,0.0,0.0,0.0,-17.610204696655273,1.3297839164733887,3.504509925842285,3187.481689453125,0
753.2459999999992,0.001942294416949153,-0.005053913686424494,-8.919169340515509e-05,0.0,0.0,0.0,0.0,0.0015769939636811614,0.004306933376938105,0.0009666277910582721,1.001407504081726,0.0,0.0,0.0,-17.632339477539062,1.343239665031433,3.5045583248138428,3191.48828125,0
763.1409999999996,0.0018670439021661878,-0.004980234894901514,-6.298447988228872e-05,0.0,0.0,0.0,0.0,0.0016534535679966211,0.00017404364189133048,-0.0027915032114833593,1.0003244876861572,0.0,0.0,0.0,-17.64038848876953,1.351503849029541,3.480851411819458,3192.9453125,0
773.0649999999987,0.0018790116300806403,-0.004977115895599127,-0.00011081922275479883,0.0,0.0,0.0,0.0,-0.0003222984087187797,0.003493270603939891,-0.0023813974112272263,1.0000308752059937,0.0,0.0,0.0,-17.66108512878418,1.3526378870010376,3.482792615890503,3196.691650390625,0
782.9679999999989,0.001866034814156592,-0.004972200840711594,-0.00010944080713670701,0.0,0.0,0.0,0.0,0.0009588407701812685,0.003996496554464102,0.003634700318798423,0.9992437362670898,0.0,0.0,0.0,-17.644386291503906,1.3524545431137085,3.473903179168701,3193.6689453125,0
792.8799999999992,0.0018509570509195328,-0.00496668741106987,-0.00010819941235240549,0.0,0.0,0.0,0.0,0.0040292199701070786,0.0065704407170414925,0.0031482309568673372,1.0003591775894165,0.0,0.0,0.0,-17.627161026000977,1.349199652671814,3.456317663192749,3190.551025390625,0
802.7839999999997,0.0019309265771880746,-0.005015710834413767,-8.270896069006994e-05,0.0,0.0,0.0,0.0,-0.002060204977169633,0.003933856263756752,0.002095353789627552,1.0011405944824219,0.0,0.0,0.0,-17.633325576782227,1.339226245880127,3.468797206878662,3191.6669921875,0
812.7019999999993,0.0019241468980908394,-0.005014206748455763,-7.8830991697032e-05,0.0,0.0,0.0,0.0,-0.0008109419723041356,-0.006496363319456577,0.002240302274003625,0.999795138835907,0.0,0.0,0.0,-17.61465835571289,1.3390884399414062,3.463660717010498,3188.288330078125,0
822.6049999999996,0.0019508696859702468,-0.005044968798756599,-7.668506441405043e-05,0.0,0.0,0.0,0.0,-0.0032511374447494745,0.002941044047474861,0.00027996531571261585,0.9988916516304016,0.0,0.0,0.0,-17.619394302368164,1.3424381017684937,3.4745800495147705,3189.14501953125,0
832.5259999999998,0.0020015600603073835,-0.005026200786232948,-0.00019263527065049857,0.0,0.0,0.0,0.0,-0.00026583063299767673,-0.0005564072052948177,0.0013471936108544469,1.0010148286819458,0.0,0.0,0.0,-17.640422821044922,1.3552687168121338,3.471252918243408,3192.95166015625,0
842.4269999999997,0.0019816707354038954,-0.005024428479373455,-0.00019158732902724296,0.0,0.0,0.0,0.0,-2.0629297068808228e-05,0.003596740309149027,-0.0030102042946964502,0.998778760433197,0.0,0.0,0.0,-17.63997459411621,1.3560523986816406,3.4670703411102295,3192.870849609375,0
852.3499999999985,0.0019757947884500027,-0.005021499004215002,-0.00019613390031736344,0.0,0.0,0.0,0.0,-6.652624142589048e-05,0.005580558441579342,-0.0006213207961991429,0.9971216320991516,0.0,0.0,0.0,-17.623760223388672,1.3534802198410034,3.449284076690674,3189.935791015625,0
862.2529999999988,0.002000529784709215,-0.005003155674785376,-0.00018690343131311238,0.0,0.0,0.0,0.0,-0.005472307559102774,0.0004291148215997964,-0.00191532785538584,0.9995629787445068,0.0,0.0,0.0,-17.630239486694336,1.3597782850265503,3.4516780376434326,3191.1083984375,0
872.1749999999993,0.0020094129722565413,-0.005009087268263102,-0.0002461422991473228,0.0,0.0,0.0,0.0,0.0027602938935160637,-0.0007789281662553549,0.0016849262174218893,1.0020116567611694,0.0,0.0,0.0,-17.65001678466797,1.3728582859039307,3.4503514766693115,3194.688232421875,0
882.0819999999985,0.0020148884505033493,-0.005010467022657394,-0.00024232090800069273,0.0,0.0,0.0,0.0,-0.0008683303603902459,0.000298899132758379,-0.003333257744088769,1.0000710487365723,0.0,0.0,0.0,-17.648935317993164,1.3697947263717651,3.4494690895080566,3194.4921875,0
892.0069999999996,0.002008585026487708,-0.005001119803637266,-0.0002493589126970619,0.0,0.0,0.0,0.0,0.0030541103333234787,0.0001332167739747092,-0.0008515737717971206,0.997455894947052,0.0,0.0,0.0,-17.63120460510254,1.3646594285964966,3.4344613552093506,3191.28271484375,0
901.9009999999998,0.0020150376949459314,-0.004969712346792221,-0.00024333209148608148,0.0,0.0,0.0,0.0,-0.0016951399156823754,0.005348226521164179,-0.002289858181029558,0.9992137551307678,0.0,0.0,0.0,-17.63443374633789,1.367525339126587,3.4368441104888916,3191.86767578125,0
911.8199999999997,0.002006103750318289,-0.0049575758166611195,-0.0002516835229471326,0.0,0.0,0.0,0.0,0.001516121905297041,-0.0034679463133215904,0.0036258308682590723,0.9996927380561829,0.0,0.0,0.0,-17.618289947509766,1.3669155836105347,3.4205572605133057,3188.9453125,0
921.7219999999998,0.0019721086136996746,-0.004950694274157286,-0.000263053661910817,0.0,0.0,0.0,0.0,0.003664507996290922,0.0022467253729701042,-4.528620047494769e-05,1.0012975931167603,0.0,0.0,0.0,-17.624385833740234,1.3611491918563843,3.4251999855041504,3190.048828125,0
931.6399999999994,0.001891345833428204,-0.005001531448215246,-0.0001805601204978302,0.0,0.0,0.0,0.0,0.0006449154461733997,0.0013389157829806209,-0.0023500914685428143,1.0007989406585693,0.0,0.0,0.0,-17.643362045288086,1.3500285148620605,3.41860032081604,3193.483642578125,0
941.5389999999989,0.0019091264111921191,-0.005010431166738272,-0.00016328769561368972,0.0,0.0,0.0,0.0,-0.000986328348517418,-0.0047448789700865746,0.0017136397073045373,0.997010350227356,0.0,0.0,0.0,-17.646812438964844,1.3537278175354004,3.431447744369507,3194.1083984375,0
951.4709999999995,0.0018968558870255947,-0.005001507233828306,-0.0001647999306442216,0.0,0.0,0.0,0.0,-0.0019843443296849728,0.0003966215008404106,-0.0008200068259611726,0.9987213015556335,0.0,0.0,0.0,-17.62831687927246,1.3514143228530884,3.4363887310028076,3190.76025390625,0
961.3649999999998,0.0019356245175004005,-0.00498755881562829,-0.00015126087237149477,0.0,0.0,0.0,0.0,0.001713048666715622,0.0009070707601495087,-0.003545490326359868,0.999086856842041,0.0,0.0,0.0,-17.629419326782227,1.3598839044570923,3.4487578868865967,3190.9599609375,0
971.2819999999992,0.0018529685912653804,-0.005065283738076687,-7.950672443257645e-05,0.0,0.0,0.0,0.0,-0.002409691922366619,-0.0013619072269648314,0.001396566047333181,0.9978489279747009,0.0,0.0,0.0,-17.647232055664062,1.3395204544067383,3.4374568462371826,3194.18408203125,0
981.1939999999995,0.0018408559262752533,-0.0050608916208148,-7.881184137659147e-05,0.0,0.0,0.0,0.0,0.002851956058293581,-0.0012903325259685516,0.0018343660049140453,1.000219702720642,0.0,0.0,0.0,-17.63039779663086,1.334946632385254,3.4354093074798584,3191.136962890625,0
991.1089999999986,0.0018293821485713124,-0.0050558289512991905,-7.866742816986516e-05,0.0,0.0,0.0,0.0,-0.0011258672457188368,0.003286093007773161,0.001574852503836155,1.0012332201004028,0.0,0.0,0.0,-17.612960815429688,1.3299446105957031,3.440139055252075,3187.98095703125,0
1001.0049999999992,0.001831924426369369,-0.004998953081667423,-3.244415347580798e-05,0.0,0.0,0.0,0.0,-0.0009720236412249506,-0.001957493368536234,-0.0013796526473015547,1.000637412071228,0.0,0.0,0.0,-17.61751365661621,1.3452584743499756,3.445659637451172,3188.80517578125,0
1010.9239999999991,0.0018230597488582134,-0.004990122281014919,-2.7471880457596853e-05,0.0,0.0,0.0,0.0,0.0010009938850998878,0.0012303860858082771,-0.002976973308250308,0.9994797110557556,0.0,0.0,0.0,-17.600263595581055,1.3453117609024048,3.4503700733184814,3185.682861328125,0
1020.8279999999995,0.0018295097397640347,-0.004959384445101023,-6.555168511113152e-06,0.0,0.0,0.0,0.0,-0.00045455587678588927,-0.0040105911903083324,0.0020094390492886305,1.0009516477584839,0.0,0.0,0.0,-17.607810974121094,1.3529164791107178,3.4546597003936768,3187.048828125,0
1030.7529999999988,0.0018232824513688684,-0.004946056287735701,7.053640729282051e-07,0.0,0.0,0.0,0.0,0.0003110242250841111,0.005217728205025196,0.0024178132880479097,1.0012365579605103,0.0,0.0,0.0,-17.590513229370117,1.3595548868179321,3.4523026943206787,3183.917724609375,0
1040.6539999999986,0.00181770755443722,-0.004933200776576996,9.240236977348104e-06,0.0,0.0,0.0,0.0,-0.002007142873480916,-0.0019717253744602203,-0.004156075417995453,1.0015093088150024,0.0,0.0,0.0,-17.572860717773438,1.363003134727478,3.438098430633545,3180.72265625,0
1050.5739999999987,0.001811783411540091,-0.00492120860144496,1.9123490346828476e-05,0.0,0.0,0.0,0.0,-0.0016978656640276313,0.0020077486988157034,0.003455831203609705,1.0006842613220215,0.0,0.0,0.0,-17.556446075439453,1.3620859384536743,3.4434990882873535,3177.751708984375,0
1060.4830000000002,0.0018643500516191125,-0.004971587099134922,1.9962466467404738e-05,0.0,0.0,0.0,0.0,0.0007704115123488009,-0.00097841233946383,0.0024438584223389626,1.0020620822906494,0.0,0.0,0.0,-17.561376571655273,1.3466895818710327,3.46757435798645,3178.643798828125,0
1070.3869999999988,0.0018616911256685853,-0.0049666184931993484,3.171278876834549e-05,0.0,0.0,0.0,0.0,-0.001065333723090589,0.0005884807324036956,-0.0002462840056978166,1.0013970136642456,0.0,0.0,0.0,-17.543468475341797,1.3460217714309692,3.4624476432800293,3175.402587890625,0
1080.3049999999985,0.0018892756197601557,-0.005012064706534147,3.1024574127513915e-05,0.0,0.0,0.0,0.0,0.001735373749397695,0.0032592304050922394,-0.0006470770458690822,1.0015805959701538,0.0,0.0,0.0,-17.551889419555664,1.3258332014083862,3.4703528881073,3176.927001953125,0
1090.2079999999987,0.0019248496973887086,-0.004997533746063709,-0.00010303661110810935,0.0,0.0,0.0,0.0,-0.0038519632071256638,-0.0011663007317110896,0.0009004305466078222,1.0011556148529053,0.0,0.0,0.0,-17.575143814086914,1.3300234079360962,3.4799106121063232,3181.135986328125,0
1100.1209999999992,0.001988400239497423,-0.005032639484852552,-6.851730722701177e-05,0.0,0.0,0.0,0.0,0.001061352202668786,0.004494271706789732,0.002393630100414157,1.002289056777954,0.0,0.0,0.0,-17.5854549407959,1.3342982530593872,3.494537830352783,3183.00244140625,0
1110.0349999999999,0.001991637283936143,-0.005036446265876293,-5.72734497836791e-05,0.0,0.0,0.0,0.0,0.0006107863155193627,0.0037871927488595247,-0.0005474154022522271,1.0008397102355957,0.0,0.0,0.0,-17.568126678466797,1.3276302814483643,3.483717679977417,3179.86572265625,0
1119.938,0.00199413625523448,-0.005041369237005711,-4.479512426769361e-05,0.0,0.0,0.0,0.0,-0.0017882527317851782,0.0019176106434315443,-0.0026084622368216515,1.000917911529541,0.0,0.0,0.0,-17.550567626953125,1.3212898969650269,3.473618507385254,3176.687744140625,0
1129.8499999999985,0.0019955970346927643,-0.0050473324954509735,-3.0025454179849476e-05,0.0,0.0,0.0,0.0,0.0014495422365143895,-0.002271372592076659,-0.003589226398617029,1.0017009973526,0.0,0.0,0.0,-17.533945083618164,1.3259265422821045,3.473694086074829,3173.6787109375,0
1139.7699999999986,0.001963515067473054,-0.005069208797067404,-2.8662983822869137e-05,0.0,0.0,0.0,0.0,0.0009821824496611953,-0.0055257524363696575,-0.0005904692225158215,0.9998469352722168,0.0,0.0,0.0,-17.543537139892578,1.315619707107544,3.462045192718506,3175.415283203125,0
1149.6749999999993,0.0019618412479758263,-0.005076390225440264,-1.4791516150580719e-05,0.0,0.0,0.0,0.0,0.001391498139128089,0.00218697777017951,-0.003709680400788784,0.9979116320610046,0.0,0.0,0.0,-17.526660919189453,1.3075141906738281,3.465461492538452,3172.360595703125,0
1159.5829999999987,0.0019023458007723093,-0.005074677988886833,-8.947694368544035e-06,0.0,0.0,0.0,0.0,0.0014303132193163037,-0.0013782085152342916,0.0060982415452599525,0.9986438751220703,0.0,0.0,0.0,-17.53635597229004,1.312970757484436,3.4489591121673584,3174.115234375,0
1169.503999999999,0.001897907117381692,-0.005081453360617161,1.817405063775368e-06,0.0,0.0,0.0,0.0,0.0005157010746188462,0.0032193977385759354,0.0017368714325129986,1.0007954835891724,0.0,0.0,0.0,-17.518333435058594,1.300182580947876,3.4395785331726074,3170.853271484375,0
1179.4089999999997,0.0018928481731563807,-0.005088673904538155,1.2816150047001429e-05,0.0,0.0,0.0,0.0,0.0019279801053926349,0.00041134378989227116,0.003135326784104109,1.0001041889190674,0.0,0.0,0.0,-17.5008544921875,1.2974492311477661,3.434767723083496,3167.689453125,0
1189.3220000000001,0.0018865313613787293,-0.0050967056304216385,2.4508672140655108e-05,0.0,0.0,0.0,0.0,-0.0005564331659115851,0.00025813892716541886,-0.002431010827422142,1.0020766258239746,0.0,0.0,0.0,-17.48239517211914,1.2931287288665771,3.4383370876312256,3164.34814453125,0
1199.2299999999996,0.0019436993170529604,-0.005101797636598349,5.6250089983223006e-05,0.0,0.0,0.0,0.0,0.001552428351715207,-0.0033990000374615192,-0.003970022778958082,1.0007277727127075,0.0,0.0,0.0,-17.503747940063477,1.2952055931091309,3.452592134475708,3168.213134765625,0
1209.1569999999992,0.001941374153830111,-0.005107944365590811,7.17413640813902e-05,0.0,0.0,0.0,0.0,-0.0008688418893143535,-0.0006111544789746404,-0.0036771853920072317,1.0018075704574585,0.0,0.0,0.0,-17.485719680786133,1.2960492372512817,3.4565396308898926,3164.949951171875,0
1219.0529999999999,0.0019375841366127133,-0.00508614769205451,9.84390644589439e-05,0.0,0.0,0.0,0.0,0.0002045533328782767,0.0005602147430181503,0.0007213263888843358,0.9972859025001526,0.0,0.0,0.0,-17.502540588378906,1.307717204093933,3.4462785720825195,3167.994384765625,0
1228.9629999999997,0.0019323016749694943,-0.005090115126222372,0.00011524745787028223,0.0,0.0,0.0,0.0,0.004919605329632759,0.0026090287137776613,0.001509087160229683,1.0015052556991577,0.0,0.0,0.0,-17.486610412597656,1.3036096096038818,3.439016342163086,3165.111083984375,0
1238.8769999999986,0.0019133278401568532,-0.0050992537289857864,0.0001217022436321713,0.0,0.0,0.0,0.0,0.0008366940310224891,0.0038409619592130184,0.001084707211703062,1.0018255710601807,0.0,0.0,0.0,-17.49747085571289,1.2900832891464233,3.4269356727600098,3167.0771484375,0
1248.7829999999994,0.0019052954157814384,-0.005104695912450552,0.0001393714628648013,0.0,0.0,0.0,0.0,-0.0012911971425637603,0.0006864531897008419,0.0016342612216249108,0.9987974762916565,0.0,0.0,0.0,-17.47941780090332,1.2902209758758545,3.4183242321014404,3163.80908203125,0
1258.6949999999997,0.00188649189658463,-0.005118612200021744,0.0001465540990466252,0.0,0.0,0.0,0.0,0.002116347197443247,-0.0010917822364717722,-0.0014721192419528961,1.0006927251815796,0.0,0.0,0.0,-17.49455451965332,1.2840882539749146,3.4049270153045654,3166.548828125,0
1268.6049999999996,0.0018737469799816608,-0.005128428805619478,0.00016342227172572166,0.0,0.0,0.0,0.0,-0.0005207784124650061,0.003067048965021968,-0.0006866000476293266,1.0014221668243408,0.0,0.0,0.0,-17.47673225402832,1.2788957357406616,3.3885416984558105,3163.322998046875,0
1278.5209999999988,0.0018664869712665677,-0.005137012340128422,0.00018026154430117458,0.0,0.0,0.0,0.0,-0.0024095966946333647,-0.000714010966476053,0.0004873218131251633,0.9995037913322449,0.0,0.0,0.0,-17.49209213256836,1.2809593677520752,3.3837361335754395,3166.103515625,0
1288.4349999999995,0.0018516689306125045,-0.005146254785358906,0.0001981409004656598,0.0,0.0,0.0,0.0,0.0014748842222616076,0.002624601824209094,-0.002049023052677512,0.9980564117431641,0.0,0.0,0.0,-17.47357177734375,1.280959963798523,3.3768746852874756,3162.751220703125,0
1298.3379999999997,0.0018195642624050379,-0.005119627341628075,0.00021755853958893567,0.0,0.0,0.0,0.0,-0.00021056960395071656,-0.002706808503717184,0.000918324978556484,1.0001012086868286,0.0,0.0,0.0,-17.492265701293945,1.2850123643875122,3.355985641479492,3166.135009765625,0
1308.2489999999998,0.0017992503708228469,-0.005124357063323259,0.0002344572130823508,0.0,0.0,0.0,0.0,-5.893943307455629e-05,0.0007198882522061467,0.0006346588488668203,1.0015130043029785,0.0,0.0,0.0,-17.475032806396484,1.2821770906448364,3.366651773452759,3163.015380859375,0
1318.1669999999995,0.0017900209641084075,-0.005129708908498287,0.00025035266298800707,0.0,0.0,0.0,0.0,1.171868461824488e-06,-0.004268919117748737,-0.0023524595890194178,1.000348687171936,0.0,0.0,0.0,-17.494211196899414,1.2803173065185547,3.373661518096924,3166.487060546875,0
1328.0829999999987,0.0018898354610428214,-0.005015975330024958,-0.00015549852105323225,0.0,0.0,0.0,0.0,0.0034962415229529142,-0.0055384449660778046,0.0008917046943679452,0.9987769722938538,0.0,0.0,0.0,-17.525136947631836,1.313320279121399,3.399672746658325,3172.0849609375,0
1337.9849999999988,0.0018927960190922022,-0.005029220599681139,-0.00013589131413027644,0.0,0.0,0.0,0.0,0.0013670135522261262,0.00027743118698708713,-0.0003207743284292519,0.998842716217041,0.0,0.0,0.0,-17.535404205322266,1.3107733726501465,3.4059503078460693,3173.943359375,0
1347.8939999999984,0.0018772517796605825,-0.005027288105338812,-0.00013376306742429733,0.0,0.0,0.0,0.0,-0.0024296692572534084,-0.004174108151346445,0.0023665395565330982,1.0001165866851807,0.0,0.0,0.0,-17.51778221130371,1.310137152671814,3.402104377746582,3170.75341796875,0
1357.816999999999,0.001873430679552257,-0.004990320652723312,-0.00011013960465788841,0.0,0.0,0.0,0.0,-0.0027377696242183447,0.0007408542442135513,-5.016056456952356e-05,1.0016709566116333,0.0,0.0,0.0,-17.529998779296875,1.3186691999435425,3.407424211502075,3172.964599609375,0
1367.7189999999991,0.001869397470727563,-0.004992869216948748,-0.0001614471257198602,0.0,0.0,0.0,0.0,0.0001328601938439533,0.0009203861118294299,0.0015463539166375995,1.001205325126648,0.0,0.0,0.0,-17.555892944335938,1.326259732246399,3.4092490673065186,3177.65185546875,0
1377.6359999999986,0.0018859535921365023,-0.005015513394027948,-0.00014370254939422011,0.0,0.0,0.0,0.0,-0.0021446163300424814,-0.0001906352408695966,-0.0012032227823510766,1.0025668144226074,0.0,0.0,0.0,-17.562875747680664,1.3226616382598877,3.412130832672119,3178.91552734375,0
1387.5379999999986,0.001871322630904615,-0.005009016953408718,-0.00013789150398224592,0.0,0.0,0.0,0.0,0.0017070536268875003,0.0015097708674147725,-0.0019412410911172628,1.0010524988174438,0.0,0.0,0.0,-17.545289993286133,1.323470115661621,3.4070918560028076,3175.732421875,0
1397.4489999999987,0.0019398644799366593,-0.004979083314538002,-0.00010179942182730883,0.0,0.0,0.0,0.0,0.002825039904564619,0.00012914898979943246,-0.0011983431177213788,0.9982981085777283,0.0,0.0,0.0,-17.5561580657959,1.3286672830581665,3.4075443744659424,3177.69970703125,0
1407.3599999999988,0.0018998876912519336,-0.00499423174187541,-7.168304728111252e-05,0.0,0.0,0.0,0.0,0.004592926241457462,-0.0008828308782540262,-0.0003971777332480997,0.998349130153656,0.0,0.0,0.0,-17.580034255981445,1.3198182582855225,3.399094581604004,3182.021240234375,0
1417.2819999999992,0.001926557393744588,-0.005006600171327591,-4.2639378079911694e-05,0.0,0.0,0.0,0.0,0.0013253005454316735,5.542872168007307e-05,-0.005873254965990782,0.9984405636787415,0.0,0.0,0.0,-17.5860595703125,1.313265323638916,3.4005210399627686,3183.11181640625,0
1427.1859999999997,0.001902386313304305,-0.005013992078602314,-3.27294364979025e-05,0.0,0.0,0.0,0.0,0.0007938973139971495,0.0053620412945747375,0.0021793912164866924,0.9988904595375061,0.0,0.0,0.0,-17.610010147094727,1.3132582902908325,3.3926594257354736,3187.447021484375,0
1437.1039999999994,0.0019232420017942786,-0.005050011910498142,-1.3101020158501342e-05,0.0,0.0,0.0,0.0,0.003121561137959361,0.0006841543363407254,0.001181508065201342,1.0005472898483276,0.0,0.0,0.0,-17.613697052001953,1.3078097105026245,3.3830535411834717,3188.114013671875,0
1447.009,0.0019080920610576868,-0.005048179998993874,-4.223420546622947e-06,0.0,0.0,0.0,0.0,0.0007628596504218876,0.001715511316433549,-0.0023337763268500566,1.0011894702911377,0.0,0.0,0.0,-17.59577751159668,1.3037525415420532,3.382805347442627,3184.870849609375,0
1456.914999999999,0.0018756941426545382,-0.005031939130276442,1.3927781765232794e-05,0.0,0.0,0.0,0.0,-0.0016040696064010262,0.001301270560361445,-0.0001534303737571463,0.9995430707931519,0.0,0.0,0.0,-17.60318946838379,1.3049293756484985,3.381272792816162,3186.21240234375,0
1466.8319999999985,0.0018584164790809155,-0.005029898136854172,2.5283747163484804e-05,0.0,0.0,0.0,0.0,0.0021845863666385412,0.0018504243344068527,0.0007378883892670274,0.9996665716171265,0.0,0.0,0.0,-17.586259841918945,1.3013083934783936,3.374544143676758,3183.148193359375,0
1476.7459999999992,0.001883742748759687,-0.005057903006672859,3.490709059406072e-05,0.0,0.0,0.0,0.0,-2.048166970780585e-05,0.0022279280237853527,0.003495204960927367,1.0003432035446167,0.0,0.0,0.0,-17.590173721313477,1.295243501663208,3.3699517250061035,3183.8564453125,0
1486.6549999999988,0.0018753650365397334,-0.005082044750452042,-7.034055670374073e-06,0.0,0.0,0.0,0.0,-0.0014377274783328176,-0.002419424010440707,0.002687825821340084,0.9991930723190308,0.0,0.0,0.0,-17.610227584838867,1.2913596630096436,3.3623194694519043,3187.486083984375,0
1496.5699999999997,0.0018550724489614367,-0.005081519950181246,1.582497134222649e-05,0.0,0.0,0.0,0.0,0.002954616444185376,0.002154765883460641,0.00030864356085658073,0.9997844696044922,0.0,0.0,0.0,-17.620220184326172,1.2964935302734375,3.3722641468048096,3189.294921875,0
1506.4779999999992,0.0019078277982771397,-0.005030035972595215,-8.462399273412302e-05,0.0,0.0,0.0,0.0,9.221708751283586e-05,0.002527354983612895,0.0007336237467825413,0.9995924234390259,0.0,0.0,0.0,-17.637449264526367,1.2982608079910278,3.3698055744171143,3192.413330078125,0
1516.3889999999992,0.0019107585540041327,-0.005053688772022724,-7.58871974539943e-05,0.0,0.0,0.0,0.0,-4.304494268581038e-06,-0.001971977762877941,-0.00264197145588696,0.9999815225601196,0.0,0.0,0.0,-17.639678955078125,1.29526948928833,3.3713269233703613,3192.817138671875,0
1526.3029999999999,0.0019255931256338954,-0.005028287880122662,-0.00012458881246857345,0.0,0.0,0.0,0.0,0.0019629625603556633,0.0009639287018217146,0.0011194953694939613,1.0009411573410034,0.0,0.0,0.0,-17.65948486328125,1.3021069765090942,3.370746612548828,3196.402099609375,0
1536.2159999999985,0.0019519386114552617,-0.005023971199989319,-9.654014138504863e-05,0.0,0.0,0.0,0.0,-0.0038136232178658247,3.4110798878828064e-05,-0.0006734617636539042,0.9993840456008911,0.0,0.0,0.0,-17.663442611694336,1.2960550785064697,3.374236583709717,3197.118408203125,0
1546.1309999999994,0.0019318920094519854,-0.005018141120672226,-9.754026541486382e-05,0.0,0.0,0.0,0.0,0.0028863647021353245,-0.001127086579799652,-0.00209036679007113,0.9988067150115967,0.0,0.0,0.0,-17.64554214477539,1.2986422777175903,3.376600742340088,3193.87841796875,0
1556.045,0.0019349191570654511,-0.005027062725275755,-9.469099313719198e-05,0.0,0.0,0.0,0.0,-0.0016207682201638818,-0.0033736571203917265,-0.0009445593459531665,0.9999184608459473,0.0,0.0,0.0,-17.647443771362305,1.2931286096572876,3.383789539337158,3194.22265625,0
1565.9489999999987,0.0019151424057781696,-0.005023551173508167,-9.633914305595681e-05,0.0,0.0,0.0,0.0,0.0019014429999515414,0.0023200351279228926,0.002246033400297165,1.0006778240203857,0.0,0.0,0.0,-17.628629684448242,1.2934128046035767,3.3880951404571533,3190.81689453125,0
1575.857,0.001917026354931295,-0.005038446746766567,-9.687904093880206e-05,0.0,0.0,0.0,0.0,-0.001106384675949812,-0.00458518136292696,-0.003524069208651781,0.998994767665863,0.0,0.0,0.0,-17.628793716430664,1.2875570058822632,3.394028425216675,3190.8466796875,0
1585.7699999999986,0.001895597204566002,-0.005037803668528795,-9.843498992267996e-05,0.0,0.0,0.0,0.0,0.00010667064634617418,0.0004091307637281716,-0.0056977481581270695,0.9991764426231384,0.0,0.0,0.0,-17.61216163635254,1.284675121307373,3.394512176513672,3187.8359375,0
1595.6849999999995,0.0019189257873222232,-0.005062119569629431,-9.911420056596398e-05,0.0,0.0,0.0,0.0,0.0018924751784652472,-0.0005721539491787553,0.0015120269963517785,1.0016506910324097,0.0,0.0,0.0,-17.613845825195312,1.2817085981369019,3.4018537998199463,3188.14111328125,0
1605.5879999999997,0.001895926776342094,-0.005064452067017555,-9.986496297642589e-05,0.0,0.0,0.0,0.0,0.0002354318421566859,0.0009611816494725645,-0.003222472034394741,1.0016119480133057,0.0,0.0,0.0,-17.595304489135742,1.2765238285064697,3.3952393531799316,3184.784912109375,0
1615.5049999999992,0.001929647522047162,-0.00503059895709157,-7.46214936953038e-05,0.0,0.0,0.0,0.0,-0.0003799249534495175,-0.001273888978175819,0.0004496606416068971,0.9997605085372925,0.0,0.0,0.0,-17.604021072387695,1.2875316143035889,3.3980183601379395,3186.362548828125,0
1625.4249999999993,0.001927893958054483,-0.0050224135629832745,-0.00016260231495834887,0.0,0.0,0.0,0.0,0.0017461843090131879,-0.005264800041913986,0.001680866815149784,1.000891089439392,0.0,0.0,0.0,-17.623018264770508,1.2938488721847534,3.393876552581787,3189.80126953125,0
1635.33,0.0019036581506952643,-0.005023994017392397,-0.00016420995234511793,0.0,0.0,0.0,0.0,-0.00017778153414838016,2.2465615984401666e-05,0.0034385398030281067,0.9990469217300415,0.0,0.0,0.0,-17.605737686157227,1.2926939725875854,3.3996989727020264,3186.673583984375,0
1645.2299999999996,0.0018783323466777802,-0.0050264340825378895,-0.00016611380851827562,0.0,0.0,0.0,0.0,-0.002962132915854454,-0.0012390654301270843,-0.001955549232661724,0.9999221563339233,0.0,0.0,0.0,-17.58759117126465,1.2903612852096558,3.4021215438842773,3183.388916015625,0
1655.1489999999994,0.0018514995463192463,-0.005029312334954739,-0.00016824351041577756,0.0,0.0,0.0,0.0,0.00014205857587512583,-0.004267203155905008,0.005030206870287657,1.0018764734268188,0.0,0.0,0.0,-17.57105255126953,1.2915090322494507,3.4073312282562256,3180.395263671875,0
1665.0499999999993,0.0018168446840718389,-0.005019368138164282,-0.00015149805403780192,0.0,0.0,0.0,0.0,0.0012372694909572601,-0.0006277604843489826,-0.0017174258828163147,1.0024679899215698,0.0,0.0,0.0,-17.590476989746094,1.2977616786956787,3.407108783721924,3183.911376953125,0
1674.976999999999,0.0018562546465545893,-0.005060466006398201,-0.00010451938578626141,0.0,0.0,0.0,0.0,-0.0012353977654129267,0.005250952206552029,0.0003843122685793787,1.0000615119934082,0.0,0.0,0.0,-17.59575843811035,1.2975629568099976,3.4335312843322754,3184.8671875,0
1684.8799999999992,0.001832065638154745,-0.0050649493932724,-9.848720947047696e-05,0.0,0.0,0.0,0.0,0.00039492614450864494,0.002053686650469899,0.001686683390289545,0.9994633793830872,0.0,0.0,0.0,-17.57752799987793,1.2988076210021973,3.4248292446136475,3181.5673828125,0
1694.8059999999987,0.0018540116725489497,-0.0050755450502038,-7.576880307169631e-05,0.0,0.0,0.0,0.0,0.001814299845136702,0.004216979723423719,0.0007356698042713106,1.0012736320495605,0.0,0.0,0.0,-17.583993911743164,1.3002122640609741,3.4258663654327393,3182.737548828125,0
1704.7019999999993,0.0018306999700143933,-0.005076136905699968,-6.809912883909419e-05,0.0,0.0,0.0,0.0,0.0020458807703107595,0.0013403306948021054,0.0018219819758087397,1.0018060207366943,0.0,0.0,0.0,-17.56643295288086,1.2980692386627197,3.4145052433013916,3179.559326171875,0
1714.616,0.0018056484404951334,-0.005075226537883282,-5.87201866437681e-05,0.0,0.0,0.0,0.0,-0.0018217017641291022,0.0015958157600834966,-0.002247524680569768,1.001952886581421,0.0,0.0,0.0,-17.548480987548828,1.2885349988937378,3.40693998336792,3176.31005859375,0
1724.5209999999988,0.0017788535915315151,-0.005074379034340382,-4.7257002734113485e-05,0.0,0.0,0.0,0.0,-0.0005249651148915291,-0.00468879658728838,-0.0004615705111064017,1.0008108615875244,0.0,0.0,0.0,-17.53082275390625,1.2871356010437012,3.409485340118408,3173.11376953125,0
1734.4399999999987,0.0018263277597725391,-0.005075817462056875,-1.5211782738333568e-05,0.0,0.0,0.0,0.0,0.0025478387251496315,0.006610244512557983,-0.00125231989659369,0.9992548823356628,0.0,0.0,0.0,-17.542016983032227,1.2905151844024658,3.4368577003479004,3175.14013671875,0
1744.3529999999992,0.0018220546189695597,-0.0050482070073485374,-6.482403114205226e-05,0.0,0.0,0.0,0.0,-0.0009223117376677692,0.001404706621542573,-0.001660683425143361,0.9999217391014099,0.0,0.0,0.0,-17.568866729736328,1.3006566762924194,3.419283151626587,3179.99951171875,0
1754.2619999999988,0.0018510394729673862,-0.005073042120784521,-2.8653263143496588e-05,0.0,0.0,0.0,0.0,-0.000649679743219167,-0.005075991153717041,0.0037233056500554085,0.9982578754425049,0.0,0.0,0.0,-17.57616424560547,1.3048561811447144,3.426633596420288,3181.32080078125,0
1764.1769999999997,0.0018820349359884858,-0.005032964050769806,-0.00010032883437816054,0.0,0.0,0.0,0.0,0.0026887250132858753,0.003025783458724618,0.0002424865961074829,0.9982381463050842,0.0,0.0,0.0,-17.593679428100586,1.3119354248046875,3.443756580352783,3184.49072265625,0
1774.0779999999995,0.001910200109705329,-0.005037412513047457,-6.714811024721712e-05,0.0,0.0,0.0,0.0,-0.0005243780906312168,0.00010608848242554814,0.0024215516168624163,1.000049352645874,0.0,0.0,0.0,-17.602415084838867,1.3138419389724731,3.4476022720336914,3186.072021484375,0
1784.0029999999988,0.0018935876432806253,-0.005033570341765881,-6.113782001193613e-05,0.0,0.0,0.0,0.0,0.0024892680812627077,0.002389871748164296,0.0038342366460710764,0.999428927898407,0.0,0.0,0.0,-17.586040496826172,1.3169207572937012,3.4390764236450195,3183.1083984375,0
1793.9029999999984,0.001861299853771925,-0.0050009856931865215,-4.302703746361658e-05,0.0,0.0,0.0,0.0,0.00033373935730196536,-0.00014452775940299034,-0.00214454741217196,0.9984292984008789,0.0,0.0,0.0,-17.589900970458984,1.3158299922943115,3.4394569396972656,3183.806884765625,0
1803.816999999999,0.0018420893466100097,-0.004998400807380676,-3.7702084227930754e-05,0.0,0.0,0.0,0.0,0.0011133544612675905,0.0005944793811067939,0.001936253858730197,0.9987520575523376,0.0,0.0,0.0,-17.573732376098633,1.3114979267120361,3.4352312088012695,3180.880615234375,0
1813.726999999999,0.0018959409790113568,-0.005030041094869375,-2.9762362828478217e-05,0.0,0.0,0.0,0.0,-0.000511294521857053,-0.0001165667490568012,0.002338254125788808,1.0015742778778076,0.0,0.0,0.0,-17.58046531677246,1.3001562356948853,3.4403910636901855,3182.09912109375,0
1823.6399999999994,0.0019401010358706117,-0.0050006345845758915,-0.00015746067219879478,0.0,0.0,0.0,0.0,0.0013147974386811256,0.0014642286114394665,-0.0003658330824691802,0.9995065927505493,0.0,0.0,0.0,-17.601194381713867,1.3102138042449951,3.448979139328003,3185.85107421875,0
1833.5509999999995,0.0019507772522047162,-0.005027557257562876,-0.00014936989464331418,0.0,0.0,0.0,0.0,0.0006686979904770851,0.0003566737286746502,-0.001131819561123848,1.0027742385864258,0.0,0.0,0.0,-17.60464859008789,1.3085641860961914,3.4476380348205566,3186.4765625,0
1843.4719999999998,0.0019345348700881004,-0.005027799867093563,-0.00014968776667956263,0.0,0.0,0.0,0.0,-0.0008237337460741401,0.0008436749340035021,-0.0011452280450612307,1.0025814771652222,0.0,0.0,0.0,-17.58708953857422,1.308191180229187,3.4405808448791504,3183.2978515625,0
1853.366,0.0019345348700881004,-0.005027799867093563,-0.00014968776667956263,0.0,0.0,0.0,0.0,0.0002959878765977919,0.0077712200582027435,-0.005363935139030218,0.9993981122970581,0.0,0.0,0.0,-17.58708953857422,1.308191180229187,3.4405808448791504,3183.2978515625,0
1863.2869999999984,0.0019367975182831287,-0.005015067756175995,-0.00021539574663620442,0.0,0.0,0.0,0.0,-0.0007002948550507426,-0.001253843423910439,0.0014776256866753101,0.9984636306762695,0.0,0.0,0.0,-17.593530654907227,1.3123736381530762,3.4205434322357178,3184.464111328125,0
1873.1929999999993,0.001943990821018815,-0.004951239563524723,-0.0001638238609302789,0.0,0.0,0.0,0.0,0.001463757362216711,-0.0002458773960825056,0.0009863954037427902,1.0016937255859375,0.0,0.0,0.0,-17.616979598999023,1.3287814855575562,3.4254143238067627,3188.708251953125,0
1883.1139999999996,0.0018963455222547054,-0.004981267731636763,-0.0001675860257819295,0.0,0.0,0.0,0.0,-0.0016984317917376757,0.002258287975564599,-0.0020920205861330032,0.9992156028747559,0.0,0.0,0.0,-17.61764907836914,1.318183422088623,3.4315927028656006,3188.829345703125,0
1893.0079999999998,0.0018845690647140145,-0.004961333703249693,-0.00013920958735980093,0.0,0.0,0.0,0.0,0.000739014707505703,0.004474923480302095,0.001908301142975688,0.9998038411140442,0.0,0.0,0.0,-17.624977111816406,1.3175690174102783,3.4334967136383057,3190.15576171875,0
1902.923999999999,0.0018637096509337425,-0.004958113189786673,-0.0001361683534923941,0.0,0.0,0.0,0.0,0.0008612112142145634,0.001382538233883679,0.0019225325668230653,0.9999684691429138,0.0,0.0,0.0,-17.606918334960938,1.313718557357788,3.4169514179229736,3186.887451171875,0
1912.825999999999,0.0019370567752048373,-0.004992644768208265,-0.0001229763001902029,0.0,0.0,0.0,0.0,0.0007991387392394245,0.0013547767885029316,-0.000579179497435689,0.9997465014457703,0.0,0.0,0.0,-17.611364364624023,1.3100122213363647,3.4335544109344482,3187.69189453125,0
1922.7469999999994,0.0018682952504605055,-0.005066198296844959,-8.577222615713254e-05,0.0,0.0,0.0,0.0,0.0007906823884695768,-0.00027882607537321746,-0.0008970075869001448,1.0001109838485718,0.0,0.0,0.0,-17.629621505737305,1.2976205348968506,3.427478790283203,3190.99658203125,0
1932.6509999999998,0.0018481166334822774,-0.005064104218035936,-7.947398262331262e-05,0.0,0.0,0.0,0.0,-0.0008760024793446064,0.0028567195404320955,-0.003690544283017516,1.0014985799789429,0.0,0.0,0.0,-17.61251449584961,1.2967193126678467,3.4243125915527344,3187.900146484375,0
1942.5689999999995,0.0018272057641297579,-0.005060464143753052,-7.193597411969677e-05,0.0,0.0,0.0,0.0,-0.0015422715805470943,0.0015711511950939894,-0.0004314164980314672,1.00167977809906,0.0,0.0,0.0,-17.595760345458984,1.2969624996185303,3.4094228744506836,3184.867431640625,0
1952.4719999999998,0.0019345011096447706,-0.005116044543683529,-2.605751433293335e-05,0.0,0.0,0.0,0.0,-0.0012069458607584238,0.0011577061377465725,0.0014218231663107872,0.9987305998802185,0.0,0.0,0.0,-17.60325050354004,1.2984999418258667,3.438783645629883,3186.22314453125,0
1962.3919999999998,0.0019181643147021532,-0.005112475715577602,-1.4700326573802158e-05,0.0,0.0,0.0,0.0,0.0006924765184521675,0.0023987365420907736,0.0015534310368821025,0.9992040395736694,0.0,0.0,0.0,-17.58452033996582,1.298006534576416,3.434232711791992,3182.8330078125,0
1972.295,0.0018875390524044633,-0.005097591318190098,1.480093487771228e-06,0.0,0.0,0.0,0.0,-0.001853173947893083,0.001502008643001318,0.0010132151655852795,1.002194881439209,0.0,0.0,0.0,-17.59007453918457,1.2947522401809692,3.4289560317993164,3183.838623046875,0
1982.214,0.0018679705681279302,-0.005089922808110714,1.4075532817514613e-05,0.0,0.0,0.0,0.0,-0.001251489040441811,-0.0022986503317952156,0.00410629715770483,1.0015162229537964,0.0,0.0,0.0,-17.572769165039062,1.2965646982192993,3.4270200729370117,3180.7060546875,0
1992.1259999999984,0.0018563478952273726,-0.005032986868172884,3.398127591935918e-05,0.0,0.0,0.0,0.0,0.0012834204826503992,0.00022866952349431813,0.0025539137423038483,1.0003288984298706,0.0,0.0,0.0,-17.59906578063965,1.3132126331329346,3.4237139225006104,3185.4658203125,0
2002.0389999999989,0.0018724638503044844,-0.00497685931622982,-8.345089008798823e-05,0.0,0.0,0.0,0.0,-0.0021945040207356215,-0.0019101881189271808,-0.004044244531542063,0.9998193979263306,0.0,0.0,0.0,-17.599609375,1.3218472003936768,3.4325335025787354,3185.564453125,0
2011.938,0.001932597835548222,-0.004978258162736893,-3.554417344275862e-05,0.0,0.0,0.0,0.0,-0.002399818040430546,0.0008238207665272057,-0.000574061821680516,1.0010981559753418,0.0,0.0,0.0,-17.606300354003906,1.3250470161437988,3.4508368968963623,3186.775146484375,0
2021.8559999999998,0.0019153697649016976,-0.004964600317180157,-2.4931461666710675e-05,0.0,0.0,0.0,0.0,-0.0027654962614178658,-0.0020404206588864326,0.0025945710949599743,0.9991815090179443,0.0,0.0,0.0,-17.589187622070312,1.3268686532974243,3.4473330974578857,3183.677978515625,0
2031.759,0.001893977401778102,-0.004998225253075361,-2.5762881705304608e-05,0.0,0.0,0.0,0.0,-0.00018049421487376094,0.004442027769982815,0.0014953159261494875,0.9985917210578918,0.0,0.0,0.0,-17.59616470336914,1.329203486442566,3.444734811782837,3184.940673828125,0
2041.6859999999997,0.0018734121695160866,-0.004988548811525106,-1.689226701273583e-05,0.0,0.0,0.0,0.0,0.0035713473334908485,-0.0013795242412015796,0.0015616045566275716,0.9997636675834656,0.0,0.0,0.0,-17.578044891357422,1.327081322669983,3.43873929977417,3181.6611328125,0
2051.5859999999993,0.0018505464540794492,-0.004979005549103022,-8.021768735488877e-06,0.0,0.0,0.0,0.0,0.0004758676514029503,0.0018973874393850565,-0.004646169021725655,1.0008575916290283,0.0,0.0,0.0,-17.560213088989258,1.3223118782043457,3.4358437061309814,3178.43359375,0
2061.5,0.0018262005178257823,-0.004970291163772345,1.2874406820628792e-06,0.0,0.0,0.0,0.0,0.002546085277572274,-0.0013436608714982867,0.0007626668666489422,0.9989638924598694,0.0,0.0,0.0,-17.543188095092773,1.321523666381836,3.4235734939575195,3175.35205078125,0
2071.4039999999986,0.0018262005178257823,-0.004970291163772345,1.2874406820628792e-06,0.0,0.0,0.0,0.0,0.005277921911329031,-0.004692787770181894,0.0027396611403673887,0.9985412359237671,0.0,0.0,0.0,-17.543188095092773,1.321523666381836,3.4235734939575195,3175.35205078125,0
2081.3289999999997,0.0017848286079242826,-0.00499724131077528,-3.154045407427475e-05,0.0,0.0,0.0,0.0,-0.0016854810528457165,9.322896949015558e-05,0.0017073370981961489,1.0001790523529053,0.0,0.0,0.0,-17.551414489746094,1.2972691059112549,3.430743932723999,3176.841064453125,0
2091.235999999999,0.0017848286079242826,-0.00499724131077528,-3.154045407427475e-05,0.0,0.0,0.0,0.0,0.004776301793754101,-0.0003756241057999432,0.0012319512898102403,1.0001263618469238,0.0,0.0,0.0,-17.551414489746094,1.2972691059112549,3.430743932723999,3176.841064453125,0
2101.1529999999984,0.0017807666445150971,-0.0049600861966609955,-0.00010974935139529407,0.0,0.0,0.0,0.0,0.00011161043221363798,0.0035764919593930244,-0.00010455062874825671,0.9999312162399292,0.0,0.0,0.0,-17.558366775512695,1.3042142391204834,3.431065559387207,3178.09912109375,0
2111.047999999999,0.0017807666445150971,-0.0049600861966609955,-0.00010974935139529407,0.0,0.0,0.0,0.0,0.0015030265785753727,0.0026739544700831175,0.0028008439112454653,0.9995325207710266,0.0,0.0,0.0,-17.558366775512695,1.3042142391204834,3.431065559387207,3178.09912109375,0
2120.9619999999995,0.0017639115685597062,-0.004953740164637566,-0.00018084124894812703,0.0,0.0,0.0,0.0,-0.001262178528122604,-0.008264714851975441,0.0009908672655001283,0.9996238946914673,0.0,0.0,0.0,-17.569316864013672,1.299910306930542,3.425318956375122,3180.08154296875,0
2130.8729999999996,0.001737376325763762,-0.004950916860252619,-0.00018652173457667232,0.0,0.0,0.0,0.0,0.0025533956941217184,0.00020637006673496217,0.0020790868438780308,1.0012840032577515,0.0,0.0,0.0,-17.551769256591797,1.2974985837936401,3.4295334815979004,3176.905029296875,0
2140.797999999999,0.001706479350104928,-0.0049483636394143105,-0.00019195873755961657,0.0,0.0,0.0,0.0,0.0013910915004089475,-0.00041869227425195277,0.004613868892192841,0.9999864101409912,0.0,0.0,0.0,-17.534503936767578,1.2861741781234741,3.42042875289917,3173.7802734375,0
