timestamp,stateEstimate.x,stateEstimate.y,stateEstimate.z,controller.cmd_thrust,controller.cmd_roll,controller.cmd_pitch,controller.cmd_yaw,controller.r_roll,controller.r_pitch,controller.r_yaw,controller.accelz,controller.actuatorThrust,controller.roll,controller.pitch,controller.yaw,controller.rollRate,controller.pitchRate,controller.yawRate,controller.ctr_yaw
0.0,-0.029096657410264015,0.00015691756561864167,7.653568900423124e-05,0.0,0.0,0.0,0.0,-0.005225696600973606,-0.004365646746009588,0.000646477856207639,0.9983149766921997,0.0,0.0,0.0,-4.5544819831848145,3.1119842529296875,5.5620341300964355,824.3703002929688,0
9.911000000000058,-0.029090899974107742,0.00015651756257284433,2.885638195948559e-06,0.0,0.0,0.0,0.0,0.002877187915146351,-0.0023438900243490934,-0.0003783850697800517,1.0001533031463623,0.0,0.0,0.0,-4.559619426727295,3.118971586227417,5.576659679412842,825.3001708984375,0
19.816999999999098,-0.02914096787571907,0.00013177322398405522,-8.052978046180215e-06,0.0,0.0,0.0,0.0,0.0022570432629436255,0.0003042668686248362,0.004802034702152014,1.0002137422561646,0.0,0.0,0.0,-4.555491924285889,3.1127827167510986,5.580731391906738,824.5531005859375,0
29.733000000000175,-0.02914833277463913,0.0001449789124308154,-7.235939119709656e-05,0.0,0.0,0.0,0.0,-0.0016935262829065323,0.0007951531442813575,0.004311738535761833,0.9988729953765869,0.0,0.0,0.0,-4.564385890960693,3.1234004497528076,5.58939266204834,826.1629638671875,0
39.63600000000042,-0.029033266007900238,0.00011407800775486976,-1.6250747876256355e-06,0.0,0.0,0.0,0.0,-0.0025171483866870403,0.0015892438823357224,-0.0020136693492531776,1.0002495050430298,0.0,0.0,0.0,-4.553591251373291,3.11897873878479,5.631451606750488,824.208984375,0
49.55199999999968,-0.029019426554441452,0.00011234995326958597,-8.113861258607358e-05,0.0,0.0,0.0,0.0,0.0007213072967715561,-0.00034957093885168433,-0.0008677780861034989,1.0002110004425049,0.0,0.0,0.0,-4.5601043701171875,3.131951332092285,5.635241508483887,825.3878784179688,0
59.45800000000054,-0.02900412119925022,0.00014368152187671512,-4.548389551928267e-05,0.0,0.0,0.0,0.0,0.000809894991107285,-0.0007090649451129138,0.00018645012460183352,1.0004603862762451,0.0,0.0,0.0,-4.556168556213379,3.133417844772339,5.635544776916504,824.6755981445312,0
69.37700000000041,-0.02898968569934368,0.00015268540300894529,-0.00012200417404528707,0.0,0.0,0.0,0.0,0.003281855024397373,0.00045286360546015203,-0.0036827027797698975,0.99932461977005,0.0,0.0,0.0,-4.560685157775879,3.131432294845581,5.636794567108154,825.4931030273438,0
79.28199999999924,-0.028960229828953743,0.00016783745377324522,-0.0001001374184852466,0.0,0.0,0.0,0.0,-0.0007991276797838509,-0.00033503177110105753,0.002809896832332015,1.0001157522201538,0.0,0.0,0.0,-4.556784629821777,3.123976945877075,5.622398376464844,824.7869873046875,0
89.19900000000052,-0.029003839939832687,0.00012678118946496397,-0.00011728697427315637,0.0,0.0,0.0,0.0,-0.0012095525162294507,-0.002097122371196747,-0.002394606126472354,0.9991556406021118,0.0,0.0,0.0,-4.564333915710449,3.1155569553375244,5.618736267089844,826.1535034179688,0
99.10100000000057,-0.028980476781725883,0.0001528457214590162,-8.896148938219994e-05,0.0,0.0,0.0,0.0,0.0007013310678303242,-0.0025731739588081837,0.0027100660372525454,0.9996604323387146,0.0,0.0,0.0,-4.552643775939941,3.121406316757202,5.627366542816162,824.0375366210938,0
109.02199999999903,-0.029021739959716797,0.00012803293066099286,-0.00010102375381393358,0.0,0.0,0.0,0.0,0.0005423602997325361,-0.002308130729943514,-8.776478352956474e-05,1.0002655982971191,0.0,0.0,0.0,-4.561101913452148,3.1251211166381836,5.628215312957764,825.5684814453125,0
118.93399999999929,-0.028947191312909126,0.0001659701665630564,-4.630516923498362e-05,0.0,0.0,0.0,0.0,-0.0016735809622332454,0.0024987123906612396,-0.0021548394579440355,0.9983860850334167,0.0,0.0,0.0,-4.5498504638671875,3.128013849258423,5.638693809509277,823.5319213867188,0
128.85599999999977,-0.028994569554924965,9.813513315748423e-05,-5.9151341702090576e-05,0.0,0.0,0.0,0.0,-0.0003169358242303133,0.004038778133690357,0.002168443286791444,0.9984644651412964,0.0,0.0,0.0,-4.561048984527588,3.1257317066192627,5.634635925292969,825.5588989257812,0
138.753999999999,-0.029035033658146858,6.644646782660857e-05,-6.627770198974758e-05,0.0,0.0,0.0,0.0,-0.001268101972527802,-0.002669848967343569,0.00046819340786896646,0.9991776347160339,0.0,0.0,0.0,-4.556583404541016,3.126756191253662,5.631374359130859,824.7506103515625,0
148.67200000000048,-0.029036669060587883,8.22844376671128e-05,-0.00011695371358655393,0.0,0.0,0.0,0.0,0.00032142060808837414,0.0011996084358543158,0.0018476367695257068,0.998710036277771,0.0,0.0,0.0,-4.565237045288086,3.137470245361328,5.634065628051758,826.3170166015625,0
158.57799999999952,-0.029078949242830276,5.1430706662358716e-05,-0.0001296894915867597,0.0,0.0,0.0,0.0,8.638908911962062e-05,-0.004442198667675257,0.0037851878441870213,0.9979784488677979,0.0,0.0,0.0,-4.559670448303223,3.1369452476501465,5.6250386238098145,825.3094482421875,0
168.4940000000006,-0.029110627248883247,2.8164766263216734e-05,-0.0001637095701880753,0.0,0.0,0.0,0.0,0.0017992403591051698,0.00209631584584713,-0.002485676435753703,0.9985089898109436,0.0,0.0,0.0,-4.571343898773193,3.139178514480591,5.621321201324463,827.42236328125,0
178.39899999999943,-0.02915782295167446,-3.6000892578158528e-06,-0.00018066875054500997,0.0,0.0,0.0,0.0,0.0031440816819667816,0.00013270802446641028,0.0014640057925134897,0.9985300898551941,0.0,0.0,0.0,-4.566509246826172,3.139735460281372,5.6190032958984375,826.5472412109375,0
188.3109999999997,-0.02918216772377491,3.076659777434543e-05,-0.00021470828505698591,0.0,0.0,0.0,0.0,-0.0007980859372764826,0.002906339941546321,-0.0023469554726034403,0.9988222122192383,0.0,0.0,0.0,-4.572018623352051,3.1603283882141113,5.6302595138549805,827.5444946289062,0
198.22199999999975,-0.029057510197162628,7.640331023139879e-05,-6.955348362680525e-05,0.0,0.0,0.0,0.0,-0.0005100045818835497,0.003821567166596651,0.00253216247074306,0.9989060163497925,0.0,0.0,0.0,-4.56410026550293,3.1739461421966553,5.665628910064697,826.1112670898438,0
208.1389999999992,-0.029108015820384026,4.945985710946843e-05,-6.584994844160974e-05,0.0,0.0,0.0,0.0,0.0011874048504978418,0.0028282625135034323,-0.0010662716813385487,0.9997149109840393,0.0,0.0,0.0,-4.569779872894287,3.1734619140625,5.658055305480957,827.1392822265625,0
218.04700000000048,-0.029068423435091972,7.427292439388111e-05,-1.9546070689102635e-05,0.0,0.0,0.0,0.0,-0.001559469266794622,-0.004152138251811266,0.001137866755016148,1.001349687576294,0.0,0.0,0.0,-4.5656256675720215,3.1665656566619873,5.64108419418335,826.3873291015625,0
227.95600000000013,-0.029075488448143005,7.29474559193477e-05,-6.423956801882014e-05,0.0,0.0,0.0,0.0,-0.0002459936949890107,0.0009223897941410542,0.0036738598719239235,1.001335859298706,0.0,0.0,0.0,-4.572638034820557,3.170867443084717,5.653794288635254,827.6566162109375,0
237.8809999999994,-0.029050549492239952,0.0001054252206813544,-1.9501334463711828e-05,0.0,0.0,0.0,0.0,0.0008137308177538216,-0.004428945016115904,-0.00015463278396055102,1.0001603364944458,0.0,0.0,0.0,-4.567047595977783,3.1680188179016113,5.649899482727051,826.6447143554688,0
247.78499999999985,-0.029022857546806335,0.00012014478124910966,-0.00010078191553475335,0.0,0.0,0.0,0.0,-0.0015786637086421251,-0.0022159707732498646,-0.0006391222705133259,0.9989947080612183,0.0,0.0,0.0,-4.57253360748291,3.1691067218780518,5.663109302520752,827.6376342773438,0
257.6900000000005,-0.029059389606118202,9.42107435548678e-05,-0.00010830965038621798,0.0,0.0,0.0,0.0,-0.00306296837516129,-0.002386836800724268,8.549000631319359e-05,0.9983538389205933,0.0,0.0,0.0,-4.568387031555176,3.168349266052246,5.661036014556885,826.8871459960938,0
267.60299999999916,-0.02905142679810524,9.743418922880664e-05,-0.00017691774701233953,0.0,0.0,0.0,0.0,7.55378496251069e-05,0.002244260860607028,-0.0020864943508058786,0.9981189966201782,0.0,0.0,0.0,-4.576324939727783,3.178931713104248,5.672649383544922,828.3239135742188,0
277.52399999999943,-0.029090886935591698,7.013023423496634e-05,-0.00019041945051867515,0.0,0.0,0.0,0.0,-0.0012726831482723355,0.0015165478689596057,0.0015518063446506858,1.0001935958862305,0.0,0.0,0.0,-4.5718302726745605,3.180820941925049,5.667941570281982,827.5103759765625,0
287.4290000000001,-0.02912813425064087,6.253627361729741e-05,-0.0002075066149700433,0.0,0.0,0.0,0.0,0.001428962335921824,0.0011355937458574772,-0.0007535032345913351,0.9987338781356812,0.0,0.0,0.0,-4.576135635375977,3.182857036590576,5.656284332275391,828.2896118164062,0
297.33699999999953,-0.029173577204346657,3.482116153463721e-05,-0.00022251458722166717,0.0,0.0,0.0,0.0,0.00011268652451690286,0.0008107153116725385,0.00019482648349367082,0.9973785877227783,0.0,0.0,0.0,-4.571539402008057,3.180398941040039,5.650350093841553,827.457763671875,0
307.2530000000006,-0.029205553233623505,4.9367372412234545e-05,-0.00025171111337840557,0.0,0.0,0.0,0.0,-0.0026242223102599382,-0.0021601286716759205,0.0013227720046415925,1.0002388954162598,0.0,0.0,0.0,-4.577483177185059,3.1870436668395996,5.641857147216797,828.5335693359375,0
317.16400000000067,-0.029251879081130028,2.510055128368549e-05,-0.0002708084648475051,0.0,0.0,0.0,0.0,-0.0002236004947917536,-0.002978358417749405,-1.7329348338535056e-05,0.9990488886833191,0.0,0.0,0.0,-4.572429656982422,3.1875572204589844,5.639090538024902,827.6188354492188,0
327.0699999999997,-0.029255645349621773,7.263458974193782e-05,-0.0003459670697338879,0.0,0.0,0.0,0.0,0.0009572953567840159,-0.003799585159868002,0.0022308886982500553,0.9992765784263611,0.0,0.0,0.0,-4.576498985290527,3.216599464416504,5.663201808929443,828.3553466796875,0
336.9889999999996,-0.029116075485944748,0.00014219290460459888,-0.00016902833885978907,0.0,0.0,0.0,0.0,-0.0017608958296477795,0.002570600714534521,0.0026554851792752743,0.9987127184867859,0.0,0.0,0.0,-4.566405773162842,3.2362918853759766,5.719479560852051,826.528564453125,0
346.90099999999984,-0.029149306938052177,0.0001302785094594583,-0.0001810618123272434,0.0,0.0,0.0,0.0,0.0006451326189562678,0.001242810394614935,-0.0036060402635484934,0.9997637271881104,0.0,0.0,0.0,-4.5614237785339355,3.2391228675842285,5.712213516235352,825.626708984375,0
356.8119999999999,-0.029181664809584618,0.00011702446499839425,-0.00019397794676478952,0.0,0.0,0.0,0.0,-0.00117745331954211,-0.0007844703504815698,0.0010558433132246137,1.0007704496383667,0.0,0.0,0.0,-4.558084011077881,3.239837408065796,5.709289073944092,825.0222778320312,0
366.72400000000016,-0.029213907197117805,0.0001029658960760571,-0.00020655749540310353,0.0,0.0,0.0,0.0,-0.0002761702926363796,0.003444611094892025,0.0003697598003782332,1.0006599426269531,0.0,0.0,0.0,-4.553081035614014,3.233879566192627,5.696145057678223,824.1167602539062,0
376.6329999999998,-0.02905481681227684,0.00012816670641768724,-0.0001349535450572148,0.0,0.0,0.0,0.0,-0.0006930828676559031,0.00030668769613839686,-0.0027756274212151766,1.002071499824524,0.0,0.0,0.0,-4.546195030212402,3.2432477474212646,5.72706937789917,822.870361328125,0
386.5450000000001,-0.02907046303153038,0.00013454494182951748,-0.00015983878984116018,0.0,0.0,0.0,0.0,-0.001372770988382399,-0.003806706052273512,0.001924313372001052,1.0028364658355713,0.0,0.0,0.0,-4.557344436645508,3.2469804286956787,5.729098796844482,824.8883666992188,0
396.4549999999999,-0.02900545485317707,0.00015778705710545182,-0.0001026367099257186,0.0,0.0,0.0,0.0,-7.259942503878847e-05,-0.00431390106678009,0.0016709343763068318,1.000594973564148,0.0,0.0,0.0,-4.546018600463867,3.2559103965759277,5.747400760650635,822.8384399414062,0
406.3739999999998,-0.029035083949565887,0.00013219763059169054,-0.00010639099491527304,0.0,0.0,0.0,0.0,-0.0019800025038421154,0.00010490338900126517,0.0015164490323513746,0.9993649125099182,0.0,0.0,0.0,-4.54939603805542,3.254777431488037,5.742031097412109,823.4497680664062,0
416.27700000000004,-0.029007496312260628,0.00015931381494738162,-6.01756910327822e-05,0.0,0.0,0.0,0.0,0.0018576985457912087,0.0032911088783293962,0.00044068225543014705,1.0003587007522583,0.0,0.0,0.0,-4.544758319854736,3.255004644393921,5.735653877258301,822.6103515625,0
426.1929999999993,-0.02904089167714119,0.0001182159612653777,-5.823805258842185e-05,0.0,0.0,0.0,0.0,-0.004209146834909916,-0.0017120745033025742,0.0012603449868038297,0.9997324347496033,0.0,0.0,0.0,-4.553174018859863,3.2522103786468506,5.721732139587402,824.133544921875,0
436.10699999999997,-0.02906922437250614,9.99461772153154e-05,-5.191058880882338e-05,0.0,0.0,0.0,0.0,-0.001539293909445405,-0.0019575131591409445,0.0012112637050449848,0.9994312524795532,0.0,0.0,0.0,-4.549352645874023,3.253943920135498,5.705082893371582,823.44189453125,0
446.02000000000044,-0.029076430946588516,0.0001089411525754258,-7.094757893355563e-05,0.0,0.0,0.0,0.0,0.0013253871584311128,0.0018692712765187025,-0.004284687340259552,0.9978671073913574,0.0,0.0,0.0,-4.553833484649658,3.257432460784912,5.711130142211914,824.2529296875,0
455.9349999999995,-0.02902710810303688,0.0001295929541811347,-1.2838156180805527e-05,0.0,0.0,0.0,0.0,-0.001846703002229333,-0.0020721042528748512,0.0019192672334611416,0.9989085793495178,0.0,0.0,0.0,-4.550382137298584,3.260197401046753,5.704390525817871,823.6282348632812,0
465.84299999999894,-0.029024967923760414,0.00013893042341805995,-3.920695962733589e-05,0.0,0.0,0.0,0.0,-0.0002908895257860422,-0.004547841846942902,0.0016383721958845854,0.9991759061813354,0.0,0.0,0.0,-4.562877178192139,3.2687737941741943,5.705152988433838,825.889892578125,0
475.7520000000004,-0.029050080105662346,0.00012620423512998968,-3.5713277611648664e-05,0.0,0.0,0.0,0.0,0.0020511073525995016,0.002529016463086009,-5.912305368838133e-06,0.999656081199646,0.0,0.0,0.0,-4.5581536293029785,3.265660524368286,5.705920219421387,825.0348510742188,0
485.65300000000025,-0.029059315100312233,0.00012623659858945757,-5.2911524107912555e-05,0.0,0.0,0.0,0.0,-0.0025104472879320383,-0.0010709362104535103,-0.003404988907277584,0.9998675584793091,0.0,0.0,0.0,-4.569488048553467,3.2630069255828857,5.68809175491333,827.08642578125,0
495.5769999999993,-0.029084261506795883,0.00011307797103654593,-5.1347484259167686e-05,0.0,0.0,0.0,0.0,-0.0019143024692311883,-0.0024758728686720133,-0.0026164348237216473,0.9980048537254333,0.0,0.0,0.0,-4.566089153289795,3.2667603492736816,5.681913375854492,826.4712524414062,0
505.47299999999996,-0.02908133529126644,0.00012863564188592136,-9.175651939585805e-05,0.0,0.0,0.0,0.0,-0.002363617764785886,0.002119302749633789,-0.00031815876718610525,0.9993305802345276,0.0,0.0,0.0,-4.577552318572998,3.273589849472046,5.689571380615234,828.546142578125,0
515.393,-0.02910440042614937,0.00011697156878653914,-9.515683632344007e-05,0.0,0.0,0.0,0.0,-0.0021046113688498735,-0.0030447004828602076,0.0019485061056911945,0.9983044862747192,0.0,0.0,0.0,-4.572573184967041,3.2750065326690674,5.6817097663879395,827.644775390625,0
525.3040000000001,-0.029118521139025688,0.00010367226786911488,-0.00012255157344043255,0.0,0.0,0.0,0.0,0.001630794839002192,0.00165763427503407,0.0032169013284146786,1.0005602836608887,0.0,0.0,0.0,-4.582639694213867,3.272822856903076,5.6868696212768555,829.4669189453125,0
535.2070000000003,-0.029058163985610008,0.00017554478836245835,-1.1317729331494775e-05,0.0,0.0,0.0,0.0,-0.0005518777761608362,0.0003262867103330791,0.002279045758768916,1.001057744026184,0.0,0.0,0.0,-4.566298484802246,3.286173105239868,5.7137980461120605,826.5090942382812,0
545.1209999999992,-0.029055006802082062,0.00017772290448192507,-4.241886563249864e-05,0.0,0.0,0.0,0.0,-0.0007329013897106051,0.0011115905363112688,-0.002062554471194744,1.0000923871994019,0.0,0.0,0.0,-4.573387622833252,3.2824625968933105,5.706667900085449,827.792236328125,0
555.0239999999994,-0.029075423255562782,0.00023411343863699585,-1.5915808035060763e-05,0.0,0.0,0.0,0.0,0.0029749239329248667,0.002618438098579645,-0.0013062178622931242,1.0015820264816284,0.0,0.0,0.0,-4.56995964050293,3.277106523513794,5.6991376876831055,827.1718139648438,0
564.9369999999999,-0.029050620272755623,0.00022424581402447075,-8.592871017754078e-05,0.0,0.0,0.0,0.0,-0.0011446839198470116,0.0027458621188998222,0.004297485575079918,1.00135338306427,0.0,0.0,0.0,-4.573168754577637,3.2754664421081543,5.69841194152832,827.7526245117188,0
574.848,-0.029070599004626274,0.00022211973555386066,-8.65481561049819e-05,0.0,0.0,0.0,0.0,-0.0034784821327775717,-0.0019092964939773083,0.0023314664140343666,1.0007988214492798,0.0,0.0,0.0,-4.5676116943359375,3.268326997756958,5.687344074249268,826.746826171875,0
584.7569999999996,-0.02908284403383732,0.00019510915444698185,-0.00010923537774942815,0.0,0.0,0.0,0.0,-0.0010225782170891762,-0.004045850597321987,-0.002143969526514411,1.0003260374069214,0.0,0.0,0.0,-4.571760654449463,3.2684671878814697,5.683674335479736,827.4977416992188,0
594.6810000000005,-0.029105208814144135,0.00019048403191845864,-0.00010923008085228503,0.0,0.0,0.0,0.0,0.0037751442287117243,0.0023250035010278225,0.0014641144080087543,0.999344527721405,0.0,0.0,0.0,-4.568105220794678,3.2626616954803467,5.6874003410339355,826.8361206054688,0
604.5859999999993,-0.02911878563463688,0.00017554838268551975,-0.00013527064584195614,0.0,0.0,0.0,0.0,-0.0015707381535321474,-0.0023831562139093876,0.0008384145912714303,1.0014665126800537,0.0,0.0,0.0,-4.571620941162109,3.2549281120300293,5.684890270233154,827.4724731445312,0
614.494999999999,-0.029145684093236923,0.0001711824006633833,-0.00013634678907692432,0.0,0.0,0.0,0.0,0.0009989930549636483,0.004694074392318726,-0.0024927277117967606,0.9999218583106995,0.0,0.0,0.0,-4.568256378173828,3.2515711784362793,5.682844161987305,826.863525390625,0
624.4099999999999,-0.029172925278544426,0.00012192218127893284,-0.00015566915681120008,0.0,0.0,0.0,0.0,0.0017109722830355167,-0.0031271162442862988,0.0010111948940902948,0.9976078867912292,0.0,0.0,0.0,-4.574398994445801,3.230550527572632,5.669076442718506,827.975341796875,0
634.3130000000001,-0.02920183166861534,0.00011396509944461286,-0.0001572878536535427,0.0,0.0,0.0,0.0,-0.004606947302818298,0.000564932357519865,-0.0004461647185962647,0.9979300498962402,0.0,0.0,0.0,-4.570389747619629,3.228381395339966,5.668167591094971,827.2496948242188,0
644.223,-0.029215114191174507,0.00011956119851674885,-0.00019546790281310678,0.0,0.0,0.0,0.0,-0.0004726531042251736,-0.0007718467386439443,-0.003380265785381198,0.9985251426696777,0.0,0.0,0.0,-4.577584266662598,3.243675470352173,5.678481578826904,828.5518798828125,0
654.1399999999994,-0.029029743745923042,8.402117236983031e-05,-4.2051968193845823e-05,0.0,0.0,0.0,0.0,0.005529564339667559,-0.0010414140997454524,-0.0005945428856648505,0.9988721013069153,0.0,0.0,0.0,-4.566886901855469,3.2357354164123535,5.736209869384766,826.6156005859375,0
664.0570000000007,-0.029047178104519844,7.45818397263065e-05,-4.1053997847484425e-05,0.0,0.0,0.0,0.0,-0.0033705371897667646,0.003581868251785636,-0.002386761363595724,1.0006678104400635,0.0,0.0,0.0,-4.562341690063477,3.22522234916687,5.734857559204102,825.7928466796875,0
673.9580000000005,-0.029065346345305443,6.473989924415946e-05,-4.0554750739829615e-05,0.0,0.0,0.0,0.0,0.00411849282681942,-0.001984342699870467,-0.0017715218709781766,1.0014528036117554,0.0,0.0,0.0,-4.558841228485107,3.226626396179199,5.722317218780518,825.1592407226562,0
683.8729999999996,-0.029046768322587013,9.802506247069687e-05,-8.023153350222856e-05,0.0,0.0,0.0,0.0,-0.0005471794866025448,0.003973064478486776,-0.006553651764988899,1.0000543594360352,0.0,0.0,0.0,-4.575207233428955,3.2355401515960693,5.718564987182617,828.12158203125,0
693.7870000000003,-0.029064983129501343,8.878285007085651e-05,-8.066727605182678e-05,0.0,0.0,0.0,0.0,-0.0007738633430562913,0.0041708070784807205,-0.0007111505256034434,0.9982805848121643,0.0,0.0,0.0,-4.57151985168457,3.22739315032959,5.708121299743652,827.4542236328125,0
703.6939999999995,-0.0290827676653862,4.9212674639420584e-05,-0.00010322686284780502,0.0,0.0,0.0,0.0,-0.0017763813957571983,0.006193282548338175,-0.0007505756802856922,0.9998727440834045,0.0,0.0,0.0,-4.5787224769592285,3.2184221744537354,5.6945648193359375,828.7578735351562,0
713.6139999999996,-0.029045796021819115,0.00010517059854464605,-2.275586848554667e-05,0.0,0.0,0.0,0.0,-0.0012081367895007133,0.00028453327831812203,0.00045547678018920124,1.0026239156723022,0.0,0.0,0.0,-4.566681385040283,3.223893642425537,5.692104816436768,826.5784301757812,0
723.5139999999992,-0.029064150527119637,6.297648360487074e-05,-4.4343814806779847e-05,0.0,0.0,0.0,0.0,0.001131000928580761,-0.0008998155826702714,0.001826855237595737,1.0001697540283203,0.0,0.0,0.0,-4.569885730743408,3.218449354171753,5.6821489334106445,827.158447265625,0
733.4269999999997,-0.029071247205138206,0.00013492561993189156,4.284107490093447e-06,0.0,0.0,0.0,0.0,0.001963568851351738,0.004622646141797304,0.003175731748342514,0.9988807439804077,0.0,0.0,0.0,-4.556274890899658,3.2241501808166504,5.679450511932373,824.69482421875,0
743.3369999999995,-0.029117273166775703,7.415426807710901e-05,2.1474068489624187e-05,0.0,0.0,0.0,0.0,0.0018046674085780978,0.001251108362339437,-0.005196955520659685,0.9986762404441833,0.0,0.0,0.0,-4.562401294708252,3.2207846641540527,5.668488502502441,825.8037109375,0
753.2489999999998,-0.029183804988861084,0.00015298911603167653,5.4347270634025335e-05,0.0,0.0,0.0,0.0,0.0015045114560052752,0.0037722575943917036,0.00034177571069449186,0.9983940124511719,0.0,0.0,0.0,-4.5493574142456055,3.2258613109588623,5.660032272338867,823.4427490234375,0
763.1640000000007,-0.02915799804031849,0.00018399205873720348,3.855227987514809e-06,0.0,0.0,0.0,0.0,-0.001630370388738811,-1.7220073686985415e-06,-0.0015487517230212688,0.9999480843544006,0.0,0.0,0.0,-4.558475971221924,3.2296085357666016,5.654305458068848,825.0931396484375,0
773.0759999999991,-0.02918270230293274,0.0001750400842865929,6.791455234633759e-06,0.0,0.0,0.0,0.0,-0.002872839570045471,-0.0012597843306139112,-0.00017468065198045224,1.0010244846343994,0.0,0.0,0.0,-4.552720069885254,3.2287850379943848,5.645025730133057,824.0513916015625,0
782.9830000000002,-0.029170971363782883,0.00018194947915617377,-4.626327063306235e-05,0.0,0.0,0.0,0.0,0.002408492611721158,0.0018606450175866485,-0.001351724611595273,0.9994223117828369,0.0,0.0,0.0,-4.548190116882324,3.2296111583709717,5.638319492340088,823.2314453125,0
792.8979999999992,-0.029177023097872734,0.00017078034579753876,-8.563989831600338e-05,0.0,0.0,0.0,0.0,-0.003355765948072076,-0.0038126339204609394,-0.0008689837413839996,1.0007861852645874,0.0,0.0,0.0,-4.556842803955078,3.228032112121582,5.628355026245117,824.797607421875,0
802.8099999999995,-0.02920231968164444,0.00016234263603109866,-8.85409681359306e-05,0.0,0.0,0.0,0.0,-0.0047310288064181805,-0.0026027264539152384,-0.002392608905211091,1.001503586769104,0.0,0.0,0.0,-4.554088115692139,3.228066921234131,5.626351356506348,824.2990112304688,0
812.7289999999994,-0.029202111065387726,0.00019194319611415267,-0.00013216694060247391,0.0,0.0,0.0,0.0,0.0014897752553224564,0.0031732141505926847,-0.005127021577209234,0.9985637664794922,0.0,0.0,0.0,-4.559924125671387,3.2502663135528564,5.639632225036621,825.3552856445312,0
822.6280000000006,-0.029226461425423622,0.00018629650003276765,-0.00013701782154385,0.0,0.0,0.0,0.0,0.0011634152615442872,-0.0012341294204816222,-0.0035923095420002937,0.9997010827064514,0.0,0.0,0.0,-4.557096481323242,3.250364065170288,5.637364864349365,824.843505859375,0
832.5429999999997,-0.029215063899755478,0.00020525965373963118,-0.0002173022658098489,0.0,0.0,0.0,0.0,0.004354183562099934,0.001640267320908606,-0.0013839277671650052,1.0011156797409058,0.0,0.0,0.0,-4.565487861633301,3.258955955505371,5.64503812789917,826.3624267578125,0
842.4629999999997,-0.02900225669145584,0.00015918101416900754,-6.645493704127148e-05,0.0,0.0,0.0,0.0,0.002328704111278057,-0.0022250856272876263,-0.0017173998057842255,1.000572919845581,0.0,0.0,0.0,-4.554203510284424,3.2462563514709473,5.712127208709717,824.31982421875,0
852.366,-0.029015609994530678,0.00013813852274324745,-7.018092583166435e-05,0.0,0.0,0.0,0.0,-0.0019899902399629354,0.002868129638954997,-0.005041663069278002,1.0011367797851562,0.0,0.0,0.0,-4.559603691101074,3.2419230937957764,5.705269813537598,825.2973022460938,0
862.2849999999999,-0.028994057327508926,0.0001627829478820786,-4.0981583879329264e-05,0.0,0.0,0.0,0.0,0.0012666272232308984,0.001705512753687799,-0.00265862955711782,0.9994922876358032,0.0,0.0,0.0,-4.547682762145996,3.238877534866333,5.706128120422363,823.1395874023438,0
872.2019999999993,-0.028991978615522385,0.000151718981214799,-5.9390404203440994e-05,0.0,0.0,0.0,0.0,-0.00016819650772958994,0.003005907405167818,0.0018756495555862784,0.9985944628715515,0.0,0.0,0.0,-4.5532941818237305,3.2368061542510986,5.70543098449707,824.1552734375,0
882.1039999999994,-0.028956592082977295,0.00019754200184252113,-2.0098981622140855e-05,0.0,0.0,0.0,0.0,-0.0009836270473897457,-0.00018538528820499778,0.00044954378972761333,0.9995540976524353,0.0,0.0,0.0,-4.5413923263549805,3.2310965061187744,5.697653770446777,822.0010375976562,0
892.018,-0.02896810509264469,0.00017674124683253467,-2.5183158868458122e-05,0.0,0.0,0.0,0.0,0.00031045149080455303,0.0012659926433116198,0.003704030066728592,0.9997997879981995,0.0,0.0,0.0,-4.550500392913818,3.227169990539551,5.692433834075928,823.6495361328125,0
901.9210000000003,-0.028991030529141426,0.00017830492288339883,-2.2123960661701858e-05,0.0,0.0,0.0,0.0,6.140237383078784e-05,0.003217787016183138,0.00048551789950579405,1.0010957717895508,0.0,0.0,0.0,-4.538569927215576,3.220881462097168,5.692612171173096,821.490234375,0
911.8369999999995,-0.028961392119526863,0.00018192382412962615,-7.755214755889028e-05,0.0,0.0,0.0,0.0,-0.0015740083763375878,0.004372277297079563,-0.0001598942617420107,1.0011115074157715,0.0,0.0,0.0,-4.546410083770752,3.225325107574463,5.681000709533691,822.9092407226562,0
921.7520000000004,-0.028966033831238747,0.0002499506517779082,-4.7467405238421634e-05,0.0,0.0,0.0,0.0,0.0005786022520624101,0.0022374240215867758,-0.0016133565222844481,0.9985421895980835,0.0,0.0,0.0,-4.535854816436768,3.2337756156921387,5.664407730102539,820.998779296875,0
931.6630000000005,-0.028981154784560204,0.00024382371339015663,-4.545638876152225e-05,0.0,0.0,0.0,0.0,-0.0012199741322547197,0.006555838510394096,0.0002567573683336377,0.9992626309394836,0.0,0.0,0.0,-4.53145170211792,3.231358289718628,5.648876667022705,820.2017822265625,0
941.5709999999999,-0.028960369527339935,0.0002842434332706034,-2.459940515109338e-05,0.0,0.0,0.0,0.0,-0.00012843511649407446,-0.003173853736370802,0.0007262383587658405,0.9971266388893127,0.0,0.0,0.0,-4.527616024017334,3.227346181869507,5.6311140060424805,819.5075073242188,0
951.4750000000004,-0.02898416295647621,0.00025227031437680125,-2.9851846193196252e-05,0.0,0.0,0.0,0.0,0.002285473281517625,0.0004736226692330092,0.0030808940064162016,1.0006532669067383,0.0,0.0,0.0,-4.540788650512695,3.2298805713653564,5.636353492736816,821.891845703125,0
961.3989999999994,-0.029001884162425995,0.00024356209905818105,-2.9493170586647466e-05,0.0,0.0,0.0,0.0,-0.00042265880620107055,0.001104553695768118,-0.002056310186162591,1.000146508216858,0.0,0.0,0.0,-4.535078048706055,3.2234947681427,5.627933502197266,820.8580932617188,0
971.2980000000007,-0.029019318521022797,0.00019695877563208342,-4.557955253403634e-05,0.0,0.0,0.0,0.0,0.003766604233533144,-0.002228733152151108,0.001407262054271996,0.9984921813011169,0.0,0.0,0.0,-4.542645454406738,3.2141120433807373,5.621557235717773,822.2278442382812,0
981.2260000000006,-0.02904020994901657,0.00018522667232900858,-4.6657209168188274e-05,0.0,0.0,0.0,0.0,-0.00129072112031281,0.009232969954609871,-0.0058614411391317844,1.0005441904067993,0.0,0.0,0.0,-4.539246082305908,3.2138569355010986,5.615089416503906,821.6126098632812,0
991.1280000000006,-0.02905144728720188,0.00016652251360937953,-7.14261332177557e-05,0.0,0.0,0.0,0.0,0.0005805238615721464,-0.0013659506803378463,-0.00024683712399564683,1.0021580457687378,0.0,0.0,0.0,-4.54850435256958,3.2065072059631348,5.614181995391846,823.2882690429688,0
1001.0349999999999,-0.02901981770992279,0.0002326826797798276,2.3625013909622794e-06,0.0,0.0,0.0,0.0,-0.002478233305737376,-0.002196401823312044,0.0005583749152719975,1.0007390975952148,0.0,0.0,0.0,-4.54445743560791,3.2124555110931396,5.607563018798828,822.5557861328125,0
1010.9519999999993,-0.029009904712438583,0.00023807065736036748,-2.8905795261380263e-05,0.0,0.0,0.0,0.0,-0.0011344117810949683,0.0012885787291452289,0.0014112837379798293,1.000034213066101,0.0,0.0,0.0,-4.55307149887085,3.2122201919555664,5.608926296234131,824.114990234375,0
1020.8629999999994,-0.02897331677377224,0.0002307667164131999,-7.394765361823374e-06,0.0,0.0,0.0,0.0,-0.0008138907141983509,-0.002714288653805852,-0.0020731056574732065,0.998877763748169,0.0,0.0,0.0,-4.547784805297852,3.2096645832061768,5.607132434844971,823.1580810546875,0
1030.7700000000004,-0.028972769156098366,0.0002215489512309432,-2.771105027932208e-05,0.0,0.0,0.0,0.0,0.001612975844182074,-9.512749238638207e-05,-0.0006838741828687489,0.9986579418182373,0.0,0.0,0.0,-4.558724880218506,3.211223840713501,5.609468936920166,825.1382446289062,0
1040.679,-0.02896062657237053,0.00020605071040336043,-2.208949445048347e-05,0.0,0.0,0.0,0.0,0.0015926326159387827,0.0008975648088380694,-0.0005848475848324597,1.0013386011123657,0.0,0.0,0.0,-4.545373916625977,3.2075681686401367,5.605864524841309,822.7216796875,0
1050.592999999999,-0.02897927537560463,0.00017764732183422893,-2.7585381758399308e-05,0.0,0.0,0.0,0.0,-0.0007713105296716094,-0.0027953272219747305,-0.0029844967648386955,1.002413034439087,0.0,0.0,0.0,-4.553267478942871,3.204813003540039,5.607261657714844,824.150390625,0
1060.5100000000002,-0.029010340571403503,0.00023959098325576633,5.06298692926066e-06,0.0,0.0,0.0,0.0,-0.0014628777280449867,-0.003503587795421481,-0.00019967030675616115,0.9987868070602417,0.0,0.0,0.0,-4.549123764038086,3.203990936279297,5.600518226623535,823.4004516601562,0
1070.4169999999995,-0.029028696939349174,0.0002004255075007677,-5.722751666326076e-06,0.0,0.0,0.0,0.0,-0.0013659377582371235,-0.0006045308546163142,-0.001280538970604539,0.9984651803970337,0.0,0.0,0.0,-4.5558881759643555,3.1952261924743652,5.6014885902404785,824.6248168945312,0
1080.3289999999997,-0.029038628563284874,0.00021413252397906035,1.5948751752148382e-05,0.0,0.0,0.0,0.0,-0.00014178294804878533,-0.004059161059558392,0.0019072224386036396,0.9982893466949463,0.0,0.0,0.0,-4.551620006561279,3.195039987564087,5.59745979309082,823.8522338867188,0
1090.2389999999996,-0.029081927612423897,0.00014945006114430726,2.260744440718554e-05,0.0,0.0,0.0,0.0,-0.004349871538579464,-0.0012317525688558817,-0.002816889202222228,1.0007312297821045,0.0,0.0,0.0,-4.561936855316162,3.1947593688964844,5.597156524658203,825.7196044921875,0
1100.1460000000006,-0.02908652275800705,0.00021204860240686685,6.864647002657875e-05,0.0,0.0,0.0,0.0,-0.00033967557828873396,0.0004877581959590316,-0.00029157084645703435,1.000595211982727,0.0,0.0,0.0,-4.557374954223633,3.190046548843384,5.599088668823242,824.8938598632812,0
1110.063,-0.029067404568195343,0.00020276536815799773,1.1979189366684295e-05,0.0,0.0,0.0,0.0,-0.000532719655893743,2.6991128834197298e-05,-2.4676435259607388e-06,1.00088369846344,0.0,0.0,0.0,-4.560585975646973,3.1936397552490234,5.602588653564453,825.4751586914062,0
1119.9719999999998,-0.029113302007317543,0.0002199494920205325,2.417911309748888e-05,0.0,0.0,0.0,0.0,-0.002105578314512968,2.1461697542690672e-05,-0.0021544189658015966,1.00154447555542,0.0,0.0,0.0,-4.556098937988281,3.19696307182312,5.597157001495361,824.6629638671875,0
1129.884,-0.029075995087623596,0.00022707937750965357,-5.47338422620669e-05,0.0,0.0,0.0,0.0,-0.0022120412904769182,-0.001198801095597446,0.002176854759454727,0.9999953508377075,0.0,0.0,0.0,-4.564513206481934,3.2031359672546387,5.606513977050781,826.18603515625,0
1139.7919999999995,-0.02910526655614376,0.00020874655456282198,-5.47520030522719e-05,0.0,0.0,0.0,0.0,0.00048314654850400984,0.002715314971283078,-0.005552707705646753,1.000992774963379,0.0,0.0,0.0,-4.559662818908691,3.2094316482543945,5.609908580780029,825.3079833984375,0
1149.7160000000003,-0.029119400307536125,0.00019928388064727187,-7.685528544243425e-05,0.0,0.0,0.0,0.0,0.00048340216744691133,-0.0009461144218221307,-0.0007127818535082042,0.9989150762557983,0.0,0.0,0.0,-4.568965911865234,3.2060842514038086,5.613732814788818,826.9920043945312,0
1159.6170000000002,-0.029153499752283096,0.00017882755491882563,-7.71627965150401e-05,0.0,0.0,0.0,0.0,-0.0017177147092297673,0.000206290467758663,-0.002086169086396694,0.997380793094635,0.0,0.0,0.0,-4.564754486083984,3.2067084312438965,5.600719451904297,826.229736328125,0
1169.5429999999997,-0.029165243729948997,0.00017603329615667462,-0.00011248619557591155,0.0,0.0,0.0,0.0,0.0002887718437705189,-0.0028281621634960175,0.0014638130087405443,0.9997718930244446,0.0,0.0,0.0,-4.57467794418335,3.20505952835083,5.605315685272217,828.0258178710938,0
1179.4359999999997,-0.02904338948428631,0.0001442970533389598,-2.486485209374223e-05,0.0,0.0,0.0,0.0,-0.0006831155624240637,0.004410068038851023,-0.0015425302553921938,0.9983450174331665,0.0,0.0,0.0,-4.564506530761719,3.203613042831421,5.653181552886963,826.1847534179688,0
1189.3539999999994,-0.029049547389149666,0.00013788032811135054,-4.6756566007388756e-05,0.0,0.0,0.0,0.0,-0.00026187763432972133,0.001717952312901616,-3.0639697797596455e-05,1.002659797668457,0.0,0.0,0.0,-4.569864273071289,3.202239513397217,5.651310920715332,827.1546020507812,0
1199.2579999999998,-0.02902587316930294,0.00014713974087499082,-1.28301908262074e-05,0.0,0.0,0.0,0.0,-0.0030076904222369194,-0.0024197702296078205,-0.000318263191729784,1.001105785369873,0.0,0.0,0.0,-4.566082954406738,3.1948165893554688,5.627587795257568,826.4700927734375,0
1209.1859999999997,-0.029081176966428757,7.271716458490118e-05,4.461030130187282e-06,0.0,0.0,0.0,0.0,0.0027319826185703278,0.004026015289127827,-0.002910291077569127,0.9991876482963562,0.0,0.0,0.0,-4.5718092918396,3.1831750869750977,5.624833106994629,827.506591796875,0
1219.0869999999995,-0.02896829880774021,0.00012628809781745076,8.592028461862355e-05,0.0,0.0,0.0,0.0,-0.0006486992351710796,-0.0025262325070798397,0.0008450362365692854,0.9978455901145935,0.0,0.0,0.0,-4.559596061706543,3.194687843322754,5.6435112953186035,825.2959594726562,0
1229.0010000000002,-0.028994780033826828,0.00010211834160145372,9.615406452212483e-05,0.0,0.0,0.0,0.0,-0.001858197501860559,0.0028281183913350105,-0.004987572785466909,0.9984169602394104,0.0,0.0,0.0,-4.556347370147705,3.187272787094116,5.630462646484375,824.7078857421875,0
1238.9030000000002,-0.029013944789767265,0.00010373146506026387,0.00011326390085741878,0.0,0.0,0.0,0.0,0.0020062632393091917,-0.0020975361112505198,-0.0015172816347330809,1.0007011890411377,0.0,0.0,0.0,-4.5443572998046875,3.193671226501465,5.625420570373535,822.5376586914062,0
1248.825999999999,-0.028971321880817413,0.00014230543456505984,2.3199872885015793e-05,0.0,0.0,0.0,0.0,0.00046170750283636153,0.002753297332674265,0.002295504091307521,0.9992744326591492,0.0,0.0,0.0,-4.5529327392578125,3.2037510871887207,5.624265193939209,824.0899047851562,0
1258.7309999999998,-0.02899160422384739,0.00015595975855831057,3.841850411845371e-05,0.0,0.0,0.0,0.0,0.0014385782415047288,0.0041021667420864105,-8.042845729505643e-05,0.9991529583930969,0.0,0.0,0.0,-4.549093246459961,3.191004514694214,5.612112522125244,823.3949584960938,0
1268.646999999999,-0.02893301472067833,0.0002280433982377872,-5.101386341266334e-05,0.0,0.0,0.0,0.0,8.800113573670387e-05,-0.002301521133631468,-0.0001929603749886155,1.0001879930496216,0.0,0.0,0.0,-4.551410675048828,3.202716827392578,5.610039234161377,823.8143920898438,0
1278.5589999999993,-0.028960878029465675,0.00020841033256147057,-5.65985101275146e-05,0.0,0.0,0.0,0.0,-0.0032720451708883047,0.004066471941769123,0.003261218313127756,0.9985954761505127,0.0,0.0,0.0,-4.547351837158203,3.2028117179870605,5.612010955810547,823.0797119140625,0
1288.4740000000002,-0.02901875600218773,0.0001638231915421784,-7.791075768182054e-05,0.0,0.0,0.0,0.0,-0.00043344899313524365,0.002412189496681094,-0.003878934308886528,0.9998019933700562,0.0,0.0,0.0,-4.552875995635986,3.1967966556549072,5.588521957397461,824.0796508789062,0
1298.3770000000004,-0.028947481885552406,0.0001963181421160698,-3.300946264062077e-05,0.0,0.0,0.0,0.0,0.0030879690311849117,-0.000520077534019947,-0.0006344160065054893,0.9980990886688232,0.0,0.0,0.0,-4.552875995635986,3.1967966556549072,5.588521957397461,824.0796508789062,0
1308.289999999999,-0.0290177371352911,0.0001331476669292897,-5.129266355652362e-05,0.0,0.0,0.0,0.0,0.0004769962397404015,0.0021918441634625196,0.0005597588024102151,1.0004453659057617,0.0,0.0,0.0,-4.554257869720459,3.1794285774230957,5.578853607177734,824.3297729492188,0
1318.1970000000001,-0.028948074206709862,0.00016608381702098995,-1.692498699412681e-05,0.0,0.0,0.0,0.0,-0.002453256631270051,-0.003442299785092473,4.3363848817534745e-05,1.0008362531661987,0.0,0.0,0.0,-4.548097133636475,3.184037923812866,5.587843894958496,823.214599609375,0
1328.1190000000006,-0.029007097706198692,0.00011379358329577371,-4.0044105844572186e-05,0.0,0.0,0.0,0.0,0.0015082129975780845,0.002130096545442939,0.001269852975383401,1.000951886177063,0.0,0.0,0.0,-4.550495147705078,3.1769790649414062,5.575014114379883,823.648681640625,0
1338.0169999999998,-0.02901146188378334,0.00017996631504502147,-1.1750556041079108e-05,0.0,0.0,0.0,0.0,0.0014566703466698527,0.002501558279618621,0.0023808516561985016,0.9988224506378174,0.0,0.0,0.0,-4.544439792633057,3.1852540969848633,5.576602458953857,822.5526733398438,0
1347.9410000000007,-0.028995400294661522,0.00017843183013610542,-8.189219079213217e-05,0.0,0.0,0.0,0.0,-0.0006791390478610992,0.0030214153230190277,0.000603332940954715,0.9977914690971375,0.0,0.0,0.0,-4.547132968902588,3.1828060150146484,5.574627876281738,823.0401000976562,0
1357.8459999999995,-0.029032042250037193,0.0001549367734696716,-8.809753489913419e-05,0.0,0.0,0.0,0.0,-0.001178994309157133,0.0019455936271697283,-0.0017896729987114668,1.0010746717453003,0.0,0.0,0.0,-4.542243003845215,3.175311326980591,5.55430793762207,822.155029296875,0
1367.7710000000006,-0.029057469218969345,0.00013880165352020413,-0.00011162933515151963,0.0,0.0,0.0,0.0,0.0007650252664461732,-0.0004161708347965032,-0.0029718619771301746,0.9985821843147278,0.0,0.0,0.0,-4.548122882843018,3.1860170364379883,5.552484512329102,823.2192993164062,0
1377.6689999999999,-0.028993388637900352,0.00014314870350062847,-5.0051501602865756e-05,0.0,0.0,0.0,0.0,0.0005526106106117368,-0.0015329868765547872,-0.0001919222850119695,0.9986533522605896,0.0,0.0,0.0,-4.535928726196289,3.1817286014556885,5.56171178817749,821.01220703125,0
1387.5840000000007,-0.02902788296341896,0.00012076580605935305,-5.400677036959678e-05,0.0,0.0,0.0,0.0,-0.00365550653077662,-0.00027722978848032653,0.0018902004230767488,1.0003801584243774,0.0,0.0,0.0,-4.53428840637207,3.174790859222412,5.556946754455566,820.7152709960938,0
1397.4869999999992,-0.029021678492426872,0.00018918207206297666,-1.7794938685256056e-05,0.0,0.0,0.0,0.0,0.0019283858127892017,0.0011482533300295472,-0.0007052609580568969,1.0010792016983032,0.0,0.0,0.0,-4.522498607635498,3.1935861110687256,5.563337326049805,818.581298828125,0
1407.405999999999,-0.029044171795248985,0.00017044058768078685,-4.73529908049386e-05,0.0,0.0,0.0,0.0,-0.0004317773855291307,-0.006169553380459547,0.0019644098356366158,1.0019876956939697,0.0,0.0,0.0,-4.535733222961426,3.2031002044677734,5.57157039642334,820.9767456054688,0
1417.3070000000007,-0.02904774621129036,0.00020727312949020416,-1.5892184819676913e-05,0.0,0.0,0.0,0.0,0.0006904746405780315,0.0022418182343244553,-0.0037925655487924814,1.000241756439209,0.0,0.0,0.0,-4.532412052154541,3.2033581733703613,5.566432952880859,820.3755493164062,0
1427.232,-0.029063744470477104,0.0001689722848823294,-5.649104423355311e-05,0.0,0.0,0.0,0.0,-0.0016336303669959307,-0.004056645091623068,-0.00029936121427454054,0.9974441528320312,0.0,0.0,0.0,-4.542609691619873,3.197023868560791,5.5674872398376465,822.2213745117188,0
1437.1299999999992,-0.02910502627491951,0.00023416304611600935,-2.5961664505302906e-05,0.0,0.0,0.0,0.0,0.0017165634781122208,0.0020417261403054,-0.004198485519737005,1.0023167133331299,0.0,0.0,0.0,-4.5380473136901855,3.1939470767974854,5.5698089599609375,821.3955688476562,0
1447.048999999999,-0.02912862040102482,0.00022528872068505734,-4.923874803353101e-05,0.0,0.0,0.0,0.0,0.0014220454031601548,0.004196420777589083,-0.0034433139953762293,0.9997428059577942,0.0,0.0,0.0,-4.5481767654418945,3.203217029571533,5.5660271644592285,823.2290649414062,0
1456.9519999999993,-0.02917029894888401,0.00020982383284717798,-4.9821348511613905e-05,0.0,0.0,0.0,0.0,-0.0039062523283064365,-5.755392339779064e-05,-0.0014007912250235677,1.0001085996627808,0.0,0.0,0.0,-4.543499946594238,3.200404167175293,5.560807228088379,822.3825073242188,0
1466.8919999999998,-0.02918306551873684,0.0002159615105483681,-8.892623736755922e-05,0.0,0.0,0.0,0.0,0.0021223160438239574,0.0003292733454145491,-6.883954483782873e-05,1.001772165298462,0.0,0.0,0.0,-4.555066108703613,3.206813335418701,5.559936046600342,824.4760131835938,0
1476.7749999999996,-0.029095718637108803,0.0002061135892290622,-2.502959432604257e-05,0.0,0.0,0.0,0.0,0.00023572269128635526,0.0009876657277345657,0.00023178942501544952,1.0012661218643188,0.0,0.0,0.0,-4.551082134246826,3.2044119834899902,5.550482749938965,823.7549438476562,0
1486.6990000000005,-0.02912169322371483,0.00015701061056461185,-5.7834819017443806e-05,0.0,0.0,0.0,0.0,0.0011041186517104506,0.0006460653385147452,0.002443271456286311,0.9996405243873596,0.0,0.0,0.0,-4.563151836395264,3.1969244480133057,5.54994535446167,825.9396362304688,0
1496.601999999999,-0.0290610883384943,0.0001733226381475106,-6.469063009717502e-06,0.0,0.0,0.0,0.0,0.0014304235810413957,-7.639470277354121e-05,-0.0006643076776526868,1.0011937618255615,0.0,0.0,0.0,-4.548259258270264,3.1923351287841797,5.555112361907959,823.2440185546875,0
1506.5229999999992,-0.02912173978984356,0.00011982216528849676,1.6360094377887435e-05,0.0,0.0,0.0,0.0,0.0023529010359197855,-0.0011412648018449545,-0.00010083759116241708,1.001231074333191,0.0,0.0,0.0,-4.5504045486450195,3.1820590496063232,5.549912929534912,823.6322631835938,0
1516.4210000000003,-0.029159050434827805,0.000105046019598376,2.4888389816624112e-05,0.0,0.0,0.0,0.0,-0.00025953492149710655,0.0013879582984372973,0.0016410794341936707,0.9993730783462524,0.0,0.0,0.0,-4.546347618103027,3.1766879558563232,5.537577152252197,822.8978881835938,0
1526.348,-0.02915124222636223,0.00012700878141913563,-2.229857273050584e-05,0.0,0.0,0.0,0.0,-0.0009453810635022819,0.0041967835277318954,-0.005190019495785236,1.0003103017807007,0.0,0.0,0.0,-4.550350666046143,3.1813597679138184,5.542264461517334,823.62255859375,0
1536.2440000000006,-0.029189078137278557,0.00011390701547497883,-1.69013837876264e-05,0.0,0.0,0.0,0.0,0.0014996336540207267,0.001380421221256256,0.002233851468190551,0.9986481070518494,0.0,0.0,0.0,-4.545358180999756,3.174055576324463,5.541682243347168,822.7188720703125,0
1546.1669999999995,-0.02917930670082569,0.0001399471511831507,-7.6891272328794e-05,0.0,0.0,0.0,0.0,-0.0018109347438439727,-0.0009462573216296732,-0.0018472406081855297,0.9996483325958252,0.0,0.0,0.0,-4.553824424743652,3.1904475688934326,5.544378280639648,824.2512817382812,0
1556.0730000000003,-0.029215265065431595,0.0001290683139814064,-7.694546366110444e-05,0.0,0.0,0.0,0.0,0.0010591621976345778,1.3279019185574725e-05,-0.0005744496011175215,1.0006402730941772,0.0,0.0,0.0,-4.5482869148254395,3.18239164352417,5.53607702255249,823.2489624023438,0
1565.9779999999992,-0.02921776846051216,0.00014387159899342805,-0.0001251294306712225,0.0,0.0,0.0,0.0,-0.00293846451677382,-0.00585087388753891,0.0019265505252406001,0.999628484249115,0.0,0.0,0.0,-4.558989524841309,3.1992383003234863,5.543992519378662,825.1861572265625,0
1575.8950000000004,-0.029045218601822853,0.00011951306078117341,1.1197046660527121e-05,0.0,0.0,0.0,0.0,0.0012896708212792873,-0.0012384207220748067,0.001340919523499906,0.9999227523803711,0.0,0.0,0.0,-4.548671245574951,3.1914422512054443,5.600741386413574,823.3185424804688,0
1585.8009999999995,-0.02903055213391781,0.00012677315680775791,-2.717110692174174e-05,0.0,0.0,0.0,0.0,-0.001128141419030726,0.0018121852772310376,-0.0014095925725996494,1.0000108480453491,0.0,0.0,0.0,-4.554922103881836,3.203205108642578,5.610363960266113,824.449951171875,0
1595.7109999999993,-0.02902183122932911,0.0001529698638478294,3.6943858958693454e-06,0.0,0.0,0.0,0.0,0.0006995524163357913,-0.0010379479499533772,-0.001795399934053421,0.9986452460289001,0.0,0.0,0.0,-4.5502119064331055,3.195674419403076,5.604320526123047,823.597412109375,0
1605.6270000000004,-0.029071053490042686,9.468374628340825e-05,2.1300787921063602e-05,0.0,0.0,0.0,0.0,0.0018275402253493667,-0.0001026242898660712,0.0005842737155035138,1.0004342794418335,0.0,0.0,0.0,-4.551861763000488,3.1899542808532715,5.593827247619629,823.89599609375,0
1615.5339999999997,-0.02909829653799534,7.939485658425838e-05,2.5611880118958652e-05,0.0,0.0,0.0,0.0,0.0010951495496556163,-0.0008404013933613896,-0.0008475359063595533,1.0004117488861084,0.0,0.0,0.0,-4.547743320465088,3.176395893096924,5.587768077850342,823.1505737304688,0
1625.4480000000003,-0.02911709062755108,8.265926589956507e-05,-1.3588596630143002e-05,0.0,0.0,0.0,0.0,-0.002424465259537101,-0.0033927832264453173,-0.004611670970916748,1.0008823871612549,0.0,0.0,0.0,-4.546230316162109,3.1807634830474854,5.590946197509766,822.876708984375,0
1635.3619999999992,-0.029053963720798492,0.00015559999155811965,5.902919656364247e-05,0.0,0.0,0.0,0.0,-0.002817470347508788,-0.0011043209815397859,0.001756928744725883,1.0006299018859863,0.0,0.0,0.0,-4.546230316162109,3.1807634830474854,5.590946197509766,822.876708984375,0
1645.268,-0.029074184596538544,0.00013092465815134346,2.9712033210671507e-05,0.0,0.0,0.0,0.0,-0.0015965013299137354,0.0005975001840852201,0.0010840472532436252,0.9995136857032776,0.0,0.0,0.0,-4.550444602966309,3.187342882156372,5.586765766143799,823.6395263671875,0
1655.1929999999993,-0.029074184596538544,0.00013092465815134346,2.9712033210671507e-05,0.0,0.0,0.0,0.0,-0.0027196749579161406,-0.0006204617093317211,-0.0006783466669730842,0.9998010396957397,0.0,0.0,0.0,-4.550444602966309,3.187342882156372,5.586765766143799,823.6395263671875,0
1665.0900000000001,-0.02909034676849842,0.00014078794629313052,1.3717469755647471e-06,0.0,0.0,0.0,0.0,-0.0019514459418132901,-0.0013984983088448644,-0.0007205356960184872,0.9999077320098877,0.0,0.0,0.0,-4.552196025848389,3.201234817504883,5.591392993927002,823.95654296875,0
1675.0110000000004,-0.02909034676849842,0.00014078794629313052,1.3717469755647471e-06,0.0,0.0,0.0,0.0,0.004724420607089996,-0.0009826916502788663,-0.0023697293363511562,0.9980944991111755,0.0,0.0,0.0,-4.552196025848389,3.201234817504883,5.591392993927002,823.95654296875,0
1684.9140000000007,-0.029103685170412064,9.540982864564285e-05,-3.788300818996504e-05,0.0,0.0,0.0,0.0,-0.0016104242531582713,-3.802033461397514e-05,-0.001387755386531353,0.9985907077789307,0.0,0.0,0.0,-4.559783458709717,3.193430185317993,5.592483043670654,825.329833984375,0
1694.8369999999995,-0.029132261872291565,7.81979106250219e-05,-4.000403714599088e-05,0.0,0.0,0.0,0.0,0.0011915946379303932,0.0005040840478613973,-0.00022063657524995506,0.9985998272895813,0.0,0.0,0.0,-4.556003093719482,3.1917953491210938,5.591092586517334,824.6455688476562,0
1704.7369999999992,-0.02913684956729412,8.903059642761946e-05,-8.366897236555815e-05,0.0,0.0,0.0,0.0,-0.0021931342780590057,-0.004965057130903006,-0.0018633374711498618,0.9995410442352295,0.0,0.0,0.0,-4.563238620758057,3.1976912021636963,5.592121124267578,825.955322265625,0
1714.6630000000005,-0.029167156666517258,7.141499372664839e-05,-9.195590973831713e-05,0.0,0.0,0.0,0.0,-0.002179523231461644,-0.001834617811255157,-0.0007818451267667115,0.9999462366104126,0.0,0.0,0.0,-4.558294296264648,3.190880060195923,5.593340873718262,825.060302734375,0
1724.5609999999997,-0.02917754091322422,0.00011757245374610648,-0.00012072039680788293,0.0,0.0,0.0,0.0,0.0005927456659264863,0.001646955031901598,-8.761754725128412e-05,0.9978113174438477,0.0,0.0,0.0,-4.565315246582031,3.218236207962036,5.596970081329346,826.3311767578125,0
1734.4809999999998,-0.029051581397652626,0.00012704670371022075,9.279244295612443e-06,0.0,0.0,0.0,0.0,-0.002589312382042408,-0.0012634512968361378,0.00020578817930072546,0.998923122882843,0.0,0.0,0.0,-4.555856704711914,3.2210898399353027,5.642473220825195,824.6190795898438,0
1744.3850000000002,-0.02907245047390461,0.00011625541083049029,6.503059012175072e-06,0.0,0.0,0.0,0.0,-9.721784590510651e-05,-0.00033591873943805695,0.00030031270580366254,0.999433159828186,0.0,0.0,0.0,-4.551510810852051,3.211716413497925,5.636443138122559,823.83251953125,0
1754.3009999999995,-0.029085751622915268,0.00014146874309517443,2.155516267521307e-05,0.0,0.0,0.0,0.0,0.0007196854567155242,-0.0033732247538864613,-0.0004648447211366147,0.9984682202339172,0.0,0.0,0.0,-4.540190696716309,3.216660976409912,5.636324405670166,821.7835693359375,0
1764.2039999999997,-0.029095949605107307,0.00010296396067133173,-2.631360803206917e-05,0.0,0.0,0.0,0.0,-0.00031027712975628674,-0.0015572066185995936,0.0007925695390440524,0.999140202999115,0.0,0.0,0.0,-4.549912929534912,3.2156083583831787,5.628917694091797,823.5432739257812,0
1774.125,-0.029120048508048058,9.439121640753001e-05,-3.409344208193943e-05,0.0,0.0,0.0,0.0,0.0024176468141376972,0.004827588330954313,0.0009760066168382764,0.998153567314148,0.0,0.0,0.0,-4.544643878936768,3.2123260498046875,5.639142990112305,822.589599609375,0
1784.027,-0.02911633998155594,0.00011603400344029069,-8.003608672879636e-05,0.0,0.0,0.0,0.0,0.00013344167382456362,0.001924322685226798,-0.0012739115627482533,0.9983395934104919,0.0,0.0,0.0,-4.554399013519287,3.218183755874634,5.627265930175781,824.3552856445312,0
1793.9480000000003,-0.029143447056412697,0.0001064144162228331,-9.331677574664354e-05,0.0,0.0,0.0,0.0,-0.0036966160405427217,6.847747135907412e-05,-0.0014650272205471992,1.0011359453201294,0.0,0.0,0.0,-4.549330234527588,3.2108154296875,5.620420455932617,823.4378051757812,0
1803.851999999999,-0.029159748926758766,8.068752504186705e-05,-0.00014048117736820132,0.0,0.0,0.0,0.0,-0.0015362085541710258,-0.004884140565991402,-0.0013966828119009733,1.002122163772583,0.0,0.0,0.0,-4.5601677894592285,3.2055764198303223,5.617177963256836,825.3994140625,0
1813.7710000000006,-0.029017971828579903,0.00011211329547222704,-2.90670977847185e-05,0.0,0.0,0.0,0.0,-0.0007386635988950729,0.0036854869686067104,-0.0019471949199214578,1.0001966953277588,0.0,0.0,0.0,-4.548058032989502,3.2096245288848877,5.6556267738342285,823.20751953125,0
1823.6730000000007,-0.02903992496430874,0.00010261659190291539,-3.392441067262553e-05,0.0,0.0,0.0,0.0,-0.0016737228725105524,0.00016774586401879787,-0.0006088056834414601,0.9997417330741882,0.0,0.0,0.0,-4.544319152832031,3.2121665477752686,5.645478248596191,822.5308227539062,0
1833.5859999999993,-0.02897297590970993,0.00015875179087743163,7.255639047798468e-06,0.0,0.0,0.0,0.0,-0.0034256470389664173,-0.0015082230092957616,0.004130335990339518,0.9988663196563721,0.0,0.0,0.0,-4.53127908706665,3.229404926300049,5.6425275802612305,820.1704711914062,0
1843.4989999999998,-0.028993502259254456,0.00014979371917434037,6.6542374952405225e-06,0.0,0.0,0.0,0.0,0.0018553517293184996,0.0056440322659909725,-0.004716950003057718,0.999264657497406,0.0,0.0,0.0,-4.526240825653076,3.2236905097961426,5.638284683227539,819.2586059570312,0
1853.4159999999993,-0.028970280662178993,0.00015719614748377353,1.6628779121674597e-05,0.0,0.0,0.0,0.0,-0.0009318060474470258,0.0003560472105164081,-0.0011593397939577699,1.000678539276123,0.0,0.0,0.0,-4.521443843841553,3.224999189376831,5.64288330078125,818.390380859375,0
1863.3179999999993,-0.028978439047932625,0.0001349742233287543,-2.7457717806100845e-05,0.0,0.0,0.0,0.0,-0.0003574706497602165,0.0032558212988078594,0.0014159985585138202,1.0003721714019775,0.0,0.0,0.0,-4.533231735229492,3.221372604370117,5.643675804138184,820.5239868164062,0
1873.2330000000002,-0.029020588845014572,0.00019989951397292316,-2.825589263011352e-06,0.0,0.0,0.0,0.0,0.0004475521855056286,-0.0029863647650927305,-0.0006567941163666546,0.9975437521934509,0.0,0.0,0.0,-4.522080421447754,3.2253267765045166,5.62847900390625,818.5055541992188,0
1883.1409999999996,-0.02900131233036518,0.00019883099594153464,-7.531694427598268e-05,0.0,0.0,0.0,0.0,-9.023849997902289e-05,0.0037688901647925377,-0.004899199120700359,0.9963908195495605,0.0,0.0,0.0,-4.525577545166016,3.2267730236053467,5.633986473083496,819.1384887695312,0
1893.057999999999,-0.029025262221693993,0.00023402443912345916,-6.398275581886992e-05,0.0,0.0,0.0,0.0,-0.0008778534829616547,-0.0033436641097068787,0.0021661187056452036,0.9998096227645874,0.0,0.0,0.0,-4.521546840667725,3.222498655319214,5.627764701843262,818.408935546875,0
1902.967999999999,-0.02901487797498703,0.0002367242705076933,-0.00012227281695231795,0.0,0.0,0.0,0.0,-0.002100974088534713,-9.98752802843228e-05,-0.003392979269847274,0.99921715259552,0.0,0.0,0.0,-4.529215335845947,3.2200558185577393,5.6177449226379395,819.7969970703125,0
1912.878999999999,-0.02898447774350643,0.00027014987426809967,-9.622210927773267e-05,0.0,0.0,0.0,0.0,0.0005226984503678977,0.005667827092111111,0.001180884544737637,0.9992640614509583,0.0,0.0,0.0,-4.524501323699951,3.219541072845459,5.620193004608154,818.9437255859375,0
1922.7849999999999,-0.028983252122998238,0.0002824275870807469,-0.00013944033707957715,0.0,0.0,0.0,0.0,0.001505924854427576,-0.00019038419122807682,0.00026817506295628846,0.9999546408653259,0.0,0.0,0.0,-4.533182144165039,3.22867488861084,5.6083526611328125,820.5150756835938,0
1932.7029999999995,-0.028958573937416077,0.00030993716791272163,-0.00012250459985807538,0.0,0.0,0.0,0.0,0.0019180071540176868,0.0052545443177223206,-0.0028178999200463295,0.9982819557189941,0.0,0.0,0.0,-4.528841972351074,3.219972610473633,5.596095085144043,819.7293701171875,0
1942.6100000000006,-0.028992364183068275,0.00026144643197767437,-0.00014877805369906127,0.0,0.0,0.0,0.0,-0.0031239043455570936,-0.00027623510686680675,0.0006316670915111899,0.999064028263092,0.0,0.0,0.0,-4.53646183013916,3.209019899368286,5.588396072387695,821.1085815429688,0
1952.5290000000005,-0.02896967902779579,0.00027052121004089713,-0.0001329052320215851,0.0,0.0,0.0,0.0,-0.000671995454467833,-0.003673715051263571,-0.0028502950444817543,0.9990890026092529,0.0,0.0,0.0,-4.532362937927246,3.200012683868408,5.5739898681640625,820.36669921875,0
1962.4310000000005,-0.029024427756667137,0.0002215841377619654,-0.00018779073434416205,0.0,0.0,0.0,0.0,-0.001705509377643466,0.0024842473212629557,-0.004277875181287527,0.999203085899353,0.0,0.0,0.0,-4.53423547744751,3.197058916091919,5.577395439147949,820.7056274414062,0
1972.3549999999996,-0.0289481021463871,0.0002412801986793056,-0.00015023713058326393,0.0,0.0,0.0,0.0,0.0012240062933415174,0.0044634174555540085,0.0012794575886800885,1.0012521743774414,0.0,0.0,0.0,-4.53423547744751,3.197058916091919,5.577395439147949,820.7056274414062,0
1982.253999999999,-0.02901388518512249,0.00017468092846684158,-0.0001899061317089945,0.0,0.0,0.0,0.0,-0.0009412493091076612,0.0025769872590899467,-0.0035735589917749166,1.001023530960083,0.0,0.0,0.0,-4.531773567199707,3.1816678047180176,5.549256801605225,820.260009765625,0
1992.1730000000007,-0.02901388518512249,0.00017468092846684158,-0.0001899061317089945,0.0,0.0,0.0,0.0,0.0014310228871181607,0.002543102251365781,0.000532022095285356,0.9989081621170044,0.0,0.0,0.0,-4.531773567199707,3.1816678047180176,5.549256801605225,820.260009765625,0
2002.08,-0.029052020981907845,0.00015685727703385055,-0.0002493182255420834,0.0,0.0,0.0,0.0,-0.003599838586524129,-0.0033811554312705994,-0.0006217952468432486,0.9980340600013733,0.0,0.0,0.0,-4.535308361053467,3.1757194995880127,5.542201519012451,820.8998413085938,0
2012.0010000000002,-0.028974290937185287,0.00018084105977322906,-0.00019725302990991622,0.0,0.0,0.0,0.0,-0.002276801271364093,-0.0011459445813670754,0.003139153588563204,0.9989436864852905,0.0,0.0,0.0,-4.529529571533203,3.1796581745147705,5.56162166595459,819.8538208007812,0
2021.8979999999992,-0.02902669459581375,0.0001510561560280621,-0.00018859317060559988,0.0,0.0,0.0,0.0,-0.0027517129201442003,-0.0032867644913494587,0.0001370163372484967,0.9981380701065063,0.0,0.0,0.0,-4.540343761444092,3.1814088821411133,5.547207832336426,821.811279296875,0
2031.8220000000001,-0.02905903570353985,0.00013240858970675617,-0.00020143779693171382,0.0,0.0,0.0,0.0,-8.924682333599776e-05,0.0031226438004523516,-0.0005347783444449306,0.9984644651412964,0.0,0.0,0.0,-4.53568172454834,3.179975986480713,5.547832489013672,820.9674682617188,0
2041.7240000000002,-0.02909775823354721,0.00011621345765888691,-0.00020733890414703637,0.0,0.0,0.0,0.0,0.0024511641822755337,-0.00250783353112638,0.0004693516530096531,0.9991190433502197,0.0,0.0,0.0,-4.543453216552734,3.1810598373413086,5.553009986877441,822.3741455078125,0
2051.6440000000002,-0.029023276641964912,0.0001882352662505582,-0.00011075656220782548,0.0,0.0,0.0,0.0,0.0019248841563239694,0.0004134216287638992,-0.003957107663154602,0.9986991286277771,0.0,0.0,0.0,-4.5382399559021,3.185577630996704,5.545331954956055,821.4304809570312,0
2061.5470000000005,-0.029063552618026733,0.00015310828166548163,-0.00011849439033539966,0.0,0.0,0.0,0.0,-0.0014772340655326843,-0.004590136930346489,0.00251199584454298,0.9988004565238953,0.0,0.0,0.0,-4.546401500701904,3.174513816833496,5.534093379974365,822.90771484375,0
2071.4670000000006,-0.029099280014634132,0.00013706579920835793,-0.0001268064370378852,0.0,0.0,0.0,0.0,-0.0014301533810794353,-0.0031488845124840736,0.006474790628999472,1.0001490116119385,0.0,0.0,0.0,-4.542623043060303,3.165813684463501,5.533153057098389,822.223876953125,0
2081.3780000000006,-0.029122671112418175,0.00013766961637884378,-0.00014896717038936913,0.0,0.0,0.0,0.0,0.000610716175287962,-0.0028315025847405195,-0.0019887385424226522,1.0011546611785889,0.0,0.0,0.0,-4.548321723937988,3.1733901500701904,5.527215957641602,823.2552490234375,0
2091.2960000000003,-0.02902998775243759,0.00020711681281682104,-5.1254930440336466e-05,0.0,0.0,0.0,0.0,-0.0016392171382904053,2.472856067470275e-05,-0.0012805939186364412,0.9999780058860779,0.0,0.0,0.0,-4.542998313903809,3.1734492778778076,5.529513359069824,822.291748046875,0
2101.1900000000005,-0.029050184413790703,0.0001869620755314827,-7.258065306814387e-05,0.0,0.0,0.0,0.0,-0.0016949621494859457,0.00020968005992472172,-0.0011937288800254464,0.9980447292327881,0.0,0.0,0.0,-4.549559593200684,3.1771082878112793,5.525025844573975,823.4793701171875,0
2111.1219999999994,-0.029022913426160812,0.0002239644090877846,-2.7836478693643585e-05,0.0,0.0,0.0,0.0,0.0016561391530558467,0.005446108523756266,0.0011070568580180407,0.9995291233062744,0.0,0.0,0.0,-4.545521259307861,3.177882432937622,5.5253825187683105,822.7484130859375,0
2121.012999999999,-0.02905142679810524,0.00019155658083036542,-4.4845426600659266e-05,0.0,0.0,0.0,0.0,0.0015843369765207171,0.004148767329752445,0.0023615758400410414,0.9993266463279724,0.0,0.0,0.0,-4.546749591827393,3.1721644401550293,5.505617618560791,822.9707641601562,0
2130.9339999999993,-0.029089197516441345,0.00017683327314443886,-4.5850265451008454e-05,0.0,0.0,0.0,0.0,0.0011917033698409796,-0.001590342610143125,-0.0014593261294066906,1.001108169555664,0.0,0.0,0.0,-4.541839122772217,3.1653668880462646,5.495614051818848,822.0819091796875,0
2140.8410000000003,-0.02907751128077507,0.00016973321908153594,-0.00012597773456946015,0.0,0.0,0.0,0.0,0.0015476279659196734,0.0028239656239748,-0.0025577773340046406,0.9998646974563599,0.0,0.0,0.0,-4.547274112701416,3.1719748973846436,5.4896321296691895,823.065673828125,0
