timestamp,stateEstimate.x,stateEstimate.y,stateEstimate.z,controller.cmd_thrust,controller.cmd_roll,controller.cmd_pitch,controller.cmd_yaw,controller.r_roll,controller.r_pitch,controller.r_yaw,controller.accelz,controller.actuatorThrust,controller.roll,controller.pitch,controller.yaw,controller.rollRate,controller.pitchRate,controller.yawRate,controller.ctr_yaw
0.0,-0.00010444565123179927,-0.00018504838226363063,1.177869944513077e-05,0.0,0.0,0.0,0.0,0.0016431453404948115,0.0058026062324643135,-0.004027120769023895,0.9990698099136353,0.0,0.0,0.0,0.2750394940376282,11.551227569580078,2.6197097301483154,-49.78269577026367,0
9.88800000000083,-0.00017618680431041867,-0.0002535518433433026,-1.4251388165575918e-05,0.0,0.0,0.0,0.0,0.0006139591569080949,-0.005190984345972538,0.0017681029858067632,1.0011680126190186,0.0,0.0,0.0,0.2623743712902069,11.53366756439209,2.5974769592285156,-47.49028396606445,0
19.77600000000166,-0.00013137212954461575,-0.00018606292724143714,-9.160841727862135e-05,0.0,0.0,0.0,0.0,0.0020298983436077833,0.001875583897344768,-0.001128976116888225,0.9979737997055054,0.0,0.0,0.0,0.27261656522750854,11.54211711883545,2.6290688514709473,-49.344139099121094,0
29.660000000001673,-9.354824578622356e-05,-0.0002104316372424364,-6.0779952036682516e-05,0.0,0.0,0.0,0.0,0.00035955916973762214,0.006085577886551619,-0.0009407295729033649,0.9974242448806763,0.0,0.0,0.0,0.2603161036968231,11.534430503845215,2.641956329345703,-47.117733001708984,0
39.538000000000466,-0.0001168180606327951,-0.0002551292709540576,-6.641809159191325e-05,0.0,0.0,0.0,0.0,0.00045818177750334144,0.004130213521420956,0.00029319702298380435,1.001439094543457,0.0,0.0,0.0,0.26018625497817993,11.522236824035645,2.6303484439849854,-47.09423065185547,0
49.4320000000007,-0.00018837129755411297,-0.0002457921509630978,-6.195699097588658e-05,0.0,0.0,0.0,0.0,0.0005867871805094182,-0.003520765108987689,-0.00044763906043954194,0.9994423985481262,0.0,0.0,0.0,0.2527417838573456,11.525547981262207,2.6105620861053467,-45.74676513671875,0
59.31800000000112,-0.00021259560890030116,-0.0002924179716501385,-6.623717490583658e-05,0.0,0.0,0.0,0.0,0.00010400951578048989,-0.004949979018419981,0.00046802344149909914,0.9997851252555847,0.0,0.0,0.0,0.25172919034957886,11.509854316711426,2.6144421100616455,-45.56348419189453,0
69.20200000000114,-0.00022389634978026152,-0.00027932837838307023,-4.7442623326787725e-05,0.0,0.0,0.0,0.0,-0.0014724595239385962,0.0027487652841955423,0.003690345911309123,0.9988787174224854,0.0,0.0,0.0,0.24429664015769958,11.510868072509766,2.619671106338501,-44.218177795410156,0
79.09300000000076,-0.00016085557581391186,-0.00016841890465002507,-0.00014459030353464186,0.0,0.0,0.0,0.0,0.0008196842973120511,0.0008393559255637228,-0.0004121653619222343,0.9999095797538757,0.0,0.0,0.0,0.26372653245925903,11.533935546875,2.6268117427825928,-47.73502731323242,0
88.97000000000116,-0.00012263735698070377,-0.00019598042126744986,-0.00011699800234055147,0.0,0.0,0.0,0.0,0.0025521209463477135,-0.0018454169621691108,0.0007561680395156145,1.0000962018966675,0.0,0.0,0.0,0.25422313809394836,11.528759002685547,2.633359432220459,-46.014892578125,0
98.85500000000138,-0.0001405208167852834,-0.00017983844736590981,-7.67614328651689e-05,0.0,0.0,0.0,0.0,-0.0016399226151406765,0.002657080302014947,-0.004635994788259268,1.0001534223556519,0.0,0.0,0.0,0.2741374969482422,11.525369644165039,2.633575201034546,-49.61943435668945,0
108.7390000000014,-0.00018625300435815006,-0.0001832224370446056,-6.149325054138899e-05,0.0,0.0,0.0,0.0,0.002329621696844697,-0.00011408055434003472,0.0014000004157423973,0.9989060163497925,0.0,0.0,0.0,0.2609756588935852,11.524861335754395,2.615983009338379,-47.23711395263672,0
118.62300000000141,-0.00020773257710970938,-0.00023300328757613897,-5.9236481320112944e-05,0.0,0.0,0.0,0.0,-0.0011482759146019816,0.0007135018822737038,-2.77260915027e-05,0.9990894198417664,0.0,0.0,0.0,0.26023173332214355,11.503198623657227,2.6112799644470215,-47.10245895385742,0
128.52000000000044,-0.00022054366127122194,-0.00021119174198247492,-2.805489202728495e-05,0.0,0.0,0.0,0.0,-0.0003943186020478606,-0.00076960091246292,-0.00044826409430243075,0.9986099004745483,0.0,0.0,0.0,0.25238949060440063,11.511500358581543,2.6030948162078857,-45.68299865722656,0
138.39900000000125,-0.00024345333804376423,-0.0002628916408866644,-2.3982742277439684e-05,0.0,0.0,0.0,0.0,0.0009405696764588356,0.0033470101188868284,-0.0012496360577642918,0.9991067051887512,0.0,0.0,0.0,0.2516210079193115,11.500300407409668,2.6041579246520996,-45.543907165527344,0
148.28400000000147,-0.00024847470922395587,-0.0002679351018741727,1.0694830052671023e-06,0.0,0.0,0.0,0.0,-0.0016208139713853598,0.0026850178837776184,0.0009170116973109543,0.9989557266235352,0.0,0.0,0.0,0.23777103424072266,11.502948760986328,2.6004722118377686,-43.03702926635742,0
158.17200000000048,-0.0001791638642316684,-0.0001707827759673819,-0.00011522103159222752,0.0,0.0,0.0,0.0,-0.0011528749018907547,-0.0027988930232822895,0.0008849399164319038,0.9972537755966187,0.0,0.0,0.0,0.25786834955215454,11.526224136352539,2.6130967140197754,-46.674686431884766,0
168.0580000000009,-0.00012457639968488365,-0.00020835662144236267,-7.898343756096438e-05,0.0,0.0,0.0,0.0,0.002350996248424053,0.002084307838231325,-0.0010393575066700578,1.0004677772521973,0.0,0.0,0.0,0.24760082364082336,11.518379211425781,2.6185693740844727,-44.81624221801758,0
177.9360000000015,-0.00012517915456555784,-0.00020268801017664373,-7.327706407522783e-05,0.0,0.0,0.0,0.0,0.0006746125291101635,-0.0023126634769141674,-0.0043899682350456715,0.9986542463302612,0.0,0.0,0.0,0.2595753073692322,11.510112762451172,2.6110267639160156,-46.983646392822266,0
187.82900000000154,-0.0001833416026784107,-0.00022847102081868798,-7.650213228771463e-05,0.0,0.0,0.0,0.0,0.0007690061465837061,0.0008050755131989717,-0.004040099214762449,0.9988256096839905,0.0,0.0,0.0,0.2586503028869629,11.497615814208984,2.6096036434173584,-46.81622314453125,0
197.71700000000055,-0.00018463542801328003,-0.00019860050815623254,-4.681374775827862e-05,0.0,0.0,0.0,0.0,-0.001617687288671732,0.0001459501072531566,-0.0006299414671957493,1.0002890825271606,0.0,0.0,0.0,0.27736639976501465,11.497779846191406,2.6103906631469727,-50.20387268066406,0
207.59900000000016,-0.0001571437023812905,-0.00024837267119437456,-2.2233565687201917e-05,0.0,0.0,0.0,0.0,0.0028061021585017443,0.001239126082509756,0.0018522653263062239,0.9983038306236267,0.0,0.0,0.0,0.2689887583255768,11.49377727508545,2.613459348678589,-48.6875,0
217.47900000000118,-0.00013735769607592374,-0.00022765126777812839,-3.0466297175735235e-05,0.0,0.0,0.0,0.0,0.000562898931093514,0.0019900088664144278,-6.012270750943571e-05,0.9963750839233398,0.0,0.0,0.0,0.28058069944381714,11.49063491821289,2.6183998584747314,-50.78566360473633,0
227.3670000000002,-9.351115295430645e-05,-0.00029024912510067225,-7.029141670500394e-06,0.0,0.0,0.0,0.0,-0.0004998327931389213,-0.0019298238912597299,-0.002846051938831806,0.9992164373397827,0.0,0.0,0.0,0.2740848660469055,11.479691505432129,2.6211063861846924,-49.60990524291992,0
237.2520000000004,-7.94005609350279e-05,-0.00027435616357252,-5.586191946349572e-06,0.0,0.0,0.0,0.0,0.0013203560374677181,0.007453748490661383,-0.0030050333589315414,1.0014550685882568,0.0,0.0,0.0,0.2851596176624298,11.479622840881348,2.624371290206909,-51.61445999145508,0
247.13900000000103,-9.176061575999483e-05,-0.0002735815942287445,2.56455059570726e-05,0.0,0.0,0.0,0.0,-0.0002263834758196026,-0.0034431933891028166,0.0035546505823731422,0.9991970658302307,0.0,0.0,0.0,0.27614325284957886,11.473922729492188,2.6000542640686035,-49.98248291015625,0
257.01700000000164,-3.414884122321382e-05,-0.00020497904915828258,-1.066648110281676e-05,0.0,0.0,0.0,0.0,-0.0008491589105688035,0.00036914151860401034,0.0009178259060718119,0.9976194500923157,0.0,0.0,0.0,0.29595938324928284,11.481490135192871,2.621509552001953,-53.56924057006836,0
266.90300000000025,-0.00014922828995622694,-0.0001851654378697276,-8.857613465806935e-06,0.0,0.0,0.0,0.0,0.0016330535290762782,0.0023775959853082895,0.0006639675120823085,0.9987108707427979,0.0,0.0,0.0,0.2848377227783203,11.487141609191895,2.5973927974700928,-51.55619430541992,0
276.7910000000011,-0.0001624522847123444,-0.0002447873412165791,-8.07658307167003e-06,0.0,0.0,0.0,0.0,0.0023694210685789585,-0.0006422597216442227,0.0014137309044599533,1.001232385635376,0.0,0.0,0.0,0.2846350371837616,11.473433494567871,2.584763765335083,-51.51950454711914,0
286.6770000000015,-0.0002041561238002032,-0.00023016611521597952,1.3465284609992523e-05,0.0,0.0,0.0,0.0,1.071480437531136e-05,-0.0026185468304902315,-0.00036492946674115956,1.0005364418029785,0.0,0.0,0.0,0.2741175591945648,11.477499961853027,2.5690906047821045,-49.61582565307617,0
296.5580000000009,-0.0001349247177131474,-0.00013333052629604936,-5.838119614054449e-05,0.0,0.0,0.0,0.0,-0.000917315308470279,-0.00485270144417882,0.00021694919269066304,0.9984938502311707,0.0,0.0,0.0,0.2891722023487091,11.49403190612793,2.5886714458465576,-52.34074401855469,0
306.45100000000093,-0.00018594294670037925,-0.00016744091408327222,-5.625435005640611e-05,0.0,0.0,0.0,0.0,0.0023312654811888933,0.0040999590419232845,-0.00023786067322362214,0.9980758428573608,0.0,0.0,0.0,0.279845654964447,11.492814064025879,2.5953617095947266,-50.65262222290039,0
316.34200000000055,-0.00019487019744701684,-0.00015839884872548282,-3.094464773312211e-05,0.0,0.0,0.0,0.0,-0.000949983368627727,-0.007834415882825851,-0.0025084952358156443,0.9986400008201599,0.0,0.0,0.0,0.2991737127304077,11.485295295715332,2.591033697128296,-54.151039123535156,0
326.21700000000055,-0.000200330963707529,-0.0001979633525479585,-1.171611529571237e-05,0.0,0.0,0.0,0.0,-0.0008079610415734351,-0.0015768586890771985,-0.0005849446170032024,1.0005875825881958,0.0,0.0,0.0,0.28750911355018616,11.48171329498291,2.601989507675171,-52.03972244262695,0
336.1110000000008,-0.00015623803483322263,-0.00013885456428397447,-4.987633292330429e-05,0.0,0.0,0.0,0.0,0.004025240428745747,-0.0004089750291313976,0.00014391916920430958,0.9992903470993042,0.0,0.0,0.0,0.30434945225715637,11.487204551696777,2.6185338497161865,-55.08785629272461,0
345.9940000000006,-0.000176683854078874,-0.00019638484809547663,-4.4710854126606137e-05,0.0,0.0,0.0,0.0,-0.0005977348191663623,-0.00023985892767086625,0.001162007567472756,0.9975053071975708,0.0,0.0,0.0,0.2938704490661621,11.467909812927246,2.6114113330841064,-53.191131591796875,0
355.875,-0.0001723657187540084,-0.00019786099437624216,-4.9721202231012285e-05,0.0,0.0,0.0,0.0,0.0015331897884607315,0.004673338495194912,0.0009176526800729334,0.9995907545089722,0.0,0.0,0.0,0.30149033665657043,11.466910362243652,2.6166582107543945,-54.570350646972656,0
365.7620000000006,-0.0001438291510567069,-0.0002451710752211511,-2.3162609068094753e-05,0.0,0.0,0.0,0.0,-0.0011016752105206251,-0.0004197157686576247,0.0015333611518144608,0.9985530376434326,0.0,0.0,0.0,0.2913716733455658,11.45257568359375,2.6111912727355957,-52.73885726928711,0
375.65600000000086,-0.00014284232747741044,-0.00022871678811497986,-6.1322043620748445e-06,0.0,0.0,0.0,0.0,0.001562344143167138,0.0029002188239246607,0.0009821547428146005,0.9984934329986572,0.0,0.0,0.0,0.3047918379306793,11.453821182250977,2.6175363063812256,-55.16792678833008,0
385.52900000000045,-0.0001707423070911318,-0.0002682472695596516,5.694165338354651e-06,0.0,0.0,0.0,0.0,0.002273878548294306,-0.0011191274970769882,0.00303639960475266,1.00001060962677,0.0,0.0,0.0,0.2952668070793152,11.444205284118652,2.602081537246704,-53.44388198852539,0
395.4180000000015,-0.00015714736946392804,-0.0002531251811888069,-7.398150501103373e-07,0.0,0.0,0.0,0.0,0.0014435467310249805,0.006956388708204031,-0.0013255045050755143,0.9995871186256409,0.0,0.0,0.0,0.30440059304237366,11.438325881958008,2.5985286235809326,-55.09711456298828,0
405.2970000000005,-0.00020961945119779557,-0.0002646279754117131,1.588916711625643e-05,0.0,0.0,0.0,0.0,-0.0011085219448432326,0.0004906510002911091,-0.0026072810869663954,0.9988755583763123,0.0,0.0,0.0,0.29374757409095764,11.436908721923828,2.5735557079315186,-53.16889572143555,0
415.1850000000013,-0.000183896700036712,-0.00022951813298277557,-3.6698838812299073e-06,0.0,0.0,0.0,0.0,-0.0015221788780763745,0.0012065741466358304,0.00011842310050269589,0.9989838600158691,0.0,0.0,0.0,0.30182209610939026,11.445728302001953,2.577942132949829,-54.63039779663086,0
425.08600000000115,-0.00014880461094435304,-0.0002710265980567783,3.1936368031892926e-05,0.0,0.0,0.0,0.0,0.00021537508291658014,-0.0013505187816917896,0.0004927975824102759,0.9962365627288818,0.0,0.0,0.0,0.2935926914215088,11.440132141113281,2.5829975605010986,-53.14086151123047,0
434.95900000000074,-8.655984129291028e-05,-0.00017480296082794666,-1.2852881809521932e-05,0.0,0.0,0.0,0.0,0.0017674100818112493,-0.0009646678226999938,0.002151940716430545,0.9966216087341309,0.0,0.0,0.0,0.30266687273979187,11.450348854064941,2.5959179401397705,-54.78330993652344,0
444.84600000000137,-0.00017573049990460277,-0.0002027687442023307,-1.9757850168389268e-05,0.0,0.0,0.0,0.0,-0.0018979334272444248,0.0007964784163050354,-0.001036271103657782,1.0003612041473389,0.0,0.0,0.0,0.29355600476264954,11.439705848693848,2.577974319458008,-53.13422393798828,0
454.7340000000004,-0.00013588073488790542,-0.0001694764941930771,-7.044219091767445e-05,0.0,0.0,0.0,0.0,-0.001294897054322064,0.0005825410480611026,-0.0007296826806850731,1.0011659860610962,0.0,0.0,0.0,0.3097228407859802,11.447124481201172,2.5803675651550293,-56.06045150756836,0
464.6170000000002,-0.0001857981987996027,-0.0001922112423926592,-6.25462707830593e-05,0.0,0.0,0.0,0.0,0.001218681107275188,0.0016185842687264085,-0.0034861962776631117,1.0003682374954224,0.0,0.0,0.0,0.29600444436073303,11.450470924377441,2.5721421241760254,-53.577392578125,0
474.4990000000016,-0.0001444651570636779,-0.00011775050370488316,-9.192413563141599e-05,0.0,0.0,0.0,0.0,0.0026653874665498734,0.0005104078445583582,0.0013078785268589854,0.9982929825782776,0.0,0.0,0.0,0.31147146224975586,11.45698070526123,2.579305648803711,-56.376949310302734,0
484.39200000000164,-7.350921077886596e-05,-0.00018580115283839405,-6.338705134112388e-05,0.0,0.0,0.0,0.0,-0.0002945417072623968,-0.0025300397537648678,-0.0003742049157153815,0.9982212781906128,0.0,0.0,0.0,0.3024005889892578,11.445500373840332,2.5924203395843506,-54.735111236572266,0
494.27600000000166,-9.001592843560502e-05,-0.00025100240600295365,-6.609743286389858e-05,0.0,0.0,0.0,0.0,0.0017261164030060172,-0.0012727646389976144,6.050398224033415e-05,0.9992342591285706,0.0,0.0,0.0,0.30111458897590637,11.439891815185547,2.6000921726226807,-54.50233840942383,0
504.1650000000009,-0.00018445629393681884,-0.00025778618874028325,-6.324173591565341e-05,0.0,0.0,0.0,0.0,-0.0018746625864878297,-0.0036945389583706856,-0.00107887655030936,0.9987326860427856,0.0,0.0,0.0,0.2895877957344055,11.444265365600586,2.583890199661255,-52.41596603393555,0
514.0480000000007,-0.00020549219334498048,-0.0003249110886827111,-6.63888786220923e-05,0.0,0.0,0.0,0.0,0.00024520413717254996,0.00599947152659297,-0.0007000109762884676,1.0002143383026123,0.0,0.0,0.0,0.2886126637458801,11.433244705200195,2.5882203578948975,-52.23945999145508,0
523.9310000000005,-0.00024402732378803194,-0.0002909205504693091,-4.0904677007347345e-05,0.0,0.0,0.0,0.0,-0.0027032869402319193,-0.0007935953326523304,-0.0026933513581752777,1.0028228759765625,0.0,0.0,0.0,0.2780788838863373,11.454543113708496,2.563446283340454,-50.332828521728516,0
533.8110000000015,-0.00023263490584213287,-0.0002679252647794783,-5.856344068888575e-05,0.0,0.0,0.0,0.0,0.002261519432067871,0.005010729189962149,-0.0013750630896538496,1.0001065731048584,0.0,0.0,0.0,0.2942429184913635,11.465962409973145,2.567180871963501,-53.258548736572266,0
543.6940000000013,-0.00018681559595279396,-0.0002783880918286741,-3.570356057025492e-06,0.0,0.0,0.0,0.0,0.0002806444827001542,-0.0032706514466553926,0.00013038631004747003,0.9989750981330872,0.0,0.0,0.0,0.28383931517601013,11.458921432495117,2.5620758533477783,-51.37548065185547,0
553.5780000000013,-0.00013013029820285738,-0.00018654458108358085,-5.5814642109908164e-05,0.0,0.0,0.0,0.0,0.0029580455739051104,-0.003821724560111761,-0.0005786430556327105,0.9977676868438721,0.0,0.0,0.0,0.2893944978713989,11.474993705749512,2.574779748916626,-52.380977630615234,0
563.4670000000006,-0.00017303592176176608,-0.00018646752869244665,-3.205831308150664e-05,0.0,0.0,0.0,0.0,0.0027638417668640614,0.0005687850061804056,-0.0012961755273863673,0.9976611137390137,0.0,0.0,0.0,0.28055045008659363,11.473771095275879,2.5699453353881836,-50.78019332885742,0
573.3490000000002,-0.00017167766054626554,-0.00018427553004585207,-3.17964622809086e-05,0.0,0.0,0.0,0.0,0.00017260792083106935,0.00034057555603794754,0.0011574184754863381,1.0007765293121338,0.0,0.0,0.0,0.29309770464897156,11.46953010559082,2.5713951587677,-53.05126953125,0
583.2440000000006,-0.00021857363753952086,-0.00016358477296307683,2.3802112991688773e-07,0.0,0.0,0.0,0.0,0.0018723424291238189,-0.004673105198889971,-0.0008473796187900007,1.0022177696228027,0.0,0.0,0.0,0.28660351037979126,11.472515106201172,2.566372871398926,-51.87580108642578,0
593.121000000001,-0.0001734065735945478,-9.82014971668832e-05,-3.799290789174847e-05,0.0,0.0,0.0,0.0,0.0024400968104600906,-0.0010329423239454627,-9.359111572848633e-05,0.9994592070579529,0.0,0.0,0.0,0.2985686957836151,11.475549697875977,2.5842554569244385,-54.04153060913086,0
603.0040000000008,-0.00017295789439231157,-0.00015753545449115336,-1.9645580323413014e-05,0.0,0.0,0.0,0.0,0.0005204564658924937,9.194179438054562e-05,0.00016592316387686878,0.9988602995872498,0.0,0.0,0.0,0.28700292110443115,11.46286678314209,2.5866472721099854,-51.948097229003906,0
612.8900000000012,-0.0001317705464316532,-9.071511158253998e-05,-4.6830133214825764e-05,0.0,0.0,0.0,0.0,-0.00047015142627060413,-7.48599341022782e-05,0.0032624825835227966,0.9999852776527405,0.0,0.0,0.0,0.3006950318813324,11.469447135925293,2.592693328857422,-54.426395416259766,0
622.7790000000005,-0.00018051534425467253,-0.00015957541472744197,-4.934885510010645e-05,0.0,0.0,0.0,0.0,0.005507400259375572,0.0014263757038861513,-0.002100224606692791,1.0020312070846558,0.0,0.0,0.0,0.29220685362815857,11.461459159851074,2.583385944366455,-52.89002227783203,0
632.6590000000015,-0.00019993120804429054,-0.0001733351091388613,-2.2113299564807676e-05,0.0,0.0,0.0,0.0,-0.000518517685122788,0.0020748800598084927,-0.0011190592776983976,1.0008814334869385,0.0,0.0,0.0,0.304384708404541,11.446908950805664,2.57673978805542,-55.094242095947266,0
642.5439999999999,-0.00011772384459618479,-0.0002396071795374155,2.8042135454597883e-05,0.0,0.0,0.0,0.0,-0.00023132452042773366,-0.0018209472764283419,0.0006401325226761401,0.9975138306617737,0.0,0.0,0.0,0.2963232696056366,11.438512802124023,2.582152843475342,-53.63509750366211,0
652.4360000000015,-0.00014288125385064632,-0.0003088584926445037,4.07837942475453e-05,0.0,0.0,0.0,0.0,0.0006246463162824512,-0.00011303231440251693,-0.00192523084115237,0.9995506405830383,0.0,0.0,0.0,0.29713335633277893,11.43269157409668,2.5807600021362305,-53.7817268371582,0
662.3190000000013,-0.00015457689005415887,-0.00032396396272815764,7.402696064673364e-05,0.0,0.0,0.0,0.0,0.00046931469114497304,0.003446615533903241,0.0010146169224753976,1.0000569820404053,0.0,0.0,0.0,0.2898836135864258,11.433967590332031,2.5853214263916016,-52.469512939453125,0
672.2030000000013,-8.411055750912055e-05,-0.00022424294729717076,1.0512258086237125e-06,0.0,0.0,0.0,0.0,-0.0002930603513959795,-0.0017122002318501472,0.0019504291703924537,0.9996401071548462,0.0,0.0,0.0,0.30769219994544983,11.454349517822266,2.596034049987793,-55.692901611328125,0
682.0889999999999,-0.00019637720833998173,-0.00022825656924396753,1.1861056918860413e-05,0.0,0.0,0.0,0.0,-0.0034655933268368244,0.007075415458530188,-0.004088884685188532,1.0005812644958496,0.0,0.0,0.0,0.2979159355163574,11.455118179321289,2.583078145980835,-53.92337417602539,0
691.9710000000014,-0.00014696107245981693,-0.00015694103785790503,-4.3138486944371834e-05,0.0,0.0,0.0,0.0,-0.0013582047540694475,0.003299376694485545,0.002327963709831238,0.9963386058807373,0.0,0.0,0.0,0.31243765354156494,11.467143058776855,2.582371950149536,-56.551841735839844,0
701.8650000000016,-0.0001297956332564354,-0.0002400824159849435,-2.5778645067475736e-05,0.0,0.0,0.0,0.0,-0.001828167587518692,-0.0023866170085966587,-0.0030857897363603115,0.9970337748527527,0.0,0.0,0.0,0.3050684928894043,11.457036972045898,2.5809786319732666,-55.21800231933594,0
711.7540000000008,-9.437296830583364e-05,-0.00019630673341453075,-7.13449262548238e-05,0.0,0.0,0.0,0.0,0.00027833334752358496,-0.0038000894710421562,0.002148507861420512,1.0006651878356934,0.0,0.0,0.0,0.31482839584350586,11.463750839233398,2.5944857597351074,-56.984561920166016,0
721.6400000000012,-0.00018613709835335612,-0.0001990688033401966,-6.531018152600154e-05,0.0,0.0,0.0,0.0,0.0017825104296207428,-0.0004912870354019105,0.0035788866225630045,0.9999621510505676,0.0,0.0,0.0,0.30535826086997986,11.464571952819824,2.5882699489593506,-55.270450592041016,0
731.5170000000016,-0.00016115511243697256,-0.00013714839587919414,-7.80397531343624e-05,0.0,0.0,0.0,0.0,-0.0027113580144941807,0.002829133765771985,-0.002481211209669709,0.9991292357444763,0.0,0.0,0.0,0.3216099441051483,11.470114707946777,2.596531391143799,-58.212039947509766,0
741.4110000000001,-9.065456106327474e-05,-0.00025607441784814,-6.221907824510708e-05,0.0,0.0,0.0,0.0,0.002520560286939144,0.0021892141085118055,-0.0029683723114430904,0.9999887347221375,0.0,0.0,0.0,0.31104299426078796,11.45663070678711,2.604285478591919,-56.29939651489258,0
751.2840000000015,-5.918588794884272e-05,-0.00021270636352710426,-8.338269253727049e-05,0.0,0.0,0.0,0.0,-0.001417430117726326,0.0017110779881477356,-0.0007284548482857645,0.9993594288825989,0.0,0.0,0.0,0.3270973861217499,11.456923484802246,2.6093227863311768,-59.20528030395508,0
761.1700000000001,-0.00016036495799198747,-0.0001944466057466343,-7.264952000696212e-05,0.0,0.0,0.0,0.0,-0.0007611188921146095,-0.0013010903494432569,-0.001519843703135848,0.9987309575080872,0.0,0.0,0.0,0.3164776861667633,11.463051795959473,2.5867278575897217,-57.28308868408203,0
771.0600000000013,-0.00013151616440154612,-0.00014955882215872407,-9.182924986816943e-05,0.0,0.0,0.0,0.0,-0.0023379225749522448,-0.0007028092513792217,-0.0015527904033660889,1.0015586614608765,0.0,0.0,0.0,0.3289456367492676,11.463860511779785,2.6011369228363037,-59.53981399536133,0
780.9400000000005,-0.00011678126611514017,-0.00021052978991065174,-7.292111695278436e-05,0.0,0.0,0.0,0.0,-0.0019770371727645397,-0.0070484355092048645,-0.0008820037473924458,1.0007438659667969,0.0,0.0,0.0,0.3179444968700409,11.454516410827637,2.6039111614227295,-57.548587799072266,0
790.8340000000007,-8.826198609312996e-05,-0.0001936719927471131,-0.0001057988774846308,0.0,0.0,0.0,0.0,0.0030914421658962965,-9.402422438142821e-05,0.001647628960199654,0.9998871684074402,0.0,0.0,0.0,0.32610249519348145,11.456886291503906,2.616743326187134,-59.02519989013672,0
800.7090000000007,-0.00013801007298752666,-0.00021759320225100964,-9.31321774260141e-05,0.0,0.0,0.0,0.0,-0.0007327179191634059,0.004576283972710371,0.00032151886261999607,1.000051498413086,0.0,0.0,0.0,0.31645235419273376,11.450090408325195,2.606196165084839,-57.27850341796875,0
810.5930000000008,-0.00010008744720835239,-0.00014313777501229197,-0.00010578169167274609,0.0,0.0,0.0,0.0,0.0012346947332844138,-0.0015366097213700414,0.0004463253717403859,1.0012575387954712,0.0,0.0,0.0,0.3318849503993988,11.462100982666016,2.6093037128448486,-60.07183837890625,0
820.4860000000008,-0.00010077399929286912,-0.00019276319653727114,-8.654060366097838e-05,0.0,0.0,0.0,0.0,0.0019659411627799273,-0.00391270499676466,0.0005073077045381069,1.0010883808135986,0.0,0.0,0.0,0.32363975048065186,11.452309608459473,2.607818365097046,-58.57944107055664,0
830.3700000000008,-0.0001194459036923945,-0.000257372681517154,-7.846708467695862e-05,0.0,0.0,0.0,0.0,0.0005142093286849558,-0.002156201982870698,-0.0017564952140673995,1.0018185377120972,0.0,0.0,0.0,0.3223496079444885,11.439672470092773,2.611109495162964,-58.345916748046875,0
840.2510000000002,-0.00010045071394415572,-0.0002678870805539191,-4.194765642751008e-05,0.0,0.0,0.0,0.0,0.002551022218540311,0.0004704485763795674,0.0020007858984172344,1.0010513067245483,0.0,0.0,0.0,0.30876830220222473,11.441987991333008,2.6128642559051514,-55.88767623901367,0
850.1380000000008,-8.967419853433967e-05,-0.00026337994495406747,-3.761302286875434e-05,0.0,0.0,0.0,0.0,0.00045579715515486896,-0.0017806172836571932,0.0030805913265794516,0.9986391663551331,0.0,0.0,0.0,0.3146677315235138,11.440153121948242,2.612020969390869,-56.95549011230469,0
860.0350000000017,-0.00012029630306642503,-0.0002665787760633975,4.478025402931962e-06,0.0,0.0,0.0,0.0,0.0018662214279174805,0.005632012151181698,-0.0037645238917320967,0.999780535697937,0.0,0.0,0.0,0.303847074508667,11.442543983459473,2.6108901500701904,-54.99692153930664,0
869.9070000000011,-0.0001024856319418177,-0.00025540246861055493,5.874431735719554e-06,0.0,0.0,0.0,0.0,-0.0008290177793242037,-0.0030468793120235205,0.0004518797795753926,0.998485803604126,0.0,0.0,0.0,0.3098313808441162,11.441466331481934,2.603530168533325,-56.08009338378906,0
879.8000000000011,-0.00011831356823677197,-0.0003229670110158622,2.1751968233729713e-05,0.0,0.0,0.0,0.0,-0.00037359283305704594,0.006131651345640421,0.0025817002169787884,0.9999254941940308,0.0,0.0,0.0,0.3093198239803314,11.432443618774414,2.6109659671783447,-55.98750686645508,0
889.6790000000001,-0.00011350990098435432,-0.00027027420583181083,6.0838632634840906e-05,0.0,0.0,0.0,0.0,0.0006907096831128001,-0.002440054202452302,1.9127264749840833e-05,1.0030075311660767,0.0,0.0,0.0,0.32389870285987854,11.449891090393066,2.606877088546753,-58.626312255859375,0
899.5640000000003,-0.00012890812649857253,-0.0003333678178023547,8.06105526862666e-05,0.0,0.0,0.0,0.0,-0.00019442049961071461,0.002816644497215748,0.0011814957251772285,1.0002886056900024,0.0,0.0,0.0,0.3238728642463684,11.437755584716797,2.610985517501831,-58.62163543701172,0
909.4510000000009,-0.00012071202945662662,-0.0002532080397941172,0.00012898605200462043,0.0,0.0,0.0,0.0,-0.00039501319406554103,-0.0016604966949671507,-0.0008000551606528461,1.0007338523864746,0.0,0.0,0.0,0.3406999409198761,11.464678764343262,2.611849308013916,-61.6673698425293,0
919.3360000000011,-0.00013316345575731248,-0.0003127126256003976,0.00015447151963599026,0.0,0.0,0.0,0.0,-0.003409006865695119,-0.0055515356361866,-0.0032438747584819794,1.0013593435287476,0.0,0.0,0.0,0.3396504819393158,11.452559471130371,2.613042116165161,-61.47740936279297,0
929.2220000000016,-0.00014667432697024196,-0.0003762225969694555,0.00018146916409023106,0.0,0.0,0.0,0.0,0.0035088902805000544,0.009083705954253674,-0.0022367725614458323,0.997481107711792,0.0,0.0,0.0,0.338085800409317,11.445061683654785,2.626533031463623,-61.1942024230957,0
939.1100000000006,-0.00016129613504745066,-0.00044336883001960814,0.0002085572632495314,0.0,0.0,0.0,0.0,-7.14480847818777e-05,-4.474824891076423e-05,0.0026401057839393616,0.9977079629898071,0.0,0.0,0.0,0.337159126996994,11.42857551574707,2.6049611568450928,-61.02647399902344,0
948.9980000000014,-0.000111742592707742,-0.0003334162465762347,0.0002194704138673842,0.0,0.0,0.0,0.0,0.001223624451085925,0.0033342500682920218,-0.0010506364051252604,1.0002007484436035,0.0,0.0,0.0,0.3478790819644928,11.4764986038208,2.627183437347412,-62.96680450439453,0
958.8720000000012,-0.00011940790136577561,-0.0003941887407563627,0.00024349265731871128,0.0,0.0,0.0,0.0,0.0020580042619258165,0.004139312542974949,0.003006651997566223,1.0020889043807983,0.0,0.0,0.0,0.346733421087265,11.464581489562988,2.616772174835205,-62.759437561035156,0
968.7630000000008,-0.0001269613712793216,-0.00045982529991306365,0.000268886040430516,0.0,0.0,0.0,0.0,-1.7747297533787787e-05,-0.0062438263557851315,-0.0010887021198868752,0.9995384812355042,0.0,0.0,0.0,0.3470393121242523,11.451786994934082,2.612349510192871,-62.8148078918457,0
978.643,-0.00013546529226005077,-0.0005290028639137745,0.00029569154139608145,0.0,0.0,0.0,0.0,-0.0017243028851225972,-0.0042990827932953835,0.00027621135814115405,0.9998638033866882,0.0,0.0,0.0,0.3461998403072357,11.444634437561035,2.6275815963745117,-62.66286087036133,0
988.5320000000011,-9.248389687854797e-06,-0.00034711809712462127,0.00026581171550787985,0.0,0.0,0.0,0.0,0.0005941058625467122,0.005345766898244619,-0.00044674871605820954,1.0020463466644287,0.0,0.0,0.0,0.3563309907913208,11.520769119262695,2.67830753326416,-64.49661254882812,0
998.4210000000003,-7.951493898872286e-06,-0.00039864436257630587,0.0002906549780163914,0.0,0.0,0.0,0.0,0.0009142420021817088,-0.0006898172432556748,0.0010257379617542028,0.999439537525177,0.0,0.0,0.0,0.35571005940437317,11.506361961364746,2.662076473236084,-64.38423156738281,0
1008.3010000000013,-6.828899586253101e-06,-0.00045268971007317305,0.00031674557249061763,0.0,0.0,0.0,0.0,0.002121350495144725,0.004665272310376167,-0.0009135648142546415,0.9979676604270935,0.0,0.0,0.0,0.3556878864765167,11.491781234741211,2.6603686809539795,-64.38021087646484,0
1018.1869999999999,-5.619688636215869e-06,-0.0005105343880131841,0.00034225123818032444,0.0,0.0,0.0,0.0,0.0011318976758047938,0.00421180110424757,-0.002028742106631398,0.9991210699081421,0.0,0.0,0.0,0.3548779785633087,11.475025177001953,2.6452882289886475,-64.2336196899414,0
1028.0770000000011,0.0001906918187160045,-0.000222945207497105,0.00030693161534145474,0.0,0.0,0.0,0.0,0.0027776069473475218,0.0015981803881004453,-0.0021488326601684093,1.0021506547927856,0.0,0.0,0.0,0.3721056878566742,11.570573806762695,2.6891226768493652,-67.35187530517578,0
1037.9560000000001,0.0002060128899756819,-0.00025978387566283345,0.0003279433585703373,0.0,0.0,0.0,0.0,0.0008322179201059043,0.002692845882847905,-0.001536545460112393,1.0018318891525269,0.0,0.0,0.0,0.37186044454574585,11.55270004272461,2.6844191551208496,-67.3074722290039,0
1047.8420000000006,0.0002793600142467767,-0.0001679207052802667,0.0003506273787934333,0.0,0.0,0.0,0.0,-0.000918390229344368,0.00373159465380013,0.0009430136415176094,1.0011638402938843,0.0,0.0,0.0,0.3892262578010559,11.581114768981934,2.6979057788848877,-70.45072174072266,0
1057.7180000000008,0.00029704789631068707,-0.00020276753639336675,0.0003761879925150424,0.0,0.0,0.0,0.0,0.0016002159100025892,0.0031952864956110716,-0.001243543578311801,1.0021047592163086,0.0,0.0,0.0,0.38859957456588745,11.572905540466309,2.683999538421631,-70.33729553222656,0
1067.6140000000014,0.000313570344587788,-0.0002401536621619016,0.0004040477506350726,0.0,0.0,0.0,0.0,-0.0024642120115458965,0.0030476248357445,0.0007604386191815138,1.0003527402877808,0.0,0.0,0.0,0.3874950110912323,11.559754371643066,2.6766116619110107,-70.13736724853516,0
1077.4950000000008,0.0003296012000646442,-0.00028041715268045664,0.00043361782445572317,0.0,0.0,0.0,0.0,0.00022454185818787664,0.00046417873818427324,-0.004264105577021837,1.0008926391601562,0.0,0.0,0.0,0.3874838948249817,11.554410934448242,2.672393798828125,-70.13536071777344,0
1087.3940000000002,0.00034758250694721937,-0.00032293342519551516,0.000464268698124215,0.0,0.0,0.0,0.0,0.0013999383663758636,-0.0019102473743259907,0.002277658088132739,0.9999189972877502,0.0,0.0,0.0,0.3856426179409027,11.539085388183594,2.671626091003418,-69.80208587646484,0
1097.2620000000006,0.0003672465099953115,-0.0003659433568827808,0.0004958634963259101,0.0,0.0,0.0,0.0,-0.002036744961515069,-0.001492700888775289,-0.0010668757604435086,0.9975094199180603,0.0,0.0,0.0,0.3862568140029907,11.522926330566406,2.6681602001190186,-69.91325378417969,0
1107.1630000000005,0.0003877890412695706,-0.00040965352673083544,0.0005271031986922026,0.0,0.0,0.0,0.0,-0.004765674937516451,-0.004934263881295919,-0.0020984874572604895,0.9992603659629822,0.0,0.0,0.0,0.3854758143424988,11.517366409301758,2.663855791091919,-69.77188873291016,0
1117.0390000000007,-0.00020736588339786977,-0.0002745807869359851,0.00018403281865175813,0.0,0.0,0.0,0.0,-0.000293225166387856,-0.0009385320590808988,0.0025699285324662924,1.000281810760498,0.0,0.0,0.0,0.369926780462265,11.539501190185547,2.5717718601226807,-66.95748138427734,0
1126.9279999999999,-0.00021211733110249043,-0.00031746079912409186,0.00020094976935070008,0.0,0.0,0.0,0.0,-0.002622727770358324,-0.0020603849552571774,-0.000709125364664942,0.9983920454978943,0.0,0.0,0.0,0.36975324153900146,11.525151252746582,2.5712051391601562,-66.92607879638672,0
1136.8140000000003,-0.00024108651268761605,-0.0003123409114778042,0.0002499868278391659,0.0,0.0,0.0,0.0,0.0020645083859562874,-0.004078297410160303,0.0012488384963944554,0.9990833401679993,0.0,0.0,0.0,0.3548990488052368,11.527134895324707,2.559596538543701,-64.2374267578125,0
1146.7110000000011,-0.0002474580251146108,-0.00035858448245562613,0.0002680284669622779,0.0,0.0,0.0,0.0,-0.0020097747910767794,0.004971330985426903,-0.0017638549907132983,0.999030351638794,0.0,0.0,0.0,0.3546624481678009,11.50829029083252,2.566926956176758,-64.19461059570312,0
1156.5750000000007,-0.00027743345708586276,-0.00038718964788131416,0.0002991011133417487,0.0,0.0,0.0,0.0,0.0008481958648189902,-0.0048101614229381084,0.005148870870471001,0.9999975562095642,0.0,0.0,0.0,0.3405422866344452,11.505220413208008,2.547700881958008,-61.638832092285156,0
1166.4680000000008,-0.0002875273930840194,-0.00044156654621474445,0.00031794863753020763,0.0,0.0,0.0,0.0,0.00232890946790576,0.0018455981044098735,-0.0014532763743773103,0.9994292855262756,0.0,0.0,0.0,0.34137022495269775,11.493048667907715,2.5508968830108643,-61.78868865966797,0
1176.3470000000016,-0.0003026541671715677,-0.0004888449911959469,0.00035061207017861307,0.0,0.0,0.0,0.0,0.00015017464465927333,-0.0006699319928884506,0.0005736566381528974,0.9982998967170715,0.0,0.0,0.0,0.3207278847694397,11.48064136505127,2.532914161682129,-58.05238342285156,0
1186.2540000000008,-0.00031157181365415454,-0.0005489205359481275,0.0003701724053826183,0.0,0.0,0.0,0.0,-0.00028485924121923745,0.0026629737112671137,0.0036944353487342596,0.9992983937263489,0.0,0.0,0.0,0.3211638033390045,11.466734886169434,2.527467727661133,-58.13128662109375,0
1196.1140000000014,-0.0002810512378346175,-0.0005505486042238772,0.0004476441827137023,0.0,0.0,0.0,0.0,-0.0038463720120489597,-0.00018198869656771421,-0.002873615361750126,0.9986046552658081,0.0,0.0,0.0,0.3106376826763153,11.480525016784668,2.5214977264404297,-56.22603988647461,0
1206.0080000000016,-0.0002865698479581624,-0.0006131227710284293,0.00047156025539152324,0.0,0.0,0.0,0.0,0.0017746231751516461,0.0028497495222836733,0.0011770876590162516,0.9976707100868225,0.0,0.0,0.0,0.3089485764503479,11.475606918334961,2.519836902618408,-55.92030334472656,0
1215.8920000000016,-0.00035840581404045224,-0.0005970895290374756,0.0005476181395351887,0.0,0.0,0.0,0.0,-0.0036966728512197733,0.002789120189845562,0.0041422368958592415,0.9983318448066711,0.0,0.0,0.0,0.2944275736808777,11.506845474243164,2.4837825298309326,-53.29197692871094,0
1225.7840000000015,-0.00037051853723824024,-0.0006578220636583865,0.0005735646118409932,0.0,0.0,0.0,0.0,0.0017442902317270637,-0.003011968918144703,0.0006460688309744,0.9974546432495117,0.0,0.0,0.0,0.2957107126712799,11.5003080368042,2.473417282104492,-53.524227142333984,0
1235.6630000000005,-0.00038470732397399843,-0.0007207843009382486,0.0005981367430649698,0.0,0.0,0.0,0.0,-0.0011730659753084183,0.003208642825484276,-0.005179254338145256,0.9981499910354614,0.0,0.0,0.0,0.29518771171569824,11.486708641052246,2.4735586643218994,-53.429561614990234,0
1245.550000000001,-0.00040054458077065647,-0.0007874893490225077,0.0006213123560883105,0.0,0.0,0.0,0.0,0.000319726241286844,0.0010729818604886532,0.002298332517966628,1.0003080368041992,0.0,0.0,0.0,0.29332631826400757,11.474568367004395,2.464123487472534,-53.09264373779297,0
1255.4360000000015,-0.0004613028431776911,-0.0007211315096355975,0.0007308796630240977,0.0,0.0,0.0,0.0,-0.00042385185952298343,0.00414515333250165,-0.00015035118849482387,0.9990631341934204,0.0,0.0,0.0,0.2800600528717041,11.530343055725098,2.4278783798217773,-50.69142532348633,0
1265.3230000000003,-0.00048417990910820663,-0.0007842598133720458,0.0007624705322086811,0.0,0.0,0.0,0.0,0.002240834990516305,0.0008856994681991637,0.0001592552725924179,1.0014454126358032,0.0,0.0,0.0,0.2793288230895996,11.52225112915039,2.4170472621917725,-50.55906677246094,0
1275.2000000000007,-0.0005279941251501441,-0.0007517179474234581,0.000864617177285254,0.0,0.0,0.0,0.0,0.00017237081192433834,-0.002812674967572093,-0.001214092131704092,0.9997219443321228,0.0,0.0,0.0,0.2634376287460327,11.55550479888916,2.390815496444702,-47.682735443115234,0
1285.1000000000004,-0.0005548815825022757,-0.0008129917550832033,0.0009049633517861366,0.0,0.0,0.0,0.0,-0.00010964572720695287,0.002787212608382106,0.0024256089236587286,0.9989133477210999,0.0,0.0,0.0,0.2627413272857666,11.544490814208984,2.3998196125030518,-47.55670166015625,0
1294.9660000000003,-0.0005887615843676031,-0.0008130211499519646,0.0009971912950277328,0.0,0.0,0.0,0.0,-0.00016131724987644702,-6.142089841887355e-05,0.0008279664907604456,1.0008399486541748,0.0,0.0,0.0,0.24866676330566406,11.558639526367188,2.384319543838501,-45.009178161621094,0
1304.8590000000004,-0.00015798646199982613,-0.0001946071133716032,-0.00019332133524585515,0.0,0.0,0.0,0.0,-0.0013935648603364825,-0.0010079015046358109,0.0033684326335787773,0.9979301691055298,0.0,0.0,0.0,0.271591454744339,11.667367935180664,2.4626166820526123,-49.15858840942383,0
1314.741,-0.00018262364028487355,-0.0001692243677098304,-0.0001533292088424787,0.0,0.0,0.0,0.0,0.0004233123909216374,-0.0015477115521207452,0.0019407925428822637,0.9982883930206299,0.0,0.0,0.0,0.2594151198863983,11.666915893554688,2.457943916320801,-46.95465087890625,0
1324.6320000000014,-0.00013203741400502622,-6.578717147931457e-05,-0.00021371814364101738,0.0,0.0,0.0,0.0,-0.004093618597835302,-0.0024283432867377996,0.003613613313063979,0.9972104430198669,0.0,0.0,0.0,0.2812819182872772,11.669175148010254,2.471783399581909,-50.91258239746094,0
1334.5110000000004,-0.00013652144116349518,-9.393818618264049e-05,-0.0001993502810364589,0.0,0.0,0.0,0.0,0.003119111992418766,0.0015876013785600662,-0.0008907786104828119,0.9990649819374084,0.0,0.0,0.0,0.2687181830406189,11.663240432739258,2.4667162895202637,-48.638526916503906,0
1344.4180000000015,-0.00015023212472442538,-0.000130153086502105,-0.00019808740762528032,0.0,0.0,0.0,0.0,-0.0023402066435664892,-0.0009399105329066515,0.003531293012201786,0.9990519881248474,0.0,0.0,0.0,0.26786932349205017,11.644302368164062,2.4586338996887207,-48.48488235473633,0
1354.2830000000013,-0.00015277827333193272,-0.00014190685760695487,-0.00018019754497800022,0.0,0.0,0.0,0.0,-0.0008900652173906565,-0.00222398922778666,-0.0007641399861313403,0.9980270862579346,0.0,0.0,0.0,0.2553861737251282,11.64406681060791,2.455270290374756,-46.225406646728516,0
1364.174000000001,-0.00016618150402791798,-0.0001827730447985232,-0.00017883827968034893,0.0,0.0,0.0,0.0,-0.0013563508400693536,-0.0025064959190785885,0.0027310033328831196,0.9983705878257751,0.0,0.0,0.0,0.2541608512401581,11.637701988220215,2.458484411239624,-46.00361633300781,0
1374.0690000000013,-0.00011448517761891708,-0.00018831358465831727,-0.0001488214620621875,0.0,0.0,0.0,0.0,0.0006873164675198495,-0.001491363043896854,0.0027929891366511583,1.0004100799560547,0.0,0.0,0.0,0.24542859196662903,11.638557434082031,2.465928077697754,-44.423065185546875,0
1383.9540000000015,-0.00011815157631644979,-0.00019497956964187324,-0.00013266890891827643,0.0,0.0,0.0,0.0,0.0028282455168664455,0.00037264052662067115,0.0006918341969139874,0.9992183446884155,0.0,0.0,0.0,0.25776976346969604,11.631662368774414,2.465068817138672,-46.656837463378906,0
1393.8330000000005,-0.00017441589443478733,-0.00016623135888949037,-0.00010333330283174291,0.0,0.0,0.0,0.0,0.0031779787968844175,0.0043215700425207615,0.0012519098818302155,1.0016908645629883,0.0,0.0,0.0,0.24618281424045563,11.627010345458984,2.450507640838623,-44.55957794189453,0
1403.7160000000003,-0.00013730845239479095,-0.00010359383304603398,-0.00012806541053578258,0.0,0.0,0.0,0.0,0.001367909018881619,-0.0015091142849996686,0.0022156331688165665,1.0010697841644287,0.0,0.0,0.0,0.2614957392215729,11.619982719421387,2.441110849380493,-47.33124923706055,0
1413.598,-0.0001554465270601213,-8.95716148079373e-05,-9.06797286006622e-05,0.0,0.0,0.0,0.0,-0.002531354781240225,0.005561264231801033,-0.0045309970155358315,1.0006012916564941,0.0,0.0,0.0,0.2616092264652252,11.606913566589355,2.4366981983184814,-47.35179138183594,0
1423.4840000000004,-0.00014949463366065174,-6.342258711811155e-05,-6.872483936604112e-05,0.0,0.0,0.0,0.0,0.002964681014418602,0.0002473421336617321,0.001855483977124095,1.0007610321044922,0.0,0.0,0.0,0.2785018980503082,11.609585762023926,2.4238462448120117,-50.409400939941406,0
1433.3690000000006,-0.0001634229120099917,-0.00011714381980709732,-4.936959157930687e-05,0.0,0.0,0.0,0.0,-0.002706704894080758,-0.0033138843718916178,-0.003670421428978443,1.0016674995422363,0.0,0.0,0.0,0.26780059933662415,11.592988014221191,2.418463706970215,-48.472442626953125,0
1443.2540000000008,-0.00018300325609743595,-0.00015250101569108665,-2.086954191327095e-05,0.0,0.0,0.0,0.0,0.002439731964841485,0.0016933090519160032,-0.001385170966386795,1.0006521940231323,0.0,0.0,0.0,0.2741544544696808,11.587516784667969,2.422243595123291,-49.62250518798828,0
1453.1510000000017,-0.0002086736203636974,-0.00019463793432805687,6.440899596782401e-06,0.0,0.0,0.0,0.0,-0.0017645296175032854,-0.0024389016907662153,-0.0013474830193445086,1.0003156661987305,0.0,0.0,0.0,0.25967109203338623,11.571297645568848,2.413388252258301,-47.00098419189453,0
1463.0350000000017,-0.00022931024432182312,-0.00024671154096722603,2.7360325475456193e-05,0.0,0.0,0.0,0.0,0.0009460116270929575,-0.00315924477763474,-0.00043449492659419775,1.0016623735427856,0.0,0.0,0.0,0.25941869616508484,11.56299877166748,2.4121267795562744,-46.95529556274414,0
1472.911,-0.0001453845325158909,-0.00025988047127611935,8.724513463675976e-05,0.0,0.0,0.0,0.0,0.0013606742722913623,0.00021489161008503288,-0.0021690151188522577,0.9997720122337341,0.0,0.0,0.0,0.25214365124702454,11.555992126464844,2.4287772178649902,-45.63850402832031,0
1482.7970000000005,-0.0001204052459797822,-0.00023590934870298952,8.165795588865876e-05,0.0,0.0,0.0,0.0,6.554336869157851e-05,0.002327284775674343,-0.00013898138422518969,0.9989323616027832,0.0,0.0,0.0,0.2626737654209137,11.552619934082031,2.428884267807007,-47.54447555541992,0
1492.6910000000007,-0.00011946252197958529,-0.00026572184287942946,0.0001291052030865103,0.0,0.0,0.0,0.0,0.004053601063787937,0.0061752451583743095,-0.001085549360141158,0.9984906911849976,0.0,0.0,0.0,0.2557005286216736,11.54198932647705,2.4190452098846436,-46.28230285644531,0
1502.5680000000011,-6.184579979162663e-05,-0.00021181494230404496,7.983114483067766e-05,0.0,0.0,0.0,0.0,-0.0008339783526025712,0.0018291687592864037,-0.0004363789048511535,1.0001798868179321,0.0,0.0,0.0,0.269536554813385,11.535966873168945,2.4124743938446045,-48.78664779663086,0
1512.4500000000007,-8.079263352556154e-05,-0.00026283549959771335,0.00010995516640832648,0.0,0.0,0.0,0.0,0.0001250129280379042,-0.004367026966065168,-0.0009836095850914717,0.9989700317382812,0.0,0.0,0.0,0.2614023685455322,11.526778221130371,2.399982452392578,-47.31434631347656,0
1522.3520000000008,-1.7227615899173543e-05,-0.00016955207684077322,7.905437087174505e-05,0.0,0.0,0.0,0.0,0.001473915413953364,0.0032592155039310455,-0.00405499991029501,1.000881552696228,0.0,0.0,0.0,0.2799118757247925,11.532755851745605,2.4187240600585938,-50.664608001708984,0
1532.232,-0.0001613657659618184,-0.00020019777002744377,7.100449874997139e-05,0.0,0.0,0.0,0.0,0.0005082341376692057,0.007515517063438892,0.0006562650087289512,0.9979159832000732,0.0,0.0,0.0,0.2694866359233856,11.524813652038574,2.383838653564453,-48.777618408203125,0
1542.1100000000006,-0.0001078609493561089,-0.00012683594832196832,3.82757316401694e-05,0.0,0.0,0.0,0.0,-0.002590522635728121,-0.00816621445119381,0.0016146338311955333,0.9970937371253967,0.0,0.0,0.0,0.2844831645488739,11.524602890014648,2.376555919647217,-51.49201583862305,0
1551.991,-0.00017195960390381515,-0.00019985804101452231,3.857634146697819e-05,0.0,0.0,0.0,0.0,0.0011487631127238274,0.005300197750329971,0.00021133781410753727,0.9992868900299072,0.0,0.0,0.0,0.27347856760025024,11.52043628692627,2.3884143829345703,-49.50016403198242,0
1561.8770000000004,-0.00016526137187611312,-0.00019476721354294568,4.223949144943617e-05,0.0,0.0,0.0,0.0,0.0005060781259089708,-0.004005925264209509,0.0017770749982446432,0.997468113899231,0.0,0.0,0.0,0.285724401473999,11.518254280090332,2.3855860233306885,-51.71669006347656,0
1571.7740000000013,-0.00020420765213202685,-0.0002466711157467216,5.715762745239772e-05,0.0,0.0,0.0,0.0,0.00037442741449922323,0.005335717462003231,-0.002581337932497263,0.9968594908714294,0.0,0.0,0.0,0.27465879917144775,11.509490013122559,2.3898098468780518,-49.71378707885742,0
1581.661,-0.00020080208196304739,-0.00022926248493604362,6.524281343445182e-05,0.0,0.0,0.0,0.0,0.001897441572509706,0.000521786161698401,-0.0004693468799814582,0.9992678165435791,0.0,0.0,0.0,0.2866491973400116,11.509149551391602,2.376718044281006,-51.884071350097656,0
1591.5420000000013,-0.00024095406115520746,-0.00025594746693968773,9.072873217519373e-05,0.0,0.0,0.0,0.0,0.00034514855360612273,-0.0006048239883966744,0.0005035343929193914,0.9987726211547852,0.0,0.0,0.0,0.2746579349040985,11.501565933227539,2.367168426513672,-49.7136344909668,0
1601.429,-0.00019472528947517276,-0.00020978835527785122,3.0463157600024715e-05,0.0,0.0,0.0,0.0,0.0015032081864774227,0.0015464317984879017,0.004048941191285849,1.0019737482070923,0.0,0.0,0.0,0.2741888165473938,11.488641738891602,2.358588933944702,-49.62872314453125,0
1611.309000000001,-0.00022632339096162468,-0.00023897041683085263,5.597538984147832e-05,0.0,0.0,0.0,0.0,-0.0004627294256351888,-0.0008888061856850982,0.00012852017243858427,0.9997450709342957,0.0,0.0,0.0,0.26381129026412964,11.479021072387695,2.3476428985595703,-47.7503662109375,0
1621.188,-0.00026118833920918405,-0.00030943541787564754,6.301851681200787e-05,0.0,0.0,0.0,0.0,-0.0022755286190658808,-0.0005852486356161535,0.0018197603058069944,0.9979647397994995,0.0,0.0,0.0,0.26309433579444885,11.466935157775879,2.3443877696990967,-47.620601654052734,0
1631.0840000000007,-0.000290221709292382,-0.0003082772600464523,9.758341184351593e-05,0.0,0.0,0.0,0.0,-0.00013939822383690625,-0.004631158895790577,-0.0016664660070091486,0.9970345497131348,0.0,0.0,0.0,0.25376567244529724,11.47439193725586,2.3355929851531982,-45.932090759277344,0
1640.960000000001,-0.0003274467308074236,-0.00038467373815365136,0.00010542066593188792,0.0,0.0,0.0,0.0,0.0022870691027492285,-0.0012330015888437629,-0.0027950487565249205,0.9988446235656738,0.0,0.0,0.0,0.2530154287815094,11.463519096374512,2.3367812633514404,-45.796295166015625,0
1650.8450000000012,-0.0003290981985628605,-0.00040609878487885,0.00013882856001146138,0.0,0.0,0.0,0.0,0.0009266299894079566,-0.0009473845129832625,0.001758337952196598,0.9979860782623291,0.0,0.0,0.0,0.24416989088058472,11.464560508728027,2.341269016265869,-44.19523620605469,0
1660.7400000000016,-0.00021307570568751544,-0.00024285164545290172,-4.9656631745165214e-05,0.0,0.0,0.0,0.0,-0.0005365455290302634,0.002006647177040577,-0.0014697050210088491,1.0000721216201782,0.0,0.0,0.0,0.2676753103733063,11.498446464538574,2.363939046859741,-48.44976043701172,0
1670.6190000000006,-0.00023231151863001287,-0.0002499359252396971,-1.4203191312844865e-05,0.0,0.0,0.0,0.0,-0.0011516481172293425,0.0026109786704182625,0.0017547665629535913,1.0000851154327393,0.0,0.0,0.0,0.2600856125354767,11.501514434814453,2.3567888736724854,-47.076011657714844,0
1680.5060000000012,-0.00023290450917556882,-0.00022640930546913296,-1.43269426189363e-05,0.0,0.0,0.0,0.0,0.0014317455934360623,0.0023693256080150604,0.0013213548809289932,0.9996015429496765,0.0,0.0,0.0,0.277499258518219,11.505967140197754,2.3580322265625,-50.2279167175293,0
1690.389000000001,-0.00025290585472248495,-0.0002553446975070983,1.540511402708944e-05,0.0,0.0,0.0,0.0,-0.0005593255045823753,0.003879424650222063,-0.0007002922357060015,1.0003255605697632,0.0,0.0,0.0,0.26726192235946655,11.495774269104004,2.350553274154663,-48.37493896484375,0
1700.2790000000005,-0.0001836905285017565,-0.00013977757771499455,-5.993651211610995e-05,0.0,0.0,0.0,0.0,0.0012332132318988442,-0.0016002231277525425,0.0021509695798158646,0.9993169903755188,0.0,0.0,0.0,0.2811638414859772,11.51180648803711,2.354435443878174,-50.89120864868164,0
1710.1580000000013,-0.00017253172700293362,-0.00021153759735170752,-4.500827708397992e-05,0.0,0.0,0.0,0.0,0.0013204972492530942,0.003189170267432928,-0.0018440288258716464,0.9988082647323608,0.0,0.0,0.0,0.2746795117855072,11.494918823242188,2.35630464553833,-49.71753692626953,0
1720.0460000000003,-0.00020038531511090696,-0.00028345861937850714,-4.509948848863132e-05,0.0,0.0,0.0,0.0,0.0016833916306495667,0.002237537642940879,0.0010515484027564526,0.9997736215591431,0.0,0.0,0.0,0.2738685607910156,11.476042747497559,2.3444406986236572,-49.57075881958008,0
1729.9350000000013,-0.0002385161496931687,-0.0002893360797315836,-2.056389166682493e-05,0.0,0.0,0.0,0.0,-0.0007587338914163411,0.002007021801546216,0.0029627266339957714,0.9980887770652771,0.0,0.0,0.0,0.26002073287963867,11.478567123413086,2.326488494873047,-47.064266204833984,0
1739.8140000000003,-0.00017647304048296064,-0.00019855824939440936,-0.00010756139818113297,0.0,0.0,0.0,0.0,-0.00023117683304008096,0.0028906979132443666,-0.0010117539204657078,0.9986952543258667,0.0,0.0,0.0,0.28083890676498413,11.496706008911133,2.3369431495666504,-50.8323974609375,0
1749.7040000000015,-0.00011679214367177337,-0.00024025583115871996,-6.231211591511965e-05,0.0,0.0,0.0,0.0,0.002144365571439266,0.0024168347008526325,-0.0011367007391527295,0.9991080164909363,0.0,0.0,0.0,0.27078500390052795,11.493607521057129,2.3467047214508057,-49.01262664794922,0
1759.5830000000005,-8.371776493731886e-05,-0.00019224995048716664,-0.00010211188782704994,0.0,0.0,0.0,0.0,0.0008679054444655776,0.004676485899835825,0.0009029633947648108,0.998909056186676,0.0,0.0,0.0,0.2896866500377655,11.500384330749512,2.3559072017669678,-52.43386459350586,0
1769.4800000000014,-8.092454663710669e-05,-0.00022717071988154203,-7.333342364290729e-05,0.0,0.0,0.0,0.0,-0.0007142187678255141,-0.007872655987739563,0.0003034539404325187,0.9989291429519653,0.0,0.0,0.0,0.2764647901058197,11.494236946105957,2.351306915283203,-50.04067611694336,0
1779.3580000000002,-5.8239449572283775e-05,-0.00018142473709303886,-9.156175656244159e-05,0.0,0.0,0.0,0.0,0.0012787093874067068,0.00466436892747879,-0.004629622213542461,1.0027142763137817,0.0,0.0,0.0,0.29971903562545776,11.504202842712402,2.381154775619507,-54.24974060058594,0
1789.241,-0.0001549350708955899,-0.00019405659986659884,-9.170708653982729e-05,0.0,0.0,0.0,0.0,-0.0011050550965592265,0.002231816528365016,-0.000796172593254596,1.0003259181976318,0.0,0.0,0.0,0.2986530065536499,11.488340377807617,2.376859426498413,-54.05678939819336,0
1799.1240000000016,-0.00012613710714504123,-0.00014357092732097954,-0.0001165711582871154,0.0,0.0,0.0,0.0,0.0009029825450852513,-0.0017392077716067433,0.0007217286620289087,1.0005110502243042,0.0,0.0,0.0,0.31378859281539917,11.497119903564453,2.385871171951294,-56.79636001586914,0
1809.009,-0.00015911718946881592,-0.00018955208361148834,-0.00010669750918168575,0.0,0.0,0.0,0.0,0.0022157763596624136,0.006227617617696524,-0.0019340121652930975,0.9999921917915344,0.0,0.0,0.0,0.3057350516319275,11.491546630859375,2.385002851486206,-55.338653564453125,0
1818.9040000000005,-0.00017234025290235877,-0.0002162547898478806,-9.310916357208043e-05,0.0,0.0,0.0,0.0,0.0021542110480368137,0.004538089036941528,-0.00035348604433238506,0.9979737401008606,0.0,0.0,0.0,0.3044845461845398,11.477636337280273,2.369433641433716,-55.112308502197266,0
1828.7870000000003,-0.00019610939489211887,-0.00022365342010743916,-6.0499827668536454e-05,0.0,0.0,0.0,0.0,0.0011287539964541793,-0.0007902797078713775,-0.0003482995671220124,0.9984822869300842,0.0,0.0,0.0,0.2936916649341583,11.473210334777832,2.3506898880004883,-53.158775329589844,0
1838.67,-0.00014491128968074918,-0.00014787112013436854,-0.00010078667401103303,0.0,0.0,0.0,0.0,0.0037001005839556456,0.0007469778647646308,-0.0010963844833895564,0.9969391822814941,0.0,0.0,0.0,0.3043217658996582,11.478023529052734,2.356285810470581,-55.082847595214844,0
1848.5520000000015,-0.00018912286031991243,-0.0001772013638401404,-8.631681703263894e-05,0.0,0.0,0.0,0.0,0.00040166868711821735,0.0025433520786464214,-0.0022841983009129763,0.9998400211334229,0.0,0.0,0.0,0.29109078645706177,11.466073036193848,2.3454036712646484,-52.688011169433594,0
1858.4360000000015,-0.00014646594354417175,-0.00011030194582417607,-0.00011841796367662027,0.0,0.0,0.0,0.0,0.000422476208768785,0.006051615346223116,-0.0013188004959374666,0.9995213150978088,0.0,0.0,0.0,0.3064858913421631,11.469991683959961,2.3478431701660156,-55.47455596923828,0
1868.3280000000013,-0.00021230679703876376,-0.00014960081898607314,-0.0001167694281321019,0.0,0.0,0.0,0.0,0.0027004096191376448,0.00458482326939702,-8.372320007765666e-05,0.9998202323913574,0.0,0.0,0.0,0.29538166522979736,11.460972785949707,2.3285298347473145,-53.46466827392578,0
1878.2070000000003,-0.0002389982109889388,-0.0002206371573265642,-0.00011690970859490335,0.0,0.0,0.0,0.0,0.0015227264957502484,-0.002388837980106473,-0.0026018591597676277,1.000461459159851,0.0,0.0,0.0,0.2954990565776825,11.443596839904785,2.3188276290893555,-53.48591995239258,0
1888.0970000000016,-0.00022551258734893054,-0.000229451252380386,-8.63842578837648e-05,0.0,0.0,0.0,0.0,-0.0007183784036897123,0.006011765915900469,0.001044972101226449,0.9996561408042908,0.0,0.0,0.0,0.284496933221817,11.441920280456543,2.3218157291412354,-51.494510650634766,0
1897.9880000000012,-0.00021624326473101974,-0.00022469263058155775,-0.00010647855378920212,0.0,0.0,0.0,0.0,0.00046445633051916957,-0.00021456071408465505,0.0003841619472950697,1.0006604194641113,0.0,0.0,0.0,0.28463926911354065,11.426929473876953,2.3022611141204834,-51.52027130126953,0
1907.8630000000012,-0.00023838689958211035,-0.00022654043277725577,-6.707046122755855e-05,0.0,0.0,0.0,0.0,-0.000158292954438366,-0.002460436662659049,-0.00034757054527290165,0.9981486797332764,0.0,0.0,0.0,0.2723769247531891,11.422918319702148,2.298482894897461,-49.3007698059082,0
1917.7510000000002,-0.00025167991407215595,-0.0002436027571093291,-5.398952271207236e-05,0.0,0.0,0.0,0.0,-0.0011240419698879123,-0.0013741381699219346,0.0021272669546306133,0.9999140501022339,0.0,0.0,0.0,0.2860821783542633,11.418585777282715,2.303461790084839,-51.78144073486328,0
1927.634,-0.00026181922294199467,-0.00025947095127776265,-1.1743983122869395e-05,0.0,0.0,0.0,0.0,0.001885817851871252,0.0033712717704474926,0.0019914826843887568,1.001405954360962,0.0,0.0,0.0,0.2746599614620209,11.424644470214844,2.3045425415039062,-49.7140007019043,0
1937.518,-0.0002566338225733489,-0.00024026198661886156,-1.2326085197855718e-05,0.0,0.0,0.0,0.0,-0.002034340286627412,-0.0039634183049201965,-0.003027638653293252,1.0001676082611084,0.0,0.0,0.0,0.2894349694252014,11.425448417663574,2.30155086517334,-52.388309478759766,0
1947.4060000000009,-0.0002652810944709927,-0.0002790716534946114,2.61719869740773e-05,0.0,0.0,0.0,0.0,0.0001237759570358321,0.006770655978471041,-0.00021040950377937406,0.9994638562202454,0.0,0.0,0.0,0.27696773409843445,11.424571990966797,2.3115487098693848,-50.131710052490234,0
1957.2900000000009,-0.00024210644187405705,-0.00024576770374551415,6.220920568011934e-06,0.0,0.0,0.0,0.0,-0.0014869226142764091,-0.0006207223632372916,-0.0023439256474375725,1.001343011856079,0.0,0.0,0.0,0.2865215539932251,11.429055213928223,2.309931516647339,-51.86096954345703,0
1967.1779999999999,-0.00018974472186528146,-0.0003440215368755162,4.648915637517348e-05,0.0,0.0,0.0,0.0,-0.0007989484001882374,-0.000777068140450865,-0.001243902021087706,0.9982701539993286,0.0,0.0,0.0,0.2716476321220398,11.421735763549805,2.3224031925201416,-49.168758392333984,0
1977.0650000000005,-0.00012281074305064976,-0.000244049311731942,-3.6804649425903335e-06,0.0,0.0,0.0,0.0,-0.0012076667044311762,-0.0011500436812639236,-0.0005529775517061353,0.9975946545600891,0.0,0.0,0.0,0.2914723753929138,11.438461303710938,2.343733072280884,-52.757076263427734,0
1986.9450000000015,-0.0001368798693874851,-0.0003247753484174609,1.7948661479749717e-05,0.0,0.0,0.0,0.0,0.00016071629943326116,0.004330086056143045,-0.0028512871358543634,0.9978209733963013,0.0,0.0,0.0,0.2751815915107727,11.431197166442871,2.3481695652008057,-49.808414459228516,0
1996.83,-8.409294241573662e-05,-0.00024263049999717623,-2.279363434354309e-05,0.0,0.0,0.0,0.0,0.00044070702278986573,-0.0006650709547102451,0.0031900189351290464,0.9978886842727661,0.0,0.0,0.0,0.2924199104309082,11.442095756530762,2.3548107147216797,-52.928585052490234,0
2006.7160000000003,-8.725609222892672e-05,-0.0003090501995757222,-1.000075826596003e-06,0.0,0.0,0.0,0.0,0.0011767226969823241,0.0024214822333306074,-0.0008306833915412426,0.998633086681366,0.0,0.0,0.0,0.284132719039917,11.432535171508789,2.3570261001586914,-51.428585052490234,0
2016.6040000000012,-4.893042932962999e-05,-0.00025709401234053075,-3.244081381126307e-05,0.0,0.0,0.0,0.0,-4.501879448071122e-05,-0.004948001820594072,0.0016599883092567325,0.9982140064239502,0.0,0.0,0.0,0.30368727445602417,11.437220573425293,2.362356424331665,-54.96799850463867,0
2026.4860000000008,-8.98322177818045e-05,-0.000314944249112159,-2.097336619044654e-05,0.0,0.0,0.0,0.0,0.0006365025183185935,-0.00218675984069705,0.0017432289896532893,0.9992976784706116,0.0,0.0,0.0,0.2905769348144531,11.429553031921387,2.3666598796844482,-52.59500503540039,0
2036.3760000000002,-4.1491861338727176e-05,-0.00026728305965662,-7.516289042541757e-05,0.0,0.0,0.0,0.0,-0.0014608672354370356,0.001131302211433649,-0.005191067233681679,1.0000625848770142,0.0,0.0,0.0,0.30368664860725403,11.429357528686523,2.376802444458008,-54.96788787841797,0
2046.2600000000002,-0.00012610664998646826,-0.00024362673866562545,-5.106452226755209e-05,0.0,0.0,0.0,0.0,-0.002252874430269003,0.002387689659371972,0.0011209463700652122,0.9988887906074524,0.0,0.0,0.0,0.2906809449195862,11.43389892578125,2.3586645126342773,-52.61383056640625,0
2056.1420000000016,-0.00015348631131928414,-0.0003242706006858498,-5.047033846494742e-05,0.0,0.0,0.0,0.0,-0.0004367958754301071,-0.0004015371960122138,-0.0029793644789606333,1.0011624097824097,0.0,0.0,0.0,0.2917684316635132,11.425603866577148,2.3569912910461426,-52.8106689453125,0
2066.036,-0.00016400928143411875,-0.00031431118259206414,-1.514725954621099e-05,0.0,0.0,0.0,0.0,-0.001555225346237421,-0.001803122111596167,0.0009655967587605119,1.0003907680511475,0.0,0.0,0.0,0.28190669417381287,11.437516212463379,2.3565120697021484,-51.025672912597656,0
2075.9140000000007,-0.00010635915532475337,-0.0002327021211385727,-8.579093992011622e-05,0.0,0.0,0.0,0.0,0.003781365230679512,0.0040534487925469875,0.001177833997644484,1.000055193901062,0.0,0.0,0.0,0.2974626421928406,11.463043212890625,2.375300168991089,-53.84132766723633,0
2085.7970000000005,-0.00018539758457336575,-0.00023238584981299937,-6.433857197407633e-05,0.0,0.0,0.0,0.0,0.0013600649544969201,0.0006466561462730169,-0.001647764933295548,1.0005720853805542,0.0,0.0,0.0,0.28564324975013733,11.467955589294434,2.3646349906921387,-51.70199966430664,0
2095.687,-0.00019954750314354897,-0.0002534214872866869,-5.442076871986501e-05,0.0,0.0,0.0,0.0,0.0001252317742910236,0.0006191247957758605,-0.0018088732613250613,0.9997236132621765,0.0,0.0,0.0,0.30472812056541443,11.46564769744873,2.3727080821990967,-55.15639877319336,0
