timestamp,stateEstimate.x,stateEstimate.y,stateEstimate.z,controller.cmd_thrust,controller.cmd_roll,controller.cmd_pitch,controller.cmd_yaw,controller.r_roll,controller.r_pitch,controller.r_yaw,controller.accelz,controller.actuatorThrust,controller.roll,controller.pitch,controller.yaw,controller.rollRate,controller.pitchRate,controller.yawRate,controller.ctr_yaw
0.0,0.04451674968004227,-0.020344188436865807,0.0004538737121038139,0.0,0.0,0.0,0.0,-0.0018131834222003818,-0.005668172612786293,-0.0018599345348775387,0.9983977675437927,0.0,0.0,0.0,-10.141273498535156,4.704972267150879,-8.411070823669434,1835.5906982421875,0
9.884000000000015,0.04444124922156334,-0.02021019533276558,0.0005074207438156009,0.0,0.0,0.0,0.0,0.0018621385097503662,2.7463571314001456e-05,-0.0022816427517682314,0.9987040162086487,0.0,0.0,0.0,-10.199496269226074,4.775445938110352,-8.466967582702637,1846.129150390625,0
19.760999999998603,0.04445812106132507,-0.020237138494849205,0.0004800581082236022,0.0,0.0,0.0,0.0,-0.00399261899292469,0.002135313581675291,0.0013607100117951632,0.9980761408805847,0.0,0.0,0.0,-10.189376831054688,4.765807151794434,-8.46024227142334,1844.29736328125,0
29.653999999998632,0.04442977532744408,-0.020146790891885757,0.0005190762458369136,0.0,0.0,0.0,0.0,0.0035111980978399515,-0.0013161007082089782,-0.0035017626360058784,0.996855616569519,0.0,0.0,0.0,-10.247902870178223,4.809465408325195,-8.505629539489746,1854.890869140625,0
39.53199999999924,0.04460938274860382,-0.01980919949710369,0.0002802239323500544,0.0,0.0,0.0,0.0,0.0016124177491292357,-0.001508245593868196,-0.00021930321236141026,0.9976606965065002,0.0,0.0,0.0,-10.201156616210938,4.911989688873291,-8.473237037658691,1846.4295654296875,0
49.42699999999968,0.04458083212375641,-0.019836077466607094,0.0002357192279305309,0.0,0.0,0.0,0.0,0.0025209360755980015,-0.0033880292903631926,0.00028613454196602106,0.9996864795684814,0.0,0.0,0.0,-10.252474784851074,4.899035930633545,-8.464631080627441,1855.7183837890625,0
59.300999999999476,0.04461406543850899,-0.019602414220571518,0.0003981164190918207,0.0,0.0,0.0,0.0,-0.0014588769990950823,-0.00030887662433087826,2.08062137971865e-05,1.0001587867736816,0.0,0.0,0.0,-10.215578079223633,4.924931526184082,-8.451249122619629,1849.039794921875,0
69.1979999999985,0.044607508927583694,-0.019752193242311478,0.0003171972930431366,0.0,0.0,0.0,0.0,-0.003898893715813756,-0.002123280894011259,-0.0021564927883446217,0.9994483590126038,0.0,0.0,0.0,-10.264693260192871,4.904654502868652,-8.445016860961914,1857.9298095703125,0
79.07499999999891,0.044646866619586945,-0.019528307020664215,0.00044680791324935853,0.0,0.0,0.0,0.0,0.00032553679193370044,0.0030570642556995153,0.002555156359449029,0.9999979734420776,0.0,0.0,0.0,-10.214576721191406,4.931540489196777,-8.42389965057373,1848.858642578125,0
88.97399999999834,0.04462195560336113,-0.019712695851922035,0.00035828855470754206,0.0,0.0,0.0,0.0,0.00213735643774271,-0.0005496678058989346,0.0023712569382041693,1.0008097887039185,0.0,0.0,0.0,-10.264628410339355,4.905865669250488,-8.4273099899292,1857.9180908203125,0
98.84699999999975,0.04464840888977051,-0.01949102245271206,0.000511345686390996,0.0,0.0,0.0,0.0,0.0016712432261556387,-0.001950716250576079,0.00020078856323380023,0.9974157214164734,0.0,0.0,0.0,-10.223522186279297,4.914217948913574,-8.419846534729004,1850.4779052734375,0
108.74599999999919,0.04461934417486191,-0.01970692165195942,0.00041894408059306443,0.0,0.0,0.0,0.0,-0.0024223565123975277,-0.0018014146480709314,0.0007886678795330226,0.9966543316841125,0.0,0.0,0.0,-10.268085479736328,4.889358997344971,-8.411211967468262,1858.5438232421875,0
118.61299999999937,0.04464726522564888,-0.019505318254232407,0.000562267960049212,0.0,0.0,0.0,0.0,-0.0009183909278362989,-0.003290311200544238,-0.001026086276397109,0.9993528127670288,0.0,0.0,0.0,-10.231914520263672,4.9061079025268555,-8.400059700012207,1851.9969482421875,0
128.5069999999996,0.04460444301366806,-0.01973091810941696,0.00046734497300349176,0.0,0.0,0.0,0.0,0.0006101618055254221,0.005377084948122501,-0.0005510023911483586,0.9997984766960144,0.0,0.0,0.0,-10.281055450439453,4.885767459869385,-8.380243301391602,1860.891357421875,0
138.3849999999984,0.04465581104159355,-0.019487552344799042,0.0005964547162875533,0.0,0.0,0.0,0.0,-0.0005616986309178174,-0.0004922321531921625,-0.003831941168755293,0.9994104504585266,0.0,0.0,0.0,-10.237446784973145,4.906407356262207,-8.391590118408203,1852.998291015625,0
148.27499999999964,0.04461377486586571,-0.019719617441296577,0.000500405440106988,0.0,0.0,0.0,0.0,-0.0017623130697757006,-0.00042482136632315814,-0.002513113897293806,0.9984580874443054,0.0,0.0,0.0,-10.282445907592773,4.879298686981201,-8.383666038513184,1861.14306640625,0
158.16199999999844,0.04466516524553299,-0.019478723406791687,0.0006272189202718437,0.0,0.0,0.0,0.0,0.001043681986629963,0.00012819093535654247,0.0025533363223075867,0.9974849820137024,0.0,0.0,0.0,-10.244256019592285,4.906003952026367,-8.372801780700684,1854.2308349609375,0
168.05199999999968,0.04462027922272682,-0.019722042605280876,0.0005263061029836535,0.0,0.0,0.0,0.0,0.000527832773514092,-0.001580416108481586,0.0020623933523893356,0.9974135160446167,0.0,0.0,0.0,-10.286004066467285,4.878484725952148,-8.370992660522461,1861.787353515625,0
177.93199999999888,0.044690199196338654,-0.01948639005422592,0.0006134753348305821,0.0,0.0,0.0,0.0,-0.0003838243428617716,0.0028472968842834234,0.005568462423980236,0.9994214773178101,0.0,0.0,0.0,-10.240071296691895,4.906018257141113,-8.360567092895508,1853.473388671875,0
187.8239999999987,0.044610437005758286,-0.019692596048116684,0.0005119532579556108,0.0,0.0,0.0,0.0,-4.008055475424044e-05,-0.001979564083740115,-0.0009869131026789546,0.9996748566627502,0.0,0.0,0.0,-10.279499053955078,4.880175590515137,-8.363822937011719,1860.60986328125,0
197.6929999999993,0.044656310230493546,-0.01945481263101101,0.0006467480561695993,0.0,0.0,0.0,0.0,0.00015831062046345323,-0.00363965448923409,0.0011845414992421865,0.9977608919143677,0.0,0.0,0.0,-10.242459297180176,4.90622615814209,-8.357169151306152,1853.905517578125,0
207.58599999999933,0.04460614174604416,-0.019728992134332657,0.0005336431204341352,0.0,0.0,0.0,0.0,0.0016135675832629204,0.006284612230956554,-0.0016772750532254577,0.9985156655311584,0.0,0.0,0.0,-10.286030769348145,4.868862152099609,-8.351908683776855,1861.7921142578125,0
217.46199999999953,0.044639650732278824,-0.019535299390554428,0.0006728613516315818,0.0,0.0,0.0,0.0,0.0031978250481188297,0.0013231856282800436,-2.7954431516263867e-06,0.998698890209198,0.0,0.0,0.0,-10.241225242614746,4.887727737426758,-8.360408782958984,1853.68212890625,0
227.36299999999937,0.04459035024046898,-0.01977013237774372,0.0005775648169219494,0.0,0.0,0.0,0.0,-0.003510198788717389,0.0013799418229609728,-0.0009782776469364762,0.9974682927131653,0.0,0.0,0.0,-10.282821655273438,4.851506233215332,-8.360708236694336,1861.2110595703125,0
237.24099999999999,0.04468197375535965,-0.019512413069605827,0.0006514800479635596,0.0,0.0,0.0,0.0,0.0011461521498858929,-0.0023125933948904276,-0.002325392095372081,0.9989749789237976,0.0,0.0,0.0,-10.238465309143066,4.892154693603516,-8.348770141601562,1853.1826171875,0
247.137999999999,0.04463586211204529,-0.019776247441768646,0.0005412993486970663,0.0,0.0,0.0,0.0,0.0010234456276521087,-0.0027386494912207127,-0.0014985452871769667,0.9973204731941223,0.0,0.0,0.0,-10.278964042663574,4.851840019226074,-8.343049049377441,1860.512939453125,0
257.0019999999986,0.044678959995508194,-0.019797667860984802,0.0005312997382134199,0.0,0.0,0.0,0.0,0.0005599842988885939,0.00580759160220623,-0.0017680408200249076,0.999788224697113,0.0,0.0,0.0,-10.269614219665527,4.844781398773193,-8.329483985900879,1858.8204345703125,0
266.90200000000004,0.04459430277347565,-0.019890811294317245,0.0004784055636264384,0.0,0.0,0.0,0.0,0.0015180811751633883,0.004710479639470577,-0.003062788164243102,0.9997307062149048,0.0,0.0,0.0,-10.304198265075684,4.8177266120910645,-8.349580764770508,1865.0804443359375,0
276.771999999999,0.04470576345920563,-0.019619017839431763,0.0005309777334332466,0.0,0.0,0.0,0.0,0.0005685911746695638,-0.0021233458537608385,-0.00014870282029733062,0.9998139142990112,0.0,0.0,0.0,-10.262101173400879,4.865005016326904,-8.34946060180664,1857.460693359375,0
286.67199999999866,0.04463838413357735,-0.019777191802859306,0.00044161779806017876,0.0,0.0,0.0,0.0,0.0024724272079765797,0.003516780911013484,0.0015250019496306777,1.000234842300415,0.0,0.0,0.0,-10.30194091796875,4.834077835083008,-8.346982955932617,1864.671875,0
296.54199999999946,0.04467771202325821,-0.019566815346479416,0.0006033016252331436,0.0,0.0,0.0,0.0,0.0010826375801116228,-0.005826080217957497,0.0019132504239678383,1.0003739595413208,0.0,0.0,0.0,-10.258760452270508,4.862927436828613,-8.352726936340332,1856.8560791015625,0
306.4479999999985,0.04462771862745285,-0.01982535421848297,0.0004841746995225549,0.0,0.0,0.0,0.0,0.002705079037696123,-0.0009647619444876909,0.0008071349584497511,1.0009682178497314,0.0,0.0,0.0,-10.295891761779785,4.825362682342529,-8.330979347229004,1863.5770263671875,0
316.3119999999999,0.04472555220127106,-0.019564906135201454,0.0005696154548786581,0.0,0.0,0.0,0.0,-0.002474418841302395,-0.0016315642278641462,0.0019967437256127596,1.000171422958374,0.0,0.0,0.0,-10.25686264038086,4.859657287597656,-8.31692886352539,1856.5125732421875,0
326.21099999999933,0.044655691832304,-0.019816208630800247,0.00044979702215641737,0.0,0.0,0.0,0.0,-0.0029347047675400972,-0.0022947415709495544,0.00018366456788498908,0.9979857802391052,0.0,0.0,0.0,-10.293704986572266,4.821788787841797,-8.311246871948242,1863.1810302734375,0
336.08699999999953,0.04476172849535942,-0.01951233670115471,0.0005432248581200838,0.0,0.0,0.0,0.0,-0.0034513543359935284,-0.000546713825315237,-0.0016956256004050374,0.9973691701889038,0.0,0.0,0.0,-10.252349853515625,4.873517036437988,-8.28958797454834,1855.69580078125,0
345.98399999999856,0.044694870710372925,-0.019759977236390114,0.00042800011578947306,0.0,0.0,0.0,0.0,-0.00031005850178189576,0.005441829562187195,0.002029193565249443,0.9979122281074524,0.0,0.0,0.0,-10.285924911499023,4.834853649139404,-8.289790153503418,1861.7730712890625,0
355.86099999999897,0.0447612963616848,-0.019537219777703285,0.0005328481202013791,0.0,0.0,0.0,0.0,-6.184423546073958e-05,-0.003028704784810543,-0.0007760014268569648,0.9994615912437439,0.0,0.0,0.0,-10.242718696594238,4.868565082550049,-8.299491882324219,1853.952392578125,0
365.7479999999996,0.044677022844552994,-0.01978418044745922,0.00041119378875009716,0.0,0.0,0.0,0.0,0.002497943351045251,0.00255035562440753,0.0006734869093634188,0.9983081221580505,0.0,0.0,0.0,-10.277020454406738,4.830222129821777,-8.307190895080566,1860.1610107421875,0
375.6229999999996,0.04473349079489708,-0.019550329074263573,0.0005415243795141578,0.0,0.0,0.0,0.0,-0.003792713163420558,-0.007771388627588749,0.002132926369085908,0.9978232383728027,0.0,0.0,0.0,-10.243584632873535,4.868929862976074,-8.310978889465332,1854.1092529296875,0
385.52299999999923,0.044667452573776245,-0.0197420883923769,0.0004497542977333069,0.0,0.0,0.0,0.0,0.0017263463232666254,0.001660178299061954,-0.0003401082940399647,1.001142978668213,0.0,0.0,0.0,-10.27988052368164,4.838846683502197,-8.306343078613281,1860.6788330078125,0
395.3919999999998,0.04473762959241867,-0.019518781453371048,0.0005549257039092481,0.0,0.0,0.0,0.0,-0.0007392730913124979,-0.0021650607232004404,0.0005420375964604318,1.0001904964447021,0.0,0.0,0.0,-10.2444486618042,4.8688154220581055,-8.307723999023438,1854.265625,0
405.3009999999995,0.04465721547603607,-0.01969788782298565,0.0004637602251023054,0.0,0.0,0.0,0.0,0.002689395099878311,-0.00292429281398654,0.0005676702130585909,0.998624861240387,0.0,0.0,0.0,-10.27614688873291,4.840826988220215,-8.30510425567627,1860.0029296875,0
415.16799999999967,0.044703248888254166,-0.0194871686398983,0.0006067341309972107,0.0,0.0,0.0,0.0,-0.0017565467860549688,0.0031415517441928387,-0.0004170732863713056,0.9980176687240601,0.0,0.0,0.0,-10.242542266845703,4.873573303222656,-8.298285484313965,1853.9205322265625,0
425.0629999999983,0.04464526101946831,-0.01969365030527115,0.0005166084738448262,0.0,0.0,0.0,0.0,-0.0007167448056861758,0.0033747414126992226,0.00014237624418456107,0.9989784359931946,0.0,0.0,0.0,-10.273046493530273,4.841371059417725,-8.310023307800293,1859.4417724609375,0
434.9359999999997,0.044675376266241074,-0.019543034955859184,0.000652677787002176,0.0,0.0,0.0,0.0,0.0025183730758726597,-0.004692567978054285,0.001129632000811398,0.996685802936554,0.0,0.0,0.0,-10.232906341552734,4.8694682121276855,-8.316061973571777,1852.176513671875,0
444.8399999999983,0.044597987085580826,-0.019747506827116013,0.0005592451780103147,0.0,0.0,0.0,0.0,2.708216015889775e-05,-0.0006643914966844022,-0.00027740508085116744,0.996462345123291,0.0,0.0,0.0,-10.262435913085938,4.824105739593506,-8.31115436553955,1857.521240234375,0
454.7019999999993,0.04461272433400154,-0.019604556262493134,0.0007120042573660612,0.0,0.0,0.0,0.0,-0.0014694397104904056,-0.0007413512212224305,0.0005189621006138623,0.9996609091758728,0.0,0.0,0.0,-10.225160598754883,4.84054708480835,-8.31152629852295,1850.7744140625,0
464.6139999999996,0.044559501111507416,-0.019819162786006927,0.0006239284994080663,0.0,0.0,0.0,0.0,-0.00197960645891726,-0.002118482952937484,0.00041746263741515577,1.0005011558532715,0.0,0.0,0.0,-10.257481575012207,4.805402755737305,-8.306439399719238,1856.6246337890625,0
523.9069999999992,0.04468337446451187,-0.01971731334924698,0.0005488073220476508,0.0,0.0,0.0,0.0,-0.00015057802374940366,0.0024093808606266975,0.00124046066775918,1.0004886388778687,0.0,0.0,0.0,-10.266621589660645,4.81306791305542,-8.25537109375,1858.2789306640625,0
533.7879999999986,0.044744085520505905,-0.01949881762266159,0.0006778383394703269,0.0,0.0,0.0,0.0,-0.003083042334765196,0.0015163604402914643,0.003143175970762968,1.0000356435775757,0.0,0.0,0.0,-10.235198020935059,4.845432758331299,-8.262639999389648,1852.5911865234375,0
543.6809999999987,0.04467807710170746,-0.019789505749940872,0.0005584830651059747,0.0,0.0,0.0,0.0,-0.0010155864292755723,-0.00021285787806846201,6.888226835144451e-06,0.9986711144447327,0.0,0.0,0.0,-10.268993377685547,4.801638603210449,-8.263737678527832,1858.708251953125,0
553.5529999999999,0.044756434857845306,-0.019534992054104805,0.0006763391429558396,0.0,0.0,0.0,0.0,-0.0009758099331520498,-0.0003404800081625581,-0.001581093412823975,0.9982753992080688,0.0,0.0,0.0,-10.233559608459473,4.846058368682861,-8.260262489318848,1852.2947998046875,0
563.4539999999997,0.044677142053842545,-0.019788337871432304,0.0005634692497551441,0.0,0.0,0.0,0.0,-0.0013185592833906412,0.00012576703738886863,-0.002694458235055208,0.998375415802002,0.0,0.0,0.0,-10.263144493103027,4.799478054046631,-8.269909858703613,1857.6494140625,0
573.3219999999983,0.04475506395101547,-0.01954365335404873,0.0006777041708119214,0.0,0.0,0.0,0.0,0.0015885909087955952,-0.003676871070638299,0.002135852351784706,1.0009105205535889,0.0,0.0,0.0,-10.228436470031738,4.844725608825684,-8.26164722442627,1851.3673095703125,0
583.2149999999983,0.0446682833135128,-0.019785532727837563,0.0005651944666169584,0.0,0.0,0.0,0.0,0.00020275310089346021,-0.0027772418688982725,-0.001931226346641779,1.0003666877746582,0.0,0.0,0.0,-10.257216453552246,4.797719478607178,-8.257627487182617,1856.5765380859375,0
593.1039999999994,0.04474533349275589,-0.0195410568267107,0.0006849619094282389,0.0,0.0,0.0,0.0,-0.0007447725511156023,0.0005128926131874323,0.0050835078582167625,0.998458206653595,0.0,0.0,0.0,-10.227692604064941,4.838194847106934,-8.2457275390625,1851.23291015625,0
602.9869999999992,0.044664524495601654,-0.019832422956824303,0.0005571276415139437,0.0,0.0,0.0,0.0,0.0016298345290124416,-0.0024265877436846495,0.0010263975709676743,0.9981073141098022,0.0,0.0,0.0,-10.259507179260254,4.79174280166626,-8.243130683898926,1856.9912109375,0
612.8729999999996,0.044737983494997025,-0.019586414098739624,0.0006872716476209462,0.0,0.0,0.0,0.0,-0.0006160888005979359,-0.003562117926776409,0.0005170202348381281,0.9998198747634888,0.0,0.0,0.0,-10.222762107849121,4.832433700561523,-8.230756759643555,1850.3402099609375,0
622.768,0.044646937400102615,-0.01979454606771469,0.0005842802347615361,0.0,0.0,0.0,0.0,0.0017958362586796284,0.0076346187852323055,-0.0007996526546776295,0.998765766620636,0.0,0.0,0.0,-10.254487037658691,4.790970325469971,-8.235076904296875,1856.08251953125,0
632.6319999999996,0.04477165639400482,-0.019499847665429115,0.0006527390796691179,0.0,0.0,0.0,0.0,-0.0010591341415420175,0.004408566281199455,0.0017882640240713954,1.0002012252807617,0.0,0.0,0.0,-10.222655296325684,4.833835124969482,-8.241972923278809,1850.3209228515625,0
642.5289999999986,0.04466180503368378,-0.019738921895623207,0.0005267434753477573,0.0,0.0,0.0,0.0,0.00057091104099527,0.00016279173723887652,-0.00017324309737887233,1.000489354133606,0.0,0.0,0.0,-10.253594398498535,4.7920989990234375,-8.260533332824707,1855.9210205078125,0
652.4029999999984,0.044802337884902954,-0.01941819116473198,0.0005793403252027929,0.0,0.0,0.0,0.0,0.00190542743075639,0.004814251326024532,0.0010323156602680683,0.9993917942047119,0.0,0.0,0.0,-10.219842910766602,4.8444390296936035,-8.238794326782227,1849.8118896484375,0
662.2999999999993,0.044741369783878326,-0.019697749987244606,0.000452030188171193,0.0,0.0,0.0,0.0,0.0006834401283413172,0.0004897071048617363,0.0006262399256229401,0.9982646703720093,0.0,0.0,0.0,-10.249917030334473,4.787736415863037,-8.249621391296387,1855.2554931640625,0
672.1749999999993,0.044822972267866135,-0.019462747499346733,0.0005529596237465739,0.0,0.0,0.0,0.0,0.0007204250432550907,-0.0010981609812006354,-0.0008811052539385855,1.000715732574463,0.0,0.0,0.0,-10.221202850341797,4.824886322021484,-8.247858047485352,1850.0579833984375,0
682.0659999999989,0.04473599046468735,-0.019715851172804832,0.00042665863293223083,0.0,0.0,0.0,0.0,0.0004249219491612166,-0.0034409041982144117,0.0011970250634476542,0.998129665851593,0.0,0.0,0.0,-10.251891136169434,4.778519153594971,-8.248969078063965,1855.6126708984375,0
691.9459999999999,0.04482032731175423,-0.019467810168862343,0.0005323030054569244,0.0,0.0,0.0,0.0,0.001752538955770433,0.0013943641679361463,-0.0014401039807125926,0.9977443218231201,0.0,0.0,0.0,-10.215326309204102,4.820699691772461,-8.238836288452148,1848.994384765625,0
701.8429999999989,0.04474051669239998,-0.019720064476132393,0.000407104758778587,0.0,0.0,0.0,0.0,-0.0025651552714407444,-0.006236914545297623,-0.002300350461155176,0.9996402263641357,0.0,0.0,0.0,-10.246700286865234,4.770263671875,-8.251672744750977,1854.6732177734375,0
711.7129999999997,0.04476923123002052,-0.01954282447695732,0.0005694025312550366,0.0,0.0,0.0,0.0,-0.0026587205938994884,0.0040811956860125065,-0.0009607119718566537,0.9991727471351624,0.0,0.0,0.0,-10.211474418640137,4.8050642013549805,-8.2507905960083,1848.2969970703125,0
721.6049999999996,0.04467153921723366,-0.019737863913178444,0.0004631709598470479,0.0,0.0,0.0,0.0,-0.0014271731488406658,-0.0021941401064395905,-0.00021036056568846107,1.0002772808074951,0.0,0.0,0.0,-10.241247177124023,4.771688938140869,-8.26363754272461,1853.686279296875,0
731.4879999999994,0.0447225496172905,-0.019540928304195404,0.0005996514810249209,0.0,0.0,0.0,0.0,0.0015554538695141673,-0.001962150912731886,0.0015569181414321065,0.9994407296180725,0.0,0.0,0.0,-10.209426879882812,4.806118965148926,-8.259283065795898,1847.9266357421875,0
741.3779999999988,0.04466601833701134,-0.019726047292351723,0.0005159791908226907,0.0,0.0,0.0,0.0,0.0013549701543524861,0.003095390275120735,0.0007059025811031461,0.9988340735435486,0.0,0.0,0.0,-10.237869262695312,4.767317771911621,-8.243764877319336,1853.0748291015625,0
751.2519999999986,0.04471758380532265,-0.01954098790884018,0.000644780055154115,0.0,0.0,0.0,0.0,0.0028634180780500174,-1.2116999641875736e-05,0.0004706772160716355,0.9997491836547852,0.0,0.0,0.0,-10.20630931854248,4.799320697784424,-8.244443893432617,1847.3621826171875,0
761.155999999999,0.044621773064136505,-0.019686343148350716,0.0005693560233339667,0.0,0.0,0.0,0.0,-0.0028148822020739317,0.007396686356514692,-0.0013984249671921134,0.9971127510070801,0.0,0.0,0.0,-10.238469123840332,4.769136428833008,-8.254229545593262,1853.183349609375,0
771.0249999999996,0.0447077751159668,-0.01946275494992733,0.0006616956670768559,0.0,0.0,0.0,0.0,0.0035781196784228086,-0.0007197211380116642,0.0011979517294093966,0.9966912269592285,0.0,0.0,0.0,-10.204326629638672,4.8138346672058105,-8.258804321289062,1847.00341796875,0
780.9189999999999,0.044643376022577286,-0.01969132572412491,0.0005614530527964234,0.0,0.0,0.0,0.0,0.0023746539372950792,0.0014540154952555895,0.001854405039921403,0.999276340007782,0.0,0.0,0.0,-10.234901428222656,4.767900466918945,-8.265384674072266,1852.53759765625,0
790.7929999999997,0.044702399522066116,-0.01949925161898136,0.0006836135871708393,0.0,0.0,0.0,0.0,-0.000757165311370045,-0.004053704906255007,-0.0008151151705533266,0.9980378150939941,0.0,0.0,0.0,-10.205339431762695,4.798463821411133,-8.270230293273926,1847.186767578125,0
800.6889999999985,0.04461250826716423,-0.019749268889427185,0.0005674724816344678,0.0,0.0,0.0,0.0,-0.000732606858946383,-0.003171026473864913,0.00015230734425131232,0.9993851184844971,0.0,0.0,0.0,-10.235573768615723,4.755171775817871,-8.266511917114258,1852.6593017578125,0
810.5639999999985,0.044678449630737305,-0.019540302455425262,0.0006877511041238904,0.0,0.0,0.0,0.0,-1.029613758873893e-05,-0.0009100271272473037,-0.00040011294186115265,0.9986056685447693,0.0,0.0,0.0,-10.197665214538574,4.792770862579346,-8.25741195678711,1845.7977294921875,0
820.4589999999989,0.044638149440288544,-0.01982761174440384,0.000573529046960175,0.0,0.0,0.0,0.0,0.0024587532971054316,-0.0010918258922174573,-0.0002814483887050301,1.0001554489135742,0.0,0.0,0.0,-10.226632118225098,4.744592666625977,-8.250060081481934,1851.040771484375,0
830.3329999999987,0.044718772172927856,-0.019609050825238228,0.0006778027163818479,0.0,0.0,0.0,0.0,0.0023361907806247473,0.0035293975379318,-0.0010916998144239187,0.9996148347854614,0.0,0.0,0.0,-10.19446086883545,4.778929710388184,-8.243171691894531,1845.2176513671875,0
840.2339999999986,0.04464051127433777,-0.019865497946739197,0.0005653999978676438,0.0,0.0,0.0,0.0,-0.00033285532845184207,-0.0015800058608874679,-0.0004979423829354346,0.9999774098396301,0.0,0.0,0.0,-10.22934627532959,4.7305827140808105,-8.252805709838867,1851.5321044921875,0
850.1029999999992,0.044720977544784546,-0.01961980201303959,0.0006882013403810561,0.0,0.0,0.0,0.0,0.00010694470984162763,0.0012755792122334242,-0.004488557111471891,0.9984044432640076,0.0,0.0,0.0,-10.192607879638672,4.7714924812316895,-8.249502182006836,1844.88232421875,0
859.9979999999996,0.04463440179824829,-0.019833819940686226,0.0005924691213294864,0.0,0.0,0.0,0.0,0.0012305208947509527,-0.000955990282818675,-0.0012290864251554012,0.9986624121665955,0.0,0.0,0.0,-10.22681999206543,4.7302093505859375,-8.257562637329102,1851.0748291015625,0
869.8809999999994,0.04472890496253967,-0.01957077905535698,0.000699749740306288,0.0,0.0,0.0,0.0,-0.0004924701061099768,-0.001366680022329092,-0.0024490489158779383,0.9973651766777039,0.0,0.0,0.0,-10.192261695861816,4.776937961578369,-8.249881744384766,1844.819580078125,0
879.7659999999996,0.0446520559489727,-0.01980803720653057,0.0005946474266238511,0.0,0.0,0.0,0.0,0.00033081849687732756,-0.0004609465249814093,0.0017417757771909237,0.9996519088745117,0.0,0.0,0.0,-10.224020957946777,4.737298488616943,-8.256322860717773,1850.5682373046875,0
889.643,0.044756628572940826,-0.019567614421248436,0.0006700943340547383,0.0,0.0,0.0,0.0,0.002546625444665551,-0.007328691892325878,-0.0022768708877265453,0.9994687438011169,0.0,0.0,0.0,-10.189140319824219,4.778985977172852,-8.24260139465332,1844.254638671875,0
899.5349999999999,0.0446522980928421,-0.01979398913681507,0.0005553691880777478,0.0,0.0,0.0,0.0,0.0016126679256558418,0.004213052336126566,-0.00035251161898486316,0.9989839792251587,0.0,0.0,0.0,-10.221214294433594,4.736003398895264,-8.239741325378418,1850.06005859375,0
909.4129999999986,0.04477259889245033,-0.019524019211530685,0.0006165277445688844,0.0,0.0,0.0,0.0,-0.0012810598127543926,0.0004796563880518079,-0.0027150525711476803,0.9993849396705627,0.0,0.0,0.0,-10.190616607666016,4.77808141708374,-8.240249633789062,1844.5218505859375,0
919.3049999999985,0.04468906670808792,-0.019754553213715553,0.0005044081481173635,0.0,0.0,0.0,0.0,0.0012856782414019108,0.004831045866012573,-0.00086538604227826,1.0005334615707397,0.0,0.0,0.0,-10.22527027130127,4.739256381988525,-8.24653148651123,1850.794189453125,0
929.1899999999987,0.04483385756611824,-0.019433870911598206,0.0005541924620047212,0.0,0.0,0.0,0.0,-0.0014781162608414888,-0.0020665572956204414,0.002787339501082897,1.0006935596466064,0.0,0.0,0.0,-10.188494682312012,4.787925720214844,-8.246442794799805,1844.1378173828125,0
939.0779999999995,0.04474378377199173,-0.01974952034652233,0.0004031853750348091,0.0,0.0,0.0,0.0,0.0038820672780275345,-0.0041179656982421875,0.0005331847351044416,0.9992450475692749,0.0,0.0,0.0,-10.221960067749023,4.736680507659912,-8.250537872314453,1850.1951904296875,0
948.9539999999997,0.044860683381557465,-0.019472181797027588,0.0004738413845188916,0.0,0.0,0.0,0.0,-0.0002905793080572039,-0.001816837815567851,-0.0005082919960841537,0.9990521669387817,0.0,0.0,0.0,-10.187926292419434,4.775829315185547,-8.240560531616211,1844.034912109375,0
958.8459999999995,0.04474958777427673,-0.019684921950101852,0.0003522890619933605,0.0,0.0,0.0,0.0,-0.0020285341888666153,-0.001507749198935926,0.00030402105767279863,1.000209927558899,0.0,0.0,0.0,-10.220479011535645,4.737171173095703,-8.249529838562012,1849.927001953125,0
968.7239999999983,0.044847261160612106,-0.019436482340097427,0.00042824933188967407,0.0,0.0,0.0,0.0,0.002217036671936512,-0.0019062767969444394,-0.0009816605597734451,1.0004791021347046,0.0,0.0,0.0,-10.182175636291504,4.781406402587891,-8.237764358520508,1842.9940185546875,0
978.6209999999992,0.044758789241313934,-0.01969967968761921,0.0002982415317092091,0.0,0.0,0.0,0.0,0.0010975749464705586,-0.0001629730686545372,0.001590455649420619,1.0001623630523682,0.0,0.0,0.0,-10.213260650634766,4.735726356506348,-8.239243507385254,1848.620361328125,0
988.5049999999992,0.04481703042984009,-0.01949356496334076,0.0004142085381317884,0.0,0.0,0.0,0.0,0.002676812931895256,0.002979496493935585,0.002717637689784169,1.0009808540344238,0.0,0.0,0.0,-10.181748390197754,4.7721662521362305,-8.235177040100098,1842.916748046875,0
998.3869999999988,0.04472370073199272,-0.01968211680650711,0.00031623526592738926,0.0,0.0,0.0,0.0,-0.0028330700006335974,-0.0031199557706713676,0.0012129624374210835,1.0018718242645264,0.0,0.0,0.0,-10.216598510742188,4.739665985107422,-8.25275993347168,1849.2244873046875,0
1008.2639999999992,0.0447625070810318,-0.019509388133883476,0.0004521134833339602,0.0,0.0,0.0,0.0,0.002448344836011529,0.0009046950144693255,-0.004907527472823858,0.9983505010604858,0.0,0.0,0.0,-10.180602073669434,4.778842449188232,-8.240994453430176,1842.709228515625,0
1018.155999999999,0.04468001797795296,-0.019709806889295578,0.0003610801068134606,0.0,0.0,0.0,0.0,-0.002755924826487899,-0.0005649607628583908,-0.0009077730355784297,0.9991631507873535,0.0,0.0,0.0,-10.215139389038086,4.736032485961914,-8.25286865234375,1848.9605712890625,0
1028.0329999999994,0.0447162501513958,-0.01951632648706436,0.0005153940874151886,0.0,0.0,0.0,0.0,-0.004583609756082296,-0.0032588373869657516,0.00017331297567579895,0.9994654059410095,0.0,0.0,0.0,-10.183499336242676,4.7713093757629395,-8.252813339233398,1843.233642578125,0
1037.9259999999995,0.04466594383120537,-0.019763698801398277,0.0004228810721542686,0.0,0.0,0.0,0.0,0.00208683661185205,-0.005574741400778294,0.001086821430362761,0.9980828762054443,0.0,0.0,0.0,-10.214755058288574,4.739333629608154,-8.250544548034668,1848.8909912109375,0
1047.8049999999985,0.044671084731817245,-0.01961999572813511,0.0006080017774365842,0.0,0.0,0.0,0.0,0.00356394168920815,0.008043349720537663,-0.0023075223434716463,0.9964019060134888,0.0,0.0,0.0,-10.190033912658691,4.7620673179626465,-8.23830795288086,1844.4163818359375,0
1057.708999999999,0.044552624225616455,-0.01979711465537548,0.0005220265593379736,0.0,0.0,0.0,0.0,0.0003229245776310563,-0.0022135500330477953,0.0015690495492890477,1.0000313520431519,0.0,0.0,0.0,-10.220105171203613,4.7302937507629395,-8.262258529663086,1849.859375,0
1067.5829999999987,0.04460153728723526,-0.019831709563732147,0.000522122485563159,0.0,0.0,0.0,0.0,-0.0016633773921057582,0.005778998602181673,0.0008547456818632782,1.00053071975708,0.0,0.0,0.0,-10.210502624511719,4.725488185882568,-8.248749732971191,1848.1212158203125,0
1077.476999999999,0.044560566544532776,-0.019942061975598335,0.000493851606734097,0.0,0.0,0.0,0.0,-0.0014180438593029976,0.0004736479895655066,-0.0018532630056142807,0.9990777373313904,0.0,0.0,0.0,-10.24250316619873,4.70762300491333,-8.261709213256836,1853.91357421875,0
1087.3439999999991,0.04460737854242325,-0.019764460623264313,0.0006353934877552092,0.0,0.0,0.0,0.0,-0.00047953822650015354,-0.0003510965034365654,-0.0032012395095080137,1.0003046989440918,0.0,0.0,0.0,-10.210760116577148,4.756119728088379,-8.262850761413574,1848.1678466796875,0
1097.2369999999992,0.044550810009241104,-0.01992034912109375,0.000582871783990413,0.0,0.0,0.0,0.0,-0.0015339938690885901,-0.00930322427302599,-0.0010346908820793033,1.0000425577163696,0.0,0.0,0.0,-10.243617057800293,4.7250285148620605,-8.264382362365723,1854.114990234375,0
1107.1149999999998,0.0446038655936718,-0.019720280542969704,0.0007263690931722522,0.0,0.0,0.0,0.0,-0.0010275294771417975,0.001388789271004498,0.004028621129691601,0.9986961483955383,0.0,0.0,0.0,-10.208464622497559,4.769649028778076,-8.242860794067383,1847.7523193359375,0
1117.0079999999998,0.044552113860845566,-0.019949115812778473,0.0006531702820211649,0.0,0.0,0.0,0.0,-0.00016352179227396846,-0.0014726659283041954,-0.0013376722345128655,0.9996180534362793,0.0,0.0,0.0,-10.243512153625488,4.734789848327637,-8.235733032226562,1854.0960693359375,0
1126.8869999999988,0.044551342725753784,-0.01982351392507553,0.0006363791762851179,0.0,0.0,0.0,0.0,-0.0034574666060507298,0.0025850015226751566,-0.0019093117443844676,0.9988717436790466,0.0,0.0,0.0,-10.255596160888672,4.7615203857421875,-8.235576629638672,1856.2833251953125,0
1136.7839999999997,0.04460122436285019,-0.01985687017440796,0.000642920786049217,0.0,0.0,0.0,0.0,0.0011654094560071826,0.0018089142395183444,-0.0024502298329025507,0.9994199275970459,0.0,0.0,0.0,-10.246264457702637,4.7659912109375,-8.235944747924805,1854.5941162109375,0
1146.6629999999986,0.04470593482255936,-0.019585495814681053,0.0007423977949656546,0.0,0.0,0.0,0.0,-0.0005122226430103183,-0.005179908592253923,-0.0004859360633417964,0.9972726702690125,0.0,0.0,0.0,-10.213347434997559,4.808792591094971,-8.233880043029785,1848.6361083984375,0
1156.5479999999989,0.04463006556034088,-0.019831595942378044,0.0006464643520303071,0.0,0.0,0.0,0.0,-0.0010732642840594053,-0.0007018063333816826,0.0023734779097139835,0.9965240955352783,0.0,0.0,0.0,-10.244258880615234,4.77039909362793,-8.22674560546875,1854.2313232421875,0
1166.4339999999993,0.044639479368925095,-0.019701378419995308,0.0005431617028079927,0.0,0.0,0.0,0.0,-0.0010968863498419523,-0.004020002204924822,0.0022699888795614243,0.9985418915748596,0.0,0.0,0.0,-10.248083114624023,4.793182849884033,-8.225568771362305,1854.923583984375,0
1176.3229999999985,0.04469536617398262,-0.019730741158127785,0.0005358189810067415,0.0,0.0,0.0,0.0,-0.0016831582179293036,-0.0037503992207348347,0.0006952001131139696,1.00090754032135,0.0,0.0,0.0,-10.23829174041748,4.793736934661865,-8.21369743347168,1853.151123046875,0
1186.199999999999,0.04463120549917221,-0.019731314852833748,0.0005219129961915314,0.0,0.0,0.0,0.0,0.003332572290673852,0.0007500685169361532,0.0006270910962484777,0.9993448257446289,0.0,0.0,0.0,-10.246137619018555,4.795518398284912,-8.222203254699707,1854.5711669921875,0
1196.0899999999983,0.044686414301395416,-0.01976357214152813,0.0005140324938111007,0.0,0.0,0.0,0.0,-9.766210132511333e-05,-0.001390495803207159,0.0015874227974563837,0.9968410730361938,0.0,0.0,0.0,-10.235374450683594,4.787232875823975,-8.212597846984863,1852.6231689453125,0
1205.9719999999998,0.04459512606263161,-0.019724974408745766,0.0005465297726914287,0.0,0.0,0.0,0.0,-0.0006392261711880565,-0.0011092033237218857,-0.0009917867137119174,0.9981330633163452,0.0,0.0,0.0,-10.242222785949707,4.786652565002441,-8.222894668579102,1853.86279296875,0
1215.8649999999998,0.04464947059750557,-0.01975861005485058,0.0005385780241340399,0.0,0.0,0.0,0.0,-0.0007597458316013217,-0.0013794486876577139,-0.0018677035113796592,0.9999956488609314,0.0,0.0,0.0,-10.232707023620605,4.78591251373291,-8.210010528564453,1852.1402587890625,0
1225.75,0.04460066929459572,-0.019709769636392593,0.0005006652791053057,0.0,0.0,0.0,0.0,-0.0006288894801400602,-0.003348860889673233,-0.0006880781729705632,1.000938057899475,0.0,0.0,0.0,-10.242886543273926,4.797035217285156,-8.210203170776367,1853.9827880859375,0
1235.6349999999984,0.04465862363576889,-0.019504711031913757,0.0006170631386339664,0.0,0.0,0.0,0.0,0.001963850576430559,-0.0005824665422551334,0.0005865109851583838,0.9992676377296448,0.0,0.0,0.0,-10.209848403930664,4.8346476554870605,-8.198456764221191,1848.002685546875,0
1245.5119999999988,0.04458457976579666,-0.019756607711315155,0.0005144562455825508,0.0,0.0,0.0,0.0,0.0013173985062167048,0.0038883844390511513,0.002591286087408662,0.9992809891700745,0.0,0.0,0.0,-10.240675926208496,4.787854194641113,-8.20514965057373,1853.5828857421875,0
1255.405999999999,0.04464365541934967,-0.019552504643797874,0.0006328464369289577,0.0,0.0,0.0,0.0,-0.0005471237236633897,-0.0010255883680656552,0.0006953248521313071,1.0025562047958374,0.0,0.0,0.0,-10.202583312988281,4.818408012390137,-8.214925765991211,1846.6878662109375,0
1265.289999999999,0.04455861821770668,-0.019760683178901672,0.0005474710487760603,0.0,0.0,0.0,0.0,-0.0018056170083582401,0.0015203756047412753,0.0015614036237820983,1.0021435022354126,0.0,0.0,0.0,-10.235596656799316,4.780956268310547,-8.221831321716309,1852.663330078125,0
1275.1749999999993,0.044578418135643005,-0.019627202302217484,0.0006889316719025373,0.0,0.0,0.0,0.0,0.002194091910496354,0.004118992015719414,-0.0006500266026705503,0.9992692470550537,0.0,0.0,0.0,-10.202038764953613,4.804774761199951,-8.229074478149414,1846.58935546875,0
1285.0589999999993,0.04452893137931824,-0.019858796149492264,0.0006170931737869978,0.0,0.0,0.0,0.0,0.0017422476084902883,0.004335223697125912,-0.000618215010035783,1.001272201538086,0.0,0.0,0.0,-10.2324857711792,4.765608787536621,-8.233437538146973,1852.100341796875,0
1294.940999999999,0.04459172487258911,-0.01963377185165882,0.0007486739777959883,0.0,0.0,0.0,0.0,0.0029084535781294107,-0.0005026936414651573,-0.0016881756018847227,1.0010263919830322,0.0,0.0,0.0,-10.203516006469727,4.804136753082275,-8.243327140808105,1846.856689453125,0
1304.821,0.04453692212700844,-0.019857604056596756,0.0006830845377407968,0.0,0.0,0.0,0.0,-0.0013236161321401596,-0.0023375921882689,-0.0007095771725289524,0.9987248182296753,0.0,0.0,0.0,-10.235587120056152,4.766393184661865,-8.24493408203125,1852.6617431640625,0
1314.7209999999995,0.044650282710790634,-0.01957499235868454,0.000773351639509201,0.0,0.0,0.0,0.0,0.0037534385919570923,0.003869384992867708,-0.0016998294740915298,0.9965904951095581,0.0,0.0,0.0,-10.201007843017578,4.813920974731445,-8.23340129852295,1846.40283203125,0
1324.5969999999998,0.04456702619791031,-0.01981334015727043,0.0006887840572744608,0.0,0.0,0.0,0.0,-0.0016294874949380755,-0.002610154915601015,0.002274653874337673,0.9993082880973816,0.0,0.0,0.0,-10.23401165008545,4.767633438110352,-8.247580528259277,1852.37646484375,0
1334.4959999999992,0.04466099664568901,-0.019594179466366768,0.0007699724519625306,0.0,0.0,0.0,0.0,-0.0005055207875557244,0.0033028058242052794,-0.004522073082625866,0.9993672966957092,0.0,0.0,0.0,-10.20068645477295,4.81046724319458,-8.237692832946777,1846.344482421875,0
1344.3639999999996,0.04457113891839981,-0.01986539736390114,0.0006676955381408334,0.0,0.0,0.0,0.0,0.0016903188079595566,-0.00020231748931109905,-0.0011759591288864613,0.9986098408699036,0.0,0.0,0.0,-10.236746788024902,4.759878635406494,-8.250280380249023,1852.87158203125,0
1354.2529999999988,0.04468342661857605,-0.019590456038713455,0.0007484694360755384,0.0,0.0,0.0,0.0,0.00043936981819570065,-0.0022150082513689995,-0.004562570247799158,0.998334527015686,0.0,0.0,0.0,-10.205198287963867,4.80964994430542,-8.23597526550293,1847.1612548828125,0
1364.1349999999984,0.044587574899196625,-0.01983931101858616,0.000646610336843878,0.0,0.0,0.0,0.0,-4.3623123929137364e-05,0.00019522776710800827,0.003821001620963216,0.9993320107460022,0.0,0.0,0.0,-10.23551082611084,4.769533157348633,-8.227864265441895,1852.64794921875,0
1374.0229999999992,0.04474818333983421,-0.019494878128170967,0.0006860505673103034,0.0,0.0,0.0,0.0,0.0018655989551916718,-0.002148965373635292,0.003819936653599143,1.0017896890640259,0.0,0.0,0.0,-10.20156192779541,4.826385021209717,-8.205565452575684,1846.5029296875,0
1383.8979999999992,0.04462921991944313,-0.01973199099302292,0.0005743649089708924,0.0,0.0,0.0,0.0,0.0003313620400149375,0.005649661645293236,0.0012157444143667817,0.9987556338310242,0.0,0.0,0.0,-10.23508358001709,4.779030799865723,-8.216899871826172,1852.570556640625,0
1393.804,0.0447084903717041,-0.019508162513375282,0.0006778426468372345,0.0,0.0,0.0,0.0,0.002079114317893982,0.0001605382567504421,0.0031706031877547503,0.997901976108551,0.0,0.0,0.0,-10.20650863647461,4.815060615539551,-8.219464302062988,1847.398193359375,0
1403.6729999999989,0.04461183026432991,-0.019747627899050713,0.0005728399264626205,0.0,0.0,0.0,0.0,0.0025735204108059406,0.006018445361405611,-0.001335964072495699,0.9990114569664001,0.0,0.0,0.0,-10.237667083740234,4.769754886627197,-8.227873802185059,1853.0382080078125,0
1413.5609999999997,0.04468743875622749,-0.019524360075592995,0.0006785460864193738,0.0,0.0,0.0,0.0,0.0028802950400859118,-0.006206089630723,-0.0006756405346095562,1.0002425909042358,0.0,0.0,0.0,-10.207865715026855,4.80567741394043,-8.243760108947754,1847.6439208984375,0
1423.4429999999993,0.044592972844839096,-0.019750989973545074,0.0005781794898211956,0.0,0.0,0.0,0.0,-0.0011358974734321237,0.002113237977027893,0.0022132834419608116,1.0001276731491089,0.0,0.0,0.0,-10.239502906799316,4.763150215148926,-8.241408348083496,1853.370361328125,0
1433.3329999999987,0.04472732916474342,-0.019435564056038857,0.0006349672330543399,0.0,0.0,0.0,0.0,0.002332512754946947,0.004157186020165682,0.0007400672184303403,1.000129222869873,0.0,0.0,0.0,-10.20266342163086,4.819761276245117,-8.24148178100586,1846.702392578125,0
1443.2199999999993,0.04462867230176926,-0.01969015784561634,0.0005204497138038278,0.0,0.0,0.0,0.0,-1.88029353012098e-05,-7.671114144613966e-05,-0.0023057544603943825,0.9982430338859558,0.0,0.0,0.0,-10.235877990722656,4.77164363861084,-8.254276275634766,1852.71435546875,0
1453.107,0.04472970962524414,-0.019447946920990944,0.0005897582159377635,0.0,0.0,0.0,0.0,0.0020099992398172617,0.00534359784796834,0.0027866584714502096,1.0003010034561157,0.0,0.0,0.0,-10.204450607299805,4.815627574920654,-8.245712280273438,1847.02587890625,0
1462.982,0.04464668780565262,-0.019699348136782646,0.0004785968048963696,0.0,0.0,0.0,0.0,0.0012838862603530288,0.001779791433364153,-0.002673486480489373,1.0002903938293457,0.0,0.0,0.0,-10.235671043395996,4.768911838531494,-8.264643669128418,1852.677001953125,0
1472.869999999999,0.04469424858689308,-0.01950843632221222,0.0006042176391929388,0.0,0.0,0.0,0.0,-0.001782162464223802,0.0007981561357155442,0.00420505041256547,1.0004189014434814,0.0,0.0,0.0,-10.207197189331055,4.7988996505737305,-8.265521049499512,1847.5228271484375,0
1482.7469999999994,0.044622357934713364,-0.01974581740796566,0.0005066953599452972,0.0,0.0,0.0,0.0,-0.0017760478658601642,0.0051108915358781815,0.00017416110495105386,1.0004205703735352,0.0,0.0,0.0,-10.237869262695312,4.763881206512451,-8.266892433166504,1853.0748291015625,0
1492.646999999999,0.04467570409178734,-0.019566752016544342,0.0006169458501972258,0.0,0.0,0.0,0.0,0.0008560759597457945,-0.004076322540640831,-0.0029891266021877527,0.9992740750312805,0.0,0.0,0.0,-10.206294059753418,4.797232627868652,-8.27721881866455,1847.359619140625,0
1502.5189999999984,0.04458611086010933,-0.01975802518427372,0.0005330429412424564,0.0,0.0,0.0,0.0,-0.001859264331869781,0.00033089646603912115,0.0004117396892979741,0.9992311596870422,0.0,0.0,0.0,-10.240035057067871,4.76184606552124,-8.275847434997559,1853.4666748046875,0
1512.4229999999989,0.044658008962869644,-0.019528264179825783,0.0006427939515560865,0.0,0.0,0.0,0.0,-0.0026461444795131683,-0.006555314641445875,0.0007886300445534289,0.998086154460907,0.0,0.0,0.0,-10.210054397583008,4.806032180786133,-8.260178565979004,1848.0401611328125,0
1522.289999999999,0.04457871988415718,-0.01974845863878727,0.0005516546661965549,0.0,0.0,0.0,0.0,-0.0011036032810807228,8.688556408742443e-05,-0.002192552201449871,0.9986701607704163,0.0,0.0,0.0,-10.241399765014648,4.772887706756592,-8.250812530517578,1853.7137451171875,0
1532.1859999999997,0.044648248702287674,-0.019521676003932953,0.0006601223722100258,0.0,0.0,0.0,0.0,0.0009439468267373741,0.0005375061300583184,-0.001757018268108368,1.0013123750686646,0.0,0.0,0.0,-10.208935737609863,4.816272735595703,-8.249406814575195,1847.8377685546875,0
1542.065999999999,0.04459606111049652,-0.01977446675300598,0.0005686494405381382,0.0,0.0,0.0,0.0,-0.0009812954813241959,-0.0019034495344385505,-0.00039871930493973196,1.0014920234680176,0.0,0.0,0.0,-10.240130424499512,4.768901348114014,-8.25082778930664,1853.4840087890625,0
1551.9529999999995,0.04466438665986061,-0.019556233659386635,0.0006748404121026397,0.0,0.0,0.0,0.0,0.003011689754202962,0.004684856161475182,-0.004011022392660379,1.0004000663757324,0.0,0.0,0.0,-10.210575103759766,4.806955814361572,-8.249757766723633,1848.13427734375,0
1561.8319999999985,0.044565148651599884,-0.019766956567764282,0.0005873684422113001,0.0,0.0,0.0,0.0,-0.00030009550391696393,-0.003145701950415969,-0.0002768462582025677,0.9983275532722473,0.0,0.0,0.0,-10.244552612304688,4.766338348388672,-8.265707969665527,1854.2843017578125,0
1571.717999999999,0.044642381370067596,-0.019526677206158638,0.0006883242749609053,0.0,0.0,0.0,0.0,0.001069990685209632,0.004246057011187077,0.0021341308020055294,0.9982106685638428,0.0,0.0,0.0,-10.214683532714844,4.80438756942749,-8.256808280944824,1848.8779296875,0
1581.610999999999,0.044576842337846756,-0.019819267094135284,0.0005816303309984505,0.0,0.0,0.0,0.0,-0.0003613438457250595,0.0007191775366663933,-0.0011811114381998777,0.9989099502563477,0.0,0.0,0.0,-10.248215675354004,4.753271102905273,-8.267977714538574,1854.9473876953125,0
1591.494999999999,0.04466116055846214,-0.019556740298867226,0.0006772390916012228,0.0,0.0,0.0,0.0,0.0005078059039078653,0.00783370342105627,-2.8862832550657913e-05,0.9993172287940979,0.0,0.0,0.0,-10.21593952178955,4.796022891998291,-8.264159202575684,1849.10546875,0
1601.3669999999984,0.04455844312906265,-0.01978442259132862,0.0005785126704722643,0.0,0.0,0.0,0.0,-0.00011268648086115718,0.0012246393598616123,-0.00029542981064878404,0.9993566274642944,0.0,0.0,0.0,-10.248669624328613,4.7577056884765625,-8.286124229431152,1855.0296630859375,0
1611.2659999999996,0.044631969183683395,-0.019541040062904358,0.0006728950538672507,0.0,0.0,0.0,0.0,-0.00057211983948946,-0.004237951245158911,0.005750056356191635,1.0004593133926392,0.0,0.0,0.0,-10.222352027893066,4.795031547546387,-8.285374641418457,1850.2659912109375,0
1621.1479999999992,0.044582076370716095,-0.019782427698373795,0.0005879110540263355,0.0,0.0,0.0,0.0,-0.0006676409393548965,0.0032112193293869495,-0.003181234933435917,1.0004414319992065,0.0,0.0,0.0,-10.25192928314209,4.753232002258301,-8.279095649719238,1855.61962890625,0
1631.0439999999999,0.044675204902887344,-0.019534790888428688,0.000659059383906424,0.0,0.0,0.0,0.0,-0.002512736478820443,0.002613355638459325,0.002247939817607403,1.0015732049942017,0.0,0.0,0.0,-10.220803260803223,4.795229911804199,-8.277828216552734,1849.9857177734375,0
1640.9139999999989,0.04459346458315849,-0.01980840414762497,0.000551506585907191,0.0,0.0,0.0,0.0,-0.001612774096429348,-0.0010263099102303386,0.002812442369759083,0.999171257019043,0.0,0.0,0.0,-10.252584457397461,4.751676082611084,-8.285746574401855,1855.7381591796875,0
1650.812,0.044670894742012024,-0.019554775208234787,0.0006552361883223057,0.0,0.0,0.0,0.0,0.0004434603324625641,0.004883195739239454,-0.0013899466721341014,0.9976191520690918,0.0,0.0,0.0,-10.219073295593262,4.797837257385254,-8.278678894042969,1849.672607421875,0
1660.6839999999993,0.04458969086408615,-0.01982307806611061,0.0005499195540323853,0.0,0.0,0.0,0.0,-0.0019210745813325047,-0.005632309243083,0.0009529137751087546,0.9990236759185791,0.0,0.0,0.0,-10.253913879394531,4.7515668869018555,-8.29698371887207,1855.978759765625,0
1670.5739999999987,0.04471008852124214,-0.01952959969639778,0.0006095283315517008,0.0,0.0,0.0,0.0,-0.0010165723506361246,0.0008238984155468643,0.00014926274889148772,0.9991356730461121,0.0,0.0,0.0,-10.223021507263184,4.808743000030518,-8.274467468261719,1850.38720703125,0
1680.455,0.044626813381910324,-0.019725952297449112,0.0005230088718235493,0.0,0.0,0.0,0.0,0.000897924299351871,-0.003957263194024563,-0.001239573466591537,1.0007494688034058,0.0,0.0,0.0,-10.255459785461426,4.780060768127441,-8.269472122192383,1856.258544921875,0
1690.3409999999985,0.044707342982292175,-0.019504157826304436,0.0006141540943644941,0.0,0.0,0.0,0.0,-0.0007199577521532774,-0.004515931010246277,0.0012487528147175908,0.9992225170135498,0.0,0.0,0.0,-10.22255802154541,4.817163467407227,-8.254321098327637,1850.30322265625,0
1700.226999999999,0.04459293931722641,-0.019723758101463318,0.0005086023011244833,0.0,0.0,0.0,0.0,-0.00027694524032995105,-0.0008874775376170874,0.0008819966460578144,1.001373529434204,0.0,0.0,0.0,-10.25450611114502,4.780462265014648,-8.257965087890625,1856.0859375,0
1710.1269999999986,0.044701721519231796,-0.01946266181766987,0.0005762518849223852,0.0,0.0,0.0,0.0,-0.0026917702052742243,-0.0031273195054382086,0.0017073046183213592,0.9996200799942017,0.0,0.0,0.0,-10.220325469970703,4.829004287719727,-8.252306938171387,1849.899169921875,0
1719.9939999999988,0.044623181223869324,-0.01970848999917507,0.0004719545249827206,0.0,0.0,0.0,0.0,-0.0010073725134134293,0.0038162251003086567,-0.0020938098896294832,0.9994092583656311,0.0,0.0,0.0,-10.251293182373047,4.795289039611816,-8.256698608398438,1855.5045166015625,0
1729.8829999999998,0.044699136167764664,-0.019508743658661842,0.000567218812648207,0.0,0.0,0.0,0.0,-0.0007383493357338011,-0.00028281795675866306,0.004451164044439793,0.9971495270729065,0.0,0.0,0.0,-10.216678619384766,4.831509590148926,-8.255119323730469,1849.239013671875,0
1739.7619999999988,0.04457613453269005,-0.0197084192186594,0.00046339299296960235,0.0,0.0,0.0,0.0,-0.001523254089988768,-0.004754416178911924,-0.0004179322859272361,0.9969662427902222,0.0,0.0,0.0,-10.244614601135254,4.799917697906494,-8.261245727539062,1854.295654296875,0
1749.6539999999986,0.04463895037770271,-0.019495466724038124,0.000581825093831867,0.0,0.0,0.0,0.0,0.0017872360767796636,-0.001052372856065631,0.0005014113849028945,1.0001330375671387,0.0,0.0,0.0,-10.213898658752441,4.8404645919799805,-8.242725372314453,1848.736083984375,0
1759.5369999999984,0.04459977522492409,-0.019745154306292534,0.0004876021994277835,0.0,0.0,0.0,0.0,-0.0012572997948154807,-0.0028527737595140934,0.0019613411277532578,0.9999974370002747,0.0,0.0,0.0,-10.244719505310059,4.798085689544678,-8.239977836608887,1854.3145751953125,0
1769.4209999999985,0.04468447342514992,-0.019523514434695244,0.0005715233273804188,0.0,0.0,0.0,0.0,0.0003200818900950253,0.006466050166636705,0.0013639762764796615,0.9999155402183533,0.0,0.0,0.0,-10.209268569946289,4.838252544403076,-8.238887786865234,1847.89794921875,0
1779.3129999999983,0.04462827742099762,-0.019761420786380768,0.0004760460869874805,0.0,0.0,0.0,0.0,0.0028769108466804028,0.007748449221253395,-0.00013346484047360718,1.001083254814148,0.0,0.0,0.0,-10.240472793579102,4.797458171844482,-8.249224662780762,1853.5460205078125,0
1789.1949999999997,0.04467025771737099,-0.01960878074169159,0.0006026900955475867,0.0,0.0,0.0,0.0,0.0011907365405932069,-0.002478451933711767,-0.0007992220926098526,0.9993693828582764,0.0,0.0,0.0,-10.203948974609375,4.8194403648376465,-8.260004997253418,1846.9349365234375,0
1799.074999999999,0.0445941686630249,-0.019841423258185387,0.0005082773277536035,0.0,0.0,0.0,0.0,0.0001630933111300692,-0.005491003394126892,0.0016229982720687985,0.9982247948646545,0.0,0.0,0.0,-10.235367774963379,4.775262355804443,-8.255537986755371,1852.6219482421875,0
1808.9669999999987,0.044677734375,-0.019621891900897026,0.0006065215566195548,0.0,0.0,0.0,0.0,0.00242753978818655,0.004957413300871849,0.0001716434780973941,0.9983066916465759,0.0,0.0,0.0,-10.205587387084961,4.81492805480957,-8.236130714416504,1847.2315673828125,0
1818.8449999999993,0.04459789767861366,-0.019805889576673508,0.0005265534273348749,0.0,0.0,0.0,0.0,-0.003911678679287434,-0.0013373901601880789,-0.0013891673879697919,1.000505805015564,0.0,0.0,0.0,-10.23751449584961,4.782401084899902,-8.255241394042969,1853.0103759765625,0
1828.7459999999992,0.044671934098005295,-0.01960846222937107,0.0006285193376243114,0.0,0.0,0.0,0.0,-0.0019827045034617186,0.002901995088905096,-0.0027348340954631567,0.9988434910774231,0.0,0.0,0.0,-10.206696510314941,4.823328971862793,-8.24390983581543,1847.4324951171875,0
1838.6129999999994,0.044592637568712234,-0.019835708662867546,0.0005354847526177764,0.0,0.0,0.0,0.0,-0.0017695261631160975,-0.004699982702732086,0.0007403024937957525,0.9988116025924683,0.0,0.0,0.0,-10.24146556854248,4.788174152374268,-8.254439353942871,1853.7255859375,0
1848.5099999999984,0.04462478309869766,-0.019679592922329903,0.0006791909108869731,0.0,0.0,0.0,0.0,-0.0009718345245346427,-0.0023277143482118845,-0.0019231250043958426,0.9974050521850586,0.0,0.0,0.0,-10.212117195129395,4.8156046867370605,-8.247523307800293,1848.41357421875,0
1858.3799999999992,0.04455301910638809,-0.01985587552189827,0.000610336777754128,0.0,0.0,0.0,0.0,0.0012892057420685887,-0.00017474294872954488,-0.0038515341002494097,0.9952808618545532,0.0,0.0,0.0,-10.243172645568848,4.788343906402588,-8.245497703552246,1854.0345458984375,0
1868.277,0.044642772525548935,-0.019629022106528282,0.0006944878259673715,0.0,0.0,0.0,0.0,0.002065208274871111,0.0034394944086670876,0.0035202414728701115,0.9994237422943115,0.0,0.0,0.0,-10.211996078491211,4.826649188995361,-8.243125915527344,1848.3914794921875,0
1878.1499999999996,0.044555578380823135,-0.019834306091070175,0.0006046410417184234,0.0,0.0,0.0,0.0,-4.1200852137990296e-05,0.003570790868252516,-1.1957065908063669e-05,0.99912428855896,0.0,0.0,0.0,-10.239958763122559,4.78524923324585,-8.258513450622559,1853.452880859375,0
1888.0499999999993,0.04465759918093681,-0.019567113369703293,0.0006867151241749525,0.0,0.0,0.0,0.0,-9.580436744727194e-05,-0.00042219363967888057,0.0003935704589821398,1.001995325088501,0.0,0.0,0.0,-10.208815574645996,4.8320488929748535,-8.254364967346191,1847.8160400390625,0
1897.923999999999,0.04457833245396614,-0.019749179482460022,0.0006080655730329454,0.0,0.0,0.0,0.0,0.000970388064160943,-0.000690186454448849,-0.0007096497574821115,1.000779628753662,0.0,0.0,0.0,-10.239330291748047,4.7970991134643555,-8.2618408203125,1853.3392333984375,0
1907.8179999999993,0.04466461390256882,-0.019501550123095512,0.0007027023239061236,0.0,0.0,0.0,0.0,-0.0006087168003432453,0.002857406623661518,-0.0017758563626557589,0.9981955289840698,0.0,0.0,0.0,-10.208931922912598,4.8364691734313965,-8.250945091247559,1847.8369140625,0
1917.6929999999993,0.04458407312631607,-0.01972050778567791,0.0006119747995398939,0.0,0.0,0.0,0.0,0.0023822751827538013,0.0003674807376228273,0.0018755261553451419,0.99796462059021,0.0,0.0,0.0,-10.239171028137207,4.799792766571045,-8.270383834838867,1853.3104248046875,0
1927.5949999999993,0.04468856751918793,-0.01946095936000347,0.0006776881054975092,0.0,0.0,0.0,0.0,-0.0001881016796687618,-0.005259684752672911,0.0007893615984357893,1.0005236864089966,0.0,0.0,0.0,-10.204028129577637,4.838891983032227,-8.26778793334961,1846.94921875,0
1937.4689999999991,0.044594548642635345,-0.019679870456457138,0.0005806286353617907,0.0,0.0,0.0,0.0,-4.6354565711226314e-05,0.005922406446188688,-0.0021893437951803207,0.9990087151527405,0.0,0.0,0.0,-10.237176895141602,4.803091526031494,-8.264335632324219,1852.949462890625,0
1947.351999999999,0.04465761035680771,-0.019468531012535095,0.00068807159550488,0.0,0.0,0.0,0.0,-0.0004731454828288406,-0.0018647004617378116,0.001824975828640163,0.9991793632507324,0.0,0.0,0.0,-10.204279899597168,4.840642929077148,-8.265674591064453,1846.9949951171875,0
1957.2309999999998,0.044592369347810745,-0.019737595692276955,0.0005814320174977183,0.0,0.0,0.0,0.0,0.002559914253652096,0.004275110550224781,0.0011005763662979007,1.0003597736358643,0.0,0.0,0.0,-10.23465347290039,4.798892021179199,-8.25344467163086,1852.4927978515625,0
1967.134,0.0446850061416626,-0.01949894055724144,0.0006551737315021455,0.0,0.0,0.0,0.0,-0.0005019106902182102,-0.001591402804479003,-0.0017853811150416732,0.9995391368865967,0.0,0.0,0.0,-10.200011253356934,4.8357625007629395,-8.247901916503906,1846.2222900390625,0
1977.0,0.044622115790843964,-0.019782427698373795,0.000544430164154619,0.0,0.0,0.0,0.0,-0.0020579658448696136,0.0021287451963871717,-0.00023509582388214767,0.9995031356811523,0.0,0.0,0.0,-10.234294891357422,4.788502216339111,-8.24514389038086,1852.427734375,0
1986.8939999999984,0.044684261083602905,-0.0195855014026165,0.0006467511993832886,0.0,0.0,0.0,0.0,0.0007427194504998624,-0.003736857557669282,0.0030217876192182302,0.9985970854759216,0.0,0.0,0.0,-10.208974838256836,4.822261333465576,-8.252059936523438,1847.8448486328125,0
1996.771999999999,0.044739071279764175,-0.019603706896305084,0.000649346737191081,0.0,0.0,0.0,0.0,0.0020681102760136127,-0.002696507377550006,-0.0006063939654268324,0.9992918968200684,0.0,0.0,0.0,-10.1981782913208,4.813816070556641,-8.243705749511719,1845.8905029296875,0
2006.6749999999993,0.04474838823080063,-0.019404834136366844,0.0008348607807420194,0.0,0.0,0.0,0.0,-0.0022595077753067017,-0.0009062962490133941,6.251598824746907e-05,0.9997708797454834,0.0,0.0,0.0,-10.169586181640625,4.861556529998779,-8.248283386230469,1840.7154541015625,0
2016.5389999999989,0.0448048934340477,-0.019412321969866753,0.0008520718547515571,0.0,0.0,0.0,0.0,0.0015151668339967728,-0.0012718893121927977,-0.0014510770561173558,0.9997314810752869,0.0,0.0,0.0,-10.16004753112793,4.8635358810424805,-8.240857124328613,1838.98876953125,0
2026.4449999999997,0.0448225662112236,-0.019230658188462257,0.0010186524596065283,0.0,0.0,0.0,0.0,-0.00011184008326381445,-0.0010712993098422885,-0.0032454472966492176,1.0019514560699463,0.0,0.0,0.0,-10.130309104919434,4.915797233581543,-8.260241508483887,1833.6060791015625,0
2036.315999999999,0.044879186898469925,-0.01922529935836792,0.0010493953013792634,0.0,0.0,0.0,0.0,0.0009606262319721282,0.006619598250836134,0.004871077835559845,1.0006240606307983,0.0,0.0,0.0,-10.120930671691895,4.913551330566406,-8.253999710083008,1831.90869140625,0
2046.2159999999985,0.044885292649269104,-0.01908336766064167,0.001220841077156365,0.0,0.0,0.0,0.0,-0.0016247131861746311,0.002101415302604437,-0.00020511980983428657,0.9991270899772644,0.0,0.0,0.0,-10.089851379394531,4.950158596038818,-8.28672981262207,1826.2830810546875,0
2056.0829999999987,0.04493892565369606,-0.019068816676735878,0.0012647334951907396,0.0,0.0,0.0,0.0,9.402152500115335e-05,0.0012295524356886744,0.0006482836324721575,0.9968727827072144,0.0,0.0,0.0,-10.080798149108887,4.9506635665893555,-8.281037330627441,1824.64453125,0
2065.9739999999983,0.04492776840925217,-0.019006237387657166,0.00142808782402426,0.0,0.0,0.0,0.0,0.0015318276127800345,0.0026999132242053747,-0.0012730105081573129,0.9974097609519958,0.0,0.0,0.0,-10.052864074707031,4.956454277038574,-8.302297592163086,1819.58837890625,0
2075.852999999999,0.0449785515666008,-0.018991565331816673,0.0014779814518988132,0.0,0.0,0.0,0.0,-0.00019959674682468176,0.0014515829971060157,0.002138905692845583,0.9981491565704346,0.0,0.0,0.0,-10.042455673217773,4.944772243499756,-8.301695823669434,1817.7044677734375,0
2085.7469999999994,0.04494423419237137,-0.01895710453391075,0.001651787431910634,0.0,0.0,0.0,0.0,-0.0012113843113183975,0.0021742400713264942,-0.004901003558188677,0.9983730316162109,0.0,0.0,0.0,-10.017388343811035,4.9363017082214355,-8.33306884765625,1813.167236328125,0
2095.618999999999,0.044986918568611145,-0.018945081159472466,0.001708457013592124,0.0,0.0,0.0,0.0,0.0006078440346755087,0.00282417144626379,0.0011843042448163033,0.9988847374916077,0.0,0.0,0.0,-10.00809097290039,4.930889129638672,-8.330013275146484,1811.4844970703125,0
2105.517,0.04496978595852852,-0.018918471410870552,0.0018450446659699082,0.0,0.0,0.0,0.0,0.0022773772943764925,-0.003709076438099146,-0.00022478496248368174,1.000054955482483,0.0,0.0,0.0,-9.981782913208008,4.924709320068359,-8.353065490722656,1806.72265625,0
2115.393,0.04500732570886612,-0.018910616636276245,0.001906798454001546,0.0,0.0,0.0,0.0,-0.0008046416332945228,-0.0006508970982395113,0.0028918064199388027,1.001045823097229,0.0,0.0,0.0,-9.972302436828613,4.917900562286377,-8.338132858276367,1805.006591796875,0
2125.2869999999984,0.04500415548682213,-0.018900994211435318,0.002017341321334243,0.0,0.0,0.0,0.0,0.0013698693364858627,0.0023143303114920855,-0.00013324731844477355,1.0013068914413452,0.0,0.0,0.0,-9.95008373260498,4.913122653961182,-8.346046447753906,1800.9849853515625,0
2135.164999999999,0.04503881558775902,-0.018898388370871544,0.0020852291490882635,0.0,0.0,0.0,0.0,0.0031267087906599045,-0.001433488097973168,0.0032209190540015697,0.9982432723045349,0.0,0.0,0.0,-9.941226959228516,4.911215782165527,-8.33470344543457,1799.3818359375,0
2145.0689999999995,0.04508734121918678,-0.018892547115683556,0.0021406516898423433,0.0,0.0,0.0,0.0,0.0014549463521689177,-0.0004346278728917241,-0.0035379056353121996,0.9976601600646973,0.0,0.0,0.0,-9.913496971130371,4.910548686981201,-8.310544967651367,1794.362548828125,0
2154.9429999999993,0.04512551799416542,-0.01889379322528839,0.0022067606914788485,0.0,0.0,0.0,0.0,0.0020462805405259132,0.00084937788778916,0.0010846524965018034,0.998016357421875,0.0,0.0,0.0,-9.904315948486328,4.89955472946167,-8.303411483764648,1792.7008056640625,0
2164.8329999999987,0.04514704644680023,-0.01894444040954113,0.0022655311040580273,0.0,0.0,0.0,0.0,-0.0004320911248214543,0.00025708298198878765,0.0016067094402387738,1.0001739263534546,0.0,0.0,0.0,-9.883418083190918,4.879365921020508,-8.299875259399414,1788.91845703125,0
2174.708999999999,0.04518794268369675,-0.01895199529826641,0.00232939375564456,0.0,0.0,0.0,0.0,-0.0013584482949227095,0.0006155972369015217,-0.0007925712852738798,0.9984557032585144,0.0,0.0,0.0,-9.871927261352539,4.8785014152526855,-8.292550086975098,1786.8385009765625,0
2184.601999999999,0.045267388224601746,-0.018958507105708122,0.0023556251544505358,0.0,0.0,0.0,0.0,-0.00253127608448267,0.0004359561135061085,0.001412561978213489,0.9994910359382629,0.0,0.0,0.0,-9.847561836242676,4.884932994842529,-8.268065452575684,1782.42822265625,0
2194.4699999999993,0.045317672193050385,-0.018968626856803894,0.0024159334134310484,0.0,0.0,0.0,0.0,-0.0002735716989263892,0.0006843051523901522,-0.0009850540664047003,0.9994955062866211,0.0,0.0,0.0,-9.837211608886719,4.884058952331543,-8.252589225769043,1780.5548095703125,0
2204.370999999999,0.045372262597084045,-0.018980959430336952,0.00247615622356534,0.0,0.0,0.0,0.0,0.00018635512969922274,0.0010484466329216957,0.0019519487395882607,0.9990441203117371,0.0,0.0,0.0,-9.828109741210938,4.874943733215332,-8.24372673034668,1778.9073486328125,0
