timestamp,stateEstimate.x,stateEstimate.y,stateEstimate.z,controller.cmd_thrust,controller.cmd_roll,controller.cmd_pitch,controller.cmd_yaw,controller.r_roll,controller.r_pitch,controller.r_yaw,controller.accelz,controller.actuatorThrust,controller.roll,controller.pitch,controller.yaw,controller.rollRate,controller.pitchRate,controller.yawRate,controller.ctr_yaw
0.0,0.005096379201859236,-0.04784455522894859,0.0007965542026795447,0.0,0.0,0.0,0.0,-0.0010354890255257487,-0.0019999986980110407,-0.0009102664771489799,0.9983712434768677,0.0,0.0,0.0,-7.29604434967041,7.9305291175842285,1.3346607685089111,1320.5985107421875,0
9.871999999999389,0.005074089393019676,-0.047812506556510925,0.0008156617404893041,0.0,0.0,0.0,0.0,0.0007322400924749672,0.005423645954579115,-0.005003282334655523,0.9981062412261963,0.0,0.0,0.0,-7.2881879806518555,7.925196170806885,1.3388348817825317,1319.1763916015625,0
19.769000000000233,0.005051314830780029,-0.04778208211064339,0.0008333427249453962,0.0,0.0,0.0,0.0,0.004198080860078335,0.0001695871033007279,-0.00012016670370940119,0.9982957243919373,0.0,0.0,0.0,-7.281428813934326,7.9183173179626465,1.3336910009384155,1317.953125,0
29.641999999999825,0.005564379505813122,-0.04871591180562973,0.00029515958158299327,0.0,0.0,0.0,0.0,0.0013024277286604047,0.001120975473895669,-0.0001518863282399252,1.0006911754608154,0.0,0.0,0.0,-7.345869064331055,7.671008586883545,1.4398804903030396,1329.6168212890625,0
39.54199999999946,0.005562269128859043,-0.04874543100595474,0.00027633109129965305,0.0,0.0,0.0,0.0,-0.003218594938516617,0.0015910941874608397,-0.0012355204671621323,0.9998314380645752,0.0,0.0,0.0,-7.338667392730713,7.661751747131348,1.4347569942474365,1328.3133544921875,0
49.41200000000026,0.005558867007493973,-0.04877615347504616,0.00025801724405027926,0.0,0.0,0.0,0.0,0.0030499675776809454,-0.004672602284699678,0.0012306655989959836,0.9987513422966003,0.0,0.0,0.0,-7.331382751464844,7.662312984466553,1.4358800649642944,1326.994873046875,0
59.306000000000495,0.005553189665079117,-0.04880841076374054,0.00023956067161634564,0.0,0.0,0.0,0.0,-0.0017964458093047142,-0.00128057727124542,-0.0006721427198499441,1.0011979341506958,0.0,0.0,0.0,-7.32334041595459,7.650331974029541,1.4482485055923462,1325.5391845703125,0
69.1830000000009,0.005545847117900848,-0.04884294793009758,0.00022120433277450502,0.0,0.0,0.0,0.0,0.0025085804518312216,0.0008451431058347225,-0.0005143983871676028,0.9971321225166321,0.0,0.0,0.0,-7.317107200622559,7.643371105194092,1.45585298538208,1324.410888671875,0
79.07699999999932,0.0055390531197190285,-0.048879560083150864,0.00020243567996658385,0.0,0.0,0.0,0.0,0.0004788018704857677,-0.006247419398277998,-0.0020113640930503607,1.0000197887420654,0.0,0.0,0.0,-7.309366703033447,7.6267781257629395,1.4463974237442017,1323.0098876953125,0
88.96500000000015,0.005533124320209026,-0.048918500542640686,0.00018272254965268075,0.0,0.0,0.0,0.0,0.002093530260026455,-0.0007297100964933634,0.0008192638051696122,0.9976798295974731,0.0,0.0,0.0,-7.30220365524292,7.620100498199463,1.4625736474990845,1321.71337890625,0
98.85900000000038,0.005526439286768436,-0.0489608459174633,0.00016221244004555047,0.0,0.0,0.0,0.0,0.0018126701470464468,-0.006042784545570612,0.0005450638709589839,0.9986619353294373,0.0,0.0,0.0,-7.294077396392822,7.604724407196045,1.4650673866271973,1320.24267578125,0
108.72299999999996,0.00551867438480258,-0.04900665581226349,0.0001404176582582295,0.0,0.0,0.0,0.0,-0.0004012674617115408,0.001971897203475237,-0.0023496828507632017,1.001160740852356,0.0,0.0,0.0,-7.287087440490723,7.593379497528076,1.4670580625534058,1318.977294921875,0
118.62199999999939,0.00550966989248991,-0.0490553192794323,0.00011829094728454947,0.0,0.0,0.0,0.0,3.077847941312939e-05,-0.006312555633485317,0.0021842969581484795,1.000389814376831,0.0,0.0,0.0,-7.280367374420166,7.586069107055664,1.461785912513733,1317.760986328125,0
128.4940000000006,0.005498760379850864,-0.04910637438297272,9.693848551250994e-05,0.0,0.0,0.0,0.0,-0.0007487541297450662,-0.000713303335942328,-0.0010041624773293734,0.9991390705108643,0.0,0.0,0.0,-7.273360252380371,7.579133033752441,1.4693896770477295,1316.49267578125,0
138.38600000000042,0.005486301612108946,-0.049160078167915344,7.611108594574034e-05,0.0,0.0,0.0,0.0,-0.0024253663141280413,-0.001140177366323769,0.0008580954745411873,0.9996914267539978,0.0,0.0,0.0,-7.2661519050598145,7.564943790435791,1.4621403217315674,1315.1878662109375,0
148.27599999999984,0.005375686567276716,-0.04907126724720001,0.00012553967826534063,0.0,0.0,0.0,0.0,0.0020674229599535465,-0.0025610446464270353,0.0027587153017520905,0.9993971586227417,0.0,0.0,0.0,-7.340591907501221,7.6008148193359375,1.4059752225875854,1328.6617431640625,0
158.16200000000026,0.0053546433337032795,-0.04912159964442253,0.00010819877206813544,0.0,0.0,0.0,0.0,-0.0011059461394324899,-0.00138248095754534,0.001835886389017105,1.0020638704299927,0.0,0.0,0.0,-7.333940029144287,7.583743095397949,1.4127142429351807,1327.4576416015625,0
168.03700000000026,0.005311142653226852,-0.049103088676929474,0.00014367180119734257,0.0,0.0,0.0,0.0,-0.000614585995208472,0.0020429391879588366,0.0005560253630392253,0.9996410608291626,0.0,0.0,0.0,-7.418149471282959,7.606610298156738,1.3986042737960815,1342.6998291015625,0
177.9320000000007,0.0052823638543486595,-0.04915574565529823,0.00013125066470820457,0.0,0.0,0.0,0.0,-0.0009431850630789995,0.0001336212590103969,0.0001538757496746257,1.0000077486038208,0.0,0.0,0.0,-7.410297393798828,7.59682559967041,1.3929320573806763,1341.2784423828125,0
187.8099999999995,0.005248440429568291,-0.049156397581100464,0.00016037437308114022,0.0,0.0,0.0,0.0,-0.00022688833996653557,-0.0050314925611019135,-0.0018852126086130738,0.9984802007675171,0.0,0.0,0.0,-7.485417366027832,7.616246223449707,1.369750738143921,1354.87548828125,0
197.70600000000013,0.005217217840254307,-0.04921121522784233,0.00015124717901926488,0.0,0.0,0.0,0.0,-0.0007417267770506442,-0.0021850368939340115,0.002852309960871935,0.9992325305938721,0.0,0.0,0.0,-7.478375434875488,7.608470439910889,1.3834617137908936,1353.600830078125,0
207.57600000000093,0.005184877663850784,-0.049268387258052826,0.00014129474584478885,0.0,0.0,0.0,0.0,0.0019903802312910557,-0.0024507720954716206,-0.001008383696898818,0.9994494915008545,0.0,0.0,0.0,-7.469988822937012,7.601656913757324,1.3890719413757324,1352.082763671875,0
217.46900000000096,0.005151196848601103,-0.04932820424437523,0.0001308507489738986,0.0,0.0,0.0,0.0,0.00011830744915641844,-0.0013565508415922523,1.3274758430270595e-06,0.9998375177383423,0.0,0.0,0.0,-7.463356018066406,7.5906453132629395,1.3803108930587769,1350.8822021484375,0
227.34599999999955,0.005164134781807661,-0.0492791123688221,0.00019393533875700086,0.0,0.0,0.0,0.0,0.0030928286723792553,0.0012258085189387202,-0.0025794380344450474,0.999625027179718,0.0,0.0,0.0,-7.514433860778809,7.6356940269470215,1.3818260431289673,1360.12744140625,0
237.2430000000004,0.0051315901800990105,-0.04933744668960571,0.00019097937911283225,0.0,0.0,0.0,0.0,-0.0007860409677959979,0.0051454962231218815,0.00048747542314231396,0.9986371397972107,0.0,0.0,0.0,-7.506745338439941,7.623060703277588,1.3753703832626343,1358.7359619140625,0
247.11499999999978,0.0051432824693620205,-0.04930208995938301,0.00023857777705416083,0.0,0.0,0.0,0.0,-0.0006816576351411641,-0.0030364380218088627,-0.006525805220007896,0.999432384967804,0.0,0.0,0.0,-7.552270412445068,7.660607814788818,1.366350769996643,1366.9759521484375,0
257.02000000000044,0.00511058559641242,-0.0493561290204525,0.00024081399897113442,0.0,0.0,0.0,0.0,0.0008423838298767805,0.0032876154873520136,-0.001863546553067863,0.9980496764183044,0.0,0.0,0.0,-7.545065402984619,7.650449275970459,1.3720120191574097,1365.671875,0
266.8850000000002,0.005125867202877998,-0.049317579716444016,0.0002820763911586255,0.0,0.0,0.0,0.0,-0.001961530651897192,-0.005956954322755337,-0.0027957288548350334,0.9967984557151794,0.0,0.0,0.0,-7.586714267730713,7.685722351074219,1.3670766353607178,1373.2103271484375,0
276.77900000000045,0.005356293171644211,-0.048914890736341476,-0.00030696921749040484,0.0,0.0,0.0,0.0,0.001261194352991879,0.0004689952766057104,0.003088942961767316,0.9974923133850098,0.0,0.0,0.0,-7.520633697509766,7.797194480895996,1.4156991243362427,1361.2496337890625,0
286.65700000000106,0.005379462614655495,-0.04891950637102127,-0.0002643765474203974,0.0,0.0,0.0,0.0,0.000439791358076036,0.0011210384545847774,0.0002945183659903705,1.0004559755325317,0.0,0.0,0.0,-7.560064315795898,7.8015594482421875,1.4259594678878784,1368.38671875,0
296.5519999999997,0.005347102414816618,-0.04878615215420723,-8.997936674859375e-05,0.0,0.0,0.0,0.0,-0.0008826798875816166,0.006220002193003893,0.0027123629115521908,0.9993429780006409,0.0,0.0,0.0,-7.494502544403076,7.821035385131836,1.4297938346862793,1356.5198974609375,0
306.4269999999997,0.005379687529057264,-0.048898711800575256,-8.20959176053293e-05,0.0,0.0,0.0,0.0,0.0015174373984336853,-0.002044244669377804,0.0016702808206900954,0.9999556541442871,0.0,0.0,0.0,-7.531728744506836,7.810047626495361,1.4156500101089478,1363.2579345703125,0
316.3250000000007,0.005379437003284693,-0.04871847480535507,3.896280759363435e-05,0.0,0.0,0.0,0.0,2.210596539953258e-05,-0.0003481329185888171,0.0034881175961345434,1.0007823705673218,0.0,0.0,0.0,-7.472951412200928,7.825056076049805,1.409382939338684,1352.619140625,0
326.2039999999997,0.005442703142762184,-0.04890502244234085,4.007270035799593e-05,0.0,0.0,0.0,0.0,0.003691118909046054,-0.004000408109277487,0.00013321721053216606,0.9998440742492676,0.0,0.0,0.0,-7.512728691101074,7.81127405166626,1.4208003282546997,1359.81884765625,0
336.09000000000015,0.005484194494783878,-0.048688799142837524,0.00010075238242279738,0.0,0.0,0.0,0.0,0.0011528654722496867,0.002737141214311123,0.002298783976584673,0.9982126355171204,0.0,0.0,0.0,-7.451155185699463,7.825838088989258,1.437544822692871,1348.673828125,0
345.97299999999996,0.00546866562217474,-0.048942845314741135,5.940833580098115e-05,0.0,0.0,0.0,0.0,-0.0004956357879564166,0.0033563559409230947,0.0018968797521665692,0.9985628128051758,0.0,0.0,0.0,-7.497889041900635,7.805650234222412,1.4316505193710327,1357.1328125,0
355.85699999999997,0.0055145989172160625,-0.04870232194662094,0.000127189647173509,0.0,0.0,0.0,0.0,0.0011113324435427785,-0.002570719225332141,0.00183612119872123,0.9998556971549988,0.0,0.0,0.0,-7.444121837615967,7.831585884094238,1.4324398040771484,1347.40087890625,0
365.7360000000008,0.005497788544744253,-0.0489240437746048,9.316114301327616e-05,0.0,0.0,0.0,0.0,0.0003381160495337099,-0.0021885058376938105,-0.0016288834158331156,0.9989791512489319,0.0,0.0,0.0,-7.482041358947754,7.8121867179870605,1.4324383735656738,1354.264404296875,0
375.64800000000105,0.005479592364281416,-0.04895618557929993,0.00010633225610945374,0.0,0.0,0.0,0.0,0.0032354635186493397,0.002979685552418232,0.0012954076519235969,0.9982540607452393,0.0,0.0,0.0,-7.474738121032715,7.803997993469238,1.4404823780059814,1352.9423828125,0
385.505000000001,0.00536363897845149,-0.04901696369051933,0.00010409406968392432,0.0,0.0,0.0,0.0,-0.0010618754895403981,-0.005750523414462805,0.0012799283722415566,1.0005590915679932,0.0,0.0,0.0,-7.523013114929199,7.791686058044434,1.4256819486618042,1361.6802978515625,0
395.41100000000006,0.005340611096471548,-0.049051433801651,0.00011486964649520814,0.0,0.0,0.0,0.0,-0.0009078792063519359,0.0005734449368901551,0.0006937314756214619,0.9997803568840027,0.0,0.0,0.0,-7.515391826629639,7.783775806427002,1.4400242567062378,1360.3009033203125,0
405.27900000000045,0.005286224186420441,-0.04907245934009552,0.00013467346434481442,0.0,0.0,0.0,0.0,-0.0010959316277876496,0.0001669163175392896,6.130075053079054e-05,0.9989557862281799,0.0,0.0,0.0,-7.562901496887207,7.786614894866943,1.44248366355896,1368.9002685546875,0
415.1790000000001,0.005381793715059757,-0.04879508912563324,8.241450996138155e-05,0.0,0.0,0.0,0.0,-0.0017704686615616083,-0.0025294222868978977,0.0056664240546524525,0.9986459016799927,0.0,0.0,0.0,-7.509991645812988,7.845100402832031,1.4506922960281372,1359.3233642578125,0
425.0470000000005,0.005356206558644772,-0.048935431987047195,6.858202686998993e-05,0.0,0.0,0.0,0.0,-0.000826516654342413,-0.0010413681156933308,0.0038244999013841152,1.000169038772583,0.0,0.0,0.0,-7.553260803222656,7.834841728210449,1.4564257860183716,1367.1552734375,0
434.9439999999995,0.005371459294110537,-0.04874751344323158,0.00014288531383499503,0.0,0.0,0.0,0.0,-0.0005933293141424656,-0.004369478207081556,0.0007971836603246629,0.9997727870941162,0.0,0.0,0.0,-7.500611782073975,7.865121841430664,1.462900161743164,1357.6256103515625,0
444.8240000000005,0.005343681667000055,-0.048943404108285904,0.00011136194370919839,0.0,0.0,0.0,0.0,0.0008378567290492356,0.005128843709826469,-0.0008630822412669659,0.999061644077301,0.0,0.0,0.0,-7.541412830352783,7.847629070281982,1.4754170179367065,1365.0108642578125,0
454.71700000000055,0.00536939175799489,-0.04873942956328392,0.00017915258649736643,0.0,0.0,0.0,0.0,0.0018440353451296687,0.0008027516305446625,0.002403015736490488,0.9979056119918823,0.0,0.0,0.0,-7.48457145690918,7.883068561553955,1.4738606214523315,1354.722412109375,0
464.59200000000055,0.0053459531627595425,-0.0489422082901001,0.00015026924666017294,0.0,0.0,0.0,0.0,-0.0012883188901469111,0.000958652759436518,0.0015597767196595669,0.9984596371650696,0.0,0.0,0.0,-7.526604175567627,7.863045692443848,1.460324764251709,1362.330322265625,0
504.130000000001,0.0052293892949819565,-0.04910678043961525,0.00019338118727318943,0.0,0.0,0.0,0.0,-0.0009568569948896766,0.0005226435023359954,-0.0010873384308069944,0.9982488751411438,0.0,0.0,0.0,-7.59105110168457,7.831979274749756,1.4499621391296387,1373.9952392578125,0
514.0200000000004,0.0052044931799173355,-0.04914093762636185,0.000205968419322744,0.0,0.0,0.0,0.0,0.001996089471504092,0.004314927849918604,0.001664038049057126,0.9961212873458862,0.0,0.0,0.0,-7.5830488204956055,7.824556350708008,1.4375425577163696,1372.546875,0
523.8960000000006,0.005205876659601927,-0.049141641706228256,0.00023891714226920158,0.0,0.0,0.0,0.0,0.0010583046823740005,0.004935266450047493,-0.00025110392016358674,0.9977155327796936,0.0,0.0,0.0,-7.624022483825684,7.827099323272705,1.4297987222671509,1379.9632568359375,0
533.8029999999999,0.005180454347282648,-0.04917758330702782,0.00024868937907740474,0.0,0.0,0.0,0.0,0.0008100384147837758,0.0038224230520427227,0.0024689878337085247,0.9990049004554749,0.0,0.0,0.0,-7.6159796714782715,7.8218092918396,1.4206856489181519,1378.507568359375,0
543.6660000000011,0.0051958379335701466,-0.04916927218437195,0.00028547164401970804,0.0,0.0,0.0,0.0,-0.0016738537233322859,-0.0016705162124708295,-0.0009714527404867113,0.9986276030540466,0.0,0.0,0.0,-7.64100456237793,7.822024822235107,1.4155223369598389,1383.037109375,0
553.5689999999995,0.005172872915863991,-0.04920581355690956,0.000295324920443818,0.0,0.0,0.0,0.0,-0.000869476527441293,-0.003655362408608198,0.0029765558429062366,0.9986717104911804,0.0,0.0,0.0,-7.632915496826172,7.815738201141357,1.4104037284851074,1381.5728759765625,0
563.4359999999997,0.005172029137611389,-0.04917677864432335,0.00034714030334725976,0.0,0.0,0.0,0.0,-0.0020628925412893295,0.001475136843509972,0.0005434028571471572,0.9998869895935059,0.0,0.0,0.0,-7.668142795562744,7.8363847732543945,1.4133076667785645,1387.94921875,0
573.3299999999999,0.005149403121322393,-0.04920901730656624,0.0003584718215279281,0.0,0.0,0.0,0.0,0.002372829243540764,-0.00048727233661338687,0.0005300128250382841,0.9991306662559509,0.0,0.0,0.0,-7.66021728515625,7.832818031311035,1.4095103740692139,1386.5146484375,0
583.2090000000007,0.005152850411832333,-0.04920650273561478,0.00040424321196042,0.0,0.0,0.0,0.0,0.0028157844208180904,-0.0016399385640397668,0.0004583582922350615,0.9981016516685486,0.0,0.0,0.0,-7.685164451599121,7.846558094024658,1.4092375040054321,1391.030029296875,0
593.1090000000004,0.005130440462380648,-0.04923873767256737,0.000417574803577736,0.0,0.0,0.0,0.0,-0.0014858032809570432,-0.0032673717942088842,0.0013369150692597032,0.9971330165863037,0.0,0.0,0.0,-7.677739143371582,7.833711624145508,1.399757981300354,1389.68603515625,0
602.9770000000008,0.005137091502547264,-0.04925335571169853,0.0004573739133775234,0.0,0.0,0.0,0.0,0.004341679159551859,0.007504133973270655,-0.0007146712741814554,0.9991965889930725,0.0,0.0,0.0,-7.712862491607666,7.841341972351074,1.4097967147827148,1396.04345703125,0
612.875,0.005116055719554424,-0.04928993433713913,0.00046931259566918015,0.0,0.0,0.0,0.0,-0.0023497939109802246,-0.003044562879949808,0.00027209846302866936,1.0006309747695923,0.0,0.0,0.0,-7.704997539520264,7.825940132141113,1.4008567333221436,1394.619873046875,0
622.7510000000002,0.005119915120303631,-0.049289606511592865,0.0005264179781079292,0.0,0.0,0.0,0.0,0.0016678553074598312,-0.0018408512696623802,0.0003963735653087497,1.0000615119934082,0.0,0.0,0.0,-7.7396745681762695,7.849269390106201,1.4040404558181763,1400.8966064453125,0
632.643,0.005319342948496342,-0.04892054945230484,9.588198008714244e-05,0.0,0.0,0.0,0.0,-0.00348565517924726,-0.0007485261303372681,0.000886392081156373,0.9984892010688782,0.0,0.0,0.0,-7.674038887023926,7.969875812530518,1.4427156448364258,1389.016357421875,0
642.5239999999994,0.005324096418917179,-0.049016404896974564,7.08068473613821e-05,0.0,0.0,0.0,0.0,-0.001408219919539988,-0.0005899090319871902,-0.0001808532833820209,1.001058578491211,0.0,0.0,0.0,-7.695337295532227,7.957723617553711,1.450247883796692,1392.871337890625,0
652.4130000000005,0.005314153619110584,-0.04903247579932213,6.708566070301458e-05,0.0,0.0,0.0,0.0,-0.00031619713990949094,-0.0024819679092615843,-0.00128839910030365,0.9998734593391418,0.0,0.0,0.0,-7.687771797180176,7.947915077209473,1.4491190910339355,1391.501953125,0
662.2970000000005,0.005361909978091717,-0.049055829644203186,8.403951505897567e-05,0.0,0.0,0.0,0.0,-0.00016824141493998468,0.00043353773071430624,0.0010172277688980103,0.9985388517379761,0.0,0.0,0.0,-7.710921287536621,7.938644886016846,1.4676705598831177,1395.6920166015625,0
672.2000000000007,0.005417847540229559,-0.048832185566425323,0.00011682122567435727,0.0,0.0,0.0,0.0,0.0016087704570963979,0.0040497505106031895,-0.0009012734517455101,0.9987742900848389,0.0,0.0,0.0,-7.64945125579834,7.973906517028809,1.4809869527816772,1384.5657958984375,0
682.0589999999993,0.00544186495244503,-0.04895259812474251,9.67601517913863e-05,0.0,0.0,0.0,0.0,0.002451108768582344,-0.003760159481316805,0.0029574381187558174,0.9982092976570129,0.0,0.0,0.0,-7.675254821777344,7.958795070648193,1.4809650182724,1389.2364501953125,0
691.9590000000007,0.005439699627459049,-0.04896458983421326,9.533272532280535e-05,0.0,0.0,0.0,0.0,0.001397658372297883,0.003342674346640706,-0.001250395318493247,0.9989060163497925,0.0,0.0,0.0,-7.66619348526001,7.951825141906738,1.4914031028747559,1387.596435546875,0
701.8289999999997,0.005371868144720793,-0.04898720979690552,8.417264325544238e-05,0.0,0.0,0.0,0.0,-0.0005059448885731399,0.0034853399265557528,-0.0010880831396207213,1.000206470489502,0.0,0.0,0.0,-7.702511310577393,7.944075107574463,1.4764169454574585,1394.1697998046875,0
711.7350000000006,0.005368838552385569,-0.04899933561682701,8.050003089010715e-05,0.0,0.0,0.0,0.0,-0.004350622184574604,-0.0009929657680913806,0.002022620290517807,1.0000417232513428,0.0,0.0,0.0,-7.694489479064941,7.936073303222656,1.4795500040054321,1392.718017578125,0
721.5990000000002,0.005341982934623957,-0.04900621622800827,8.088432514341548e-05,0.0,0.0,0.0,0.0,0.00016646961739752442,-0.0056469314731657505,0.00023510749451816082,0.9986028075218201,0.0,0.0,0.0,-7.730230808258057,7.9385576248168945,1.4764665365219116,1399.1871337890625,0
731.4930000000004,0.005338480696082115,-0.04901697859168053,7.766555791022256e-05,0.0,0.0,0.0,0.0,0.0003412765508983284,0.006287412252277136,-0.0001473435404477641,0.9995041489601135,0.0,0.0,0.0,-7.722484588623047,7.931642055511475,1.4916608333587646,1397.78515625,0
741.371000000001,0.005323339253664017,-0.04902069643139839,7.883713260525838e-05,0.0,0.0,0.0,0.0,0.0022530360147356987,0.0012386583257466555,0.0016614184714853764,0.9989849925041199,0.0,0.0,0.0,-7.757028102874756,7.927343368530273,1.480119228363037,1404.0374755859375,0
751.2649999999994,0.005318029318004847,-0.04903308302164078,7.48695238144137e-05,0.0,0.0,0.0,0.0,0.0017651537200435996,-0.0003944035852327943,-0.0036517116241157055,0.9986182451248169,0.0,0.0,0.0,-7.74884557723999,7.918023586273193,1.478988528251648,1402.556396484375,0
761.1450000000004,0.005304560996592045,-0.04903068020939827,7.880014891270548e-05,0.0,0.0,0.0,0.0,0.0030220141634345055,0.002094640862196684,0.004292391240596771,0.9998889565467834,0.0,0.0,0.0,-7.780754566192627,7.913697719573975,1.4712413549423218,1408.33203125,0
771.0390000000007,0.005299006588757038,-0.04904574155807495,7.425887451972812e-05,0.0,0.0,0.0,0.0,0.0021818755194544792,-0.0015282717067748308,-0.002018872182816267,1.0002821683883667,0.0,0.0,0.0,-7.771906852722168,7.8969340324401855,1.4629143476486206,1406.7305908203125,0
780.9130000000005,0.005339707247912884,-0.04906362295150757,8.165051985997707e-05,0.0,0.0,0.0,0.0,-0.002525566378608346,-0.01034921407699585,-0.0012098404113203287,1.0016554594039917,0.0,0.0,0.0,-7.805624961853027,7.884869575500488,1.4758175611495972,1412.8336181640625,0
790.8029999999999,0.005335143767297268,-0.04908018559217453,7.943699893075973e-05,0.0,0.0,0.0,0.0,-0.00015672866720706224,0.0021789977326989174,-0.0011704026255756617,0.9991266131401062,0.0,0.0,0.0,-7.796791076660156,7.883545875549316,1.499188780784607,1411.2347412109375,0
800.6800000000003,0.005308038089424372,-0.04906158894300461,0.00010483903315616772,0.0,0.0,0.0,0.0,-0.0010110948933288455,-0.0005745335947722197,0.002248141448944807,1.0005578994750977,0.0,0.0,0.0,-7.829559803009033,7.8925461769104,1.4784941673278809,1417.1658935546875,0
810.5789999999997,0.005299796350300312,-0.04907667636871338,0.00010598485096124932,0.0,0.0,0.0,0.0,0.0006939004524610937,-0.0046120742335915565,0.0011831186711788177,0.9983363747596741,0.0,0.0,0.0,-7.821407794952393,7.882004261016846,1.4766998291015625,1415.6903076171875,0
820.4510000000009,0.005327532533556223,-0.04906373471021652,0.0001495880715083331,0.0,0.0,0.0,0.0,-0.0017997071845456958,-0.0013513162266463041,-0.0011655923444777727,0.9998905062675476,0.0,0.0,0.0,-7.838866710662842,7.890888214111328,1.4943532943725586,1418.850341796875,0
830.3490000000002,0.005412893835455179,-0.04882305487990379,6.011993536958471e-05,0.0,0.0,0.0,0.0,-0.0013243576977401972,0.001303791650570929,0.0008149842033162713,0.9997791051864624,0.0,0.0,0.0,-7.769824028015137,7.957328796386719,1.51561439037323,1406.353515625,0
840.2219999999998,0.0053893933072686195,-0.04889313131570816,2.5802892196225002e-05,0.0,0.0,0.0,0.0,0.00035272224340587854,0.004501419607549906,0.0007073303568176925,1.0023102760314941,0.0,0.0,0.0,-7.788446426391602,7.943854808807373,1.513965368270874,1409.724365234375,0
850.1149999999998,0.005382816307246685,-0.048896461725234985,2.7679216145770624e-05,0.0,0.0,0.0,0.0,0.0007119750371202826,0.0007201989064924419,0.00017173362721223384,1.0009008646011353,0.0,0.0,0.0,-7.781476020812988,7.934406280517578,1.5083805322647095,1408.4625244140625,0
860.0010000000002,0.005348769016563892,-0.04894101619720459,1.346349290543003e-05,0.0,0.0,0.0,0.0,5.8429974160389975e-05,-0.0013150201411917806,-0.001016083755530417,0.999424159526825,0.0,0.0,0.0,-7.812760353088379,7.9220662117004395,1.4964698553085327,1414.1251220703125,0
869.884,0.005337546579539776,-0.04894808679819107,1.64706762006972e-05,0.0,0.0,0.0,0.0,0.0035109748132526875,0.004790974780917168,-0.0011761583155021071,0.996786892414093,0.0,0.0,0.0,-7.805365562438965,7.91005802154541,1.4940004348754883,1412.78662109375,0
879.7610000000004,0.005341771990060806,-0.04897526651620865,1.328122743871063e-05,0.0,0.0,0.0,0.0,0.0011234208941459656,0.0006826804019510746,0.0036013538483530283,0.9994817972183228,0.0,0.0,0.0,-7.823928356170654,7.888322830200195,1.4843852519989014,1416.1466064453125,0
889.6589999999997,0.0053403000347316265,-0.04884715378284454,0.00010850663966266438,0.0,0.0,0.0,0.0,0.002781520364806056,-0.0007730014040134847,0.0034087393432855606,1.0006316900253296,0.0,0.0,0.0,-7.758999824523926,7.901759624481201,1.4856617450714111,1404.3944091796875,0
899.5320000000011,0.0053504351526498795,-0.0489482656121254,9.674743341747671e-05,0.0,0.0,0.0,0.0,-0.0009277592180296779,-0.0001703037996776402,-0.0005019212840124965,0.9984003901481628,0.0,0.0,0.0,-7.791055679321289,7.8798065185546875,1.490073561668396,1410.1966552734375,0
909.4339999999993,0.0053684404119849205,-0.048754435032606125,0.00017575887613929808,0.0,0.0,0.0,0.0,-0.0024783480912446976,-0.003213518997654319,0.0019623690750449896,0.9991780519485474,0.0,0.0,0.0,-7.727155685424805,7.887624263763428,1.4942024946212769,1398.630615234375,0
919.3019999999997,0.005376332905143499,-0.048902664333581924,0.00014325592201203108,0.0,0.0,0.0,0.0,0.00014950685726944357,0.002077448880299926,0.002525819931179285,0.9991195201873779,0.0,0.0,0.0,-7.7433929443359375,7.8761210441589355,1.5032970905303955,1401.5694580078125,0
929.1980000000003,0.005387075245380402,-0.048702385276556015,0.00023263611365109682,0.0,0.0,0.0,0.0,-0.0002510989725124091,0.0008482669363729656,0.0003693616599775851,0.9995855689048767,0.0,0.0,0.0,-7.685781955718994,7.8844313621521,1.5065251588821411,1391.1419677734375,0
939.0779999999995,0.005376393441110849,-0.04889163374900818,0.00018561030447017401,0.0,0.0,0.0,0.0,0.002408630447462201,0.0023774774745106697,0.00021293736062943935,0.9985302090644836,0.0,0.0,0.0,-7.705294609069824,7.865794658660889,1.502694010734558,1394.6737060546875,0
948.9639999999999,0.005360623821616173,-0.04890203848481178,0.00019232647900935262,0.0,0.0,0.0,0.0,-0.001192721538245678,-0.003551493864506483,0.003709066193550825,0.9997111558914185,0.0,0.0,0.0,-7.6972503662109375,7.85447883605957,1.497324824333191,1393.217529296875,0
958.8420000000006,0.005334615707397461,-0.0489756315946579,0.00018432241631671786,0.0,0.0,0.0,0.0,-0.0008034833590500057,0.002835650695487857,0.0008051302866078913,0.9986752867698669,0.0,0.0,0.0,-7.715446949005127,7.8447346687316895,1.495598316192627,1396.51123046875,0
968.737000000001,0.0053176796063780785,-0.048989515751600266,0.00018869771156460047,0.0,0.0,0.0,0.0,0.0006146738305687904,0.0006302864057943225,-0.0011599954450502992,0.9980006814002991,0.0,0.0,0.0,-7.706696510314941,7.839216709136963,1.4904407262802124,1394.927490234375,0
978.6190000000006,0.005300166551023722,-0.04904235899448395,0.00018547000945545733,0.0,0.0,0.0,0.0,-0.0010236888192594051,0.0016682592686265707,-0.0027000498957931995,1.0000962018966675,0.0,0.0,0.0,-7.723650932312012,7.819397926330566,1.4870383739471436,1397.9962158203125,0
988.5069999999996,0.005280553363263607,-0.049062345176935196,0.00018758056103251874,0.0,0.0,0.0,0.0,-0.0007885174709372222,0.002724643098190427,0.001615662476979196,0.9979878067970276,0.0,0.0,0.0,-7.716489315032959,7.811853408813477,1.4760147333145142,1396.6998291015625,0
998.3850000000002,0.005314764101058245,-0.0490591898560524,0.00020715701975859702,0.0,0.0,0.0,0.0,-0.00014176535478327423,-0.0015540854074060917,-0.0024346732534468174,0.9980822205543518,0.0,0.0,0.0,-7.73687744140625,7.811638832092285,1.4763989448547363,1400.3902587890625,0
1008.2800000000007,0.005295804236084223,-0.04907975345849991,0.00020876902271993458,0.0,0.0,0.0,0.0,0.001819044235162437,0.00214485265314579,-0.001382174901664257,1.0006978511810303,0.0,0.0,0.0,-7.729353904724121,7.802799224853516,1.4856138229370117,1399.0284423828125,0
1018.1560000000009,0.005268940702080727,-0.049087878316640854,0.00021552442922256887,0.0,0.0,0.0,0.0,-0.0029492443427443504,-0.00011406721023377031,0.0019653381314128637,1.0020166635513306,0.0,0.0,0.0,-7.762744426727295,7.7995924949646,1.4800270795822144,1405.0721435546875,0
1028.0519999999997,0.0053210025653243065,-0.048894841223955154,0.00017731093976181,0.0,0.0,0.0,0.0,-0.0007191878976300359,-0.001371785532683134,-0.0011513966601341963,0.9986648559570312,0.0,0.0,0.0,-7.694544792175293,7.844287872314453,1.4888681173324585,1392.7279052734375,0
1037.924000000001,0.005308601073920727,-0.04898732155561447,0.0001644148724153638,0.0,0.0,0.0,0.0,0.0025146538391709328,-0.0019958175253123045,-0.0005390541045926511,0.999376118183136,0.0,0.0,0.0,-7.728802680969238,7.830859661102295,1.4886871576309204,1398.9287109375,0
1047.8150000000005,0.005287874024361372,-0.04900210723280907,0.000166027108207345,0.0,0.0,0.0,0.0,0.0016727438196539879,-0.005072381347417831,0.0009641611250117421,0.9979252815246582,0.0,0.0,0.0,-7.720527648925781,7.819423675537109,1.4877070188522339,1397.4307861328125,0
1057.6939999999995,0.005279398523271084,-0.049042534083127975,0.0001683838345343247,0.0,0.0,0.0,0.0,-0.00036459043622016907,-0.0075979153625667095,-0.0008000341476872563,0.9994616508483887,0.0,0.0,0.0,-7.753398895263672,7.804849624633789,1.4918073415756226,1403.380615234375,0
1067.5920000000006,0.005320927128195763,-0.048842161893844604,0.0001790318201528862,0.0,0.0,0.0,0.0,-0.0011577146360650659,0.0009391203057020903,0.00021070327784400433,1.000816822052002,0.0,0.0,0.0,-7.694162368774414,7.833977222442627,1.5079551935195923,1392.65869140625,0
1077.473,0.005359121598303318,-0.04896773770451546,0.00016861864423844963,0.0,0.0,0.0,0.0,0.0008115458185784519,-0.0005117750260978937,0.0033139565493911505,1.0008339881896973,0.0,0.0,0.0,-7.726297378540039,7.816999912261963,1.5058655738830566,1398.4752197265625,0
1087.3639999999996,0.005390984006226063,-0.048748645931482315,0.0002218592126155272,0.0,0.0,0.0,0.0,0.0008859332883730531,0.003125331364572048,3.443871537456289e-05,1.0001940727233887,0.0,0.0,0.0,-7.672037601470947,7.832106113433838,1.5150882005691528,1388.654052734375,0
1097.2360000000008,0.00535921286791563,-0.04891732335090637,0.00017559074331074953,0.0,0.0,0.0,0.0,-0.0011251744581386447,0.0026180471759289503,-0.0010810036910697818,1.0008416175842285,0.0,0.0,0.0,-7.706029891967773,7.808536052703857,1.4991518259048462,1394.806640625,0
1107.1319999999996,0.005388423800468445,-0.048686180263757706,0.00023647892521694303,0.0,0.0,0.0,0.0,-0.0021431087516248226,-0.001684050541371107,0.0017285831272602081,1.0007433891296387,0.0,0.0,0.0,-7.64902925491333,7.8275980949401855,1.4878437519073486,1384.489501953125,0
1117.0100000000002,0.005370523314923048,-0.04890497773885727,0.00018366682343184948,0.0,0.0,0.0,0.0,0.0022375015541911125,0.0028494358994066715,0.002264079637825489,1.0008233785629272,0.0,0.0,0.0,-7.680964946746826,7.8064866065979,1.4919044971466064,1390.2698974609375,0
1126.9089999999997,0.0053520724177360535,-0.04891758784651756,0.00018992915283888578,0.0,0.0,0.0,0.0,0.00017053082410711795,0.0008131192298606038,-0.001267745508812368,1.0021830797195435,0.0,0.0,0.0,-7.672958850860596,7.79941463470459,1.4898700714111328,1388.82080078125,0
1136.7749999999996,0.005299170967191458,-0.04899682477116585,0.00018204297521151602,0.0,0.0,0.0,0.0,0.0002949796908069402,0.002805021358653903,0.00095702352700755,0.9991055130958557,0.0,0.0,0.0,-7.7046637535095215,7.785315990447998,1.4839140176773071,1394.5595703125,0
1146.6689999999999,0.0052775912918150425,-0.049015991389751434,0.00019005752983503044,0.0,0.0,0.0,0.0,-0.00029610568890348077,0.005535753443837166,0.002275066217407584,0.9999425411224365,0.0,0.0,0.0,-7.695634365081787,7.778685092926025,1.4824224710464478,1392.925048828125,0
1156.5470000000005,0.005271009635180235,-0.04906649887561798,0.0001977934589376673,0.0,0.0,0.0,0.0,0.00036284825182519853,0.00024924782337620854,-0.0008553121006116271,1.0008032321929932,0.0,0.0,0.0,-7.726562976837158,7.770094394683838,1.4747352600097656,1398.5233154296875,0
1166.4400000000005,0.0052490863017737865,-0.04908888414502144,0.00020588991174008697,0.0,0.0,0.0,0.0,-0.0003432009252719581,-0.0036906320601701736,-0.0001964387047337368,0.9995779395103455,0.0,0.0,0.0,-7.718950271606445,7.761157989501953,1.4729658365249634,1397.145263671875,0
1176.3220000000001,0.005246988032013178,-0.04908676818013191,0.00022682009148411453,0.0,0.0,0.0,0.0,-0.0017959424294531345,0.001249545719474554,-0.0014908219454810023,0.997739315032959,0.0,0.0,0.0,-7.737111568450928,7.761018753051758,1.4801615476608276,1400.4327392578125,0
1186.2080000000005,0.005225599743425846,-0.049109406769275665,0.00023581823916174471,0.0,0.0,0.0,0.0,-0.001540893572382629,0.006160384509712458,-0.0005718260654248297,0.9982783198356628,0.0,0.0,0.0,-7.730143070220947,7.755961894989014,1.4768177270889282,1399.1712646484375,0
1196.089,0.005251144524663687,-0.04914442449808121,0.0002469578757882118,0.0,0.0,0.0,0.0,-0.0017793262377381325,-0.0015770848840475082,-0.0019257984822615981,0.9992302060127258,0.0,0.0,0.0,-7.762070655822754,7.750672340393066,1.479056477546692,1404.9501953125,0
1205.987000000001,0.005345471668988466,-0.048885539174079895,0.00015110502135939896,0.0,0.0,0.0,0.0,0.0008147066691890359,-0.004931956063956022,-0.0008414658368565142,0.9997643232345581,0.0,0.0,0.0,-7.7003607749938965,7.81568717956543,1.5001258850097656,1393.780517578125,0
1215.8559999999998,0.005329795181751251,-0.049011316150426865,0.00011164530587848276,0.0,0.0,0.0,0.0,0.0010829460807144642,0.00420104106888175,0.00021675819880329072,0.9980151653289795,0.0,0.0,0.0,-7.719351291656494,7.790322780609131,1.5128819942474365,1397.218017578125,0
1225.7520000000004,0.00531266862526536,-0.049031130969524384,0.00011067440209444612,0.0,0.0,0.0,0.0,0.0027452053036540747,0.002050225855782628,0.0018911693478003144,0.9973775744438171,0.0,0.0,0.0,-7.711589813232422,7.781360626220703,1.5068464279174805,1395.81298828125,0
1235.634,0.005313506815582514,-0.04906991496682167,0.00011137231922475621,0.0,0.0,0.0,0.0,0.0022269519977271557,0.0016830764943733811,-0.0013558968203142285,1.000077486038208,0.0,0.0,0.0,-7.73286247253418,7.770587921142578,1.5025135278701782,1399.66357421875,0
1245.5220000000008,0.005296351853758097,-0.04909292608499527,0.0001075217078323476,0.0,0.0,0.0,0.0,0.001801106845960021,-0.0007791747339069843,-0.0007836315198801458,0.9991832375526428,0.0,0.0,0.0,-7.7260284423828125,7.760494709014893,1.4951748847961426,1398.426513671875,0
1255.398000000001,0.005311848130077124,-0.04907460883259773,0.00013013681746087968,0.0,0.0,0.0,0.0,-5.680205504177138e-06,-0.002326932270079851,-0.00024160680186469108,0.9983550310134888,0.0,0.0,0.0,-7.757607936859131,7.762269496917725,1.4935200214385986,1404.1424560546875,0
1265.2839999999997,0.005296478979289532,-0.049100279808044434,0.0001272055960725993,0.0,0.0,0.0,0.0,-0.0008468323503620923,9.17451543500647e-05,-0.0016784616746008396,0.9998447299003601,0.0,0.0,0.0,-7.749718189239502,7.758028507232666,1.5009965896606445,1402.71435546875,0
1275.1669999999995,0.005269890651106834,-0.04908689111471176,0.00014094046491663903,0.0,0.0,0.0,0.0,0.0015351297333836555,0.005883218254894018,-0.0002776500186882913,0.9995500445365906,0.0,0.0,0.0,-7.7826337814331055,7.765468120574951,1.4963047504425049,1408.6722412109375,0
1285.062,0.005254556890577078,-0.049112360924482346,0.00013857839803677052,0.0,0.0,0.0,0.0,-0.0033844546414911747,-0.00766751216724515,0.0037597711198031902,0.9991440176963806,0.0,0.0,0.0,-7.774341106414795,7.753037929534912,1.4859106540679932,1407.171142578125,0
1294.9390000000003,0.0052765435539186,-0.049126289784908295,0.00015172564599197358,0.0,0.0,0.0,0.0,-0.002085006097331643,-0.00016060810594353825,0.0026510318275541067,0.9991280436515808,0.0,0.0,0.0,-7.805537223815918,7.759624004364014,1.5097590684890747,1412.8177490234375,0
1304.8240000000005,0.005261724814772606,-0.04915495961904526,0.00014974641089793295,0.0,0.0,0.0,0.0,-0.00017031986499205232,0.0033129644580185413,0.001038545509800315,0.9978486895561218,0.0,0.0,0.0,-7.797103404998779,7.754077434539795,1.5123653411865234,1411.291259765625,0
1314.7119999999995,0.005301924888044596,-0.04914984852075577,0.00018213808652944863,0.0,0.0,0.0,0.0,-0.003334191394969821,-0.0018998797750100493,0.003314666450023651,0.9983075857162476,0.0,0.0,0.0,-7.816035270690918,7.760434627532959,1.5147225856781006,1414.7178955078125,0
1324.594000000001,0.005395435728132725,-0.04890783876180649,6.101814506109804e-05,0.0,0.0,0.0,0.0,-0.0009373030043207109,0.0004954954492859542,0.002733050612732768,0.9966326355934143,0.0,0.0,0.0,-7.750518321990967,7.831060409545898,1.529590129852295,1402.8592529296875,0
1334.4840000000004,0.005412038881331682,-0.04900619760155678,4.042291402583942e-05,0.0,0.0,0.0,0.0,-6.491671956609935e-05,0.003991648089140654,-0.00034289839095436037,0.9995701909065247,0.0,0.0,0.0,-7.780946731567383,7.814157962799072,1.526430368423462,1408.36669921875,0
1344.366,0.005425203125923872,-0.04885134473443031,0.0001256526738870889,0.0,0.0,0.0,0.0,0.0021572995465248823,-0.0007531872252002358,-0.0012064629700034857,1.001047968864441,0.0,0.0,0.0,-7.719549179077148,7.825035095214844,1.520422339439392,1397.253662109375,0
1354.259,0.005381899885833263,-0.04892854765057564,9.2057314759586e-05,0.0,0.0,0.0,0.0,-6.306963041424751e-05,-0.0036431187763810158,0.004099484533071518,0.9999946355819702,0.0,0.0,0.0,-7.7371721267700195,7.810657501220703,1.5126066207885742,1400.4434814453125,0
1364.1380000000008,0.005403161980211735,-0.04874085634946823,0.00017309581744484603,0.0,0.0,0.0,0.0,0.0014483429258689284,-0.0034825808834284544,7.560473022749647e-05,0.9992258548736572,0.0,0.0,0.0,-7.680459499359131,7.823151588439941,1.5241329669952393,1390.178466796875,0
1374.0259999999998,0.00539612490683794,-0.04891631007194519,0.00012275742483325303,0.0,0.0,0.0,0.0,-0.0009587254608049989,-0.005156596656888723,-0.003977120853960514,0.9982568621635437,0.0,0.0,0.0,-7.6992058753967285,7.801081657409668,1.5303256511688232,1393.571533203125,0
1383.907000000001,0.005391204264014959,-0.048939771950244904,0.00012008074554614723,0.0,0.0,0.0,0.0,0.0019152879249304533,0.0038064136169850826,0.0021083534229546785,0.9990817904472351,0.0,0.0,0.0,-7.692471981048584,7.795137882232666,1.53215754032135,1392.3526611328125,0
1393.799000000001,0.0053473529405891895,-0.04897627606987953,0.00011450608144514263,0.0,0.0,0.0,0.0,0.0009940158342942595,0.0011596312979236245,0.004533239174634218,0.9991611242294312,0.0,0.0,0.0,-7.721440315246582,7.783200263977051,1.5145660638809204,1397.5960693359375,0
1403.6810000000005,0.00534160016104579,-0.049002498388290405,0.0001103528484236449,0.0,0.0,0.0,0.0,0.0015061593148857355,-0.003119802800938487,-0.0010759589495137334,0.9999317526817322,0.0,0.0,0.0,-7.71272087097168,7.771751403808594,1.5122092962265015,1396.017822265625,0
1413.5689999999995,0.005310306791216135,-0.04901273548603058,0.00011306951637379825,0.0,0.0,0.0,0.0,-0.0021577728912234306,0.004651006311178207,0.003281782614067197,1.0007578134536743,0.0,0.0,0.0,-7.7425312995910645,7.7681498527526855,1.5138920545578003,1401.41357421875,0
1423.451000000001,0.005365160759538412,-0.04880020022392273,0.000129014762933366,0.0,0.0,0.0,0.0,-0.00032602864666841924,-0.0046477909199893475,-5.453578523884062e-06,1.0003501176834106,0.0,0.0,0.0,-7.68242883682251,7.7985520362854,1.5183814764022827,1390.5350341796875,0
1433.339,0.0053547946736216545,-0.04894842952489853,9.178146137855947e-05,0.0,0.0,0.0,0.0,-0.0011163190938532352,4.966505730408244e-05,0.0003660913498606533,0.9998912215232849,0.0,0.0,0.0,-7.7144694328308105,7.784530162811279,1.5361350774765015,1396.3343505859375,0
1443.2170000000006,0.005381527356803417,-0.0487537607550621,0.00017536351515445858,0.0,0.0,0.0,0.0,2.8628623113036156e-05,-0.0023801710922271013,0.0009610154666006565,0.9998428821563721,0.0,0.0,0.0,-7.6599907875061035,7.805728912353516,1.5431678295135498,1386.4736328125,0
1453.107,0.005387254524976015,-0.04892776533961296,0.00013903609942644835,0.0,0.0,0.0,0.0,1.0028030374087393e-05,-0.00011197153071407229,0.0005651822430081666,0.9992457032203674,0.0,0.0,0.0,-7.692169666290283,7.793296813964844,1.5444551706314087,1392.298095703125,0
1462.9840000000004,0.005388232413679361,-0.048952244222164154,0.00014036445645615458,0.0,0.0,0.0,0.0,-0.0028756000101566315,0.0001370318786939606,-0.0011871808674186468,1.0016558170318604,0.0,0.0,0.0,-7.683967590332031,7.782562732696533,1.5411937236785889,1390.8133544921875,0
1472.8770000000004,0.005331920459866524,-0.04901064187288284,0.00013088539708405733,0.0,0.0,0.0,0.0,0.002216579392552376,-0.0010002529015764594,-0.0007454116712324321,0.9992117881774902,0.0,0.0,0.0,-7.719247817993164,7.77606201171875,1.5245072841644287,1397.1990966796875,0
1482.7569999999996,0.005378153640776873,-0.0488150455057621,0.0001737866405164823,0.0,0.0,0.0,0.0,0.0009721028618514538,-3.947071672882885e-05,-0.0028666637372225523,1.000048279762268,0.0,0.0,0.0,-7.662596702575684,7.791396617889404,1.5381531715393066,1386.9453125,0
1492.648000000001,0.005360666196793318,-0.048957034945487976,0.0001448022958356887,0.0,0.0,0.0,0.0,-0.0033212678972631693,0.0011931699700653553,0.0020688450895249844,0.9996371865272522,0.0,0.0,0.0,-7.69413948059082,7.774260520935059,1.53658926486969,1392.654541015625,0
1502.5249999999996,0.0053570326417684555,-0.048986200243234634,0.00014768991968594491,0.0,0.0,0.0,0.0,0.0006378049147315323,-0.00031058164313435555,0.0017725547077134252,0.9993851184844971,0.0,0.0,0.0,-7.685818672180176,7.770823955535889,1.5357303619384766,1391.1484375,0
1512.424000000001,0.005319464486092329,-0.049007564783096313,0.00015530959353782237,0.0,0.0,0.0,0.0,-0.001471318188123405,0.004464202094823122,-0.0001450553972972557,1.0000193119049072,0.0,0.0,0.0,-7.714898109436035,7.762481689453125,1.529280424118042,1396.4119873046875,0
1522.2960000000003,0.005314103327691555,-0.04904085025191307,0.00015850397176109254,0.0,0.0,0.0,0.0,0.002309261355549097,-0.0052313911728560925,-0.002358595607802272,0.9991486668586731,0.0,0.0,0.0,-7.707441806793213,7.75322961807251,1.5217984914779663,1395.062255859375,0
1532.1929999999993,0.005291452631354332,-0.04903876781463623,0.00017570909403730184,0.0,0.0,0.0,0.0,0.0016809263033792377,-0.0014704619534313679,-1.0804395969898906e-05,0.9984740614891052,0.0,0.0,0.0,-7.736746311187744,7.75242805480957,1.5197858810424805,1400.3665771484375,0
1542.071,0.005282517056912184,-0.049072831869125366,0.0001794868294382468,0.0,0.0,0.0,0.0,0.0007338377763517201,-0.0006198524497449398,-0.0012431613868102431,0.9979636669158936,0.0,0.0,0.0,-7.729094505310059,7.740529537200928,1.5264275074005127,1398.9814453125,0
1551.9660000000003,0.005282626952975988,-0.04909127578139305,0.00019091321155428886,0.0,0.0,0.0,0.0,0.0013604428386315703,-0.001829994493164122,0.005553423892706633,0.9996201395988464,0.0,0.0,0.0,-7.747194766998291,7.7372026443481445,1.5307822227478027,1402.2576904296875,0
1561.839,0.005274244584143162,-0.04912685975432396,0.00019311479991301894,0.0,0.0,0.0,0.0,-0.0006232482846826315,0.0030792185571044683,0.001645306241698563,1.0007126331329346,0.0,0.0,0.0,-7.737486362457275,7.727108478546143,1.5343434810638428,1400.50048828125,0
1571.7340000000004,0.005265755113214254,-0.049123119562864304,0.00021438159456010908,0.0,0.0,0.0,0.0,-0.0015056283446028829,0.0009549891692586243,-0.0006896950653754175,0.996612548828125,0.0,0.0,0.0,-7.753962516784668,7.733699321746826,1.5252330303192139,1403.482666015625,0
1581.607,0.005416614934802055,-0.048797607421875,2.8568345442181453e-05,0.0,0.0,0.0,0.0,-0.0004382159386295825,0.007632561028003693,0.0020334748551249504,0.9997528195381165,0.0,0.0,0.0,-7.690581798553467,7.816717624664307,1.5434300899505615,1392.0106201171875,0
1591.5030000000006,0.005412471480667591,-0.0489402711391449,-2.823155045916792e-05,0.0,0.0,0.0,0.0,0.0005333676235750318,0.0012210835702717304,0.0023256088607013226,1.0003278255462646,0.0,0.0,0.0,-7.710734844207764,7.78964900970459,1.5285422801971436,1395.6583251953125,0
1601.3860000000004,0.005406804382801056,-0.0489623099565506,-3.7678015360143036e-05,0.0,0.0,0.0,0.0,-0.0022594258189201355,0.003281641285866499,-0.00020322451018728316,1.001028299331665,0.0,0.0,0.0,-7.701643943786621,7.7781877517700195,1.530472993850708,1394.0128173828125,0
1611.2700000000004,0.0054066902957856655,-0.049006737768650055,-4.449523112270981e-05,0.0,0.0,0.0,0.0,0.0007265143212862313,-0.0005534747615456581,-0.00016147864516824484,1.0006866455078125,0.0,0.0,0.0,-7.736932277679443,7.773458957672119,1.5201565027236938,1400.4002685546875,0
1621.1530000000002,0.0054174261167645454,-0.048835791647434235,6.274473707890138e-05,0.0,0.0,0.0,0.0,0.0009924029000103474,-5.4673157137585804e-05,0.002749213483184576,0.9995580315589905,0.0,0.0,0.0,-7.679018974304199,7.798031330108643,1.5172306299209595,1389.917724609375,0
1631.050000000001,0.005395229905843735,-0.04894126206636429,3.594548979890533e-05,0.0,0.0,0.0,0.0,0.0004979214863851666,-0.00030393191264010966,0.0005371339502744377,0.9976388812065125,0.0,0.0,0.0,-7.711174011230469,7.779691219329834,1.5150760412216187,1395.7379150390625,0
1640.9169999999995,0.005389847327023745,-0.04895951226353645,3.421107612666674e-05,0.0,0.0,0.0,0.0,-0.0007517836638726294,0.003556366777047515,0.0022989034187048674,0.9991997480392456,0.0,0.0,0.0,-7.70330810546875,7.772273063659668,1.5210072994232178,1394.3140869140625,0
1650.8250000000007,0.005355702713131905,-0.049017373472452164,2.076534292427823e-05,0.0,0.0,0.0,0.0,0.0028017344884574413,0.0022046256344765425,-0.0031160369981080294,0.9993858337402344,0.0,0.0,0.0,-7.735588550567627,7.758543968200684,1.5019471645355225,1400.156982421875,0
1660.687,0.0053860098123550415,-0.04883179813623428,7.78265530243516e-05,0.0,0.0,0.0,0.0,0.0027794972993433475,0.0019474623259156942,-0.00040430595981888473,0.9998493790626526,0.0,0.0,0.0,-7.676117897033691,7.77536678314209,1.4939889907836914,1389.3927001953125,0
1670.5810000000001,0.00538219790905714,-0.04893246293067932,5.8261088270228356e-05,0.0,0.0,0.0,0.0,-0.0011951089836657047,-0.005848212167620659,0.004654549062252045,0.9996808767318726,0.0,0.0,0.0,-7.695302963256836,7.759128570556641,1.4940388202667236,1392.865234375,0
1680.4660000000003,0.005376905202865601,-0.04895741492509842,5.754367884946987e-05,0.0,0.0,0.0,0.0,0.0021669669076800346,-0.0013617784716188908,0.0023373099975287914,0.9997597336769104,0.0,0.0,0.0,-7.686309337615967,7.751343727111816,1.5044987201690674,1391.2373046875,0
1690.3510000000006,0.005415981635451317,-0.04901748150587082,6.196256435941905e-05,0.0,0.0,0.0,0.0,-0.0009189455304294825,0.0038644338492304087,-0.0004338659346103668,1.0001084804534912,0.0,0.0,0.0,-7.707925319671631,7.73577880859375,1.5084189176559448,1395.1497802734375,0
1700.228000000001,0.005414458457380533,-0.049048226326704025,6.159026816021651e-05,0.0,0.0,0.0,0.0,-0.0001527894492028281,0.006217572372406721,-0.0006326885195448995,1.0004531145095825,0.0,0.0,0.0,-7.699152946472168,7.728432655334473,1.5032187700271606,1393.56201171875,0
1710.121000000001,0.0053315008990466595,-0.04904947057366371,6.411538925021887e-05,0.0,0.0,0.0,0.0,-0.0008718465105630457,-0.0012951442040503025,3.0654318834422156e-05,0.9989137053489685,0.0,0.0,0.0,-7.731898307800293,7.7258100509643555,1.4687684774398804,1399.489013671875,0
1719.9989999999998,0.005323825404047966,-0.04908294230699539,6.45075342617929e-05,0.0,0.0,0.0,0.0,0.002702937461435795,0.0034454944543540478,0.002403517020866275,0.9988086819648743,0.0,0.0,0.0,-7.724831581115723,7.721402168273926,1.4610793590545654,1398.2099609375,0
1729.8960000000006,0.005369266960769892,-0.04908991605043411,8.396658085985109e-05,0.0,0.0,0.0,0.0,-0.0009005984757095575,0.0036863775458186865,-0.0007114281761460006,0.9985172152519226,0.0,0.0,0.0,-7.743587493896484,7.715919017791748,1.4528015851974487,1401.604736328125,0
1739.7710000000006,0.005361336749047041,-0.049127377569675446,8.445121784461662e-05,0.0,0.0,0.0,0.0,0.000877886195667088,0.003429703414440155,-0.00013458868488669395,0.9987147450447083,0.0,0.0,0.0,-7.736208438873291,7.710373878479004,1.4432791471481323,1400.2691650390625,0
1749.6650000000009,0.005313784349709749,-0.049108829349279404,0.00010477816977072507,0.0,0.0,0.0,0.0,-1.4552261745848227e-05,-0.0010299303103238344,-0.0023752187844365835,0.9974438548088074,0.0,0.0,0.0,-7.768006801605225,7.7276105880737305,1.4181571006774902,1406.024658203125,0
1759.5390000000007,0.005302452016621828,-0.04914616048336029,0.00010455535084474832,0.0,0.0,0.0,0.0,-0.0020149038173258305,0.00370021746493876,-0.0025842420291155577,0.9972809553146362,0.0,0.0,0.0,-7.760279655456543,7.716053009033203,1.422640323638916,1404.6259765625,0
1769.433000000001,0.005277017597109079,-0.0491182766854763,0.000139175564981997,0.0,0.0,0.0,0.0,-9.723402035888284e-05,0.0025585235562175512,0.0055228895507752895,0.9990843534469604,0.0,0.0,0.0,-7.7911295890808105,7.741819381713867,1.3969632387161255,1410.2100830078125,0
1779.3099999999995,0.005358592141419649,-0.04889349639415741,6.157714233268052e-05,0.0,0.0,0.0,0.0,0.0024289297871291637,0.0023561841808259487,0.0005498878890648484,0.999740481376648,0.0,0.0,0.0,-7.733483791351318,7.809723854064941,1.407488465309143,1399.7760009765625,0
1789.2090000000007,0.00535067031159997,-0.04898056387901306,3.546751395333558e-05,0.0,0.0,0.0,0.0,0.0026950500905513763,0.0010622567497193813,0.0001158619488705881,0.9973650574684143,0.0,0.0,0.0,-7.751132011413574,7.786001205444336,1.3977957963943481,1402.9703369140625,0
1799.08,0.005339839495718479,-0.04900224879384041,3.069140075240284e-05,0.0,0.0,0.0,0.0,-0.00160835194401443,-0.00039327185368165374,-0.0016673372592777014,0.9992427229881287,0.0,0.0,0.0,-7.742682456970215,7.771421432495117,1.3886305093765259,1401.44091796875,0
1808.9760000000006,0.005328977480530739,-0.04900280013680458,3.971076512243599e-05,0.0,0.0,0.0,0.0,0.0002090082853101194,0.0008538475958630443,0.002854558639228344,0.9978036284446716,0.0,0.0,0.0,-7.759541034698486,7.774524688720703,1.3858050107955933,1404.4923095703125,0
1818.8520000000008,0.005316536873579025,-0.04902796819806099,3.382241993676871e-05,0.0,0.0,0.0,0.0,0.00022062634525354952,0.0012685097754001617,0.0010966781992465258,0.9991782307624817,0.0,0.0,0.0,-7.751522541046143,7.76532506942749,1.389811396598816,1403.041015625,0
1828.746000000001,0.00528870802372694,-0.04902910813689232,3.71199676010292e-05,0.0,0.0,0.0,0.0,0.0010803317418321967,0.0017450248124077916,0.0007813585107214749,0.9998685121536255,0.0,0.0,0.0,-7.770486354827881,7.762961387634277,1.3833454847335815,1406.473388671875,0
1838.6219999999994,0.005276110023260117,-0.04905669763684273,3.062329415115528e-05,0.0,0.0,0.0,0.0,-0.0016501278150826693,-0.005695966072380543,9.102329931920394e-05,0.9993417859077454,0.0,0.0,0.0,-7.762534141540527,7.74873161315918,1.3809444904327393,1405.0340576171875,0
1848.5200000000004,0.005278746131807566,-0.04905514046549797,4.4627220631809905e-05,0.0,0.0,0.0,0.0,0.0021656949538737535,0.0020996893290430307,-0.001767538720741868,0.9984758496284485,0.0,0.0,0.0,-7.79428768157959,7.757303714752197,1.392802357673645,1410.7816162109375,0
1858.3919999999998,0.00526713440194726,-0.049084968864917755,3.914801709470339e-05,0.0,0.0,0.0,0.0,-0.0009738937951624393,0.00621240958571434,-0.004812896717339754,0.9981527328491211,0.0,0.0,0.0,-7.7863640785217285,7.751061916351318,1.3920100927352905,1409.347412109375,0
1868.2900000000009,0.00528846587985754,-0.04907839372754097,6.618010957026854e-05,0.0,0.0,0.0,0.0,0.002213704166933894,0.002155681373551488,-0.0035177592653781176,0.9990213513374329,0.0,0.0,0.0,-7.819659233093262,7.764599323272705,1.3789496421813965,1415.3739013671875,0
1878.1650000000009,0.00527782691642642,-0.04911106079816818,6.118155579315498e-05,0.0,0.0,0.0,0.0,0.0031495518051087856,0.006103101652115583,-0.00020707301155198365,1.000760793685913,0.0,0.0,0.0,-7.8131632804870605,7.750934600830078,1.3735631704330444,1414.1981201171875,0
1888.067000000001,0.0052766636945307255,-0.049114298075437546,8.32260848255828e-05,0.0,0.0,0.0,0.0,0.0004451799613889307,0.004472249653190374,0.004750741180032492,1.000773549079895,0.0,0.0,0.0,-7.8453288078308105,7.753983020782471,1.3596662282943726,1420.020263671875,0
1897.9400000000005,0.005264039617031813,-0.04914795607328415,8.150552457664162e-05,0.0,0.0,0.0,0.0,0.0004456393944565207,0.0034219843801110983,-0.0018217969918623567,1.0023672580718994,0.0,0.0,0.0,-7.836164474487305,7.7437238693237305,1.3461145162582397,1418.361328125,0
1907.826000000001,0.005269503686577082,-0.04913249611854553,0.00013031552953179926,0.0,0.0,0.0,0.0,-0.0008828735444694757,0.0006274306797422469,-0.0029851107392460108,1.0003491640090942,0.0,0.0,0.0,-7.853372573852539,7.762303352355957,1.3311516046524048,1421.47607421875,0
1917.7180000000008,0.005257114768028259,-0.04916608706116676,0.0001362996263196692,0.0,0.0,0.0,0.0,0.0033624086063355207,0.00523208687081933,0.0014337293105199933,0.9965904951095581,0.0,0.0,0.0,-7.845915794372559,7.7533087730407715,1.3271042108535767,1420.1263427734375,0
1927.5969999999998,0.005283215083181858,-0.049150627106428146,0.0002036028599832207,0.0,0.0,0.0,0.0,0.002429059473797679,-0.001986355520784855,-0.0003475928970146924,0.9979352951049805,0.0,0.0,0.0,-7.8607659339904785,7.762746334075928,1.3235900402069092,1422.814208984375,0
1937.4750000000004,0.005417579784989357,-0.04886941239237785,-2.3481301468564197e-05,0.0,0.0,0.0,0.0,-0.00041507650166749954,0.0038310843519866467,0.0017518966924399137,0.9970852732658386,0.0,0.0,0.0,-7.790619850158691,7.832724094390869,1.347607970237732,1410.1177978515625,0
1947.3809999999994,0.005374049302190542,-0.04891457408666611,-4.201249248581007e-05,0.0,0.0,0.0,0.0,-0.000125871054478921,0.0010618920205160975,-0.000936995493248105,0.9994869828224182,0.0,0.0,0.0,-7.822518825531006,7.8223676681518555,1.3303121328353882,1415.891357421875,0
1957.246000000001,0.0053689321503043175,-0.04893100634217262,-4.516490298556164e-05,0.0,0.0,0.0,0.0,-0.001254542265087366,0.0037319825496524572,0.0023059495724737644,0.9986944198608398,0.0,0.0,0.0,-7.815779209136963,7.811540603637695,1.3216757774353027,1414.6715087890625,0
1967.1450000000004,0.0053633940406143665,-0.04895267263054848,-4.434005677467212e-05,0.0,0.0,0.0,0.0,0.0014040134847164154,0.0007321827579289675,-0.0019503331277519464,1.0001654624938965,0.0,0.0,0.0,-7.846933364868164,7.806691646575928,1.3086527585983276,1420.310546875,0
1977.0149999999994,0.005354584194719791,-0.04896985739469528,-4.8347887059208006e-05,0.0,0.0,0.0,0.0,-0.0010655320947989821,-0.0011227605864405632,0.0009422109578736126,1.0015290975570679,0.0,0.0,0.0,-7.839877605438232,7.790759086608887,1.2980005741119385,1419.033447265625,0
1986.9060000000009,0.005348416045308113,-0.0489797443151474,-4.3065407226094976e-05,0.0,0.0,0.0,0.0,0.0004020060587208718,-0.0030672133434563875,0.0004986653220839798,1.0009269714355469,0.0,0.0,0.0,-7.871286392211914,7.789101600646973,1.2907345294952393,1424.718505859375,0
1996.7900000000009,0.005336208734661341,-0.04900054633617401,-4.341296516940929e-05,0.0,0.0,0.0,0.0,0.0014397206250578165,-0.004932699725031853,0.00015768251614645123,1.0010157823562622,0.0,0.0,0.0,-7.862771511077881,7.781192779541016,1.2938836812973022,1423.17724609375,0
2006.6769999999997,0.0053694043308496475,-0.048986367881298065,-8.957485988503322e-06,0.0,0.0,0.0,0.0,-0.000614695658441633,-0.0003420407883822918,-0.0002605565241537988,0.9985331892967224,0.0,0.0,0.0,-7.878964424133301,7.782326698303223,1.3053611516952515,1426.108154296875,0
2016.5519999999997,0.005355674773454666,-0.04900723695755005,-4.945639375364408e-06,0.0,0.0,0.0,0.0,0.0018942398019134998,0.003539708210155368,-0.0010542250238358974,1.0002858638763428,0.0,0.0,0.0,-7.870946407318115,7.777075290679932,1.308160424232483,1424.656982421875,0
2026.4590000000007,0.0053294505923986435,-0.049018699675798416,6.271139682212379e-06,0.0,0.0,0.0,0.0,5.099034297018079e-06,0.0029144189320504665,-0.001970816869288683,1.0001696348190308,0.0,0.0,0.0,-7.9009294509887695,7.769804954528809,1.299049735069275,1430.0838623046875,0
2036.3230000000003,0.005312120541930199,-0.049044035375118256,1.1231887583562639e-05,0.0,0.0,0.0,0.0,-0.0012154028518125415,0.001379889901727438,0.0013574707554653287,0.9993317127227783,0.0,0.0,0.0,-7.893063545227051,7.76210880279541,1.2965315580368042,1428.66015625,0
2046.2260000000006,0.005301001016050577,-0.049049586057662964,4.009121039416641e-05,0.0,0.0,0.0,0.0,-0.004013929050415754,-0.001312072155997157,-0.0030309329740703106,0.9996047616004944,0.0,0.0,0.0,-7.92164945602417,7.768014430999756,1.2899305820465088,1433.8343505859375,0
2056.098,0.0052815452218055725,-0.04907749965786934,4.693095979746431e-05,0.0,0.0,0.0,0.0,-0.00013014562136959285,-0.005175509490072727,-0.0005529349436983466,0.9979662895202637,0.0,0.0,0.0,-7.914304733276367,7.764913558959961,1.286421775817871,1432.5048828125,0
2065.9889999999996,0.005274567287415266,-0.0490972176194191,6.916715938132256e-05,0.0,0.0,0.0,0.0,-0.0011512822238728404,-0.0038244735915213823,0.0006373050855472684,0.9987008571624756,0.0,0.0,0.0,-7.9297261238098145,7.767029762268066,1.296034574508667,1435.296142578125,0
2075.8629999999994,0.005250927060842514,-0.049129385501146317,7.52904306864366e-05,0.0,0.0,0.0,0.0,-7.469261618098244e-05,0.0018770892638713121,8.220002200687304e-05,0.9996410608291626,0.0,0.0,0.0,-7.9216766357421875,7.761484622955322,1.3134921789169312,1433.8392333984375,0
2085.754000000001,0.005274794530123472,-0.04914310574531555,0.00013386161299422383,0.0,0.0,0.0,0.0,-0.0036982691381126642,-0.0006169832777231932,-0.00032565626315772533,0.9986691474914551,0.0,0.0,0.0,-7.938267230987549,7.765682220458984,1.3288345336914062,1436.84228515625,0
2095.634,0.005251231603324413,-0.04917733371257782,0.00014338630717247725,0.0,0.0,0.0,0.0,-0.00015068548964336514,0.003945155069231987,-0.0014981500571593642,1.0017517805099487,0.0,0.0,0.0,-7.929928779602051,7.763832092285156,1.3375096321105957,1435.3328857421875,0
2105.523000000001,0.005267643369734287,-0.04918602854013443,0.00021034911333117634,0.0,0.0,0.0,0.0,-0.0005665628123097122,-0.0010704172309488058,0.004054652992635965,0.9995747804641724,0.0,0.0,0.0,-7.947164535522461,7.768968105316162,1.3487530946731567,1438.4525146484375,0
2115.407000000001,0.005248811561614275,-0.04922109842300415,0.00022596669441554695,0.0,0.0,0.0,0.0,-0.0012032905360683799,-0.008475618436932564,-0.00043972962885163724,0.9995142817497253,0.0,0.0,0.0,-7.938230514526367,7.757232189178467,1.3422091007232666,1436.83544921875,0
2125.2960000000003,0.005239520687609911,-0.04922425001859665,0.00027994674746878445,0.0,0.0,0.0,0.0,0.0015294961631298065,-0.007071979809552431,0.002574213547632098,0.9993894696235657,0.0,0.0,0.0,-7.954150199890137,7.768671989440918,1.3558335304260254,1439.7169189453125,0
2135.1810000000005,0.005221190396696329,-0.04926104471087456,0.00029864467796869576,0.0,0.0,0.0,0.0,-0.0014059446984902024,0.0016138043720275164,-0.002193358726799488,0.9996013641357422,0.0,0.0,0.0,-7.945777893066406,7.755556583404541,1.3673913478851318,1438.2015380859375,0
2145.063,0.005205978639423847,-0.04924802854657173,0.00035744626075029373,0.0,0.0,0.0,0.0,0.0005191602394916117,0.0012191131245344877,-0.0012754758354276419,0.9994540214538574,0.0,0.0,0.0,-7.957913398742676,7.777542591094971,1.3540239334106445,1440.3980712890625,0
2154.956,0.0051861354149878025,-0.04928561672568321,0.00037969567347317934,0.0,0.0,0.0,0.0,0.001151852193288505,0.00018213795556221157,-0.0015334985218942165,0.9985747933387756,0.0,0.0,0.0,-7.94997501373291,7.7687177658081055,1.340939998626709,1438.961181640625,0
2164.8379999999997,0.005171653348952532,-0.04927103593945503,0.00043987244134768844,0.0,0.0,0.0,0.0,-0.0022461849730461836,0.0017715177964419127,0.0015227915719151497,0.999297559261322,0.0,0.0,0.0,-7.963805675506592,7.78694486618042,1.3317761421203613,1441.464599609375,0
2174.7170000000006,0.005149765405803919,-0.04930706322193146,0.0004643686697818339,0.0,0.0,0.0,0.0,-0.002494978019967675,-0.00028504474903456867,0.0025517817120999098,0.9993770122528076,0.0,0.0,0.0,-7.955510139465332,7.780622959136963,1.3332898616790771,1439.963134765625,0
2184.6020000000008,0.005122800823301077,-0.04930135980248451,0.0005140099092386663,0.0,0.0,0.0,0.0,0.0026689774822443724,0.0030939695425331593,-0.0005068617174401879,1.000443458557129,0.0,0.0,0.0,-7.98124361038208,7.798007488250732,1.3234769105911255,1444.6209716796875,0
