timestamp,stateEstimate.x,stateEstimate.y,stateEstimate.z,controller.cmd_thrust,controller.cmd_roll,controller.cmd_pitch,controller.cmd_yaw,controller.r_roll,controller.r_pitch,controller.r_yaw,controller.accelz,controller.actuatorThrust,controller.roll,controller.pitch,controller.yaw,controller.rollRate,controller.pitchRate,controller.yawRate,controller.ctr_yaw
0.0,0.04562632367014885,0.004812601022422314,0.00010354887490393594,0.0,0.0,0.0,0.0,0.0017914911732077599,-0.0004940718063153327,0.0005207943613640964,0.9970076680183411,0.0,0.0,0.0,32.332923889160156,10.746877670288086,-0.1811336725950241,-5852.3232421875,0
9.886000000000422,0.045551005750894547,0.004772985354065895,4.9803074944065884e-05,0.0,0.0,0.0,0.0,0.0007745100883767009,-0.001183993648737669,0.004659727681428194,0.9957576990127563,0.0,0.0,0.0,32.29999923706055,10.735225677490234,-0.18097200989723206,-5846.36376953125,0
19.76800000000003,0.04558376222848892,0.004787313286215067,9.321417746832594e-05,0.0,0.0,0.0,0.0,-0.00044953919132240117,0.00167880579829216,-0.0010154407937079668,0.9981305599212646,0.0,0.0,0.0,32.315399169921875,10.738882064819336,-0.16350123286247253,-5849.15185546875,0
29.64600000000064,0.045554328709840775,0.004752250388264656,4.986800195183605e-05,0.0,0.0,0.0,0.0,0.0003192637232132256,-0.00101040443405509,-0.001556795439682901,0.9982522130012512,0.0,0.0,0.0,32.28965759277344,10.736559867858887,-0.19752010703086853,-5844.4921875,0
39.53199999999924,0.04558973014354706,0.00478324992582202,9.834759111981839e-05,0.0,0.0,0.0,0.0,0.003406956559047103,0.0016179932281374931,-0.0010745360050350428,0.998201310634613,0.0,0.0,0.0,32.30586624145508,10.736205101013184,-0.19242024421691895,-5847.42578125,0
49.427999999999884,0.04550790786743164,0.004794383887201548,6.285153358476236e-05,0.0,0.0,0.0,0.0,-0.001603226293809712,-0.003503629704937339,0.003723709611222148,0.9996747374534607,0.0,0.0,0.0,32.27353286743164,10.718428611755371,-0.19951626658439636,-5841.5732421875,0
59.30199999999968,0.04554346948862076,0.0048146373592317104,0.00010024804942077026,0.0,0.0,0.0,0.0,-0.001434803125448525,-9.972103725885972e-05,0.0016709588235244155,0.9969525337219238,0.0,0.0,0.0,32.295982360839844,10.71872615814209,-0.18272225558757782,-5845.63671875,0
69.20100000000093,0.045496534556150436,0.004816053900867701,7.006427767919376e-05,0.0,0.0,0.0,0.0,-0.0006160622579045594,-0.0022580688819289207,0.0047435639426112175,0.9974237680435181,0.0,0.0,0.0,32.27260208129883,10.72422981262207,-0.19149795174598694,-5841.4052734375,0
79.07600000000093,0.045527685433626175,0.00479377806186676,9.323049744125456e-05,0.0,0.0,0.0,0.0,-0.00015806066221557558,-0.0020122125279158354,0.00657456461340189,0.9976516366004944,0.0,0.0,0.0,32.29136657714844,10.716318130493164,-0.18978345394134521,-5844.80126953125,0
88.96800000000076,0.045564014464616776,0.0047532180324196815,6.623213266720995e-05,0.0,0.0,0.0,0.0,-0.001319492352195084,-0.0017644005129113793,-0.002455036388710141,0.9972838759422302,0.0,0.0,0.0,32.277225494384766,10.702159881591797,-0.19456392526626587,-5842.2421875,0
98.84900000000016,0.04559268057346344,0.004763076547533274,0.00011245557834627107,0.0,0.0,0.0,0.0,-0.002527519827708602,-0.0030090308282524347,0.0013890020782127976,0.9985498189926147,0.0,0.0,0.0,32.29202651977539,10.7013578414917,-0.18889263272285461,-5844.9208984375,0
108.73600000000079,0.04554680734872818,0.0047556147910654545,7.727752381470054e-05,0.0,0.0,0.0,0.0,0.0007426561205647886,-0.001752568525262177,-0.0037448632065206766,0.999329686164856,0.0,0.0,0.0,32.279388427734375,10.7080078125,-0.19304227828979492,-5842.63330078125,0
118.61199999999917,0.045550260692834854,0.004694685339927673,0.0001352799154119566,0.0,0.0,0.0,0.0,0.0016783297760412097,0.004859792999923229,0.002516062930226326,0.9988455772399902,0.0,0.0,0.0,32.29914474487305,10.699760437011719,-0.1927625983953476,-5846.20947265625,0
128.5030000000006,0.04550056904554367,0.004683203529566526,0.00010484787344466895,0.0,0.0,0.0,0.0,0.0006570469122380018,-0.002036019694060087,-0.0015134669374674559,0.9997703433036804,0.0,0.0,0.0,32.26823425292969,10.689746856689453,-0.20693472027778625,-5840.6142578125,0
138.3819999999996,0.045533742755651474,0.004711136221885681,0.00015788510791026056,0.0,0.0,0.0,0.0,-0.0018992226105183363,0.0024008266627788544,0.001030566869303584,0.9985870122909546,0.0,0.0,0.0,32.28440856933594,10.685955047607422,-0.20300161838531494,-5843.5419921875,0
148.27599999999984,0.0455438457429409,0.0046577551402151585,0.00012425366730894893,0.0,0.0,0.0,0.0,-0.002353168558329344,-0.00255380105227232,0.005589457228779793,0.999247133731842,0.0,0.0,0.0,32.271060943603516,10.67996883392334,-0.21689727902412415,-5841.1259765625,0
158.15400000000045,0.045612093061208725,0.004708993248641491,0.00014159042621031404,0.0,0.0,0.0,0.0,0.0009235292091034353,-0.005048460327088833,0.0003551346017047763,0.9998473525047302,0.0,0.0,0.0,32.28791427612305,10.683987617492676,-0.2012290507555008,-5844.1767578125,0
168.04299999999967,0.045532986521720886,0.004696359392255545,0.00010118416685145348,0.0,0.0,0.0,0.0,-0.00287090172059834,0.002487720688804984,-0.003266751766204834,0.9997939467430115,0.0,0.0,0.0,32.26206588745117,10.692307472229004,-0.20234337449073792,-5839.498046875,0
177.9300000000003,0.04563596472144127,0.004809494595974684,9.024280006997287e-05,0.0,0.0,0.0,0.0,-0.00020257130381651223,-0.005094888154417276,0.0017556209350004792,0.9990020394325256,0.0,0.0,0.0,32.27878952026367,10.69977855682373,-0.1826406568288803,-5842.52490234375,0
187.8189999999995,0.04562430828809738,0.00473822420462966,3.753280179807916e-05,0.0,0.0,0.0,0.0,-0.0017845069523900747,-0.0005207067588344216,-0.006712962873280048,0.9996621012687683,0.0,0.0,0.0,32.24790573120117,10.687646865844727,-0.16830004751682281,-5836.93505859375,0
197.69700000000012,0.045661550015211105,0.004738987889140844,8.074993820628151e-05,0.0,0.0,0.0,0.0,-0.00016641023103147745,0.0019741912838071585,0.0002638495061546564,1.0009336471557617,0.0,0.0,0.0,32.26763153076172,10.688007354736328,-0.15752021968364716,-5840.505859375,0
207.58699999999953,0.0456579327583313,0.0046752882190048695,3.817551987594925e-05,0.0,0.0,0.0,0.0,-0.00018098429427482188,-0.002883461071178317,-0.0008049759780988097,1.0005080699920654,0.0,0.0,0.0,32.2531623840332,10.680078506469727,-0.16439637541770935,-5837.88623046875,0
217.46099999999933,0.04570126160979271,0.004690565634518862,8.985966996988282e-05,0.0,0.0,0.0,0.0,-0.0013050510315224528,-0.007830790244042873,-0.002406641375273466,0.9985664486885071,0.0,0.0,0.0,32.27299499511719,10.680957794189453,-0.150826558470726,-5841.4765625,0
227.36199999999917,0.0456726960837841,0.004701960366219282,7.896689930930734e-05,0.0,0.0,0.0,0.0,-0.0029509158339351416,0.0009216544567607343,0.00032274131081067026,0.9969346523284912,0.0,0.0,0.0,32.24756622314453,10.692803382873535,-0.14204458892345428,-5836.87353515625,0
355.84599999999955,0.04566334933042526,0.004692369606345892,8.131249342113733e-05,0.0,0.0,0.0,0.0,0.0008562926668673754,-0.008753995411098003,0.0023702988401055336,1.0008435249328613,0.0,0.0,0.0,32.24119567871094,10.742873191833496,-0.14357519149780273,-5835.720703125,0
365.7420000000002,0.045632414519786835,0.004669913090765476,5.2784995205001906e-05,0.0,0.0,0.0,0.0,0.0020587891340255737,0.0014774184674024582,0.0021607857197523117,0.999843180179596,0.0,0.0,0.0,32.227352142333984,10.746508598327637,-0.13492242991924286,-5833.21533203125,0
375.6209999999992,0.04568056762218475,0.004698450677096844,0.00011259529128437862,0.0,0.0,0.0,0.0,0.0013640827964991331,-0.0018495103577151895,-0.002174064517021179,1.0005601644515991,0.0,0.0,0.0,32.246482849121094,10.74700927734375,-0.1319362372159958,-5836.67724609375,0
385.5159999999996,0.04566137120127678,0.00465054577216506,7.74007712607272e-05,0.0,0.0,0.0,0.0,-6.49894354864955e-05,0.003693841863423586,0.00104217987973243,0.9992284774780273,0.0,0.0,0.0,32.232051849365234,10.740983009338379,-0.14601102471351624,-5834.0654296875,0
395.3899999999994,0.045718964189291,0.004678094759583473,0.00013220052642282099,0.0,0.0,0.0,0.0,0.0012755077332258224,-0.001088481629267335,-0.0011432406026870012,0.9983677864074707,0.0,0.0,0.0,32.25117111206055,10.741756439208984,-0.14963111281394958,-5837.52587890625,0
405.28600000000006,0.045624617487192154,0.0046651666052639484,9.186522947857156e-05,0.0,0.0,0.0,0.0,-0.00048040959518402815,-0.00213741697371006,-0.0018181427149102092,0.9987478852272034,0.0,0.0,0.0,32.2197265625,10.72858715057373,-0.15006963908672333,-5831.83447265625,0
415.15500000000065,0.04564831033349037,0.004680541343986988,0.00018865731544792652,0.0,0.0,0.0,0.0,0.0020012040622532368,0.0002545416937209666,0.0003253059694543481,0.9975141882896423,0.0,0.0,0.0,32.23606872558594,10.733421325683594,-0.13904863595962524,-5834.79248046875,0
425.0589999999993,0.045630354434251785,0.004622213542461395,0.00015117082512006164,0.0,0.0,0.0,0.0,-0.004196340683847666,-0.0031332531943917274,-0.002389853587374091,0.9999833106994629,0.0,0.0,0.0,32.22201156616211,10.725857734680176,-0.14348605275154114,-5832.248046875,0
434.9290000000001,0.045677393674850464,0.004656399134546518,0.00022245173749979585,0.0,0.0,0.0,0.0,0.002229039091616869,0.0018252232111990452,-0.0029532064218074083,1.0001389980316162,0.0,0.0,0.0,32.239158630371094,10.74041748046875,-0.13003146648406982,-5835.3515625,0
444.8230000000003,0.0455823577940464,0.004644107073545456,0.00018713384633883834,0.0,0.0,0.0,0.0,0.0007884674123488367,0.001197151723317802,0.0006110662943683565,0.9981212019920349,0.0,0.0,0.0,32.2148323059082,10.744098663330078,-0.15605056285858154,-5830.94873046875,0
454.7029999999995,0.04561465233564377,0.004638174548745155,0.0002541198336984962,0.0,0.0,0.0,0.0,-0.0021500515285879374,0.0015595098957419395,0.0006186366663314402,0.996157705783844,0.0,0.0,0.0,32.23548126220703,10.736539840698242,-0.15690524876117706,-5834.6865234375,0
464.58899999999994,0.045576732605695724,0.004626651760190725,0.00023903166584204882,0.0,0.0,0.0,0.0,0.0002627421054057777,-0.0014141421997919679,0.003295202972367406,0.9990131258964539,0.0,0.0,0.0,32.22263717651367,10.738478660583496,-0.17256812751293182,-5832.361328125,0
474.47199999999975,0.045669954270124435,0.0047083101235330105,0.0002560541033744812,0.0,0.0,0.0,0.0,0.00027747172862291336,-0.0015953043475747108,-0.0023076506331562996,0.9993210434913635,0.0,0.0,0.0,32.24321746826172,10.740674018859863,-0.14968271553516388,-5836.0869140625,0
484.3649999999998,0.0455905981361866,0.004671679809689522,0.00021010101772844791,0.0,0.0,0.0,0.0,-0.0015261129010468721,-0.005016168113797903,0.002337053418159485,0.9983714818954468,0.0,0.0,0.0,32.218563079833984,10.742975234985352,-0.1672554463148117,-5831.62451171875,0
494.2350000000006,0.04566759243607521,0.004718089941889048,0.00023571256315335631,0.0,0.0,0.0,0.0,0.0013588113943114877,-0.003328013699501753,-0.001423391979187727,0.999843418598175,0.0,0.0,0.0,32.23833084106445,10.748589515686035,-0.14901340007781982,-5835.2021484375,0
504.1299999999992,0.04560374096035957,0.004691187292337418,0.00019827180949505419,0.0,0.0,0.0,0.0,0.002089940942823887,0.0059657022356987,0.0025007964577525854,0.999239981174469,0.0,0.0,0.0,32.224403381347656,10.752110481262207,-0.16509541869163513,-5832.68115234375,0
514.009,0.045706842094659805,0.004768358077853918,0.0001940366782946512,0.0,0.0,0.0,0.0,0.0027855364605784416,0.0006514374981634319,0.0017188022611662745,0.9986171722412109,0.0,0.0,0.0,32.24375534057617,10.751415252685547,-0.1605973094701767,-5836.18359375,0
523.8999999999996,0.045656971633434296,0.0047191232442855835,0.00014307245146483183,0.0,0.0,0.0,0.0,0.002395705319941044,0.008639386855065823,2.3708575099590234e-05,0.9976124167442322,0.0,0.0,0.0,32.22957229614258,10.744637489318848,-0.1796741783618927,-5833.61669921875,0
533.7739999999994,0.04574965685606003,0.004764556419104338,0.00013958639465272427,0.0,0.0,0.0,0.0,0.0003107786469627172,0.003041139105334878,-0.0010009300895035267,0.999530017375946,0.0,0.0,0.0,32.24846649169922,10.74122428894043,-0.18852607905864716,-5837.03662109375,0
543.6720000000005,0.04567287862300873,0.004730441141873598,8.147081825882196e-05,0.0,0.0,0.0,0.0,-2.4859813493094407e-05,0.0006684616673737764,0.0004845796211156994,0.9993705153465271,0.0,0.0,0.0,32.233158111572266,10.744458198547363,-0.218414768576622,-5834.265625,0
553.5450000000001,0.045759208500385284,0.004814506508409977,0.00010374486009823158,0.0,0.0,0.0,0.0,0.003418726846575737,0.005131684709340334,0.0011926491279155016,0.9973291754722595,0.0,0.0,0.0,32.2524528503418,10.750761985778809,-0.20673146843910217,-5837.7578125,0
563.4500000000007,0.045680489391088486,0.004797666799277067,4.9460977606941015e-05,0.0,0.0,0.0,0.0,-0.001834382303059101,-0.005102741066366434,0.0012236743932589889,0.9985197186470032,0.0,0.0,0.0,32.23902893066406,10.751030921936035,-0.23970957100391388,-5835.328125,0
573.3189999999995,0.045745328068733215,0.0048513999208807945,9.053994290297851e-05,0.0,0.0,0.0,0.0,9.92453278740868e-05,0.002343899104744196,-0.002146561862900853,0.9970930814743042,0.0,0.0,0.0,32.2578125,10.759969711303711,-0.2208794206380844,-5838.72802734375,0
583.2150000000001,0.04562348127365112,0.00480361795052886,4.18578929384239e-06,0.0,0.0,0.0,0.0,-0.0011826762929558754,-0.0032451017759740353,-0.00252084294334054,0.9986052513122559,0.0,0.0,0.0,32.23888397216797,10.766494750976562,-0.25820109248161316,-5835.3017578125,0
593.0840000000007,0.04565029218792915,0.004798023961484432,6.557410961249843e-05,0.0,0.0,0.0,0.0,-0.0029736547730863094,-0.0008910246542654932,0.001981389010325074,1.0021990537643433,0.0,0.0,0.0,32.25703048706055,10.764358520507812,-0.25113609433174133,-5838.58642578125,0
602.9770000000008,0.045594245195388794,0.004738512448966503,-2.93682751362212e-06,0.0,0.0,0.0,0.0,0.001996390288695693,-0.003756122663617134,0.001010503270663321,0.9984546303749084,0.0,0.0,0.0,32.24117660522461,10.765469551086426,-0.2702314257621765,-5835.71728515625,0
612.8559999999998,0.045592475682497025,0.004714356269687414,9.828632755670696e-05,0.0,0.0,0.0,0.0,-0.0026851051952689886,-0.0053935665637254715,9.601932106306776e-05,0.9985120892524719,0.0,0.0,0.0,32.254364013671875,10.755515098571777,-0.27120283246040344,-5838.1044921875,0
622.7510000000002,0.04555327072739601,0.004721019417047501,8.004589471966028e-05,0.0,0.0,0.0,0.0,-0.0006090522510930896,0.0005821330705657601,0.001096132560633123,0.9993572235107422,0.0,0.0,0.0,32.22214126586914,10.748693466186523,-0.26459845900535583,-5832.27197265625,0
632.6290000000008,0.045563824474811554,0.004669917281717062,0.0001561185927130282,0.0,0.0,0.0,0.0,-0.0031151382718235254,-0.0013751891674473882,0.0008514997316524386,0.9981633424758911,0.0,0.0,0.0,32.24311828613281,10.742873191833496,-0.2702881991863251,-5836.068359375,0
642.5259999999998,0.045562002807855606,0.0046313549391925335,0.00013257723185233772,0.0,0.0,0.0,0.0,0.0004597220104187727,-0.008080420084297657,0.0034984115045517683,1.0000674724578857,0.0,0.0,0.0,32.21912384033203,10.743240356445312,-0.2727954387664795,-5831.72607421875,0
652.3999999999996,0.04560600966215134,0.004663277883082628,0.00019903988868463784,0.0,0.0,0.0,0.0,-0.0006330555188469589,-0.0013309025671333075,-0.003960601519793272,0.9983739852905273,0.0,0.0,0.0,32.23250961303711,10.747485160827637,-0.24124346673488617,-5834.1484375,0
662.2860000000001,0.04561459645628929,0.004600330255925655,0.0001687531912466511,0.0,0.0,0.0,0.0,0.002157948911190033,0.00464273989200592,-0.0008080058614723384,0.9997233748435974,0.0,0.0,0.0,32.218345642089844,10.737703323364258,-0.24821837246418,-5831.58447265625,0
672.1640000000007,0.04565782845020294,0.004638828802853823,0.00024137538275681436,0.0,0.0,0.0,0.0,0.002121387282386422,0.0026759784668684006,-0.002898448845371604,0.9987379312515259,0.0,0.0,0.0,32.23564147949219,10.738429069519043,-0.2532466650009155,-5834.71533203125,0
682.0589999999993,0.04562321677803993,0.004599642474204302,0.00021095594274811447,0.0,0.0,0.0,0.0,0.003298004623502493,0.0011774817248806357,-7.437027670675889e-05,0.9962806701660156,0.0,0.0,0.0,32.22285842895508,10.732572555541992,-0.2790377140045166,-5832.4013671875,0
691.9410000000007,0.045715268701314926,0.004680168814957142,0.00023153120127972215,0.0,0.0,0.0,0.0,0.004910153336822987,0.0024669677950441837,-0.001351024373434484,0.9988504648208618,0.0,0.0,0.0,32.242191314697266,10.73139476776123,-0.262262225151062,-5835.90087890625,0
701.8299999999999,0.045643556863069534,0.004620132502168417,0.0001710228098090738,0.0,0.0,0.0,0.0,-0.0017856730846688151,-0.0032435108441859484,-0.0005877488292753696,1.0011323690414429,0.0,0.0,0.0,32.22730255126953,10.721994400024414,-0.28658851981163025,-5833.20556640625,0
711.7049999999999,0.04567467421293259,0.004609247203916311,0.00023750703257974237,0.0,0.0,0.0,0.0,0.0028754668310284615,0.0020616124384105206,-0.00011373204324627295,0.9988788366317749,0.0,0.0,0.0,32.24457550048828,10.724004745483398,-0.2781805396080017,-5836.33203125,0
721.5959999999995,0.04557153955101967,0.004604615271091461,0.00020022907119709998,0.0,0.0,0.0,0.0,-0.0018410664051771164,0.0028552853036671877,0.0020647221244871616,0.9964213967323303,0.0,0.0,0.0,32.221134185791016,10.726834297180176,-0.30174872279167175,-5832.08935546875,0
731.4809999999998,0.04566526040434837,0.004701800178736448,0.00021997885778546333,0.0,0.0,0.0,0.0,-0.0003087879449594766,-0.0020263507030904293,0.00010506159742362797,0.9981430768966675,0.0,0.0,0.0,32.23905944824219,10.738280296325684,-0.2931027114391327,-5835.333984375,0
741.366,0.04559417441487312,0.004659214988350868,0.00016579002840444446,0.0,0.0,0.0,0.0,-0.001020914874970913,0.0032096279319375753,-0.0031362574081867933,0.9981375932693481,0.0,0.0,0.0,32.214515686035156,10.743492126464844,-0.3121671676635742,-5830.8916015625,0
751.2489999999998,0.045636098831892014,0.004688922315835953,0.00023214703833218664,0.0,0.0,0.0,0.0,0.0010414995485916734,-0.0012815857771784067,0.00041857874020934105,0.9984005689620972,0.0,0.0,0.0,32.230186462402344,10.750785827636719,-0.3144095540046692,-5833.72802734375,0
761.1479999999992,0.04563125595450401,0.0046286387369036674,0.00018940499285236,0.0,0.0,0.0,0.0,-0.0007709215278737247,0.002597193466499448,-0.0005934055079706013,1.001137614250183,0.0,0.0,0.0,32.21842956542969,10.738914489746094,-0.32645687460899353,-5831.599609375,0
771.0139999999992,0.04571293294429779,0.004682580474764109,0.0002155408583348617,0.0,0.0,0.0,0.0,0.0006514244014397264,0.00395476259291172,-0.002894032746553421,0.9997583031654358,0.0,0.0,0.0,32.23225784301758,10.739764213562012,-0.31853538751602173,-5834.1025390625,0
780.9179999999997,0.045611344277858734,0.004665772430598736,0.00016614230116829276,0.0,0.0,0.0,0.0,-0.0033844546414911747,-0.0028989973943680525,0.0034475079737603664,0.9971742630004883,0.0,0.0,0.0,32.208335876464844,10.746973991394043,-0.3463011085987091,-5829.77294921875,0
790.7849999999999,0.045717716217041016,0.0047386023215949535,0.00015898002311587334,0.0,0.0,0.0,0.0,0.00015391924534924328,-0.0018278538482263684,0.003878172719851136,0.9997557401657104,0.0,0.0,0.0,32.22523880004883,10.760379791259766,-0.32118067145347595,-5832.83251953125,0
800.6859999999997,0.04566233605146408,0.004691016860306263,0.00010415945871500298,0.0,0.0,0.0,0.0,0.0010009844554588199,-0.003078897250816226,0.0013097518822178245,1.0004196166992188,0.0,0.0,0.0,32.210365295410156,10.761102676391602,-0.3303752541542053,-5830.14013671875,0
810.5519999999997,0.04575306549668312,0.00473698228597641,0.00010499500785954297,0.0,0.0,0.0,0.0,0.0001361254689982161,-0.00023123783466871828,-0.0009324821294285357,0.9989864826202393,0.0,0.0,0.0,32.23141098022461,10.758399963378906,-0.3011445105075836,-5833.94970703125,0
820.4459999999999,0.04561115801334381,0.004691874608397484,2.398851211182773e-05,0.0,0.0,0.0,0.0,0.0010797976283356547,-2.2046891899663024e-05,0.0021709126885980368,0.9981464743614197,0.0,0.0,0.0,32.21424102783203,10.766833305358887,-0.3276912569999695,-5830.84228515625,0
830.3250000000007,0.04569484665989876,0.004753889981657267,3.643746458692476e-05,0.0,0.0,0.0,0.0,0.00020678296277765185,-0.0030225361697375774,0.004759420640766621,0.9970781207084656,0.0,0.0,0.0,32.23113250732422,10.771907806396484,-0.31781473755836487,-5833.89892578125,0
840.2209999999995,0.04561735317111015,0.004714562091976404,-2.493577267159708e-05,0.0,0.0,0.0,0.0,0.0025749511551111937,0.0012111231917515397,0.002782381372526288,0.9999485015869141,0.0,0.0,0.0,32.205970764160156,10.77527904510498,-0.3254735469818115,-5829.3447265625,0
850.0949999999993,0.045650266110897064,0.004708371590822935,2.5919674953911453e-05,0.0,0.0,0.0,0.0,-0.00234186090528965,0.0011469087330624461,0.003836847608909011,0.9995911717414856,0.0,0.0,0.0,32.224510192871094,10.769943237304688,-0.31794828176498413,-5832.7001953125,0
859.9860000000008,0.045664746314287186,0.0046590641140937805,-9.924298865371384e-06,0.0,0.0,0.0,0.0,-0.0017533188220113516,-0.0015813885256648064,-0.0027383624110370874,0.9992024898529053,0.0,0.0,0.0,32.21159362792969,10.770675659179688,-0.3242703080177307,-5830.3623046875,0
869.8639999999996,0.04569781944155693,0.004670838825404644,5.5301607062574476e-05,0.0,0.0,0.0,0.0,0.003406104166060686,0.002149065723642707,0.0010293383384123445,0.9984769225120544,0.0,0.0,0.0,32.226314544677734,10.77883243560791,-0.3163810670375824,-5833.02685546875,0
879.759,0.04565589129924774,0.004635613411664963,1.3526432667276822e-05,0.0,0.0,0.0,0.0,-0.0010057305917143822,-0.0031181061640381813,0.0016610025195404887,0.9981022477149963,0.0,0.0,0.0,32.212833404541016,10.775794982910156,-0.3274582624435425,-5830.5869140625,0
889.634,0.0457003191113472,0.004628264345228672,5.485237488755956e-05,0.0,0.0,0.0,0.0,-0.002168584382161498,2.5627909053582698e-05,0.0023890105076134205,0.9997950792312622,0.0,0.0,0.0,32.2282600402832,10.77369213104248,-0.3160289525985718,-5833.37890625,0
899.5300000000007,0.045590296387672424,0.004591167438775301,-7.917228685982991e-06,0.0,0.0,0.0,0.0,0.0048269894905388355,0.001262305653654039,0.0021837842650711536,0.9989491701126099,0.0,0.0,0.0,32.21437072753906,10.77774429321289,-0.33514922857284546,-5830.865234375,0
909.402,0.04565132036805153,0.0046526407822966576,3.380485941306688e-05,0.0,0.0,0.0,0.0,-0.00024669148842804134,-0.0036811146419495344,0.0009724428527988493,1.0010364055633545,0.0,0.0,0.0,32.22915267944336,10.771034240722656,-0.32419851422309875,-5833.54052734375,0
919.2960000000003,0.04562699422240257,0.004648306872695684,1.3231308912509121e-05,0.0,0.0,0.0,0.0,0.00041504413820803165,0.0001294764515478164,-0.002257657004520297,1.001841425895691,0.0,0.0,0.0,32.214332580566406,10.772650718688965,-0.3110034465789795,-5830.8583984375,0
929.1730000000007,0.0456744059920311,0.004692389629781246,7.584386185044423e-05,0.0,0.0,0.0,0.0,-0.0020142975263297558,0.001932214479893446,0.0035703922621905804,1.000603199005127,0.0,0.0,0.0,32.229896545410156,10.779230117797852,-0.2940842807292938,-5833.67529296875,0
939.0630000000001,0.04561645910143852,0.004675587173551321,4.5809047151124105e-05,0.0,0.0,0.0,0.0,-0.0002652459661476314,-0.0003494356060400605,0.0037943455390632153,0.9985313415527344,0.0,0.0,0.0,32.20744705200195,10.788118362426758,-0.30836567282676697,-5829.61181640625,0
948.9410000000007,0.045683540403842926,0.004625917412340641,4.2887604649877176e-05,0.0,0.0,0.0,0.0,-0.004018747713416815,4.3178279156563804e-05,0.002113435184583068,0.9994397163391113,0.0,0.0,0.0,32.17726516723633,10.780304908752441,-0.3049343228340149,-5824.14892578125,0
958.8449999999993,0.04573221877217293,0.004662748426198959,0.00011389016435714439,0.0,0.0,0.0,0.0,-0.0019131951266899705,-0.006700110621750355,-0.003660819260403514,0.9990832209587097,0.0,0.0,0.0,32.1964111328125,10.796651840209961,-0.29760172963142395,-5827.6142578125,0
968.7129999999997,0.045803144574165344,0.004615672864019871,0.00011616614210652187,0.0,0.0,0.0,0.0,0.0014911110047250986,-0.0036524364259094,0.0022804036270827055,1.0000896453857422,0.0,0.0,0.0,32.1631965637207,10.7918062210083,-0.2926799952983856,-5821.6025390625,0
978.6090000000004,0.04587231203913689,0.004691764712333679,0.00017337618919555098,0.0,0.0,0.0,0.0,0.000580298132263124,-0.0023999596014618874,0.003618283197283745,0.998953640460968,0.0,0.0,0.0,32.185935974121094,10.806899070739746,-0.2679325342178345,-5825.71826171875,0
988.4809999999998,0.04595063254237175,0.004647598136216402,0.00018000412092078477,0.0,0.0,0.0,0.0,-0.0021285691764205694,0.002952244831249118,-0.002041539642959833,0.9968059062957764,0.0,0.0,0.0,32.15613555908203,10.789609909057617,-0.2616637647151947,-5820.3251953125,0
998.3739999999998,0.04599732905626297,0.004731201566755772,0.0002804986434057355,0.0,0.0,0.0,0.0,-0.0014021346578374505,0.004259043373167515,-0.0011391605949029326,0.9984601736068726,0.0,0.0,0.0,32.177799224853516,10.812750816345215,-0.2508176863193512,-5824.24560546875,0
1008.2540000000008,0.04607995226979256,0.004690670873969793,0.00029089796589687467,0.0,0.0,0.0,0.0,-0.0012810641201213002,-0.0024633232969790697,-0.0014317124150693417,0.9995667934417725,0.0,0.0,0.0,32.14631652832031,10.799674034118652,-0.2560828924179077,-5818.54736328125,0
1018.1450000000004,0.04609331116080284,0.004697489086538553,0.0004128062282688916,0.0,0.0,0.0,0.0,0.0022606661077588797,7.642053969902918e-05,0.0018862468423321843,1.0013867616653442,0.0,0.0,0.0,32.16983413696289,10.812094688415527,-0.25262290239334106,-5822.80419921875,0
1028.0310000000009,0.04617292806506157,0.004656179342418909,0.0004319814615882933,0.0,0.0,0.0,0.0,0.0002549710334278643,0.0019424308557063341,-0.0005612559034489095,0.9996998906135559,0.0,0.0,0.0,32.138267517089844,10.798017501831055,-0.25526949763298035,-5817.09033203125,0
1037.9249999999993,0.04618559405207634,0.0046466197818517685,0.0005459025269374251,0.0,0.0,0.0,0.0,0.0028572343289852142,-0.002030173083767295,0.00034881304600276053,0.9976475238800049,0.0,0.0,0.0,32.164005279541016,10.806615829467773,-0.2691816985607147,-5821.7490234375,0
1047.7999999999993,0.04626195505261421,0.0046036336570978165,0.0005725011578761041,0.0,0.0,0.0,0.0,-0.00445616664364934,-0.00586072588339448,0.0036757136695086956,0.9984623193740845,0.0,0.0,0.0,32.132423400878906,10.79352855682373,-0.26664215326309204,-5816.03271484375,0
1057.687,0.046290330588817596,0.00455869548022747,0.0006548743695020676,0.0,0.0,0.0,0.0,-0.0021293042227625847,-0.0002699292090255767,0.0009930804371833801,1.0004937648773193,0.0,0.0,0.0,32.16244888305664,10.79897403717041,-0.26528850197792053,-5821.46728515625,0
1067.5679999999993,0.04636690393090248,0.004514201544225216,0.000684560916852206,0.0,0.0,0.0,0.0,0.00016815168783068657,-0.000686590385157615,-0.002694224938750267,0.9997242093086243,0.0,0.0,0.0,32.1307487487793,10.790769577026367,-0.2704911530017853,-5815.72998046875,0
1077.4580000000005,0.04639814794063568,0.004528403747826815,0.0007852306007407606,0.0,0.0,0.0,0.0,-0.0023907097056508064,-0.0033402219414711,0.0035515762865543365,0.9997645020484924,0.0,0.0,0.0,32.160003662109375,10.800264358520508,-0.2668662369251251,-5821.02490234375,0
1087.3340000000007,0.04647468030452728,0.004489043727517128,0.0008206079946830869,0.0,0.0,0.0,0.0,0.0017342984210699797,-0.0037708331365138292,0.0012958007864654064,1.0007466077804565,0.0,0.0,0.0,32.12888717651367,10.795613288879395,-0.26594266295433044,-5815.392578125,0
1097.2379999999994,0.0465102419257164,0.004516586661338806,0.0009262033272534609,0.0,0.0,0.0,0.0,0.0015373830683529377,0.00029534296481870115,-0.00016229281027335674,0.998438835144043,0.0,0.0,0.0,32.15510940551758,10.806396484375,-0.2617638409137726,-5820.138671875,0
1107.1010000000006,0.04658842831850052,0.0044803800992667675,0.0009671050938777626,0.0,0.0,0.0,0.0,-0.0001678427797742188,-0.0022530071437358856,0.0020163971930742264,0.9983144998550415,0.0,0.0,0.0,32.123451232910156,10.794137001037598,-0.26917901635169983,-5814.40869140625,0
1116.9940000000006,0.046595554798841476,0.004445773083716631,0.0010722423903644085,0.0,0.0,0.0,0.0,0.001460640225559473,-0.004955039359629154,0.0005101259448565543,0.9981508851051331,0.0,0.0,0.0,32.15213394165039,10.792057037353516,-0.273716002702713,-5819.60009765625,0
1126.8709999999992,0.04667183756828308,0.004408418666571379,0.0011158967390656471,0.0,0.0,0.0,0.0,-0.0001847643288783729,0.0014842465752735734,0.0007775906706228852,0.9989726543426514,0.0,0.0,0.0,32.12040710449219,10.778255462646484,-0.262726753950119,-5813.85791015625,0
1136.7700000000004,0.04673919081687927,0.004439923912286758,0.0012047800701111555,0.0,0.0,0.0,0.0,0.00020886058337055147,-0.003155007492750883,-0.0008808579295873642,1.0006293058395386,0.0,0.0,0.0,32.1586799621582,10.793702125549316,-0.2488812357187271,-5820.78515625,0
1146.6399999999994,0.04682057723402977,0.004408115055412054,0.0012508183717727661,0.0,0.0,0.0,0.0,0.00370552740059793,0.0016067391261458397,-0.0013028550893068314,0.9989699721336365,0.0,0.0,0.0,32.127464294433594,10.783110618591309,-0.2452186793088913,-5815.13525390625,0
1156.5380000000005,0.04690339043736458,0.0043748123571276665,0.001297309878282249,0.0,0.0,0.0,0.0,-0.0015510297380387783,0.004357694648206234,0.0007954378379508853,0.9996556639671326,0.0,0.0,0.0,32.09545135498047,10.7632474899292,-0.2499426156282425,-5809.34033203125,0
1166.4130000000005,0.046987876296043396,0.004339882638305426,0.0013438788009807467,0.0,0.0,0.0,0.0,-0.0006448742933571339,0.005357205867767334,0.0033400284592062235,0.9995822906494141,0.0,0.0,0.0,32.06376266479492,10.754755020141602,-0.2582401931285858,-5803.60498046875,0
1176.3019999999997,0.04707467555999756,0.004304538015276194,0.0013906231615692377,0.0,0.0,0.0,0.0,-0.0008968557813204825,0.0031364394817501307,-0.0030201219487935305,0.9972430467605591,0.0,0.0,0.0,32.032596588134766,10.745841026306152,-0.2662697434425354,-5797.9638671875,0
1186.1839999999993,0.04716278985142708,0.004268107004463673,0.001436400692909956,0.0,0.0,0.0,0.0,0.0007627155864611268,0.003008108353242278,0.0011666412465274334,0.9968168139457703,0.0,0.0,0.0,32.00014114379883,10.734357833862305,-0.27436909079551697,-5792.08935546875,0
1196.0730000000003,0.04561745375394821,0.004693914204835892,0.00034755910746753216,0.0,0.0,0.0,0.0,-0.0008677611476741731,-0.001074056257493794,0.0006564243813045323,0.9993625283241272,0.0,0.0,0.0,31.994035720825195,10.910322189331055,-0.4488236904144287,-5790.984375,0
1205.9500000000007,0.045640796422958374,0.004671692382544279,0.00034870352828875184,0.0,0.0,0.0,0.0,0.0007529876893386245,0.0069172871299088,-0.002286374568939209,1.0002707242965698,0.0,0.0,0.0,31.96331024169922,10.899944305419922,-0.4499818682670593,-5785.4228515625,0
1215.8510000000006,0.04560943692922592,0.004618844483047724,0.0003036731795873493,0.0,0.0,0.0,0.0,0.00304478220641613,-0.0035788188688457012,-0.0007972114253789186,0.9997638463973999,0.0,0.0,0.0,31.959138870239258,10.882705688476562,-0.4646976888179779,-5784.66748046875,0
1225.7250000000004,0.0456385612487793,0.004592811688780785,0.0003031255619134754,0.0,0.0,0.0,0.0,-0.0016569545259699225,-0.004123264458030462,-0.001795669086277485,0.9979583621025085,0.0,0.0,0.0,31.92655372619629,10.864924430847168,-0.4588594436645508,-5778.77001953125,0
1235.6180000000004,0.04550544172525406,0.004564116708934307,0.0002766910183709115,0.0,0.0,0.0,0.0,-0.0029611950740218163,-0.001915625063702464,0.00271491426974535,0.998630940914154,0.0,0.0,0.0,31.915218353271484,10.864030838012695,-0.4679451286792755,-5776.71826171875,0
1245.4889999999996,0.04553431645035744,0.004534249659627676,0.0002727303944993764,0.0,0.0,0.0,0.0,-0.0014487762236967683,0.004981524311006069,-0.0029494415502995253,0.998666524887085,0.0,0.0,0.0,31.88445472717285,10.86234188079834,-0.46591466665267944,-5771.14990234375,0
1255.393,0.04556451737880707,0.004502949770539999,0.00026792282005771995,0.0,0.0,0.0,0.0,0.00046203722013160586,-0.0011806255206465721,-0.001466485671699047,1.000219464302063,0.0,0.0,0.0,31.852144241333008,10.853315353393555,-0.4684351682662964,-5765.30126953125,0
1265.2579999999998,0.04559721052646637,0.004469931125640869,0.00026310599059797823,0.0,0.0,0.0,0.0,-0.002283544512465596,-0.0012234352761879563,-0.0017200548900291324,0.9987054467201233,0.0,0.0,0.0,31.821020126342773,10.841577529907227,-0.4646129906177521,-5759.66796875,0
1275.1550000000007,0.04563334584236145,0.004435054026544094,0.0002583408204372972,0.0,0.0,0.0,0.0,-0.0026316160801798105,-0.0030115789268165827,0.0007867036038078368,0.9988548755645752,0.0,0.0,0.0,31.78923225402832,10.833732604980469,-0.45934632420539856,-5753.9140625,0
1285.0300000000007,0.04567204788327217,0.004399235360324383,0.00025301490677520633,0.0,0.0,0.0,0.0,0.00208842265419662,0.0034847732167690992,0.0023747552186250687,0.9980894327163696,0.0,0.0,0.0,31.75885772705078,10.829878807067871,-0.45123758912086487,-5748.41650390625,0
1294.9300000000003,0.04571253061294556,0.004362262785434723,0.00024684297386556864,0.0,0.0,0.0,0.0,0.0014061450492590666,-0.0031052695121616125,0.00022837352298665792,0.9987118244171143,0.0,0.0,0.0,31.7280330657959,10.818753242492676,-0.4609183967113495,-5742.8369140625,0
1304.8009999999995,0.04575440660119057,0.004322905093431473,0.0002397084899712354,0.0,0.0,0.0,0.0,-0.0007206083391793072,7.136293424991891e-05,-0.001792351366020739,0.9984926581382751,0.0,0.0,0.0,31.696857452392578,10.808574676513672,-0.4502171576023102,-5737.1943359375,0
1314.6939999999995,0.045797042548656464,0.0042824638076126575,0.0002317076432518661,0.0,0.0,0.0,0.0,-0.0028385852929204702,-0.0012085492489859462,0.0007528256974183023,0.9983022212982178,0.0,0.0,0.0,31.66529083251953,10.800986289978027,-0.44877198338508606,-5731.48046875,0
1324.5689999999995,0.045840393751859665,0.004242178983986378,0.0002226589131169021,0.0,0.0,0.0,0.0,0.001528010587207973,0.006320538930594921,-0.00443106796592474,0.9996033310890198,0.0,0.0,0.0,31.634477615356445,10.791769981384277,-0.44679176807403564,-5725.9033203125,0
1334.4629999999997,0.04588472843170166,0.004201349336653948,0.00021306052803993225,0.0,0.0,0.0,0.0,0.0035859502386301756,0.0003485013439785689,0.00027980635059066117,0.9996052384376526,0.0,0.0,0.0,31.60234832763672,10.776167869567871,-0.46578648686408997,-5720.087890625,0
1344.3379999999997,0.045930422842502594,0.004158957861363888,0.0002035173529293388,0.0,0.0,0.0,0.0,-0.0012626630486920476,0.00027997689903713763,4.0603135857963935e-05,0.9966456890106201,0.0,0.0,0.0,31.571178436279297,10.760478019714355,-0.47020113468170166,-5714.4462890625,0
1354.2340000000004,0.04597744718194008,0.004113217815756798,0.0001928825513459742,0.0,0.0,0.0,0.0,-8.92333555384539e-05,-0.0009147407836280763,0.001442199689336121,0.9996763467788696,0.0,0.0,0.0,31.539464950561523,10.754236221313477,-0.47470277547836304,-5708.70556640625,0
1364.1110000000008,0.046025846153497696,0.004064226523041725,0.00018103615730069578,0.0,0.0,0.0,0.0,0.0027722264640033245,1.5975745554897003e-05,0.002165887737646699,0.9979541897773743,0.0,0.0,0.0,31.50853157043457,10.746871948242188,-0.47620323300361633,-5703.10693359375,0
1374.0079999999998,0.04611746221780777,0.0044733383692801,0.0004296795232221484,0.0,0.0,0.0,0.0,0.0008044547284953296,0.0013328120112419128,-0.0024177178274840117,0.9990333914756775,0.0,0.0,0.0,31.597087860107422,10.830885887145996,-0.39701545238494873,-5719.13525390625,0
1383.8899999999994,0.04616909101605415,0.004447131883352995,0.0004320514271967113,0.0,0.0,0.0,0.0,-0.0013847493100911379,-0.004752925131469965,-0.003509932430461049,1.001668095588684,0.0,0.0,0.0,31.565683364868164,10.822590827941895,-0.4043928384780884,-5713.451171875,0
1393.7739999999994,0.04620933160185814,0.004557306412607431,0.0006219801725819707,0.0,0.0,0.0,0.0,-0.0001966906856978312,0.0008126575266942382,-0.0005694221472367644,1.0012446641921997,0.0,0.0,0.0,31.647659301757812,10.851191520690918,-0.3741237223148346,-5728.28955078125,0
1403.6479999999992,0.04626564309000969,0.004536567255854607,0.0006361666601151228,0.0,0.0,0.0,0.0,-2.998843410750851e-05,-0.0005670865066349506,-0.0011647924548014998,0.9991361498832703,0.0,0.0,0.0,31.615854263305664,10.843347549438477,-0.38295069336891174,-5722.53271484375,0
1413.5570000000007,0.04630858451128006,0.004569098819047213,0.0007747096824459732,0.0,0.0,0.0,0.0,-0.00026374682784080505,-0.005987909622490406,-0.0018341261893510818,1.0001415014266968,0.0,0.0,0.0,31.69576072692871,10.853543281555176,-0.36732834577560425,-5736.99609375,0
1423.4179999999997,0.04636875540018082,0.004550805315375328,0.0007958016940392554,0.0,0.0,0.0,0.0,0.002345078159123659,0.0015021724393591285,0.0012462896993383765,0.9989754557609558,0.0,0.0,0.0,31.664649963378906,10.846061706542969,-0.35812821984291077,-5731.36474609375,0
1433.312,0.04642035812139511,0.004569680895656347,0.0009017681586556137,0.0,0.0,0.0,0.0,0.0011905418941751122,-0.001655720523558557,0.00013841317559126765,1.0001569986343384,0.0,0.0,0.0,31.742551803588867,10.847970962524414,-0.34631773829460144,-5745.46484375,0
1443.1890000000003,0.04648170247673988,0.0045522707514464855,0.0009272717288695276,0.0,0.0,0.0,0.0,-0.00033793601323850453,-0.0011747871758416295,-0.002298057544976473,0.9995566010475159,0.0,0.0,0.0,31.71143341064453,10.833730697631836,-0.3455251455307007,-5739.83251953125,0
1453.0910000000003,0.04654359072446823,0.004533237777650356,0.0009530117968097329,0.0,0.0,0.0,0.0,-0.0004178375529590994,0.003787001594901085,0.0019320861902087927,0.9985723495483398,0.0,0.0,0.0,31.67995834350586,10.82264232635498,-0.3390887975692749,-5734.13525390625,0
1462.969000000001,0.04660635441541672,0.004511999897658825,0.0009784599533304572,0.0,0.0,0.0,0.0,-0.0006832242361269891,0.002403628546744585,-0.004675825592130423,0.9994440674781799,0.0,0.0,0.0,31.64972496032715,10.811966896057129,-0.34653377532958984,-5728.6630859375,0
1472.8619999999992,0.04667053744196892,0.004487903323024511,0.0010036251042038202,0.0,0.0,0.0,0.0,0.0016226853476837277,-0.003178425831720233,0.002709836233407259,0.9989335536956787,0.0,0.0,0.0,31.617807388305664,10.802446365356445,-0.3504391014575958,-5722.88671875,0
1482.7340000000004,0.04561760276556015,0.004746836610138416,0.00018772322800941765,0.0,0.0,0.0,0.0,-0.0003232547896914184,-0.008201333694159985,0.0028318280819803476,0.9987930059432983,0.0,0.0,0.0,31.650070190429688,10.949986457824707,-0.5180968046188354,-5728.7255859375,0
1492.6309999999994,0.04563504084944725,0.004726683255285025,0.00018068368081003428,0.0,0.0,0.0,0.0,8.167837677319767e-07,-0.00019251876801718026,-0.0011787788243964314,0.9988738298416138,0.0,0.0,0.0,31.61922836303711,10.940288543701172,-0.5091187357902527,-5723.1435546875,0
1502.5040000000008,0.04554803669452667,0.004691899288445711,0.0001227967586601153,0.0,0.0,0.0,0.0,-0.0028087631799280643,-0.006337542086839676,0.0009868340566754341,1.0005764961242676,0.0,0.0,0.0,31.6463680267334,10.92868709564209,-0.5130364298820496,-5728.05615234375,0
1512.3909999999996,0.045565925538539886,0.0046668630093336105,0.00011323684884700924,0.0,0.0,0.0,0.0,-0.0006786849698983133,0.0020208810456097126,0.00013700244016945362,0.9996460676193237,0.0,0.0,0.0,31.615310668945312,10.922750473022461,-0.49818506836891174,-5722.43359375,0
1522.2729999999992,0.04552331939339638,0.004633600823581219,8.931716729421169e-05,0.0,0.0,0.0,0.0,-0.001239019795320928,0.0021142009645700455,0.002993339905515313,0.9995557069778442,0.0,0.0,0.0,31.642133712768555,10.908016204833984,-0.4959322214126587,-5727.28955078125,0
1532.1679999999997,0.045545436441898346,0.004605048336088657,7.957573689054698e-05,0.0,0.0,0.0,0.0,-7.43766941013746e-05,-0.00047421656199730933,0.0003243996761739254,0.9985194802284241,0.0,0.0,0.0,31.6123104095459,10.900146484375,-0.5021275281906128,-5721.890625,0
1542.0380000000005,0.04551934450864792,0.004595919046550989,8.528048056177795e-05,0.0,0.0,0.0,0.0,0.003387985285371542,-0.0013606587890535593,0.0006263477844186127,0.9975732564926147,0.0,0.0,0.0,31.640989303588867,10.897748947143555,-0.49575263261795044,-5727.08203125,0
1551.929,0.04554636776447296,0.0045640249736607075,7.475336315110326e-05,0.0,0.0,0.0,0.0,-0.0007323726895265281,-0.006461820565164089,0.0020395193714648485,0.9986414909362793,0.0,0.0,0.0,31.610424041748047,10.881187438964844,-0.4972425699234009,-5721.54931640625,0
1561.808000000001,0.04549640789628029,0.004557354841381311,8.581356814829633e-05,0.0,0.0,0.0,0.0,0.00033296170295216143,-0.003551128786057234,-0.0037449398078024387,1.0001142024993896,0.0,0.0,0.0,31.62450408935547,10.886737823486328,-0.4795691967010498,-5724.09814453125,0
1571.7019999999993,0.04552676901221275,0.00452057458460331,7.557344360975549e-05,0.0,0.0,0.0,0.0,0.00047903417726047337,0.0010663480497896671,-0.001051977276802063,1.0006376504898071,0.0,0.0,0.0,31.592166900634766,10.876996994018555,-0.4723341166973114,-5718.2451171875,0
1581.5779999999995,0.04549400880932808,0.004516151268035173,9.59716344368644e-05,0.0,0.0,0.0,0.0,-0.0010617640800774097,-0.0030230311676859856,0.003238144563511014,0.9983597993850708,0.0,0.0,0.0,31.605175018310547,10.884488105773926,-0.47141170501708984,-5720.59912109375,0
1591.4709999999995,0.04552644491195679,0.004478351678699255,8.859413355821744e-05,0.0,0.0,0.0,0.0,0.0015817148378118873,-0.0014313996070995927,0.000499653338920325,0.9984050393104553,0.0,0.0,0.0,31.57482147216797,10.877606391906738,-0.47190967202186584,-5715.10498046875,0
1601.3510000000006,0.04548034071922302,0.004475845023989677,0.0001053817177307792,0.0,0.0,0.0,0.0,-0.0002461253316141665,0.0047040036879479885,0.001084262621589005,0.9990769624710083,0.0,0.0,0.0,31.587045669555664,10.887101173400879,-0.4602305293083191,-5717.318359375,0
1611.2569999999996,0.04551265761256218,0.004437843803316355,9.823626169236377e-05,0.0,0.0,0.0,0.0,-0.002730506006628275,-0.00029225784237496555,0.00035486952401697636,0.9971988797187805,0.0,0.0,0.0,31.55565643310547,10.87612247467041,-0.46354448795318604,-5711.63623046875,0
1621.1270000000004,0.04549620300531387,0.004454523790627718,0.000132167901028879,0.0,0.0,0.0,0.0,0.0019465852528810501,0.002857349580153823,-0.0004758399445563555,0.9986445903778076,0.0,0.0,0.0,31.573698043823242,10.895879745483398,-0.4503951072692871,-5714.90234375,0
1631.0149999999994,0.04552577808499336,0.00441859383136034,0.00012586488446686417,0.0,0.0,0.0,0.0,0.0014774409355595708,0.0027300750371068716,0.0020302918273955584,0.9983928203582764,0.0,0.0,0.0,31.542497634887695,10.881122589111328,-0.46348050236701965,-5709.25439453125,0
1640.8880000000008,0.0455421507358551,0.004460733383893967,0.0001826834341045469,0.0,0.0,0.0,0.0,2.6123574571101926e-05,0.00221639103256166,-0.0019186916761100292,0.9999930262565613,0.0,0.0,0.0,31.561779022216797,10.897418975830078,-0.45986250042915344,-5712.74462890625,0
1650.7780000000002,0.04557041451334953,0.004426584579050541,0.00018063178868032992,0.0,0.0,0.0,0.0,-0.0005679127643816173,-0.004595151171088219,0.002087999600917101,1.0000275373458862,0.0,0.0,0.0,31.5299129486084,10.887246131896973,-0.47066637873649597,-5706.97705078125,0
1660.6630000000005,0.045535776764154434,0.0044493116438388824,0.00019175447232555598,0.0,0.0,0.0,0.0,0.003725033951923251,0.005315416492521763,8.350226562470198e-05,0.9994286298751831,0.0,0.0,0.0,31.548917770385742,10.914848327636719,-0.46759822964668274,-5710.41650390625,0
1670.5529999999999,0.04556013271212578,0.004418743308633566,0.0001920108188642189,0.0,0.0,0.0,0.0,0.005904441699385643,-0.000600798986852169,-0.0007475675083696842,1.0005286931991577,0.0,0.0,0.0,31.517776489257812,10.901350975036621,-0.4772185683250427,-5704.7802734375,0
1680.4259999999995,0.045559633523225784,0.004462404642254114,0.0002261631452711299,0.0,0.0,0.0,0.0,-0.001341581461019814,-0.00144664675462991,-0.0005925154546275735,0.9993509650230408,0.0,0.0,0.0,31.53299331665039,10.917438507080078,-0.4708603024482727,-5707.5341796875,0
1690.33,0.04565616324543953,0.004621746484190226,0.00011306206579320133,0.0,0.0,0.0,0.0,-0.0005025807768106461,-0.0023693267721682787,0.0010403348132967949,0.9978001117706299,0.0,0.0,0.0,31.59752655029297,10.945520401000977,-0.42511147260665894,-5719.21484375,0
1700.1980000000003,0.04552612453699112,0.0046454500406980515,7.95008527347818e-05,0.0,0.0,0.0,0.0,-0.0015370188048109412,-0.0036187120713293552,-0.0002375520853092894,0.9999635219573975,0.0,0.0,0.0,31.607969284057617,10.95063304901123,-0.42192187905311584,-5721.10546875,0
1710.0910000000003,0.04555120691657066,0.004729146603494883,0.0001324468175880611,0.0,0.0,0.0,0.0,0.00036179108428768814,0.004317843355238438,-0.003676597261801362,0.9993631839752197,0.0,0.0,0.0,31.67137336730957,10.952260971069336,-0.39683523774147034,-5732.58154296875,0
1719.9650000000001,0.045533161610364914,0.004707739222794771,0.00011420276132412255,0.0,0.0,0.0,0.0,-0.0006495505804196,-0.0016947732074186206,0.0015494974795728922,0.9975326061248779,0.0,0.0,0.0,31.686397552490234,10.938211441040039,-0.40329134464263916,-5735.30078125,0
1729.8600000000006,0.04559807479381561,0.004827581346035004,0.00010850754188140854,0.0,0.0,0.0,0.0,0.0022142783273011446,-0.0022342302836477757,-0.0002969586057588458,0.9998226165771484,0.0,0.0,0.0,31.746091842651367,10.934452056884766,-0.3828312158584595,-5746.10546875,0
1739.7440000000006,0.045551642775535583,0.004786607343703508,6.346096051856875e-05,0.0,0.0,0.0,0.0,0.0012547008227556944,0.0038329996168613434,-0.0017491705948486924,0.9999945759773254,0.0,0.0,0.0,31.74481964111328,10.915597915649414,-0.37909039855003357,-5745.87548828125,0
1749.6319999999996,0.04556600749492645,0.00483748922124505,0.00012333229824434966,0.0,0.0,0.0,0.0,-0.003073869738727808,-0.0020471038296818733,-0.0010756485862657428,0.9999806880950928,0.0,0.0,0.0,31.79683494567871,10.903836250305176,-0.38249126076698303,-5755.2900390625,0
1759.5049999999992,0.04559502750635147,0.004748493432998657,8.02983486209996e-05,0.0,0.0,0.0,0.0,-0.0005946537130512297,0.0031149175483733416,-0.002447905018925667,0.9986652135848999,0.0,0.0,0.0,31.807126998901367,10.893481254577637,-0.3762982487678528,-5757.15283203125,0
1769.4089999999997,0.04561114311218262,0.004794605076313019,0.00014003801334183663,0.0,0.0,0.0,0.0,0.003494726959615946,-0.0013622924452647567,0.000622375460807234,0.9991781115531921,0.0,0.0,0.0,31.857833862304688,10.891642570495605,-0.373562216758728,-5766.3310546875,0
1779.277,0.0455932542681694,0.00473484443500638,9.906753257382661e-05,0.0,0.0,0.0,0.0,-0.00038034270983189344,0.00400432338938117,0.0032742940820753574,0.9998666644096375,0.0,0.0,0.0,31.866533279418945,10.872480392456055,-0.36917898058891296,-5767.90625,0
1789.1730000000007,0.04562189057469368,0.004791907966136932,0.00014871078019496053,0.0,0.0,0.0,0.0,3.902594471583143e-05,0.0015295733464881778,0.0020605437457561493,0.9978204369544983,0.0,0.0,0.0,31.914241790771484,10.86633014678955,-0.36557644605636597,-5776.54150390625,0
1799.0519999999997,0.04554690048098564,0.004755441099405289,0.00010390529496362433,0.0,0.0,0.0,0.0,-0.0013973679160699248,-0.00836265366524458,-0.0024471692740917206,0.9999616742134094,0.0,0.0,0.0,31.906110763549805,10.856847763061523,-0.3788776099681854,-5775.0693359375,0
1808.938,0.04558224231004715,0.004806960467249155,0.00014558632392436266,0.0,0.0,0.0,0.0,0.003643598174676299,-0.0018790197791531682,-0.0004966898704878986,0.9995742440223694,0.0,0.0,0.0,31.94633674621582,10.85717487335205,-0.3553655445575714,-5782.35107421875,0
1818.8250000000007,0.04556410014629364,0.004756482318043709,0.00010988930444000289,0.0,0.0,0.0,0.0,0.000943722843658179,-0.0015450493665412068,0.0007727677002549171,0.9995711445808411,0.0,0.0,0.0,31.934814453125,10.841866493225098,-0.3607356548309326,-5780.26513671875,0
1828.7199999999993,0.04559063911437988,0.004784726537764072,0.00015969379455782473,0.0,0.0,0.0,0.0,-0.00158985098823905,0.0014383530942723155,0.0006086521316319704,0.9990895390510559,0.0,0.0,0.0,31.970712661743164,10.836886405944824,-0.352700799703598,-5786.7626953125,0
1838.5869999999995,0.04552878066897392,0.0047773257829248905,0.0001383740163873881,0.0,0.0,0.0,0.0,-0.004312552977353334,-0.0018176843877881765,0.00031177260098047554,0.9988195896148682,0.0,0.0,0.0,31.956626892089844,10.832731246948242,-0.3655397593975067,-5784.212890625,0
1848.4899999999998,0.04552042856812477,0.0047235977835953236,0.00021836587984580547,0.0,0.0,0.0,0.0,-0.0010600426467135549,-0.004484707489609718,0.0021674134768545628,1.0019862651824951,0.0,0.0,0.0,31.9924259185791,10.828787803649902,-0.36580270528793335,-5790.69287109375,0
1858.3559999999998,0.0455896332859993,0.004633578937500715,0.0001991414901567623,0.0,0.0,0.0,0.0,0.0008163244929164648,-0.0014724726788699627,-0.001510288449935615,0.999284565448761,0.0,0.0,0.0,31.991331100463867,10.812633514404297,-0.3557257056236267,-5790.49462890625,0
1868.2540000000008,0.045663535594940186,0.004729357082396746,0.0002319944032933563,0.0,0.0,0.0,0.0,0.0026492062024772167,0.00032677126000635326,-0.0005658388254232705,1.0000503063201904,0.0,0.0,0.0,32.02311325073242,10.81103229522705,-0.3325681984424591,-5796.2470703125,0
1878.1280000000006,0.04562217369675636,0.0047353412955999374,0.00023118429817259312,0.0,0.0,0.0,0.0,-0.002228616503998637,0.00047074598842300475,0.00015952109242789447,0.9978534579277039,0.0,0.0,0.0,32.01288986206055,10.80273151397705,-0.33150714635849,-5794.396484375,0
1888.0370000000003,0.04567577689886093,0.004773144610226154,0.00027098218561150134,0.0,0.0,0.0,0.0,-0.0024630411062389612,-0.006319543346762657,-0.0024643251672387123,0.9975430369377136,0.0,0.0,0.0,32.04727554321289,10.80280590057373,-0.3211973309516907,-5800.62060546875,0
1897.902,0.045627810060977936,0.004688184708356857,0.00021415753872133791,0.0,0.0,0.0,0.0,0.00041720454464666545,-6.288971053436399e-05,0.0007687481120228767,0.9986408352851868,0.0,0.0,0.0,32.04381561279297,10.794902801513672,-0.32208362221717834,-5799.994140625,0
1907.8060000000005,0.04568854346871376,0.004742148797959089,0.0002550030476413667,0.0,0.0,0.0,0.0,-0.0007853839779272676,0.0023960466496646404,-0.004276070278137922,0.9981116056442261,0.0,0.0,0.0,32.07773971557617,10.794561386108398,-0.3104216158390045,-5806.13427734375,0
1917.6650000000009,0.04556037485599518,0.004677023738622665,0.00018069735961034894,0.0,0.0,0.0,0.0,-0.0001585824938956648,-0.0007695009117014706,0.0019462602213025093,1.001421570777893,0.0,0.0,0.0,32.06895065307617,10.793623924255371,-0.3348143696784973,-5804.54345703125,0
1927.5660000000007,0.04562957584857941,0.0047270990908145905,0.00020840013166889548,0.0,0.0,0.0,0.0,-0.0032022539526224136,-0.0046975803561508656,0.000930017966311425,1.002396821975708,0.0,0.0,0.0,32.10049057006836,10.794656753540039,-0.32099562883377075,-5810.25244140625,0
1937.4359999999997,0.04563538730144501,0.004689787048846483,0.0001938229106599465,0.0,0.0,0.0,0.0,0.0019217889057472348,-0.005462099798023701,0.001538082375191152,0.9984484314918518,0.0,0.0,0.0,32.08053970336914,10.79285717010498,-0.3150717318058014,-5806.6416015625,0
1947.3400000000001,0.045698508620262146,0.004731975961476564,0.0002355853357585147,0.0,0.0,0.0,0.0,-0.003319953568279743,-0.005915927700698376,0.0020369519479572773,0.9989623427391052,0.0,0.0,0.0,32.1099739074707,10.78882122039795,-0.29055702686309814,-5811.96923828125,0
1957.210000000001,0.04564637690782547,0.004711302928626537,0.00021250919962767512,0.0,0.0,0.0,0.0,-0.0013780752196907997,0.0013835274148732424,-8.511202031513676e-05,1.0002775192260742,0.0,0.0,0.0,32.09187698364258,10.795477867126465,-0.28833523392677307,-5808.693359375,0
1967.1100000000006,0.04573579132556915,0.004775075241923332,0.00022802481544204056,0.0,0.0,0.0,0.0,0.0032761883921921253,-0.0022854930721223354,-0.0012734306510537863,1.0002344846725464,0.0,0.0,0.0,32.11239242553711,10.795475959777832,-0.2765730321407318,-5812.4072265625,0
1976.9869999999992,0.04562315717339516,0.00472911586984992,0.0001690957578830421,0.0,0.0,0.0,0.0,-0.0022159970831125975,-0.005688464269042015,0.001708740834146738,0.9990390539169312,0.0,0.0,0.0,32.094696044921875,10.78650951385498,-0.30513718724250793,-5809.2041015625,0
1986.884,0.045674584805965424,0.004745126236230135,0.00021813744388055056,0.0,0.0,0.0,0.0,-0.0030608109664171934,0.00039215359720401466,-0.001823754864744842,0.9994860291481018,0.0,0.0,0.0,32.12098693847656,10.785442352294922,-0.2933867275714874,-5813.962890625,0
1996.7530000000006,0.04559271037578583,0.00470002181828022,0.00016903407231438905,0.0,0.0,0.0,0.0,-4.7710404032841325e-05,-0.004548078868538141,0.003846605308353901,0.9978282451629639,0.0,0.0,0.0,32.101524353027344,10.787095069885254,-0.3093265891075134,-5810.43994140625,0
2006.6380000000008,0.04565277323126793,0.004730076063424349,0.00021142710465937853,0.0,0.0,0.0,0.0,0.004725857172161341,0.002516749082133174,0.0017266240902245045,0.9984582662582397,0.0,0.0,0.0,32.1229133605957,10.784671783447266,-0.29025477170944214,-5814.3115234375,0
2016.5169999999998,0.04558539763092995,0.004686865955591202,0.00016595730266999453,0.0,0.0,0.0,0.0,-0.003001440316438675,-0.0015523153124377131,-0.0011039621895179152,0.9991351962089539,0.0,0.0,0.0,32.10464859008789,10.768177032470703,-0.3099120557308197,-5811.00537109375,0
2026.4060000000009,0.0456591434776783,0.0047434656880795956,0.000196463632164523,0.0,0.0,0.0,0.0,0.0031656052451580763,0.0038332988042384386,-0.0003843480080831796,0.9982321262359619,0.0,0.0,0.0,32.132423400878906,10.77101993560791,-0.2838034927845001,-5816.03271484375,0
2036.2829999999994,0.04559026286005974,0.004687188193202019,0.0001431993441656232,0.0,0.0,0.0,0.0,-0.0018644967349246144,-0.0035364313516765833,-0.000591201416682452,0.9990332722663879,0.0,0.0,0.0,32.110591888427734,10.762357711791992,-0.3023318946361542,-5812.0810546875,0
2046.1779999999999,0.04565517231822014,0.004741213284432888,0.00018469174392521381,0.0,0.0,0.0,0.0,0.0017151213251054287,-0.0004487579863052815,-0.002413596026599407,0.9985681772232056,0.0,0.0,0.0,32.13777160644531,10.767034530639648,-0.28232520818710327,-5817.00048828125,0
2056.0589999999993,0.04560228809714317,0.00469261733815074,0.00013528947602026165,0.0,0.0,0.0,0.0,-0.0020278780721127987,-0.0016510691493749619,0.0003578111936803907,0.9975172877311707,0.0,0.0,0.0,32.11703872680664,10.765863418579102,-0.29259300231933594,-5813.248046875,0
2065.9500000000007,0.04570145532488823,0.004754799418151379,0.00012758505181409419,0.0,0.0,0.0,0.0,0.0030339534860104322,0.00472048157826066,0.0010270002530887723,0.9988629817962646,0.0,0.0,0.0,32.147762298583984,10.771195411682129,-0.2729147672653198,-5818.8095703125,0
2075.8320000000003,0.04557936638593674,0.0047762431204319,8.536767563782632e-05,0.0,0.0,0.0,0.0,-0.00013284877059049904,-0.00106526049785316,-0.0020602054428309202,1.0009156465530396,0.0,0.0,0.0,32.128143310546875,10.773938179016113,-0.30263641476631165,-5815.25830078125,0
2085.732,0.0456673763692379,0.0048218886367976665,8.266989607363939e-05,0.0,0.0,0.0,0.0,-0.0008460109238512814,0.00015107810031622648,-0.0007155373459681869,0.9991704821586609,0.0,0.0,0.0,32.16033172607422,10.771344184875488,-0.2865402400493622,-5821.083984375,0
2095.607,0.04566432535648346,0.00476407166570425,3.0348521249834448e-05,0.0,0.0,0.0,0.0,-0.001505171530880034,-0.0009291583555750549,-0.0007692163926549256,0.99903404712677,0.0,0.0,0.0,32.149085998535156,10.760103225708008,-0.2949504256248474,-5819.048828125,0
2105.486999999999,0.04574567824602127,0.004842481575906277,5.823389074066654e-05,0.0,0.0,0.0,0.0,0.0016052722930908203,-0.0007262472063302994,0.0033063283190131187,0.9989833235740662,0.0,0.0,0.0,32.1778678894043,10.763426780700684,-0.27432337403297424,-5824.25830078125,0
2115.370999999999,0.045700084418058395,0.0047829169780015945,-1.0111232768394984e-05,0.0,0.0,0.0,0.0,-0.0025155406910926104,-0.000664877297822386,-0.00034565298119559884,0.9999076724052429,0.0,0.0,0.0,32.166595458984375,10.75819206237793,-0.2860102653503418,-5822.2177734375,0
2125.2620000000006,0.045687802135944366,0.004731661640107632,0.00010737456614151597,0.0,0.0,0.0,0.0,0.001858241157606244,-0.006052219308912754,-0.002001717919483781,1.0005271434783936,0.0,0.0,0.0,32.19183349609375,10.760282516479492,-0.28848186135292053,-5826.78564453125,0
2135.147000000001,0.04565392807126045,0.0047178491950035095,7.66762750572525e-05,0.0,0.0,0.0,0.0,0.0006818996625952423,0.0024146975483745337,-0.0006145504303276539,0.9991138577461243,0.0,0.0,0.0,32.180809020996094,10.75748348236084,-0.28025856614112854,-5824.79052734375,0
2145.0370000000003,0.04565808176994324,0.004666855558753014,0.00017677914001978934,0.0,0.0,0.0,0.0,-0.0022202772088348866,0.0026346449740231037,0.0010137299541383982,0.9965327382087708,0.0,0.0,0.0,32.20209884643555,10.745936393737793,-0.28888967633247375,-5828.64404296875,0
2154.91,0.0455513596534729,0.0046982914209365845,0.00015849350893404335,0.0,0.0,0.0,0.0,-0.001061015878804028,-0.002569823991507292,0.0029260048177093267,0.9967517256736755,0.0,0.0,0.0,32.17920684814453,10.761859893798828,-0.30768465995788574,-5824.50048828125,0
2164.7960000000003,0.045580752193927765,0.004666866734623909,0.00022625226119998842,0.0,0.0,0.0,0.0,-0.002552017569541931,0.003431847086176276,0.003359717782586813,0.9972774386405945,0.0,0.0,0.0,32.199256896972656,10.75771427154541,-0.3022083640098572,-5828.12939453125,0
2174.6929999999993,0.045515939593315125,0.004675919655710459,0.00020870560547336936,0.0,0.0,0.0,0.0,-0.0002299287007190287,-0.0026054885238409042,-0.00011029304005205631,0.9997467994689941,0.0,0.0,0.0,32.17779541015625,10.76464557647705,-0.31184208393096924,-5824.2451171875,0
2184.5650000000005,0.04556765779852867,0.004694647155702114,0.00026894547045230865,0.0,0.0,0.0,0.0,-0.0006675985641777515,0.004532392602413893,0.004915878642350435,0.9991071820259094,0.0,0.0,0.0,32.20183181762695,10.763848304748535,-0.2948656380176544,-5828.595703125,0
2194.4580000000005,0.045562516897916794,0.004632625728845596,0.0002342294465051964,0.0,0.0,0.0,0.0,-0.0028700451366603374,-0.007993037812411785,0.0009291743626818061,0.9978441596031189,0.0,0.0,0.0,32.18109130859375,10.756523132324219,-0.3143342435359955,-5824.84130859375,0
2204.339,0.045652709901332855,0.004678242839872837,0.00025417417054995894,0.0,0.0,0.0,0.0,-0.0006131690461188555,0.0017673379043117166,-0.000293975870590657,0.9991082549095154,0.0,0.0,0.0,32.203338623046875,10.762863159179688,-0.2860887348651886,-5828.86865234375,0
2214.223,0.045632462948560715,0.004622061271220446,0.0002122619771398604,0.0,0.0,0.0,0.0,0.00019449058163445443,0.00279140193015337,0.002387271961197257,0.9970954060554504,0.0,0.0,0.0,32.19395065307617,10.755793571472168,-0.3090135157108307,-5827.1689453125,0
2224.1100000000006,0.04572632163763046,0.004681038670241833,0.00023530019097961485,0.0,0.0,0.0,0.0,-0.003292536363005638,-0.00467131519690156,0.0008369013085030019,0.9988789558410645,0.0,0.0,0.0,32.216678619384766,10.756314277648926,-0.30363789200782776,-5831.283203125,0
2233.992,0.045630794018507004,0.0046579367481172085,0.00018301827367395163,0.0,0.0,0.0,0.0,-0.0026079935487359762,0.0009652787703089416,-0.00020732032135128975,1.001430630683899,0.0,0.0,0.0,32.203285217285156,10.764326095581055,-0.31087660789489746,-5828.85888671875,0
2243.8809999999994,0.045706190168857574,0.004669245332479477,0.0002044765860773623,0.0,0.0,0.0,0.0,0.0007375810528174043,0.0011657486902549863,-0.0013550888979807496,1.001988410949707,0.0,0.0,0.0,32.227272033691406,10.767988204956055,-0.30866482853889465,-5833.2001953125,0
2253.7620000000006,0.045568834990262985,0.004697681404650211,0.00016951927682384849,0.0,0.0,0.0,0.0,0.00046772477799095213,-0.0017899763770401478,0.003130019875243306,0.9973711967468262,0.0,0.0,0.0,32.202239990234375,10.784202575683594,-0.3377600312232971,-5828.66943359375,0
2263.6550000000007,0.04568461328744888,0.00477049732580781,0.0001531686430098489,0.0,0.0,0.0,0.0,0.00044524503755383193,0.0027425296138972044,0.0017998520052060485,0.9957589507102966,0.0,0.0,0.0,32.22401428222656,10.78874683380127,-0.3216416835784912,-5832.61083984375,0
2273.5249999999996,0.04565365985035896,0.004720688797533512,0.00010151456808671355,0.0,0.0,0.0,0.0,0.0034628729335963726,0.0012710627634078264,0.00019494564912747592,0.9980367422103882,0.0,0.0,0.0,32.21028518676758,10.782785415649414,-0.3445720672607422,-5830.12548828125,0
