timestamp,stateEstimate.x,stateEstimate.y,stateEstimate.z,controller.cmd_thrust,controller.cmd_roll,controller.cmd_pitch,controller.cmd_yaw,controller.r_roll,controller.r_pitch,controller.r_yaw,controller.accelz,controller.actuatorThrust,controller.roll,controller.pitch,controller.yaw,controller.rollRate,controller.pitchRate,controller.yawRate,controller.ctr_yaw
0.0,0.042229779064655304,-0.013254440389573574,4.3362248106859624e-05,0.0,0.0,0.0,0.0,0.0004903314984403551,-0.002740912837907672,-0.0011984360171481967,1.000382900238037,0.0,0.0,0.0,14.304816246032715,11.29495620727539,-1.3310762643814087,-2589.2001953125,0
9.871000000001004,0.04220987483859062,-0.013263334520161152,7.9774996265769e-05,0.0,0.0,0.0,0.0,0.0010698215337470174,-0.0022311152424663305,0.0013536667684093118,1.0001708269119263,0.0,0.0,0.0,14.319537162780762,11.296867370605469,-1.3252655267715454,-2591.864501953125,0
19.764000000001033,0.04222220182418823,-0.013298805803060532,0.00010639580432325602,0.0,0.0,0.0,0.0,-0.0021633775904774666,-0.000555847364012152,0.002184272976592183,1.0013737678527832,0.0,0.0,0.0,14.305182456970215,11.287817001342773,-1.3254178762435913,-2589.266357421875,0
29.640000000001237,0.04220257326960564,-0.013310517184436321,0.00013562747335527092,0.0,0.0,0.0,0.0,-0.00030498678097501397,-0.001504820422269404,-0.0006278412183746696,1.0008952617645264,0.0,0.0,0.0,14.32149887084961,11.291879653930664,-1.3372315168380737,-2592.2197265625,0
39.54000000000087,0.04221783205866814,-0.013345322571694851,0.00016595616762060672,0.0,0.0,0.0,0.0,3.979106622864492e-05,0.003976328298449516,-0.001758026541210711,1.0006797313690186,0.0,0.0,0.0,14.305595397949219,11.281455039978027,-1.3448078632354736,-2589.341064453125,0
49.413000000000466,0.04220891371369362,-0.013340993784368038,0.0002078678662655875,0.0,0.0,0.0,0.0,-0.005682256072759628,-0.00020724584464915097,-0.002677787560969591,0.9998432397842407,0.0,0.0,0.0,14.325883865356445,11.289448738098145,-1.3583574295043945,-2593.013427734375,0
59.306000000000495,0.042223431169986725,-0.013377426192164421,0.00024141113681253046,0.0,0.0,0.0,0.0,-0.0012685037218034267,-0.0028216750361025333,0.0023702194448560476,0.9986523985862732,0.0,0.0,0.0,14.310564041137695,11.282175064086914,-1.35892915725708,-2590.240478515625,0
69.17900000000009,0.04219759628176689,-0.01337199006229639,0.0002721759374253452,0.0,0.0,0.0,0.0,0.002267558127641678,0.005591496825218201,-0.00440755533054471,1.0003585815429688,0.0,0.0,0.0,14.325706481933594,11.292317390441895,-1.3690177202224731,-2592.9814453125,0
79.07799999999952,0.042210545390844345,-0.013409125618636608,0.00030654831789433956,0.0,0.0,0.0,0.0,-0.0007246859022416174,-0.0030521841254085302,-0.003890995169058442,0.9999357461929321,0.0,0.0,0.0,14.311037063598633,11.27930736541748,-1.3723574876785278,-2590.326171875,0
88.95200000000114,0.042183730751276016,-0.01340238843113184,0.000337296340148896,0.0,0.0,0.0,0.0,0.0006368570611812174,-0.0011682402109727263,0.00017381519137416035,0.9984767436981201,0.0,0.0,0.0,14.322930335998535,11.284403800964355,-1.3778716325759888,-2592.478759765625,0
98.84500000000116,0.04219285398721695,-0.013439439237117767,0.00037228839937597513,0.0,0.0,0.0,0.0,-0.0016520910430699587,-0.00018389025353826582,-0.001518278382718563,1.0001486539840698,0.0,0.0,0.0,14.309008598327637,11.271866798400879,-1.3803445100784302,-2589.958984375,0
108.72199999999975,0.04218968376517296,-0.0134264612570405,0.00040277381776832044,0.0,0.0,0.0,0.0,-0.0006945064524188638,-0.0013888768153265119,0.0038113086484372616,1.0015743970870972,0.0,0.0,0.0,14.323493003845215,11.282536506652832,-1.3747605085372925,-2592.58056640625,0
118.61399999999958,0.04219822958111763,-0.013462826609611511,0.00044051100849173963,0.0,0.0,0.0,0.0,0.0017090322216972709,0.0015191815327852964,0.001676957937888801,1.0001546144485474,0.0,0.0,0.0,14.309638977050781,11.274700164794922,-1.3724788427352905,-2590.0732421875,0
128.4920000000002,0.042172059416770935,-0.013450787402689457,0.00046050333185121417,0.0,0.0,0.0,0.0,0.0017286584479734302,-0.0021844650618731976,-0.0002302444918313995,0.9982879757881165,0.0,0.0,0.0,14.325471878051758,11.285080909729004,-1.3817522525787354,-2592.93896484375,0
138.38000000000102,0.04217886924743652,-0.013488439843058586,0.0004990354063920677,0.0,0.0,0.0,0.0,0.0006426387699320912,0.004231443163007498,-0.0038160113617777824,0.9998751878738403,0.0,0.0,0.0,14.31086254119873,11.268058776855469,-1.3798028230667114,-2590.294677734375,0
148.25900000000001,0.04213586449623108,-0.013486252166330814,0.0005245106294751167,0.0,0.0,0.0,0.0,0.0004961747908964753,-0.003465950256213546,0.002062542364001274,1.0003538131713867,0.0,0.0,0.0,14.324319839477539,11.277673721313477,-1.400290846824646,-2592.730224609375,0
158.15600000000086,0.042135998606681824,-0.013524757698178291,0.0005633996333926916,0.0,0.0,0.0,0.0,6.964581552892923e-05,-0.0019405869534239173,0.0031351959332823753,0.9979605674743652,0.0,0.0,0.0,14.310751914978027,11.267090797424316,-1.3961092233657837,-2590.2744140625,0
168.03300000000127,0.042124584317207336,-0.013513446785509586,0.00058135692961514,0.0,0.0,0.0,0.0,0.0010872026905417442,0.00510287843644619,-0.00283229211345315,0.9982064962387085,0.0,0.0,0.0,14.324213981628418,11.271783828735352,-1.3996113538742065,-2592.711181640625,0
177.9320000000007,0.042123761028051376,-0.013554023578763008,0.000618999358266592,0.0,0.0,0.0,0.0,0.0019061670172959566,-0.002736130030825734,0.00010593178012641147,0.9999157786369324,0.0,0.0,0.0,14.308795928955078,11.255897521972656,-1.4126733541488647,-2589.92041015625,0
187.79700000000048,0.04212488979101181,-0.013535672798752785,0.000658843491692096,0.0,0.0,0.0,0.0,0.00013029541878495365,0.0035520263481885195,-0.0023516754154115915,1.0009818077087402,0.0,0.0,0.0,14.323760032653809,11.26639175415039,-1.4044628143310547,-2592.629150390625,0
197.69700000000012,0.04212526977062225,-0.013576652854681015,0.0006997216842137277,0.0,0.0,0.0,0.0,0.0012580747716128826,-0.004412093199789524,-0.001235569710843265,1.0003401041030884,0.0,0.0,0.0,14.308930397033691,11.254364013671875,-1.399518370628357,-2589.94482421875,0
207.56800000000112,0.04210599511861801,-0.01356640737503767,0.0007114356849342585,0.0,0.0,0.0,0.0,-0.00042028469033539295,0.0005583268357440829,-0.0019539794884622097,0.99868243932724,0.0,0.0,0.0,14.320688247680664,11.262421607971191,-1.3983663320541382,-2592.072998046875,0
217.46100000000115,0.042103737592697144,-0.013609180226922035,0.0007527007255703211,0.0,0.0,0.0,0.0,-0.001885462086647749,-0.0025432382244616747,-0.002991178072988987,0.9974133372306824,0.0,0.0,0.0,14.305919647216797,11.252330780029297,-1.4069522619247437,-2589.39990234375,0
227.33600000000115,0.04207968711853027,-0.013598532415926456,0.0007575415656901896,0.0,0.0,0.0,0.0,-0.002518693683668971,-0.0026565641164779663,0.0010582688264548779,1.000067949295044,0.0,0.0,0.0,14.318647384643555,11.262847900390625,-1.4128923416137695,-2591.70361328125,0
237.2430000000004,0.042075641453266144,-0.013642656616866589,0.0007973550818860531,0.0,0.0,0.0,0.0,0.0016985699767246842,-0.0033880299888551235,-0.001468509784899652,0.9993969798088074,0.0,0.0,0.0,14.305265426635742,11.254688262939453,-1.4069006443023682,-2589.281494140625,0
247.10699999999997,0.04206706956028938,-0.013623855076730251,0.0008016786305233836,0.0,0.0,0.0,0.0,-0.0022741693537682295,-0.000992140849120915,0.0027464027516543865,0.9983050227165222,0.0,0.0,0.0,14.318968772888184,11.26378345489502,-1.400558352470398,-2591.76171875,0
257.0079999999998,0.04206166788935661,-0.01366738136857748,0.0008413640898652375,0.0,0.0,0.0,0.0,0.0005875452770851552,0.0030162655748426914,-0.0010599521920084953,1.0003087520599365,0.0,0.0,0.0,14.305740356445312,11.253667831420898,-1.3904880285263062,-2589.367431640625,0
266.8770000000004,0.04204791411757469,-0.013646125793457031,0.0008358341292478144,0.0,0.0,0.0,0.0,-0.0010149501031264663,0.00012510323722381145,0.0003561982011888176,0.9986453056335449,0.0,0.0,0.0,14.318320274353027,11.260262489318848,-1.4004710912704468,-2591.644287109375,0
276.77200000000084,0.0420406311750412,-0.013688884675502777,0.0008753151050768793,0.0,0.0,0.0,0.0,0.0013202588306739926,0.008191410452127457,0.00081171392230317,0.998879075050354,0.0,0.0,0.0,14.304585456848145,11.248357772827148,-1.3958077430725098,-2589.158447265625,0
286.64600000000064,0.042035508900880814,-0.01366895530372858,0.0008602344896644354,0.0,0.0,0.0,0.0,0.0013143201358616352,0.00120147957932204,0.0017101526027545333,1.0007493495941162,0.0,0.0,0.0,14.322948455810547,11.250284194946289,-1.4086039066314697,-2592.482177734375,0
296.5460000000003,0.04202725365757942,-0.01371269952505827,0.0008996062679216266,0.0,0.0,0.0,0.0,-6.705256964778528e-06,-0.0005036278162151575,-5.709874312742613e-05,0.9990700483322144,0.0,0.0,0.0,14.308501243591309,11.233410835266113,-1.4116489887237549,-2589.8671875,0
306.41899999999987,0.04200446605682373,-0.013697249814867973,0.0009151989361271262,0.0,0.0,0.0,0.0,0.0008985326858237386,0.00402769586071372,0.0006244131363928318,0.9990369081497192,0.0,0.0,0.0,14.324570655822754,11.238554954528809,-1.4046252965927124,-2592.77587890625,0
316.3130000000001,0.0419943630695343,-0.013739056885242462,0.0009551926050335169,0.0,0.0,0.0,0.0,-0.00019601023814175278,-0.0013029983965680003,-0.0006811307393945754,0.9986515641212463,0.0,0.0,0.0,14.311724662780762,11.225671768188477,-1.4107571840286255,-2590.450439453125,0
326.1869999999999,0.04195789620280266,-0.013733142986893654,0.0009845132008194923,0.0,0.0,0.0,0.0,-0.0004431686538737267,-0.006164191756397486,-0.0012215328169986606,0.9996382594108582,0.0,0.0,0.0,14.320313453674316,11.235233306884766,-1.4214028120040894,-2592.005126953125,0
336.08699999999953,0.04194609075784683,-0.013774905353784561,0.0010245281737297773,0.0,0.0,0.0,0.0,4.6885875235602725e-06,0.0024530645459890366,0.0003816669632215053,0.9991980791091919,0.0,0.0,0.0,14.30667781829834,11.224559783935547,-1.4145146608352661,-2589.537109375,0
345.96100000000115,0.04191608726978302,-0.013736819848418236,0.001052582054398954,0.0,0.0,0.0,0.0,-0.0015958922449499369,-0.002502261660993099,-0.0002963764127343893,0.9996761679649353,0.0,0.0,0.0,14.317451477050781,11.240158081054688,-1.424814224243164,-2591.4873046875,0
355.85100000000057,0.041903991252183914,-0.013778970576822758,0.001095206942409277,0.0,0.0,0.0,0.0,-0.002908306894823909,-4.7044045459188055e-06,0.002720694290474057,0.9973930716514587,0.0,0.0,0.0,14.303842544555664,11.228245735168457,-1.4183728694915771,-2589.02392578125,0
365.728000000001,0.041909098625183105,-0.01377145852893591,0.0010862464550882578,0.0,0.0,0.0,0.0,0.0031582065857946873,-0.001718327752314508,0.0007595885545015335,0.9986711740493774,0.0,0.0,0.0,14.323357582092285,11.233500480651855,-1.4075711965560913,-2592.55615234375,0
375.6270000000004,0.041896939277648926,-0.013817736878991127,0.0011268439702689648,0.0,0.0,0.0,0.0,-0.0022936563473194838,0.0022724303416907787,-0.001255114795640111,0.999432384967804,0.0,0.0,0.0,14.308640480041504,11.218969345092773,-1.4055242538452148,-2589.892333984375,0
385.5040000000008,0.041904255747795105,-0.013801817782223225,0.0011164185125380754,0.0,0.0,0.0,0.0,7.092626037774608e-05,0.0008330513956025243,0.0008669823873788118,1.0003001689910889,0.0,0.0,0.0,14.32622241973877,11.228048324584961,-1.4130752086639404,-2593.07470703125,0
395.40300000000025,0.04189486429095268,-0.01384936086833477,0.0011582887964323163,0.0,0.0,0.0,0.0,-0.003627440892159939,-0.0006165657541714609,0.0015163369243964553,0.9999321103096008,0.0,0.0,0.0,14.311532974243164,11.221015930175781,-1.4150255918502808,-2590.415771484375,0
405.27000000000044,0.0418955497443676,-0.013833458535373211,0.0011494208592921495,0.0,0.0,0.0,0.0,0.002179548377171159,-0.004414481110870838,-0.0010977844940498471,0.999850332736969,0.0,0.0,0.0,14.328024864196777,11.23270034790039,-1.4075977802276611,-2593.401123046875,0
415.16200000000026,0.04188835248351097,-0.013883579522371292,0.0011924414429813623,0.0,0.0,0.0,0.0,0.001915327156893909,0.005411820020526648,-0.0032316483557224274,0.9993694424629211,0.0,0.0,0.0,14.313570022583008,11.220309257507324,-1.4137978553771973,-2590.784423828125,0
425.03900000000067,0.0418950580060482,-0.013862972147762775,0.0011787379626184702,0.0,0.0,0.0,0.0,0.002761758863925934,0.0020834694150835276,-0.0024836896918714046,0.9980475902557373,0.0,0.0,0.0,14.333984375,11.217768669128418,-1.4185333251953125,-2594.4794921875,0
434.9320000000007,0.041886959224939346,-0.01391406450420618,0.0012210218701511621,0.0,0.0,0.0,0.0,-0.0002585299080237746,0.00407524686306715,0.001053348882123828,1.0006178617477417,0.0,0.0,0.0,14.31917953491211,11.203965187072754,-1.4217231273651123,-2591.7998046875,0
444.8080000000009,0.04192061349749565,-0.013858160935342312,0.0012028820347040892,0.0,0.0,0.0,0.0,0.000452161708381027,-0.0035961472894996405,0.0058004772290587425,1.0000826120376587,0.0,0.0,0.0,14.336090087890625,11.210965156555176,-1.42020583152771,-2594.86083984375,0
454.7049999999999,0.04191342368721962,-0.013908261433243752,0.0012484502512961626,0.0,0.0,0.0,0.0,-0.0003913737600669265,-0.002346421591937542,0.0028224019333720207,0.9993125796318054,0.0,0.0,0.0,14.323323249816895,11.202032089233398,-1.4108654260635376,-2592.5498046875,0
464.58100000000013,0.0419229120016098,-0.013852963224053383,0.0011819114442914724,0.0,0.0,0.0,0.0,-0.0025757397525012493,-0.0005198564031161368,-0.0013829838717356324,0.9990790486335754,0.0,0.0,0.0,14.337483406066895,11.215611457824707,-1.4125345945358276,-2595.11279296875,0
504.1270000000004,0.04189498722553253,-0.01382483635097742,0.0011599981226027012,0.0,0.0,0.0,0.0,0.002909582108259201,0.004848983604460955,-0.0041159819811582565,0.9983389377593994,0.0,0.0,0.0,14.325846672058105,11.239853858947754,-1.4299347400665283,-2593.006591796875,0
514.0110000000004,0.041886601597070694,-0.013880886137485504,0.0012048464268445969,0.0,0.0,0.0,0.0,-0.001351217390038073,-0.003725765971466899,0.0012128424132242799,0.9984965324401855,0.0,0.0,0.0,14.311192512512207,11.223435401916504,-1.4293724298477173,-2590.354248046875,0
523.898000000001,0.041900694370269775,-0.013746229000389576,0.0010583339026197791,0.0,0.0,0.0,0.0,0.0011566313914954662,-0.0012517363065853715,0.00039228482637554407,0.9973124265670776,0.0,0.0,0.0,14.341373443603516,11.256217002868652,-1.4364564418792725,-2595.817138671875,0
533.7820000000011,0.041891537606716156,-0.01380069088190794,0.0011005764827132225,0.0,0.0,0.0,0.0,-0.0011232433607801795,0.0013634151546284556,-0.0011646781349554658,0.9980526566505432,0.0,0.0,0.0,14.327441215515137,11.247225761413574,-1.4340460300445557,-2593.295166015625,0
543.6599999999999,0.04190454259514809,-0.013772190548479557,0.0010693047661334276,0.0,0.0,0.0,0.0,-0.0012962244218215346,-0.0034542554058134556,-0.0013074850430712104,0.9979919195175171,0.0,0.0,0.0,14.344158172607422,11.254467964172363,-1.435707688331604,-2596.3212890625,0
553.5519999999997,0.04189576953649521,-0.01382051408290863,0.0011054656933993101,0.0,0.0,0.0,0.0,0.0012365756556391716,-0.008961626328527927,-0.0021515865810215473,0.998969316482544,0.0,0.0,0.0,14.328904151916504,11.244324684143066,-1.4313803911209106,-2593.56005859375,0
563.4259999999995,0.0418887585401535,-0.013799494132399559,0.0010887793032452464,0.0,0.0,0.0,0.0,-0.00222979998216033,0.003041519084945321,0.0025400316808372736,1.0006352663040161,0.0,0.0,0.0,14.342940330505371,11.261727333068848,-1.4249591827392578,-2596.1005859375,0
573.3230000000003,0.04187673330307007,-0.013848492875695229,0.0011239075101912022,0.0,0.0,0.0,0.0,-0.0013820051681250334,-0.0029703923501074314,0.002288257237523794,1.000143051147461,0.0,0.0,0.0,14.327774047851562,11.25300407409668,-1.414734959602356,-2593.35546875,0
583.1970000000001,0.04188290610909462,-0.01381639763712883,0.0010894021252170205,0.0,0.0,0.0,0.0,0.0012559642782434821,0.00888044759631157,-0.004871916025876999,0.9980552196502686,0.0,0.0,0.0,14.340479850769043,11.261704444885254,-1.408514380455017,-2595.655517578125,0
593.0889999999999,0.04186830669641495,-0.013866662979125977,0.0011269054375588894,0.0,0.0,0.0,0.0,0.001633828622289002,-0.0011013975599780679,-0.00013015748118050396,0.9983770847320557,0.0,0.0,0.0,14.326624870300293,11.25546646118164,-1.4185105562210083,-2593.1474609375,0
602.9650000000001,0.041940245777368546,-0.013735643588006496,0.0009368241881020367,0.0,0.0,0.0,0.0,0.001738022081553936,-0.0002779476053547114,-0.0020976304076611996,0.9970685839653015,0.0,0.0,0.0,14.338934898376465,11.267109870910645,-1.4005244970321655,-2595.375732421875,0
612.8630000000012,0.04229053854942322,-0.013102114200592041,-0.00021448398183565587,0.0,0.0,0.0,0.0,-0.0025485195219516754,-0.005696672946214676,0.0005403572577051818,0.9979028701782227,0.0,0.0,0.0,14.386420249938965,11.298653602600098,-1.3620991706848145,-2603.970947265625,0
622.7340000000004,0.042285796254873276,-0.01309057418256998,-0.000151615051436238,0.0,0.0,0.0,0.0,-0.00018811863265000284,-0.0020896478090435266,-0.0007926178514026105,1.0008314847946167,0.0,0.0,0.0,14.400409698486328,11.302709579467773,-1.3538713455200195,-2606.502685546875,0
632.6290000000008,0.04228410869836807,-0.013124986551702023,-0.00013367905921768397,0.0,0.0,0.0,0.0,-0.001908287056721747,6.256257620407268e-05,-0.0011029340093955398,1.000640869140625,0.0,0.0,0.0,14.385086059570312,11.29690170288086,-1.3305484056472778,-2603.729248046875,0
642.5110000000004,0.04224623367190361,-0.01313051488250494,-9.283022518502548e-05,0.0,0.0,0.0,0.0,-0.0016451869159936905,-0.001661047455854714,0.0002751751453615725,0.997216522693634,0.0,0.0,0.0,14.392596244812012,11.297125816345215,-1.3245657682418823,-2605.08837890625,0
652.4040000000005,0.04224643111228943,-0.013166100718080997,-7.147802534746006e-05,0.0,0.0,0.0,0.0,-0.0017868130235001445,0.0021461716387420893,-0.003977120388299227,0.9988576769828796,0.0,0.0,0.0,14.378368377685547,11.291008949279785,-1.3095742464065552,-2602.513427734375,0
662.273000000001,0.04221023991703987,-0.013175157830119133,-3.0118695576675236e-05,0.0,0.0,0.0,0.0,-0.003911937121301889,-0.0034000410232692957,0.002987884683534503,0.999656081199646,0.0,0.0,0.0,14.386040687561035,11.290491104125977,-1.3005610704421997,-2603.90185546875,0
672.1689999999999,0.04221164062619209,-0.013211575336754322,-9.291121386922896e-06,0.0,0.0,0.0,0.0,-0.0019604614935815334,-0.0026962601114064455,-0.00045701200724579394,1.0020869970321655,0.0,0.0,0.0,14.371898651123047,11.283950805664062,-1.3058944940567017,-2601.342529296875,0
682.0429999999997,0.04216724634170532,-0.0132290069013834,2.9834738597855903e-05,0.0,0.0,0.0,0.0,-0.0006521493778564036,-0.0019039484905079007,-7.50637918827124e-05,1.0003873109817505,0.0,0.0,0.0,14.379936218261719,11.283161163330078,-1.2948261499404907,-2602.797119140625,0
691.9420000000009,0.042167045176029205,-0.013267459347844124,5.441507528303191e-05,0.0,0.0,0.0,0.0,-0.0018199726473540068,-0.0009541873587295413,-0.002704168437048793,1.0005404949188232,0.0,0.0,0.0,14.365184783935547,11.269922256469727,-1.2932815551757812,-2600.127197265625,0
701.8250000000007,0.0421898178756237,-0.013268201611936092,0.00012959942978341132,0.0,0.0,0.0,0.0,0.0019316429970785975,-0.003082780633121729,0.0017107388703152537,0.9987146854400635,0.0,0.0,0.0,14.378669738769531,11.28378677368164,-1.2766402959823608,-2602.56787109375,0
711.7119999999995,0.04238346591591835,-0.012954702600836754,-0.0002670987159945071,0.0,0.0,0.0,0.0,0.0026986198499798775,0.0033044794108718634,0.0008657581638544798,0.9983928203582764,0.0,0.0,0.0,14.43588924407959,11.35526180267334,-1.208443522453308,-2612.924560546875,0
721.5889999999999,0.04229387640953064,-0.012958135455846786,-0.00028878936427645385,0.0,0.0,0.0,0.0,-0.0010670474730432034,0.0006027068593539298,0.001630702055990696,0.9971603751182556,0.0,0.0,0.0,14.439645767211914,11.344084739685059,-1.2155133485794067,-2613.604736328125,0
731.4770000000008,0.042342331260442734,-0.012842983938753605,-0.0002982291334774345,0.0,0.0,0.0,0.0,-0.0014323195209726691,-0.0026100785471498966,-0.0010802262695506215,0.9980274438858032,0.0,0.0,0.0,14.492578506469727,11.353314399719238,-1.1954195499420166,-2623.185791015625,0
741.3520000000008,0.04231413081288338,-0.012897505424916744,-0.0003302051336504519,0.0,0.0,0.0,0.0,-0.0003286299470346421,0.00014463117986451834,0.0007181978435255587,0.9987777471542358,0.0,0.0,0.0,14.494853973388672,11.344484329223633,-1.1924457550048828,-2623.59765625,0
751.255000000001,0.04232443496584892,-0.012924011796712875,-0.0003315847716294229,0.0,0.0,0.0,0.0,-0.001577730872668326,-0.0033758606296032667,-0.0005149370990693569,0.9995392560958862,0.0,0.0,0.0,14.480220794677734,11.337851524353027,-1.185968041419983,-2620.94873046875,0
761.130000000001,0.04230494797229767,-0.012949008494615555,-0.0003359273832757026,0.0,0.0,0.0,0.0,0.003250864800065756,0.008010500110685825,-0.00010267580364597961,1.0008620023727417,0.0,0.0,0.0,14.484325408935547,11.32761001586914,-1.1842557191848755,-2621.69189453125,0
771.018,0.04232104867696762,-0.01288438681513071,-0.00028804055182263255,0.0,0.0,0.0,0.0,-0.0001729242067085579,-0.0018533359980210662,0.0012473174137994647,1.0007503032684326,0.0,0.0,0.0,14.533279418945312,11.327291488647461,-1.179874062538147,-2630.552490234375,0
780.8970000000008,0.04229847714304924,-0.01293151918798685,-0.0003070075763389468,0.0,0.0,0.0,0.0,-0.0029017385095357895,0.004922176711261272,0.0014395002508535981,1.0002461671829224,0.0,0.0,0.0,14.535268783569336,11.311840057373047,-1.1814895868301392,-2630.91259765625,0
790.7900000000009,0.04231521487236023,-0.012964313849806786,-0.0003045439370907843,0.0,0.0,0.0,0.0,0.0019055944867432117,0.0017405645921826363,0.0011420008959248662,1.0023211240768433,0.0,0.0,0.0,14.519705772399902,11.297586441040039,-1.1874221563339233,-2628.095458984375,0
800.6740000000009,0.042279165238142014,-0.012986058369278908,-0.0003004985046572983,0.0,0.0,0.0,0.0,0.001253408845514059,0.0032584306318312883,-0.0026667583733797073,1.0018755197525024,0.0,0.0,0.0,14.516613006591797,11.289636611938477,-1.1913518905639648,-2627.535888671875,0
810.5560000000005,0.04229883477091789,-0.013021017424762249,-0.0002941915299743414,0.0,0.0,0.0,0.0,-0.00023155541566666216,-0.004458422306925058,6.934280099812895e-05,1.000546932220459,0.0,0.0,0.0,14.502081871032715,11.271797180175781,-1.2092944383621216,-2624.90576171875,0
820.4340000000011,0.042265865951776505,-0.01303123775869608,-0.0002729808911681175,0.0,0.0,0.0,0.0,-0.0006549179670400918,0.00035338857560418546,0.00012469585635699332,0.9986129999160767,0.0,0.0,0.0,14.497878074645996,11.26840877532959,-1.204760193824768,-2624.144775390625,0
830.3279999999995,0.04228782281279564,-0.013068044558167458,-0.00026232964592054486,0.0,0.0,0.0,0.0,0.0014361727517098188,-0.00011837625788757578,-0.00011959727271459997,0.9993669986724854,0.0,0.0,0.0,14.483080863952637,11.250879287719727,-1.2097142934799194,-2621.466552734375,0
840.2020000000011,0.04220787435770035,-0.013066447339951992,-0.00023158369003795087,0.0,0.0,0.0,0.0,0.0002879441890399903,0.0021765197161585093,-0.00257544475607574,0.9984045028686523,0.0,0.0,0.0,14.487412452697754,11.264747619628906,-1.215720772743225,-2622.250732421875,0
850.0950000000012,0.04224453121423721,-0.013014107942581177,-0.00019826351490337402,0.0,0.0,0.0,0.0,0.0019209034508094192,0.002889201743528247,-0.002096635987982154,0.9980785250663757,0.0,0.0,0.0,14.533949851989746,11.27668571472168,-1.1979364156723022,-2630.673828125,0
859.9760000000006,0.042271386831998825,-0.013053851202130318,-0.00017899750673677772,0.0,0.0,0.0,0.0,-5.064801911203176e-08,0.003239562502130866,0.0028254520148038864,0.9990344047546387,0.0,0.0,0.0,14.539772987365723,11.256153106689453,-1.200110673904419,-2631.727783203125,0
869.8760000000002,0.04229478910565376,-0.013089360669255257,-0.0001664092269493267,0.0,0.0,0.0,0.0,0.0023246335331350565,-0.005757069680839777,0.0019767815247178078,0.9985432028770447,0.0,0.0,0.0,14.524749755859375,11.24767780303955,-1.209401249885559,-2629.008544921875,0
879.7520000000004,0.0422801747918129,-0.01310433354228735,-0.00014303713396657258,0.0,0.0,0.0,0.0,0.00016116850019898266,-0.00012681318912655115,0.002641301369294524,0.9999188184738159,0.0,0.0,0.0,14.530104637145996,11.246000289916992,-1.19535493850708,-2629.977783203125,0
889.6329999999998,0.04230283573269844,-0.013145138509571552,-0.00013065182429272681,0.0,0.0,0.0,0.0,-0.0016452018171548843,-0.002832193858921528,0.0012997612357139587,0.9969267845153809,0.0,0.0,0.0,14.515377044677734,11.232002258300781,-1.1863226890563965,-2627.31201171875,0
899.509,0.04224926233291626,-0.01315399818122387,-0.00010264175216434523,0.0,0.0,0.0,0.0,-0.001967543736100197,-6.258499342948198e-05,0.0012181105557829142,0.999877393245697,0.0,0.0,0.0,14.521010398864746,11.231789588928223,-1.1892555952072144,-2628.331787109375,0
909.4009999999998,0.04227377474308014,-0.013194838538765907,-9.066855272976682e-05,0.0,0.0,0.0,0.0,0.0036973576061427593,0.0042115808464586735,-0.0006643442320637405,0.9993225336074829,0.0,0.0,0.0,14.507328033447266,11.222755432128906,-1.1801435947418213,-2625.855224609375,0
919.2830000000013,0.042217519134283066,-0.013205301947891712,-5.9634814533637837e-05,0.0,0.0,0.0,0.0,0.00035745176137425005,0.0004973190953023732,-0.00038726741331629455,1.0000447034835815,0.0,0.0,0.0,14.51272201538086,11.230658531188965,-1.1908167600631714,-2626.831787109375,0
929.1740000000009,0.04224301129579544,-0.013250108808279037,-4.630892726709135e-05,0.0,0.0,0.0,0.0,-0.00010525147808948532,0.004532594699412584,-0.00010825949721038342,0.9976999759674072,0.0,0.0,0.0,14.49772834777832,11.219278335571289,-1.2003560066223145,-2624.11767578125,0
939.0590000000011,0.04219354689121246,-0.013261068612337112,-9.128207238973118e-06,0.0,0.0,0.0,0.0,-0.0010346404742449522,0.0019024299690499902,-0.0027905204333364964,0.996934711933136,0.0,0.0,0.0,14.499346733093262,11.231090545654297,-1.2075278759002686,-2624.41064453125,0
948.9549999999999,0.042217157781124115,-0.013307587243616581,5.461484761326574e-06,0.0,0.0,0.0,0.0,-0.0014467507135123014,0.0018938037101179361,-0.00032876405748538673,0.9981046319007874,0.0,0.0,0.0,14.484193801879883,11.221083641052246,-1.2211997509002686,-2621.668212890625,0
958.8180000000011,0.04220282658934593,-0.013306883163750172,4.9053469410864636e-05,0.0,0.0,0.0,0.0,0.002527710283175111,-0.006381144281476736,0.0019456874579191208,0.9987877607345581,0.0,0.0,0.0,14.49095630645752,11.234821319580078,-1.2184302806854248,-2622.89208984375,0
968.7180000000008,0.04237482696771622,-0.013037314638495445,-0.0002446347498334944,0.0,0.0,0.0,0.0,-0.0014346439857035875,0.003090581623837352,0.0014701074687764049,0.9993695020675659,0.0,0.0,0.0,14.5386323928833,11.312873840332031,-1.1637121438980103,-2631.521240234375,0
978.5959999999995,0.042302828282117844,-0.013027857057750225,-0.0002557045081630349,0.0,0.0,0.0,0.0,-0.0011039398377761245,-0.0013178358785808086,-0.004526690114289522,0.9980997443199158,0.0,0.0,0.0,14.538349151611328,11.312809944152832,-1.1686019897460938,-2631.469970703125,0
988.482,0.042327750474214554,-0.013054483570158482,-0.00025684171123430133,0.0,0.0,0.0,0.0,0.0019566467963159084,0.0004783125186804682,0.0033218145836144686,0.9992746114730835,0.0,0.0,0.0,14.523591995239258,11.304012298583984,-1.1690917015075684,-2628.799072265625,0
998.3630000000012,0.04227983579039574,-0.013047667220234871,-0.0002465328143443912,0.0,0.0,0.0,0.0,8.020991663215682e-05,-0.004413946066051722,-0.002168715465813875,0.9971014261245728,0.0,0.0,0.0,14.523604393005371,11.301387786865234,-1.1719679832458496,-2628.80126953125,0
1008.255000000001,0.04230300337076187,-0.013076170347630978,-0.00024820028920657933,0.0,0.0,0.0,0.0,-0.0014702696353197098,-0.00467885285615921,-0.004230995662510395,0.9984530210494995,0.0,0.0,0.0,14.510727882385254,11.294615745544434,-1.168121099472046,-2626.470703125,0
1018.1290000000008,0.042276531457901,-0.013074454851448536,-0.00023235530534293503,0.0,0.0,0.0,0.0,4.578553489409387e-05,-0.004344738554209471,-0.004267191980034113,0.9994928240776062,0.0,0.0,0.0,14.509654998779297,11.292332649230957,-1.1691627502441406,-2626.2763671875,0
1028.023000000001,0.04230118915438652,-0.013103838078677654,-0.00023506554134655744,0.0,0.0,0.0,0.0,-0.0025678761303424835,-0.0031592827290296555,0.002130405977368355,0.9990854263305664,0.0,0.0,0.0,14.494471549987793,11.282855987548828,-1.152319073677063,-2623.528076171875,0
1037.9030000000002,0.042263057082891464,-0.013105400837957859,-0.00021931466471869498,0.0,0.0,0.0,0.0,0.0014042934635654092,-0.0068640559911727905,0.0017740585608407855,0.9999421238899231,0.0,0.0,0.0,14.496124267578125,11.285059928894043,-1.150160312652588,-2623.82763671875,0
1047.812,0.0422990508377552,-0.013046748004853725,-0.0001901246578199789,0.0,0.0,0.0,0.0,-0.0007668150938116014,-0.002068562665954232,-0.0018546939827501774,0.9999325275421143,0.0,0.0,0.0,14.540680885314941,11.307452201843262,-1.1196929216384888,-2631.892333984375,0
1057.6730000000007,0.04231872037053108,-0.013032231479883194,-0.00015763667761348188,0.0,0.0,0.0,0.0,0.0015436172252520919,0.00043510584509931505,-0.00018493902462068945,1.0006110668182373,0.0,0.0,0.0,14.541420936584473,11.298258781433105,-1.0957067012786865,-2632.026123046875,0
1067.571,0.04234486073255539,-0.013056149706244469,-0.00015324799460358918,0.0,0.0,0.0,0.0,-0.0005122749716974795,0.0033650780096650124,0.0025647159200161695,0.9989389777183533,0.0,0.0,0.0,14.52591609954834,11.283758163452148,-1.0964444875717163,-2629.2197265625,0
1077.4359999999997,0.04229176044464111,-0.01306177582591772,-0.00014834493049420416,0.0,0.0,0.0,0.0,0.004409481771290302,-0.0007797619327902794,0.0015271037118509412,0.998569130897522,0.0,0.0,0.0,14.524823188781738,11.27964973449707,-1.1122385263442993,-2629.021728515625,0
1087.3320000000003,0.04236052930355072,-0.012942822650074959,-0.00015266660193447024,0.0,0.0,0.0,0.0,0.0038432776927948,0.005309359636157751,0.00041740862070582807,0.997554361820221,0.0,0.0,0.0,14.564216613769531,11.28081226348877,-1.1016125679016113,-2636.152099609375,0
1097.2110000000011,0.042255859822034836,-0.012935163453221321,-0.0001736597769195214,0.0,0.0,0.0,0.0,0.0006064355256967247,-0.0011278113815933466,0.0009779537795111537,0.9969527721405029,0.0,0.0,0.0,14.561205863952637,11.275359153747559,-1.1123830080032349,-2635.607177734375,0
1107.1080000000002,0.042282022535800934,-0.012962446548044682,-0.00017252496036235243,0.0,0.0,0.0,0.0,-0.0016360196750611067,0.003997005056589842,0.002518970752134919,0.9981459975242615,0.0,0.0,0.0,14.547484397888184,11.2583589553833,-1.1222463846206665,-2633.12353515625,0
1116.9850000000006,0.04221706837415695,-0.012972397729754448,-0.000176720175659284,0.0,0.0,0.0,0.0,-0.0023073568008840084,-0.002716807182878256,-0.000713684014044702,0.9992371797561646,0.0,0.0,0.0,14.547219276428223,11.253975868225098,-1.1361438035964966,-2633.075439453125,0
1126.8739999999998,0.04224221408367157,-0.01300173532217741,-0.00017894382472150028,0.0,0.0,0.0,0.0,-0.0020066266879439354,-0.003192898351699114,0.0019061606144532561,0.9985501170158386,0.0,0.0,0.0,14.533364295959473,11.245437622070312,-1.1393442153930664,-2630.56787109375,0
1136.7560000000012,0.04224805533885956,-0.0130345169454813,-0.00018275188631378114,0.0,0.0,0.0,0.0,-0.0025485074147582054,-0.000503494287841022,0.0003501781902741641,0.9993047118186951,0.0,0.0,0.0,14.530357360839844,11.23929214477539,-1.132638692855835,-2630.0234375,0
1146.648000000001,0.04227398335933685,-0.013068265281617641,-0.00018624152289703488,0.0,0.0,0.0,0.0,-0.00244596553966403,0.005138810724020004,0.002790803322568536,1.000083565711975,0.0,0.0,0.0,14.516031265258789,11.224943161010742,-1.1295807361602783,-2627.430419921875,0
1156.5280000000002,0.042241308838129044,-0.013082699850201607,-0.00017940893303602934,0.0,0.0,0.0,0.0,-0.00037753229844383895,-0.0013496408937498927,0.0029369655530899763,1.0007903575897217,0.0,0.0,0.0,14.513011932373047,11.227804183959961,-1.1399563550949097,-2626.88427734375,0
1166.4099999999999,0.04226500913500786,-0.013116985559463501,-0.00018176340381614864,0.0,0.0,0.0,0.0,0.003323057433590293,0.006535443942993879,0.001173342694528401,0.9999209046363831,0.0,0.0,0.0,14.499269485473633,11.224940299987793,-1.1487700939178467,-2624.396728515625,0
1176.2970000000005,0.042207226157188416,-0.013107724487781525,-0.00015187593817245215,0.0,0.0,0.0,0.0,-0.003580172313377261,-0.000695877184625715,0.00020997707906644791,1.0010517835617065,0.0,0.0,0.0,14.50018310546875,11.23910140991211,-1.1520808935165405,-2624.562255859375,0
1186.1810000000005,0.04223177582025528,-0.013140209950506687,-0.00014933511556591839,0.0,0.0,0.0,0.0,0.0009803606662899256,-0.0009086257196031511,0.002981595229357481,0.9994772672653198,0.0,0.0,0.0,14.485746383666992,11.22507095336914,-1.1650117635726929,-2621.94921875,0
1196.0680000000011,0.04221031814813614,-0.013121984899044037,-0.00010676163947209716,0.0,0.0,0.0,0.0,0.001153533929027617,0.002326536923646927,0.0006940177991054952,1.0009549856185913,0.0,0.0,0.0,14.48747730255127,11.246389389038086,-1.1620913743972778,-2622.26220703125,0
1205.9539999999997,0.04231960326433182,-0.012967102229595184,-0.00023398184566758573,0.0,0.0,0.0,0.0,0.0006230889703147113,-0.0023616987746208906,-0.0005940797855146229,1.0011496543884277,0.0,0.0,0.0,14.527186393737793,11.27972412109375,-1.1273657083511353,-2629.449462890625,0
1215.848,0.04223622381687164,-0.012946452014148235,-0.00024499057326465845,0.0,0.0,0.0,0.0,-0.0034573117736727,-0.0015203028451651335,0.0015624300576746464,0.9984747767448425,0.0,0.0,0.0,14.526896476745605,11.280829429626465,-1.1473543643951416,-2629.397216796875,0
1225.7219999999998,0.04226747900247574,-0.012971412390470505,-0.00024131068494170904,0.0,0.0,0.0,0.0,-0.00285373255610466,-0.00702838646247983,0.007989663630723953,0.9982892870903015,0.0,0.0,0.0,14.511168479919434,11.266984939575195,-1.1376986503601074,-2626.55029296875,0
1235.6059999999998,0.04226298630237579,-0.0129995821043849,-0.00024272332666441798,0.0,0.0,0.0,0.0,0.00014622554590459913,-0.001264454796910286,-0.0016077409964054823,0.9982751607894897,0.0,0.0,0.0,14.509242057800293,11.263361930847168,-1.1459195613861084,-2626.20166015625,0
1245.491,0.04232979938387871,-0.012904642149806023,-0.00023568626784253865,0.0,0.0,0.0,0.0,0.0009808357572183013,0.0022477658931165934,0.0006878579151816666,0.9994602203369141,0.0,0.0,0.0,14.551928520202637,11.276512145996094,-1.1236282587051392,-2633.927978515625,0
1255.371000000001,0.042306602001190186,-0.012938356958329678,-0.00026193278608843684,0.0,0.0,0.0,0.0,-0.0031822053715586662,-0.003858095733448863,0.0016168926376849413,1.0001622438430786,0.0,0.0,0.0,14.548165321350098,11.264070510864258,-1.1340038776397705,-2633.2470703125,0
1265.264000000001,0.04234568029642105,-0.012968075461685658,-0.00026146776508539915,0.0,0.0,0.0,0.0,0.0010756662813946605,-0.0022873247507959604,-0.0025578790809959173,1.0011154413223267,0.0,0.0,0.0,14.534144401550293,11.252806663513184,-1.124272346496582,-2630.708984375,0
1275.1419999999998,0.042297400534152985,-0.012995649129152298,-0.00027008034521713853,0.0,0.0,0.0,0.0,0.0002818970533553511,-0.0046815164387226105,0.0015677034389227629,0.9986971616744995,0.0,0.0,0.0,14.5338134765625,11.252038955688477,-1.1219795942306519,-2630.649169921875,0
1285.0300000000007,0.04235539957880974,-0.012921027839183807,-0.00024572989786975086,0.0,0.0,0.0,0.0,-0.001129201496951282,0.003733793506398797,0.0039047086611390114,0.9981201887130737,0.0,0.0,0.0,14.565114974975586,11.25542163848877,-1.1168042421340942,-2636.314697265625,0
1294.9120000000003,0.042293187230825424,-0.012911293655633926,-0.0002496472152415663,0.0,0.0,0.0,0.0,0.00037749114562757313,0.006495270878076553,0.00023995316587388515,0.9981655478477478,0.0,0.0,0.0,14.564802169799805,11.253059387207031,-1.119800329208374,-2636.25830078125,0
1304.799000000001,0.04233362525701523,-0.012946823611855507,-0.0002472363703418523,0.0,0.0,0.0,0.0,0.003306120401248336,-0.005800208076834679,0.0018035471439361572,0.9981209635734558,0.0,0.0,0.0,14.550210952758789,11.244194984436035,-1.122967004776001,-2633.616943359375,0
1314.6769999999997,0.04230773448944092,-0.012992613017559052,-0.0002584917820058763,0.0,0.0,0.0,0.0,0.0003670277073979378,-0.0010482926154509187,0.0007972168968990445,0.9983482956886292,0.0,0.0,0.0,14.5521240234375,11.225234031677246,-1.1274189949035645,-2633.96337890625,0
1324.567000000001,0.04234795272350311,-0.013034912757575512,-0.00025938666658475995,0.0,0.0,0.0,0.0,-0.0018678882624953985,0.003446544986218214,0.0015885144239291549,0.9974181652069092,0.0,0.0,0.0,14.537452697753906,11.215240478515625,-1.1141185760498047,-2631.307861328125,0
1334.4470000000001,0.042342301458120346,-0.013042773120105267,-0.0002435324713587761,0.0,0.0,0.0,0.0,-0.0003069185186177492,-0.004409461282193661,0.002534490078687668,0.9995247721672058,0.0,0.0,0.0,14.539931297302246,11.215893745422363,-1.1164385080337524,-2631.75634765625,0
1344.348,0.04238542541861534,-0.013085340149700642,-0.00024492270313203335,0.0,0.0,0.0,0.0,-0.0015746376011520624,-0.0006168988766148686,-0.0029271109960973263,1.000499963760376,0.0,0.0,0.0,14.525837898254395,11.203682899475098,-1.1109875440597534,-2629.20556640625,0
1354.219000000001,0.04232005402445793,-0.013104459270834923,-0.000238096879911609,0.0,0.0,0.0,0.0,-0.0030258186161518097,-0.001774123404175043,0.0006587144453078508,1.001273274421692,0.0,0.0,0.0,14.5302734375,11.207130432128906,-1.1231366395950317,-2630.00830078125,0
1364.112000000001,0.04236428067088127,-0.013150266371667385,-0.00023803453950677067,0.0,0.0,0.0,0.0,0.0018507883651182055,-0.0029416289180517197,0.0009086228092201054,1.0013841390609741,0.0,0.0,0.0,14.516483306884766,11.196022987365723,-1.1226319074630737,-2627.51220703125,0
1374.0010000000002,0.04229947179555893,-0.013163658790290356,-0.000218494504224509,0.0,0.0,0.0,0.0,0.0017461745301261544,-0.0013077611802145839,-0.002755632856860757,0.9985493421554565,0.0,0.0,0.0,14.523366928100586,11.209254264831543,-1.134456992149353,-2628.75830078125,0
1383.875,0.04234398901462555,-0.013210693374276161,-0.00021364481654018164,0.0,0.0,0.0,0.0,-0.0008706538937985897,0.005213387776166201,-0.0001530512236058712,1.0001583099365234,0.0,0.0,0.0,14.509197235107422,11.204072952270508,-1.123310923576355,-2626.193603515625,0
1393.7620000000006,0.042290013283491135,-0.013206268660724163,-0.00017501319234725088,0.0,0.0,0.0,0.0,0.003953820560127497,0.004793846979737282,-0.0008155127870850265,0.998978853225708,0.0,0.0,0.0,14.51354694366455,11.217353820800781,-1.140647292137146,-2626.98095703125,0
1403.6630000000005,0.04241305589675903,-0.01304701715707779,-0.00028519437182694674,0.0,0.0,0.0,0.0,0.0008932013879530132,-0.00701967952772975,-0.0005609162617474794,0.9976961016654968,0.0,0.0,0.0,14.54400634765625,11.263888359069824,-1.120812177658081,-2632.493896484375,0
1413.5310000000009,0.04234645888209343,-0.013030225411057472,-0.0002909105969592929,0.0,0.0,0.0,0.0,0.0013162035029381514,-0.002131268149241805,0.001641576993279159,0.998353898525238,0.0,0.0,0.0,14.545853614807129,11.254712104797363,-1.141909122467041,-2632.828369140625,0
1423.416000000001,0.042390722781419754,-0.0130634605884552,-0.0002890166360884905,0.0,0.0,0.0,0.0,0.003963615745306015,0.002858039690181613,0.002466236473992467,1.000966191291809,0.0,0.0,0.0,14.531519889831543,11.242398262023926,-1.131202220916748,-2630.234130859375,0
1433.299000000001,0.04232533276081085,-0.013064121827483177,-0.00028193151229061186,0.0,0.0,0.0,0.0,0.0012941391905769706,-0.0024117538705468178,0.0012540977913886309,0.9997837543487549,0.0,0.0,0.0,14.535029411315918,11.232706069946289,-1.1425457000732422,-2630.869140625,0
1443.1930000000011,0.042368970811367035,-0.013100367039442062,-0.0002793825988192111,0.0,0.0,0.0,0.0,0.0013731569051742554,-0.000767114048358053,0.001480465172789991,0.998001217842102,0.0,0.0,0.0,14.521295547485352,11.213517189025879,-1.1539337635040283,-2628.38330078125,0
1453.076000000001,0.042275428771972656,-0.013065185397863388,-0.00023515612701885402,0.0,0.0,0.0,0.0,-0.00032006893889047205,0.007032161578536034,-0.0004770306986756623,0.998537003993988,0.0,0.0,0.0,14.519308090209961,11.232014656066895,-1.1741962432861328,-2628.023681640625,0
1462.9619999999995,0.04231472313404083,-0.013101703487336636,-0.00022977907792665064,0.0,0.0,0.0,0.0,-0.0005871605826541781,-0.0034264361020177603,0.001631842809729278,0.9999625086784363,0.0,0.0,0.0,14.506429672241211,11.222551345825195,-1.1681650876998901,-2625.692626953125,0
1472.8400000000001,0.04224219545722008,-0.013084403239190578,-0.00018530047964304686,0.0,0.0,0.0,0.0,-0.0012576667359098792,0.0030804250854998827,0.00013941913493908942,0.9978601932525635,0.0,0.0,0.0,14.5035400390625,11.245735168457031,-1.1765875816345215,-2625.169677734375,0
1482.7330000000002,0.042280517518520355,-0.013119935058057308,-0.00017747824313119054,0.0,0.0,0.0,0.0,0.0011383333476260304,-0.0004576401843223721,-0.0005141388974152505,0.9998716115951538,0.0,0.0,0.0,14.487902641296387,11.227888107299805,-1.1764183044433594,-2622.33935546875,0
1492.6090000000004,0.04224260151386261,-0.013129168190062046,-0.00015120177704375237,0.0,0.0,0.0,0.0,-0.0007770904339849949,0.0008050286560319364,-0.000421980454120785,0.9995731711387634,0.0,0.0,0.0,14.484344482421875,11.234818458557129,-1.1900036334991455,-2621.695068359375,0
1502.4950000000008,0.04227939620614052,-0.013166121207177639,-0.0001425027585355565,0.0,0.0,0.0,0.0,0.0005947265308350325,-0.0017366916872560978,0.0009960848838090897,1.000367283821106,0.0,0.0,0.0,14.46856689453125,11.221484184265137,-1.189003348350525,-2618.839599609375,0
1512.3810000000012,0.04222927987575531,-0.013139992952346802,-8.286332013085485e-05,0.0,0.0,0.0,0.0,0.0017113535432145,0.0027102737221866846,-0.0003360035188961774,0.997755229473114,0.0,0.0,0.0,14.472397804260254,11.249283790588379,-1.2097880840301514,-2619.532958984375,0
1522.2780000000002,0.04226483032107353,-0.013174748048186302,-6.913661491125822e-05,0.0,0.0,0.0,0.0,0.0003416199469938874,0.007929622195661068,-0.0012185046216472983,0.999198317527771,0.0,0.0,0.0,14.457955360412598,11.23626708984375,-1.2044938802719116,-2616.918701171875,0
1532.1589999999997,0.042222604155540466,-0.013154224492609501,-2.0480380044318736e-05,0.0,0.0,0.0,0.0,0.00015222348156385124,-0.003273118520155549,0.0004585609131027013,0.9994969367980957,0.0,0.0,0.0,14.463489532470703,11.255376815795898,-1.2202198505401611,-2617.92041015625,0
1542.041000000001,0.0422576367855072,-0.013185356743633747,-4.939109203405678e-06,0.0,0.0,0.0,0.0,-0.001750126131810248,1.5421095667988993e-05,0.00043194121099077165,0.9973537921905518,0.0,0.0,0.0,14.449020385742188,11.241108894348145,-1.2291332483291626,-2615.30126953125,0
1551.9279999999999,0.0422324575483799,-0.013164090923964977,4.038611950818449e-05,0.0,0.0,0.0,0.0,0.00390285043977201,-0.0023610906209796667,-0.001185670611448586,0.9995269775390625,0.0,0.0,0.0,14.453560829162598,11.264753341674805,-1.2399595975875854,-2616.123291015625,0
1561.8070000000007,0.04226335138082504,-0.013195203617215157,5.737478204537183e-05,0.0,0.0,0.0,0.0,-8.510058250976726e-05,0.0006140341283753514,-0.001835118280723691,0.9995079040527344,0.0,0.0,0.0,14.439420700073242,11.247563362121582,-1.2472602128982544,-2613.563720703125,0
1571.6949999999997,0.042205631732940674,-0.013172753155231476,8.576840627938509e-05,0.0,0.0,0.0,0.0,0.0010862441267818213,0.001454805489629507,-0.0017868963768705726,0.9985879063606262,0.0,0.0,0.0,14.439295768737793,11.268269538879395,-1.2708626985549927,-2613.541015625,0
1581.5740000000005,0.042228151112794876,-0.013203023932874203,0.00010373792611062527,0.0,0.0,0.0,0.0,0.0013881245395168662,0.0031202896498143673,-0.0008709894027560949,0.9999152421951294,0.0,0.0,0.0,14.425804138183594,11.254449844360352,-1.2754452228546143,-2611.099365234375,0
1591.4580000000005,0.04223034158349037,-0.013214077800512314,0.00011536822421476245,0.0,0.0,0.0,0.0,-0.00019618074293248355,0.0034500127658247948,0.0014775516465306282,0.9985252618789673,0.0,0.0,0.0,14.428382873535156,11.245488166809082,-1.2836785316467285,-2611.56591796875,0
1601.3510000000006,0.042253658175468445,-0.013243990950286388,0.0001324325567111373,0.0,0.0,0.0,0.0,0.0007899149786680937,0.004346951842308044,0.0011446101125329733,0.9990915060043335,0.0,0.0,0.0,14.414156913757324,11.232545852661133,-1.3013312816619873,-2608.990966796875,0
1611.2340000000004,0.042245905846357346,-0.013245681300759315,0.00013944439706392586,0.0,0.0,0.0,0.0,-0.0016836769646033645,-0.007907616905868053,0.0014205051120370626,0.9976310729980469,0.0,0.0,0.0,14.420334815979004,11.23943042755127,-1.3219259977340698,-2610.109130859375,0
1621.1139999999996,0.042264826595783234,-0.013275700621306896,0.00015528997755609453,0.0,0.0,0.0,0.0,-0.00022943849035073072,-0.0005365150864236057,0.0016190405003726482,0.9968066811561584,0.0,0.0,0.0,14.406760215759277,11.22602653503418,-1.3246397972106934,-2607.65234375,0
1631.0069999999996,0.04225626587867737,-0.013279641047120094,0.00015347337466664612,0.0,0.0,0.0,0.0,-0.0017017923528328538,0.005297748371958733,0.00549132889136672,0.9986416697502136,0.0,0.0,0.0,14.415164947509766,11.226103782653809,-1.3383076190948486,-2609.17333984375,0
1640.8829999999998,0.04227151721715927,-0.0133120222017169,0.00016518562915734947,0.0,0.0,0.0,0.0,0.0028067638631910086,-0.000980934128165245,-0.0012711799936369061,0.9998989701271057,0.0,0.0,0.0,14.400428771972656,11.21680736541748,-1.3414356708526611,-2606.506103515625,0
1650.7710000000006,0.04225267842411995,-0.013302139937877655,0.00016674122889526188,0.0,0.0,0.0,0.0,-0.00034018533187918365,-0.002264986280351877,0.003295221598818898,1.0004950761795044,0.0,0.0,0.0,14.409153938293457,11.230850219726562,-1.3530690670013428,-2608.08544921875,0
1660.6630000000005,0.04226451367139816,-0.013338228687644005,0.0001783374755177647,0.0,0.0,0.0,0.0,0.0002686413936316967,5.108013647259213e-05,-0.0015373826026916504,0.9995324015617371,0.0,0.0,0.0,14.395597457885742,11.220911979675293,-1.340475082397461,-2605.6318359375,0
1670.550000000001,0.04224516451358795,-0.01331830769777298,0.0001838244206737727,0.0,0.0,0.0,0.0,0.0002995723916683346,-0.0019606694113463163,0.0037799994461238384,0.9991095662117004,0.0,0.0,0.0,14.400958061218262,11.239603996276855,-1.3476670980453491,-2606.60205078125,0
1680.429,0.042255911976099014,-0.013353252783417702,0.00019722242723219097,0.0,0.0,0.0,0.0,0.0023179578129202127,-0.00010729934001574293,-0.00043297052616253495,1.0000519752502441,0.0,0.0,0.0,14.387094497680664,11.230632781982422,-1.344146490097046,-2604.0927734375,0
1690.3140000000003,0.04224754869937897,-0.013328967615962029,0.00022429082309827209,0.0,0.0,0.0,0.0,-0.00024349475279450417,0.0006683555548079312,-0.002536746906116605,1.0014294385910034,0.0,0.0,0.0,14.398124694824219,11.244112968444824,-1.3398717641830444,-2606.089111328125,0
1700.1939999999995,0.042258717119693756,-0.013362124562263489,0.0002407162101007998,0.0,0.0,0.0,0.0,0.001356963999569416,4.1930026782210916e-05,0.0005336380563676357,1.000783920288086,0.0,0.0,0.0,14.384939193725586,11.23029899597168,-1.343032956123352,-2603.70263671875,0
1710.0810000000001,0.042233906686306,-0.013341851532459259,0.00024536342243663967,0.0,0.0,0.0,0.0,0.0012002575676888227,0.0018022515578195453,-0.0031627335119992495,0.9979921579360962,0.0,0.0,0.0,14.39284896850586,11.246169090270996,-1.346779704093933,-2605.134521484375,0
1719.969000000001,0.042245764285326004,-0.013374474830925465,0.0002654795243870467,0.0,0.0,0.0,0.0,0.0012406668392941356,0.0023648624774068594,-0.0022159283980727196,0.9962857365608215,0.0,0.0,0.0,14.377154350280762,11.235213279724121,-1.3559640645980835,-2602.29345703125,0
1729.8490000000002,0.042214930057525635,-0.013324630446732044,0.0002695774019230157,0.0,0.0,0.0,0.0,0.0006118849851191044,-0.000731557491235435,-0.0008777606999501586,0.9962866306304932,0.0,0.0,0.0,14.382796287536621,11.257599830627441,-1.3741626739501953,-2603.31494140625,0
1739.737000000001,0.04222293570637703,-0.01335790753364563,0.00028760728309862316,0.0,0.0,0.0,0.0,0.0007141640526242554,-0.000279061496257782,-0.00045848372974433005,0.9982496500015259,0.0,0.0,0.0,14.368902206420898,11.244680404663086,-1.3852125406265259,-2600.7998046875,0
1749.6290000000008,0.04220961779356003,-0.013347737491130829,0.0002751052670646459,0.0,0.0,0.0,0.0,0.0024514480028301477,-0.0012736375210806727,-0.00434755627065897,0.9998053908348083,0.0,0.0,0.0,14.375810623168945,11.251208305358887,-1.3915694952011108,-2602.05029296875,0
1759.5120000000006,0.04221637174487114,-0.013383796438574791,0.0002891568874474615,0.0,0.0,0.0,0.0,-0.0009656681795604527,0.001639125170186162,3.578031464712694e-05,0.9989520907402039,0.0,0.0,0.0,14.361624717712402,11.240167617797852,-1.3968387842178345,-2599.482666015625,0
1769.3960000000006,0.042225200682878494,-0.013358608819544315,0.000299943087156862,0.0,0.0,0.0,0.0,0.0010787408100441098,0.0033823007252067327,-0.002096872078254819,0.999273419380188,0.0,0.0,0.0,14.37404727935791,11.248785972595215,-1.3974069356918335,-2601.7314453125,0
1779.2710000000006,0.042235229164361954,-0.013395722955465317,0.0003155390149913728,0.0,0.0,0.0,0.0,-0.0015093110268935561,-0.0012465808540582657,-0.004001492168754339,0.9986014366149902,0.0,0.0,0.0,14.360777854919434,11.233552932739258,-1.4021193981170654,-2599.329345703125,0
1789.1630000000005,0.042225681245326996,-0.013365843333303928,0.00029994797660037875,0.0,0.0,0.0,0.0,0.0012019082205370069,0.002370100934058428,-0.0032614772208034992,0.9996663928031921,0.0,0.0,0.0,14.367899894714355,11.252654075622559,-1.4067068099975586,-2600.61865234375,0
1799.045,0.04223053529858589,-0.01340299192816019,0.00031509139807894826,0.0,0.0,0.0,0.0,0.00211301539093256,-0.0012361932313069701,0.0014617640990763903,0.9988492727279663,0.0,0.0,0.0,14.353508949279785,11.23804759979248,-1.4155023097991943,-2598.013671875,0
1808.938,0.042219072580337524,-0.01333481166511774,0.00029135236400179565,0.0,0.0,0.0,0.0,-0.0005973419174551964,0.0015391274355351925,0.000597946927882731,0.9969282150268555,0.0,0.0,0.0,14.362655639648438,11.265650749206543,-1.4239535331726074,-2599.66943359375,0
1818.813,0.042219795286655426,-0.013369795866310596,0.00030710294959135354,0.0,0.0,0.0,0.0,0.0020374488085508347,-0.001536110183224082,-0.0015073317335918546,1.0007418394088745,0.0,0.0,0.0,14.347724914550781,11.253290176391602,-1.4228322505950928,-2596.967041015625,0
1828.7039999999997,0.04219452291727066,-0.013358633033931255,0.0002991299843415618,0.0,0.0,0.0,0.0,0.0034106215462088585,0.004776286892592907,0.004364307038486004,1.0014759302139282,0.0,0.0,0.0,14.355466842651367,11.268659591674805,-1.432663917541504,-2598.3681640625,0
1838.5910000000003,0.04219365119934082,-0.013396752998232841,0.0003146298695355654,0.0,0.0,0.0,0.0,0.0015859315171837807,-0.00026487544528208673,-0.002426091581583023,0.9978013634681702,0.0,0.0,0.0,14.342660903930664,11.255354881286621,-1.4399772882461548,-2596.050048828125,0
1848.4750000000004,0.042181700468063354,-0.013376756571233273,0.0002919832768384367,0.0,0.0,0.0,0.0,0.00040131888817995787,0.001647771568968892,-0.001593159046024084,0.997388482093811,0.0,0.0,0.0,14.35403060913086,11.264623641967773,-1.4459930658340454,-2598.1083984375,0
1858.3559999999998,0.0421806164085865,-0.013415499590337276,0.0003078722220379859,0.0,0.0,0.0,0.0,-0.0033612281549721956,-0.004029734525829554,0.0005804614047519863,0.9999092221260071,0.0,0.0,0.0,14.33967399597168,11.252516746520996,-1.441269874572754,-2595.50927734375,0
1868.2520000000004,0.04219551011919975,-0.013376494869589806,0.0002977200783789158,0.0,0.0,0.0,0.0,0.0020893218461424112,-0.0013102602679282427,0.0017219657311215997,0.9995763301849365,0.0,0.0,0.0,14.351969718933105,11.267735481262207,-1.4307481050491333,-2597.735107421875,0
1878.1310000000012,0.04219834506511688,-0.01341517735272646,0.00031389627838507295,0.0,0.0,0.0,0.0,-0.0015548496739938855,0.0006221823859959841,-0.0015279960352927446,0.9994138479232788,0.0,0.0,0.0,14.338939666748047,11.259336471557617,-1.4217547178268433,-2595.376708984375,0
1888.0120000000006,0.04219532012939453,-0.013386637903749943,0.0002808828721754253,0.0,0.0,0.0,0.0,5.52837664145045e-05,0.0025298723485320807,0.001183957327157259,0.9988152980804443,0.0,0.0,0.0,14.349886894226074,11.27407169342041,-1.4188766479492188,-2597.358154296875,0
1897.8909999999996,0.042198024690151215,-0.013425500132143497,0.0002975567476823926,0.0,0.0,0.0,0.0,-0.0004673013463616371,-0.0030423805583268404,0.0023174830712378025,0.9981433749198914,0.0,0.0,0.0,14.33586311340332,11.268505096435547,-1.418561577796936,-2594.819580078125,0
1907.7790000000005,0.042200375348329544,-0.013379241339862347,0.0002480976691003889,0.0,0.0,0.0,0.0,0.0008134659728966653,0.002432876732200384,-0.0013379286974668503,0.9989638924598694,0.0,0.0,0.0,14.34305191040039,11.28207778930664,-1.4456628561019897,-2596.120849609375,0
1917.6630000000005,0.04220058023929596,-0.013416537083685398,0.00026309696841053665,0.0,0.0,0.0,0.0,0.0005326849059201777,0.0011935958173125982,-0.0013853899436071515,0.9983842968940735,0.0,0.0,0.0,14.328660011291504,11.268033981323242,-1.4380565881729126,-2593.515869140625,0
1927.5599999999995,0.042185623198747635,-0.01332817878574133,0.0001859430194599554,0.0,0.0,0.0,0.0,-0.001511288108304143,-0.005773636512458324,0.00048559450078755617,0.998323917388916,0.0,0.0,0.0,14.332860946655273,11.299155235290527,-1.454139232635498,-2594.276123046875,0
1937.438,0.042184654623270035,-0.013361142948269844,0.00019936436729039997,0.0,0.0,0.0,0.0,0.0003039482398889959,0.0006796884699724615,0.0005524905864149332,0.9986616969108582,0.0,0.0,0.0,14.3198881149292,11.279393196105957,-1.449649691581726,-2591.92822265625,0
1947.317000000001,0.04220115765929222,-0.013312709517776966,0.00014094267680775374,0.0,0.0,0.0,0.0,-0.0018982929177582264,0.0005517229437828064,0.003162562381476164,0.9987789392471313,0.0,0.0,0.0,14.329124450683594,11.289590835571289,-1.442181944847107,-2593.60009765625,0
1957.2060000000001,0.042201582342386246,-0.01334553025662899,0.00015228042320813984,0.0,0.0,0.0,0.0,-0.0008924622088670731,-0.003260082332417369,-0.0011568510672077537,0.9968281984329224,0.0,0.0,0.0,14.316603660583496,11.278557777404785,-1.4433432817459106,-2591.333740234375,0
1967.085000000001,0.04222389683127403,-0.013282529078423977,7.462364010279998e-05,0.0,0.0,0.0,0.0,-0.0005026647122576833,0.0005330294370651245,0.0016088567208498716,0.9979305267333984,0.0,0.0,0.0,14.328300476074219,11.295269012451172,-1.4220517873764038,-2593.45068359375,0
1976.973,0.04222537949681282,-0.013315681368112564,8.337370672961697e-05,0.0,0.0,0.0,0.0,0.0014161968138068914,0.0032283791806548834,0.0002751372812781483,0.997263491153717,0.0,0.0,0.0,14.313730239868164,11.282171249389648,-1.4302119016647339,-2590.8134765625,0
1986.8540000000012,0.04222242906689644,-0.013283660635352135,4.628319220500998e-05,0.0,0.0,0.0,0.0,-0.0012619270710274577,-0.001503807958215475,0.0005923215649090707,0.9982697367668152,0.0,0.0,0.0,14.32657241821289,11.290351867675781,-1.4314324855804443,-2593.137939453125,0
1996.7479999999996,0.042225755751132965,-0.013316684402525425,5.1952560170320794e-05,0.0,0.0,0.0,0.0,-1.2212695764901582e-05,-0.0007141403621062636,-0.002396677155047655,0.9986301064491272,0.0,0.0,0.0,14.313067436218262,11.28678035736084,-1.4407211542129517,-2590.693603515625,0
2006.6270000000004,0.04222405329346657,-0.013280464336276054,1.221029924636241e-05,0.0,0.0,0.0,0.0,-0.0006629077834077179,-0.003894270397722721,0.002596792532131076,0.9970455765724182,0.0,0.0,0.0,14.32143497467041,11.30008602142334,-1.4282335042953491,-2592.208251953125,0
2016.509,0.04222620278596878,-0.01331175398081541,1.5901363440207206e-05,0.0,0.0,0.0,0.0,0.00018447430920787156,0.0017157226102426648,-0.002236760687083006,0.9995439648628235,0.0,0.0,0.0,14.307315826416016,11.284209251403809,-1.4244179725646973,-2589.65283203125,0
2026.3880000000008,0.04226872697472572,-0.013217553496360779,-0.00010608864977257326,0.0,0.0,0.0,0.0,0.0009072047541849315,0.0047590043395757675,0.0028608383145183325,0.9998703598976135,0.0,0.0,0.0,14.31572151184082,11.299604415893555,-1.413883924484253,-2591.173828125,0
2036.2900000000009,0.04227505624294281,-0.013244880363345146,-0.00010431267583044246,0.0,0.0,0.0,0.0,0.0002655835705809295,-0.0010004752548411489,0.0007326754275709391,0.9979633688926697,0.0,0.0,0.0,14.301464080810547,11.2864351272583,-1.4208364486694336,-2588.593505859375,0
2046.1689999999999,0.04231904074549675,-0.013158108107745647,-0.00023749071988277137,0.0,0.0,0.0,0.0,-0.00016584295372013003,-0.0002392142778262496,-9.539779421174899e-05,0.9991726875305176,0.0,0.0,0.0,14.319211959838867,11.297846794128418,-1.426177978515625,-2591.8056640625,0
2056.053,0.04232706129550934,-0.013182565569877625,-0.00023761219927109778,0.0,0.0,0.0,0.0,0.0011435779742896557,0.0022204730194061995,-0.002526352182030678,0.9987325072288513,0.0,0.0,0.0,14.305215835571289,11.286931037902832,-1.4233431816101074,-2589.2724609375,0
2065.9320000000007,0.042362064123153687,-0.013090401887893677,-0.00036744395038113,0.0,0.0,0.0,0.0,0.0034878018777817488,0.0021163038909435272,-0.002305634319782257,0.997876763343811,0.0,0.0,0.0,14.321916580200195,11.307836532592773,-1.4104766845703125,-2592.295166015625,0
2075.8289999999997,0.042368512600660324,-0.013114430010318756,-0.0003693089238367975,0.0,0.0,0.0,0.0,-0.0006752765621058643,0.0027529436629265547,9.056182898348197e-05,1.0010956525802612,0.0,0.0,0.0,14.306757926940918,11.293108940124512,-1.4226094484329224,-2589.551513671875,0
2085.701000000001,0.04240616038441658,-0.013026758097112179,-0.0004456935275811702,0.0,0.0,0.0,0.0,-0.0004961976665072143,-0.0012505636550486088,0.002533570397645235,1.0000219345092773,0.0,0.0,0.0,14.318607330322266,11.299614906311035,-1.4241917133331299,-2591.6962890625,0
2095.598,0.042361069470644,-0.013110388070344925,-0.00017950106121134013,0.0,0.0,0.0,0.0,0.00036144323530606925,-7.817213190719485e-05,0.002254040911793709,0.9990646243095398,0.0,0.0,0.0,14.369585037231445,11.302597045898438,-1.4109898805618286,-2600.923583984375,0
2105.470000000001,0.042282119393348694,-0.013107525184750557,-0.00018208558321930468,0.0,0.0,0.0,0.0,0.0004088207788299769,-0.003309716936200857,-0.0019342930754646659,1.0001716613769531,0.0,0.0,0.0,14.379279136657715,11.294563293457031,-1.4122287034988403,-2602.67822265625,0
2115.365,0.04228197783231735,-0.013132108375430107,-0.00017424093675799668,0.0,0.0,0.0,0.0,0.0013576059136539698,0.0007740558939985931,0.0016778791323304176,1.001796007156372,0.0,0.0,0.0,14.365409851074219,11.281145095825195,-1.398281216621399,-2600.167724609375,0
2125.236000000001,0.04223678633570671,-0.013137576170265675,-0.00015432796499226242,0.0,0.0,0.0,0.0,0.0026318600866943598,-0.0061691016890108585,-0.0015209187986329198,1.0012922286987305,0.0,0.0,0.0,14.374398231506348,11.275920867919922,-1.3949148654937744,-2601.794677734375,0
2135.1319999999996,0.042236849665641785,-0.013165981508791447,-0.00014258224109653383,0.0,0.0,0.0,0.0,0.0009513737168163061,0.0023754360154271126,-0.00018249114509671926,1.0016013383865356,0.0,0.0,0.0,14.359451293945312,11.26052188873291,-1.3846100568771362,-2599.08935546875,0
2145.008,0.042203642427921295,-0.013136032037436962,-8.300692570628598e-05,0.0,0.0,0.0,0.0,-0.0024133070837706327,-0.0013133654138073325,-0.0005949795013293624,0.9976003170013428,0.0,0.0,0.0,14.366230010986328,11.263568878173828,-1.3808003664016724,-2600.316162109375,0
2154.897000000001,0.04220469295978546,-0.013164345175027847,-6.474398105638102e-05,0.0,0.0,0.0,0.0,0.0019559336360543966,-0.0008538456168025732,-0.0011684063356369734,0.9982320666313171,0.0,0.0,0.0,14.352803230285645,11.250938415527344,-1.3808506727218628,-2597.88623046875,0
2164.7839999999997,0.042182788252830505,-0.013182385824620724,-3.7223151593934745e-05,0.0,0.0,0.0,0.0,-0.0005680894828401506,0.004508506041020155,-0.003839118406176567,0.997819721698761,0.0,0.0,0.0,14.359331130981445,11.244268417358398,-1.378343939781189,-2599.067626953125,0
