timestamp,stateEstimate.x,stateEstimate.y,stateEstimate.z,controller.cmd_thrust,controller.cmd_roll,controller.cmd_pitch,controller.cmd_yaw,controller.r_roll,controller.r_pitch,controller.r_yaw,controller.accelz,controller.actuatorThrust,controller.roll,controller.pitch,controller.yaw,controller.rollRate,controller.pitchRate,controller.yawRate,controller.ctr_yaw
0.0,-2.2196787540451623e-05,-0.00013202249829191715,-0.0001612068881513551,0.0,0.0,0.0,0.0,-0.0008265622309409082,0.0013666654704138637,0.00036133002140559256,0.9991032481193542,0.0,0.0,0.0,0.33929502964019775,12.691487312316895,2.6827774047851562,-61.4130744934082,0
9.891999999999825,-0.00013528220006264746,-0.00011909016029676422,-0.00015064292529132217,0.0,0.0,0.0,0.0,-0.002225632080808282,0.003919149283319712,-0.00037383983726613224,0.9984131455421448,0.0,0.0,0.0,0.330364853143692,12.702369689941406,2.655183792114258,-59.796695709228516,0
19.770000000000437,-0.00010445096995681524,-0.00016058821347542107,-0.00019214428903069347,0.0,0.0,0.0,0.0,-0.0015080104349181056,0.00026579483528621495,-0.0009084536577574909,0.9987882375717163,0.0,0.0,0.0,0.343751460313797,12.700040817260742,2.651254415512085,-62.219696044921875,0
29.65400000000045,-3.587675382732414e-05,-0.00018962335889227688,-0.000150884356116876,0.0,0.0,0.0,0.0,0.0014745754888281226,-0.0009713234612718225,0.0022960638161748648,1.0011260509490967,0.0,0.0,0.0,0.3432978689670563,12.687775611877441,2.655125856399536,-62.137596130371094,0
39.53600000000006,-2.7883699658559635e-05,-0.00024681593640707433,-0.00015547079965472221,0.0,0.0,0.0,0.0,-0.0007553311879746616,-0.0037400806322693825,-0.0005550686037167907,0.9999297261238098,0.0,0.0,0.0,0.3520660698413849,12.681266784667969,2.660839080810547,-63.72465896606445,0
49.42100000000028,-0.00011133406223962083,-0.0002372677845414728,-0.00013041713100392371,0.0,0.0,0.0,0.0,-0.002234062412753701,-0.005332803353667259,0.0009974830318242311,0.9999333024024963,0.0,0.0,0.0,0.3393169939517975,12.684781074523926,2.65057635307312,-61.41705322265625,0
59.315999999998894,-9.349503670819104e-05,-0.00026067293947562575,-0.0001387328957207501,0.0,0.0,0.0,0.0,0.0004955966724082828,0.0005465099820867181,-0.001426556846126914,0.9990925192832947,0.0,0.0,0.0,0.3528972268104553,12.685541152954102,2.663654327392578,-63.875099182128906,0
69.19900000000052,-0.00010145163832930848,-0.0003368791949469596,-0.00013495353050529957,0.0,0.0,0.0,0.0,-0.00259234756231308,0.005623233038932085,-0.0007687317556701601,0.9987888932228088,0.0,0.0,0.0,0.3523312509059906,12.674906730651855,2.659855604171753,-63.77265930175781,0
79.07699999999932,-5.734946171287447e-05,-0.00029520440148189664,-0.0001691182260401547,0.0,0.0,0.0,0.0,-0.0015154407592490315,0.0033170185051858425,-0.0006373165524564683,0.9969912767410278,0.0,0.0,0.0,0.3664267659187317,12.695910453796387,2.6618809700012207,-66.323974609375,0
88.96299999999974,-6.412975926650688e-05,-0.00037218283978290856,-0.0001699502463452518,0.0,0.0,0.0,0.0,-0.003415854414924979,0.002657091012224555,-0.0023216838017106056,0.9968793988227844,0.0,0.0,0.0,0.36637404561042786,12.684136390686035,2.646892786026001,-66.3144302368164,0
98.85000000000036,-5.08597404405009e-05,-0.0003427740593906492,-0.0001664512965362519,0.0,0.0,0.0,0.0,0.0037780567072331905,-0.00025586047559045255,0.0020239411387592554,0.9992891550064087,0.0,0.0,0.0,0.3736964464187622,12.705852508544922,2.648214340209961,-67.63980102539062,0
108.73099999999977,-7.545312837464735e-05,-0.00029583944706246257,-9.190791752189398e-05,0.0,0.0,0.0,0.0,-0.002024057088419795,-0.003113727318122983,-0.0010870923288166523,1.0006529092788696,0.0,0.0,0.0,0.3637166917324066,12.72438907623291,2.639683485031128,-65.83344268798828,0
118.62099999999919,-9.954912911780411e-07,-0.00021092634415253997,-0.00013857590965926647,0.0,0.0,0.0,0.0,0.0018946747295558453,0.00015667326806578785,0.0026097875088453293,0.9983872175216675,0.0,0.0,0.0,0.374696284532547,12.750374794006348,2.660557508468628,-67.82077026367188,0
128.49599999999919,-5.853116454090923e-05,-0.0001812934351619333,-9.688887075753883e-05,0.0,0.0,0.0,0.0,0.0020613998640328646,-0.0012296611675992608,-0.0014268745435401797,0.9996439218521118,0.0,0.0,0.0,0.36118337512016296,12.7562837600708,2.643462657928467,-65.37490844726562,0
138.3819999999996,-1.3836837524650036e-06,-0.00014894831110723317,-0.00014471820031758398,0.0,0.0,0.0,0.0,-0.0001754317490849644,0.002936143660917878,-0.0021408190950751305,0.9997535943984985,0.0,0.0,0.0,0.3707329034805298,12.759807586669922,2.6596765518188477,-67.10338592529297,0
148.27099999999882,-4.3779647967312485e-05,-0.0001391335390508175,-0.00011229812662350014,0.0,0.0,0.0,0.0,0.0008026398718357086,-0.0028467848896980286,0.005847229156643152,0.9969121813774109,0.0,0.0,0.0,0.35558652877807617,12.763650894165039,2.635390043258667,-64.36186981201172,0
158.15599999999904,-8.92388925421983e-06,-0.00017344378284178674,-0.0001571276952745393,0.0,0.0,0.0,0.0,0.0019452680135145783,0.0017225241754204035,0.0017574704252183437,1.0004693269729614,0.0,0.0,0.0,0.3631071150302887,12.756165504455566,2.6509976387023926,-65.72310638427734,0
168.04099999999926,5.457415227283491e-06,-0.00017207747441716492,-0.00011506663577165455,0.0,0.0,0.0,0.0,-0.002287239534780383,0.001174643519334495,0.004947752226144075,1.0008283853530884,0.0,0.0,0.0,0.3567265570163727,12.753325462341309,2.6467185020446777,-64.56822204589844,0
177.92000000000007,4.570169039652683e-05,-0.00019912049174308777,-0.0001579706004122272,0.0,0.0,0.0,0.0,0.0001734729012241587,-0.0055549112148582935,0.002812247723340988,0.999067485332489,0.0,0.0,0.0,0.36778292059898376,12.750076293945312,2.659008026123047,-66.5694351196289,0
187.8060000000005,-4.141496174270287e-05,-0.00016667618183419108,-0.00012950504606124014,0.0,0.0,0.0,0.0,-0.0038158870302140713,0.002823681104928255,0.00034670616150833666,1.0007413625717163,0.0,0.0,0.0,0.35405808687210083,12.753897666931152,2.6570346355438232,-64.08522033691406,0
197.69900000000052,1.0749243301688693e-05,-0.00014406611444428563,-0.0001663174043642357,0.0,0.0,0.0,0.0,0.0007062904769554734,-0.0006022041197866201,0.0005159651045687497,1.0005887746810913,0.0,0.0,0.0,0.36387044191360474,12.762060165405273,2.662322998046875,-65.86126708984375,0
207.57999999999993,4.236873792251572e-06,-0.00015404389705508947,-0.00013557542115449905,0.0,0.0,0.0,0.0,0.00038368001696653664,-0.002371875336393714,0.0025261701084673405,0.9978089928627014,0.0,0.0,0.0,0.364096462726593,12.739767074584961,2.6568806171417236,-65.90218353271484,0
217.45800000000054,8.064345456659794e-05,-0.00010764945182017982,-0.0001999776577576995,0.0,0.0,0.0,0.0,-0.002063797088339925,0.004944883286952972,0.00021317960636224598,1.001846432685852,0.0,0.0,0.0,0.3767112195491791,12.743803977966309,2.6646010875701904,-68.18548583984375,0
227.34799999999996,-5.94976227148436e-05,-0.00011857693607453257,-0.0002115301467711106,0.0,0.0,0.0,0.0,4.019588595838286e-05,0.0029779188334941864,0.001334553468041122,0.9984959959983826,0.0,0.0,0.0,0.3656257688999176,12.743557929992676,2.628981828689575,-66.17899322509766,0
365.7459999999992,5.420199886430055e-05,-0.00037421652814373374,-0.00024162007321137935,0.0,0.0,0.0,0.0,0.0017621265724301338,-0.0030948929488658905,0.0032062006648629904,1.0002970695495605,0.0,0.0,0.0,0.4033203423023224,12.74991226196289,2.6102120876312256,-73.00178527832031,0
375.6180000000004,5.226026041782461e-05,-0.0004467042163014412,-0.00024151273828465492,0.0,0.0,0.0,0.0,0.0002910959592554718,0.0038124630227684975,0.0004169678140897304,0.9998008608818054,0.0,0.0,0.0,0.40332892537117004,12.736410140991211,2.6124160289764404,-73.00334167480469,0
385.52000000000044,8.395496115554124e-05,-0.00033015478402376175,-0.0002193123655160889,0.0,0.0,0.0,0.0,0.0019507877295836806,8.86910711415112e-05,-0.002241130219772458,0.996723473072052,0.0,0.0,0.0,0.41096121072769165,12.7907075881958,2.631824254989624,-74.38479614257812,0
395.3899999999994,8.544259617337957e-05,-0.00039326222031377256,-0.00021904920868109912,0.0,0.0,0.0,0.0,-0.003944436553865671,0.0012667013797909021,-1.505427553638583e-05,0.9983708262443542,0.0,0.0,0.0,0.4098353683948517,12.77536678314209,2.6288371086120605,-74.18101501464844,0
405.2950000000001,0.0001260069984709844,-0.00029862066730856895,-0.00020794864394702017,0.0,0.0,0.0,0.0,0.00033866550074890256,0.0026302768383175135,0.002548390533775091,0.9976113438606262,0.0,0.0,0.0,0.4244835376739502,12.823662757873535,2.6436054706573486,-76.83235931396484,0
415.15599999999904,0.0001293395907850936,-0.0003548360546119511,-0.00020983294234611094,0.0,0.0,0.0,0.0,0.00026296661235392094,-0.0040243519470095634,0.0010410298127681017,1.0003066062927246,0.0,0.0,0.0,0.42470577359199524,12.81202220916748,2.6388919353485107,-76.8725814819336,0
425.0640000000003,0.0001532559545012191,-0.0002854817430488765,-0.0001869905972853303,0.0,0.0,0.0,0.0,-0.0010770310182124376,-0.0026563843712210655,0.0012836252572014928,0.9983299374580383,0.0,0.0,0.0,0.43123751878738403,12.844120979309082,2.661964178085327,-78.05484771728516,0
434.9290000000001,0.00015744233678560704,-0.0003373086219653487,-0.0001878805342130363,0.0,0.0,0.0,0.0,-0.000493217317853123,0.0001112016398110427,-0.0010285605676472187,0.9985357522964478,0.0,0.0,0.0,0.431013286113739,12.831947326660156,2.665936231613159,-78.01426696777344,0
444.8189999999995,0.0001794406707631424,-0.00028406077763065696,-0.00016114908794406801,0.0,0.0,0.0,0.0,0.00017876517085824162,0.00594525458291173,0.0020534791983664036,0.9997642636299133,0.0,0.0,0.0,0.4406338930130005,12.862238883972168,2.670340061187744,-79.75562286376953,0
454.7099999999991,0.00018878435366787016,-0.0003325182478874922,-0.00016059745394159108,0.0,0.0,0.0,0.0,-0.0004069100832566619,0.00256636505946517,0.0017941006226465106,0.998196005821228,0.0,0.0,0.0,0.4409788250923157,12.841585159301758,2.648280382156372,-79.81804656982422,0
464.59499999999935,0.00020156260870862752,-0.00028216137434355915,-0.0001227120083058253,0.0,0.0,0.0,0.0,0.0028816908597946167,0.0016726147150620818,-0.0015150998951867223,0.9970718026161194,0.0,0.0,0.0,0.4506565034389496,12.869236946105957,2.6403467655181885,-81.5697250366211,0
474.46999999999935,0.000210084137506783,-0.00032647166517563164,-0.00012157107994426042,0.0,0.0,0.0,0.0,-0.00013487118121702224,0.00196403032168746,0.0026802890934050083,0.9985056519508362,0.0,0.0,0.0,0.449955552816391,12.849947929382324,2.6334924697875977,-81.4428482055664,0
484.3680000000004,0.00023126137966755778,-0.00032968446612358093,-0.00011559530685190111,0.0,0.0,0.0,0.0,0.0023245627526193857,0.004143534693866968,0.0019523471128195524,0.9981139302253723,0.0,0.0,0.0,0.4577784240245819,12.856400489807129,2.6303179264068604,-82.85881042480469,0
494.2479999999996,0.00024111902166623622,-0.0003742799162864685,-0.00011614682443905622,0.0,0.0,0.0,0.0,0.002021385356783867,9.534268610877916e-05,-2.7842912459163927e-05,0.9987411499023438,0.0,0.0,0.0,0.4585888981819153,12.847663879394531,2.619962215423584,-83.00550079345703,0
504.1350000000002,0.00025039087631739676,-0.00042178487638011575,-0.00011738251487258822,0.0,0.0,0.0,0.0,0.00026987516321241856,0.00437272759154439,-0.00022957856708671898,0.9989141821861267,0.0,0.0,0.0,0.4586543142795563,12.83357048034668,2.6131434440612793,-83.01734161376953,0
514.0079999999998,0.0002593511890154332,-0.00047262004227377474,-0.0001184858992928639,0.0,0.0,0.0,0.0,-0.002976419636979699,-0.0034007620997726917,-0.0002288775285705924,1.0007771253585815,0.0,0.0,0.0,0.4583544433116913,12.825071334838867,2.5954744815826416,-82.96306610107422,0
523.9049999999988,0.0002683301572687924,-0.0005267842207103968,-0.00011875609925482422,0.0,0.0,0.0,0.0,0.001157178427092731,0.0019327716436237097,0.004395131021738052,0.9996512532234192,0.0,0.0,0.0,0.45743823051452637,12.816503524780273,2.6015520095825195,-82.79722595214844,0
533.780999999999,0.0002765629906207323,-0.0005847221473231912,-0.00011831017036456615,0.0,0.0,0.0,0.0,-0.0007356205023825169,0.002207663841545582,0.0007723589660599828,0.9995694160461426,0.0,0.0,0.0,0.4571400582790375,12.799508094787598,2.59308123588562,-82.7432632446289,0
543.6739999999991,0.00028295183437876403,-0.0006471363012678921,-0.00011733926658052951,0.0,0.0,0.0,0.0,-0.0010961948428303003,0.0007311982335522771,-0.0037832618691027164,0.9983924627304077,0.0,0.0,0.0,0.45665761828422546,12.788878440856934,2.5801806449890137,-82.65593719482422,0
553.5599999999995,0.00028757844120264053,-0.0007128312136046588,-0.00011667267244774848,0.0,0.0,0.0,0.0,-0.0005540648126043379,-0.00112674490083009,0.00021867583564016968,0.9976453185081482,0.0,0.0,0.0,0.4554405212402344,12.777106285095215,2.568753957748413,-82.43563842773438,0
563.4390000000003,-0.00010580963862594217,-0.00036320864455774426,-4.55723493359983e-05,0.0,0.0,0.0,0.0,0.0002624556072987616,0.0028184480033814907,-8.800806972431019e-05,0.9989225268363953,0.0,0.0,0.0,0.43898123502731323,12.876578330993652,2.5043036937713623,-79.45647430419922,0
573.3179999999993,-0.00012158188474131748,-0.00040749070467427373,-3.7894584238529205e-05,0.0,0.0,0.0,0.0,0.001466812682338059,0.001486253342591226,-0.002413473790511489,0.9989059567451477,0.0,0.0,0.0,0.4391193091869354,12.863664627075195,2.5031604766845703,-79.4814682006836,0
583.2160000000003,-0.00013146185665391386,-0.00035425665555521846,8.393911411985755e-05,0.0,0.0,0.0,0.0,0.0006822298746556044,-0.00018331501632928848,0.0021426004823297262,0.9996008276939392,0.0,0.0,0.0,0.4216632843017578,12.878141403198242,2.4939770698547363,-76.32189178466797,0
593.0889999999999,-0.00015167913807090372,-0.000399670097976923,9.792752098292112e-05,0.0,0.0,0.0,0.0,-0.0010827500373125076,-0.004695885814726353,-8.908423478715122e-05,0.9999645352363586,0.0,0.0,0.0,0.421146422624588,12.863509178161621,2.495711326599121,-76.22833251953125,0
602.9789999999994,-0.0001812117116060108,-0.0003678480861708522,0.00019658442761283368,0.0,0.0,0.0,0.0,-0.0021149921230971813,-0.003604623954743147,-0.0005081703420728445,0.9998714923858643,0.0,0.0,0.0,0.40278908610343933,12.88194465637207,2.4946630001068115,-72.90562438964844,0
612.8549999999996,-0.0002058842801488936,-0.00041552638867869973,0.00021687951812054962,0.0,0.0,0.0,0.0,-0.0016113566234707832,0.0038939344231039286,0.0017080891411751509,1.0000818967819214,0.0,0.0,0.0,0.40217551589012146,12.87374496459961,2.4929254055023193,-72.79457092285156,0
622.7479999999996,-0.0002315912424819544,-0.00046441855374723673,0.00023802036594133824,0.0,0.0,0.0,0.0,-0.00030628975946456194,0.0019209182355552912,-0.0032883556559681892,1.0003149509429932,0.0,0.0,0.0,0.40184924006462097,12.862571716308594,2.4819884300231934,-72.73550415039062,0
632.6260000000002,-0.0002580575237516314,-0.000514309445861727,0.0002603004686534405,0.0,0.0,0.0,0.0,-0.00025461908080615103,0.0007569243898615241,0.0006772103952243924,1.001460075378418,0.0,0.0,0.0,0.4008444547653198,12.843378067016602,2.465789318084717,-72.55364227294922,0
642.5200000000004,-0.0002848747535608709,-0.000565933296456933,0.0002842473331838846,0.0,0.0,0.0,0.0,0.0005730845732614398,0.002523645758628845,0.001685469876974821,0.9997798800468445,0.0,0.0,0.0,0.4011010229587555,12.828760147094727,2.4641339778900146,-72.60008239746094,0
652.4079999999994,-0.0003130894328933209,-0.0006196406320668757,0.0003094105632044375,0.0,0.0,0.0,0.0,0.0005995596875436604,0.004063301719725132,-0.0023326552473008633,0.9978381395339966,0.0,0.0,0.0,0.40189704298973083,12.814200401306152,2.453437328338623,-72.7441635131836,0
662.2929999999997,-0.0003436705737840384,-0.0006766197620891035,0.0003340821713209152,0.0,0.0,0.0,0.0,0.0007608482264913619,0.0014614504761993885,-0.00011550440831342712,0.9983222484588623,0.0,0.0,0.0,0.400490939617157,12.800477027893066,2.4431586265563965,-72.48965454101562,0
672.1710000000003,-0.0003759109531529248,-0.0007368428050540388,0.00035788421519100666,0.0,0.0,0.0,0.0,0.002386675216257572,-5.899761526961811e-05,0.003766442649066448,0.9996206164360046,0.0,0.0,0.0,0.4005799889564514,12.785886764526367,2.430845260620117,-72.50577545166016,0
682.0640000000003,-0.00040917028672993183,-0.0007980457739904523,0.0003815985401161015,0.0,0.0,0.0,0.0,0.0012962332693859935,0.0003995164588559419,0.002130035310983658,0.9989259839057922,0.0,0.0,0.0,0.4012221097946167,12.769533157348633,2.420624256134033,-72.62199401855469,0
691.9419999999991,-0.00044331816025078297,-0.0008598914137110114,0.0004054111195728183,0.0,0.0,0.0,0.0,0.0006557648302987218,0.0030790374148637056,0.0007962440722621977,1.0006332397460938,0.0,0.0,0.0,0.40192893147468567,12.75314998626709,2.420193910598755,-72.74993896484375,0
701.8369999999995,-0.00047896013711579144,-0.0009247660636901855,0.00042979256249964237,0.0,0.0,0.0,0.0,0.0024160235188901424,0.006277625449001789,0.0017550354823470116,0.9996721744537354,0.0,0.0,0.0,0.4000760614871979,12.746601104736328,2.403085947036743,-72.41456604003906,0
711.7080000000005,-0.0005164140020497143,-0.0009940468007698655,0.00045530160423368216,0.0,0.0,0.0,0.0,-0.0005839188233949244,0.001213441020809114,0.002095599891617894,1.0012357234954834,0.0,0.0,0.0,0.3993121385574341,12.727696418762207,2.3917317390441895,-72.27629852294922,0
721.6080000000002,-0.0005547600449062884,-0.0010668787872418761,0.00048230926040560007,0.0,0.0,0.0,0.0,0.0038893718738108873,-0.0005465332069434226,0.0006584703223779798,1.0006377696990967,0.0,0.0,0.0,0.39779651165008545,12.716301918029785,2.383277416229248,-72.001953125,0
731.4779999999992,-0.0005942211719229817,-0.0011417093919590116,0.0005108746117912233,0.0,0.0,0.0,0.0,-0.0005283307982608676,-0.00036297959741204977,0.0006258931243792176,1.000197172164917,0.0,0.0,0.0,0.3976300060749054,12.700852394104004,2.3806326389312744,-71.97181701660156,0
741.369999999999,-0.00016951812722254544,-0.0002023464476224035,-0.00039588005165569484,0.0,0.0,0.0,0.0,-0.0008379288483411074,0.004572048783302307,-0.000159746254212223,0.9993640184402466,0.0,0.0,0.0,0.408109575510025,12.893965721130371,2.476252555847168,-73.86864471435547,0
751.2489999999998,-0.00019052907009609044,-0.00023470012820325792,-0.00039310005377046764,0.0,0.0,0.0,0.0,0.00013395452697295696,-0.0015320347156375647,0.00020202175073791295,1.0002715587615967,0.0,0.0,0.0,0.40804019570350647,12.886896133422852,2.4574036598205566,-73.85608673095703,0
761.1409999999996,-0.00018936283595394343,-0.00018478631682228297,-0.0003928795631509274,0.0,0.0,0.0,0.0,0.0012819074327126145,-0.003788733622059226,-0.004127854015678167,0.9989606142044067,0.0,0.0,0.0,0.423541784286499,12.891372680664062,2.4638872146606445,-76.66191101074219,0
771.0190000000002,-0.00020958864479325712,-0.00021576552535407245,-0.0003885702753905207,0.0,0.0,0.0,0.0,0.00018734976765699685,0.005588362459093332,0.004607450682669878,0.9976161122322083,0.0,0.0,0.0,0.4219534993171692,12.878316879272461,2.474869728088379,-76.37442779541016,0
780.9069999999992,-0.0002296383463544771,-0.00024927849881350994,-0.000385317049222067,0.0,0.0,0.0,0.0,-0.0015137126902118325,-0.0017640627920627594,-0.0033333124592900276,0.9999772310256958,0.0,0.0,0.0,0.42176830768585205,12.863059997558594,2.459728240966797,-76.34090423583984,0
790.789999999999,-0.0002491931663826108,-0.00028518267208710313,-0.00038203250733204186,0.0,0.0,0.0,0.0,0.0019059701589867473,0.0006573872524313629,-0.001357909059152007,1.0008649826049805,0.0,0.0,0.0,0.42209675908088684,12.856099128723145,2.4712443351745605,-76.40035247802734,0
800.6829999999991,-0.0002572392695583403,-0.00023968293680809438,-0.00034083487116731703,0.0,0.0,0.0,0.0,-0.002984074642881751,-0.003944315481930971,-0.0024875744711607695,0.9994640946388245,0.0,0.0,0.0,0.43526411056518555,12.868367195129395,2.475346088409424,-78.78367614746094,0
810.5540000000001,-0.00027696392498910427,-0.00027306191623210907,-0.0003339280665386468,0.0,0.0,0.0,0.0,-0.0003919343580491841,-0.00554698146879673,-0.00015204118972178549,0.9973942041397095,0.0,0.0,0.0,0.43475186824798584,12.863490104675293,2.4800167083740234,-78.69095611572266,0
820.4529999999995,-0.0002972259244415909,-0.00030725187389180064,-0.0003282287798356265,0.0,0.0,0.0,0.0,-0.0008992545772343874,0.0009677123744040728,0.0014680096646770835,0.9983521699905396,0.0,0.0,0.0,0.4346902370452881,12.855266571044922,2.493086814880371,-78.67979431152344,0
830.3240000000005,-0.000319937476888299,-0.00034351838985458016,-0.00032325481879524887,0.0,0.0,0.0,0.0,-0.0017161336727440357,0.0023929623421281576,0.0017275498248636723,1.0014737844467163,0.0,0.0,0.0,0.43464624881744385,12.839763641357422,2.4901938438415527,-78.67183685302734,0
840.2150000000001,-0.00034571473952382803,-0.0003823236038442701,-0.00031730273622088134,0.0,0.0,0.0,0.0,-0.002155504422262311,0.003738806815817952,0.0007369974628090858,0.9994480609893799,0.0,0.0,0.0,0.43436142802238464,12.830998420715332,2.4757909774780273,-78.62028503417969,0
850.0929999999989,-0.0002397007920080796,-0.0003157026367262006,4.464985977392644e-06,0.0,0.0,0.0,0.0,0.00122917746193707,-0.0021132405381649733,-0.0046827481128275394,0.9972423315048218,0.0,0.0,0.0,0.4176573157310486,12.855390548706055,2.4981789588928223,-75.5968017578125,0
859.9930000000004,-0.00026405611424706876,-0.00035257707349956036,2.4096450943034142e-05,0.0,0.0,0.0,0.0,-0.0006088484078645706,0.0002751862339209765,-8.027565490920097e-05,0.9966500401496887,0.0,0.0,0.0,0.41610458493232727,12.835366249084473,2.5023999214172363,-75.31575775146484,0
869.8649999999998,-0.00026135105872526765,-0.00033964557223953307,0.00011650716623989865,0.0,0.0,0.0,0.0,-0.003702006535604596,-0.00333766988478601,0.0008102674619294703,0.9967032074928284,0.0,0.0,0.0,0.3953653573989868,12.837409973144531,2.5004806518554688,-71.56192016601562,0
879.759,-0.00028756397659890354,-0.0003773740027099848,0.00013541040243580937,0.0,0.0,0.0,0.0,-0.0023927930742502213,-0.0011708256788551807,0.0005810065777041018,0.998237669467926,0.0,0.0,0.0,0.39465707540512085,12.833039283752441,2.5108654499053955,-71.43370819091797,0
889.6419999999998,-0.00020289253734517843,-0.00036415725480765104,0.00023065815912559628,0.0,0.0,0.0,0.0,-0.0019831687677651644,-0.0012104482157155871,0.003220244776457548,0.9990903735160828,0.0,0.0,0.0,0.37793928384780884,12.839020729064941,2.5155723094940186,-68.40776824951172,0
899.5290000000005,-0.00022955427994020283,-0.00040362286381423473,0.0002522764843888581,0.0,0.0,0.0,0.0,7.569589070044458e-05,0.0007512218435294926,0.0023185883183032274,0.9997398257255554,0.0,0.0,0.0,0.3785441815853119,12.827890396118164,2.5143191814422607,-68.51724243164062,0
909.402,-0.0001479288621339947,-0.00042701896745711565,0.0003062490141019225,0.0,0.0,0.0,0.0,0.0014636660926043987,0.0008569308556616306,0.0006949000526219606,1.00278639793396,0.0,0.0,0.0,0.3669361174106598,12.823204040527344,2.5126092433929443,-66.4161605834961,0
919.3060000000005,-0.0001726538612274453,-0.0004711502115242183,0.0003330883337184787,0.0,0.0,0.0,0.0,-0.0011697531444951892,0.005614627152681351,0.0007616381626576185,1.000475287437439,0.0,0.0,0.0,0.36590614914894104,12.809415817260742,2.509312868118286,-66.229736328125,0
929.1810000000005,-0.00022124050883576274,-0.00046420254511758685,0.0004238493856973946,0.0,0.0,0.0,0.0,-0.00022872751287650317,-0.0009565106010995805,-0.00325309787876904,0.9989511370658875,0.0,0.0,0.0,0.34658756852149963,12.822925567626953,2.496866464614868,-62.73303985595703,0
939.0810000000001,-0.00024574471171945333,-0.0005112766521051526,0.0004570372402667999,0.0,0.0,0.0,0.0,0.003665086580440402,0.004473561886698008,-0.0001368599769193679,0.9987424612045288,0.0,0.0,0.0,0.34574002027511597,12.811410903930664,2.4949066638946533,-62.579627990722656,0
948.9480000000003,-0.00019949871057178825,-0.0005341147189028561,0.000531304394826293,0.0,0.0,0.0,0.0,0.001945712137967348,0.00026926741702482104,-0.0012013522209599614,1.000686764717102,0.0,0.0,0.0,0.3329283893108368,12.804766654968262,2.4886274337768555,-60.260704040527344,0
958.8439999999991,-0.0002219217858510092,-0.0005860807141289115,0.0005685538053512573,0.0,0.0,0.0,0.0,0.002478154143318534,0.0032451432198286057,-0.0009369008475914598,1.0011873245239258,0.0,0.0,0.0,0.33264702558517456,12.791470527648926,2.4803154468536377,-60.209774017333984,0
968.7179999999989,-0.00018678716151043773,-0.0005997777334414423,0.0006598673644475639,0.0,0.0,0.0,0.0,0.000560212240088731,-0.004619626794010401,-0.0014730062102898955,1.0008119344711304,0.0,0.0,0.0,0.32094937562942505,12.794428825378418,2.4826059341430664,-58.09247589111328,0
978.616,-0.00020931374456267804,-0.0006528267986141145,0.0007048304541967809,0.0,0.0,0.0,0.0,-0.0015539734158664942,0.00538963358849287,-0.0036089534405618906,0.9991871118545532,0.0,0.0,0.0,0.32039397954940796,12.77957534790039,2.4844260215759277,-57.991943359375,0
988.485999999999,-0.00023256728309206665,-0.0007083562668412924,0.0007503107190132141,0.0,0.0,0.0,0.0,0.0008660171297378838,-0.00027026180760003626,-0.0016374450642615557,0.9987053871154785,0.0,0.0,0.0,0.3201232850551605,12.770490646362305,2.461299419403076,-57.94294738769531,0
998.387999999999,-0.00025722390273585916,-0.0007666428573429585,0.000795558444224298,0.0,0.0,0.0,0.0,0.00229973834939301,0.0008632845710963011,-0.0018507597269490361,0.9993646740913391,0.0,0.0,0.0,0.3200279772281647,12.7512845993042,2.4607834815979004,-57.925697326660156,0
1008.2510000000002,-0.0002875983191188425,-0.0007767385104671121,0.000892533571459353,0.0,0.0,0.0,0.0,0.00012145908112870529,0.0009525677305646241,-0.0003832440706901252,0.9994364976882935,0.0,0.0,0.0,0.30961084365844727,12.760653495788574,2.463324546813965,-56.04018020629883,0
1018.1549999999988,-0.0003172628930769861,-0.0008351828437298536,0.0009422872681170702,0.0,0.0,0.0,0.0,-0.0011566466419026256,-0.008817126043140888,0.0020957523956894875,0.9998230934143066,0.0,0.0,0.0,0.3090263307094574,12.749545097351074,2.454076051712036,-55.93437576293945,0
1028.0339999999997,-0.0003683559480123222,-0.0008102717692963779,0.0010634902864694595,0.0,0.0,0.0,0.0,0.0006749422173015773,0.008395404554903507,-0.0002948187757283449,1.0000110864639282,0.0,0.0,0.0,0.2909179925918579,12.773234367370605,2.445744276046753,-52.656734466552734,0
1037.9339999999993,-0.00040362984873354435,-0.0008676853030920029,0.0011202598689123988,0.0,0.0,0.0,0.0,3.908090366167016e-05,0.0047808438539505005,0.0013047762913629413,0.9993815422058105,0.0,0.0,0.0,0.2916701138019562,12.760865211486816,2.426424026489258,-52.792869567871094,0
1047.7929999999997,-0.00042673214920796454,-0.0008744871011003852,0.0012347920564934611,0.0,0.0,0.0,0.0,-0.0009139091125689447,0.0065043033100664616,-0.0007852065027691424,1.0008047819137573,0.0,0.0,0.0,0.2828676700592041,12.764265060424805,2.425340414047241,-51.199607849121094,0
1057.6890000000003,-6.056150232325308e-05,-0.00016418850282207131,-8.230569801526144e-05,0.0,0.0,0.0,0.0,0.0017579433042556047,0.007561264093965292,-6.628705159528181e-05,1.0007644891738892,0.0,0.0,0.0,0.2980386018753052,12.90518569946289,2.4762933254241943,-53.94557571411133,0
1067.574999999999,-6.944601045688614e-05,-0.00015917044947855175,-2.4538505385862663e-05,0.0,0.0,0.0,0.0,-0.003079853253439069,-0.0026130720507353544,-0.002683298196643591,0.9995925426483154,0.0,0.0,0.0,0.2888810932636261,12.899221420288086,2.4729700088500977,-52.28805160522461,0
1077.4599999999991,-2.282621426275e-05,-8.055943180806935e-05,-0.00012416570098139346,0.0,0.0,0.0,0.0,-0.001101320143789053,-0.0010012804996222258,-0.0001116787243518047,0.9999614953994751,0.0,0.0,0.0,0.3064197301864624,12.901324272155762,2.4850072860717773,-55.462581634521484,0
1087.3330000000005,-5.4206218919716775e-05,-7.332762470468879e-05,-7.936959445942193e-05,0.0,0.0,0.0,0.0,0.0008670971728861332,0.00043466564966365695,-0.0022025781217962503,0.9995001554489136,0.0,0.0,0.0,0.29127249121665955,12.897652626037598,2.4767889976501465,-52.72090530395508,0
1097.244999999999,-5.481856351252645e-05,-0.00010786189523059875,-0.00010628988820826635,0.0,0.0,0.0,0.0,0.000826963281724602,0.0022014444693922997,-0.0018742455868050456,0.9969943761825562,0.0,0.0,0.0,0.3068196177482605,12.88697624206543,2.4787516593933105,-55.53496551513672,0
1107.110999999999,-8.057388913584873e-05,-0.0001094806139008142,-6.447533087339252e-05,0.0,0.0,0.0,0.0,0.0006737126386724412,0.002740161493420601,-0.0010013406863436103,0.9993085861206055,0.0,0.0,0.0,0.29103389382362366,12.875847816467285,2.4664721488952637,-52.67771530151367,0
1117.0059999999994,-7.298437412828207e-05,-0.00013930819113738835,-9.775348735274747e-05,0.0,0.0,0.0,0.0,0.0017940583638846874,-0.0027306380216032267,0.00043091518455184996,1.001710295677185,0.0,0.0,0.0,0.30420559644699097,12.86758804321289,2.4659457206726074,-55.06181716918945,0
1126.887999999999,-6.110670801717788e-05,-0.00015590553812216967,-5.37483356310986e-05,0.0,0.0,0.0,0.0,0.0006249960279092193,-0.0004682150320149958,-0.0010378047591075301,0.9996116757392883,0.0,0.0,0.0,0.30390945076942444,12.857316970825195,2.470346689224243,-55.008209228515625,0
1136.7700000000004,-6.783337448723614e-05,-0.0001797373843146488,-6.15508106420748e-05,0.0,0.0,0.0,0.0,0.005616500973701477,0.006937121041119099,0.0035568983294069767,0.9995642304420471,0.0,0.0,0.0,0.31711557507514954,12.841246604919434,2.466125965118408,-57.39855194091797,0
1146.6509999999998,-9.418362606083974e-05,-0.00017547036986798048,-1.0738405762822367e-05,0.0,0.0,0.0,0.0,0.0022000011522322893,-0.002022340428084135,0.0009118837187997997,0.9990437030792236,0.0,0.0,0.0,0.3010544776916504,12.823113441467285,2.4488492012023926,-54.49146270751953,0
1156.5479999999989,-6.967468652874231e-05,-0.00017169925558846444,-5.9408441302366555e-05,0.0,0.0,0.0,0.0,0.0020478072110563517,0.0018618983449414372,0.0008095218217931688,1.0010533332824707,0.0,0.0,0.0,0.319036066532135,12.814044952392578,2.4612255096435547,-57.746158599853516,0
1166.4169999999995,-3.942876719520427e-05,-0.00017233363178092986,4.860949957219418e-06,0.0,0.0,0.0,0.0,-0.0005417778738774359,0.001099133980460465,0.0019327030749991536,1.0010688304901123,0.0,0.0,0.0,0.31251949071884155,12.801074028015137,2.4515304565429688,-56.566650390625,0
1176.3199999999997,3.0853952921461314e-05,-8.839310612529516e-05,-7.81450726208277e-05,0.0,0.0,0.0,0.0,-0.0008967769681476057,2.7964357286691666e-05,-0.00365617242641747,1.0018434524536133,0.0,0.0,0.0,0.3278689682483673,12.806479454040527,2.4542503356933594,-59.34493637084961,0
1186.191999999999,-5.108155164634809e-05,-9.484241309110075e-05,-5.275630974210799e-05,0.0,0.0,0.0,0.0,0.0023260554298758507,0.0032892448361963034,-0.001480009057559073,0.9979851245880127,0.0,0.0,0.0,0.31184351444244385,12.801206588745117,2.4496371746063232,-56.44429397583008,0
1196.089,7.046917744446546e-06,8.050581527641043e-06,-0.00011421517410781235,0.0,0.0,0.0,0.0,-0.0018683737143874168,-0.0040001594461500645,-0.001032544649206102,0.9986604452133179,0.0,0.0,0.0,0.3255622684955597,12.799765586853027,2.458001136779785,-58.92741775512695,0
1205.9609999999993,-5.6025502999546006e-05,-2.353145282540936e-05,-0.0001003113211481832,0.0,0.0,0.0,0.0,-0.0028753303922712803,-0.002740848809480667,-0.00039959154673852026,0.998685896396637,0.0,0.0,0.0,0.3104698657989502,12.79310131072998,2.454761028289795,-56.19566345214844,0
1215.8529999999992,-2.4766621208982542e-05,-7.337330316659063e-06,-0.00016657382366247475,0.0,0.0,0.0,0.0,0.0004549384757410735,-0.004439359996467829,-0.0003777989186346531,0.9991681575775146,0.0,0.0,0.0,0.3293558359146118,12.796037673950195,2.468679666519165,-59.61406707763672,0
1225.732,-2.7067289920523763e-07,-0.00010327521886210889,-0.0001651327038416639,0.0,0.0,0.0,0.0,-0.003930287901312113,-0.005349729675799608,0.003099855501204729,0.9992853999137878,0.0,0.0,0.0,0.3210003674030304,12.781285285949707,2.4793851375579834,-58.101707458496094,0
1235.619999999999,-7.934631867101416e-06,-0.0001492075971327722,-0.0001948557619471103,0.0,0.0,0.0,0.0,0.0026400319766253233,3.3450371120125055e-05,0.0010099789360538125,0.9975157976150513,0.0,0.0,0.0,0.33565670251846313,12.777999877929688,2.4942305088043213,-60.7545280456543,0
1245.4899999999998,3.093174018431455e-05,-0.000173659369465895,-0.00015050086949486285,0.0,0.0,0.0,0.0,-0.0008087407913990319,-0.0007901992648839951,0.0005352407461032271,0.9980437159538269,0.0,0.0,0.0,0.3277033567428589,12.767916679382324,2.4958457946777344,-59.31496047973633,0
1255.4009999999998,-1.2500082448241301e-05,-0.00024539808509871364,-0.0001287720660911873,0.0,0.0,0.0,0.0,-0.000852543453220278,0.0036287123803049326,0.002384831430390477,0.9988388419151306,0.0,0.0,0.0,0.3467142879962921,12.751472473144531,2.494772434234619,-62.75597381591797,0
1265.2729999999992,-9.58684177021496e-05,-0.00020202301675453782,-8.18752232589759e-05,0.0,0.0,0.0,0.0,0.0033682824578136206,-0.0011621244484558702,-0.003261380596086383,1.0000529289245605,0.0,0.0,0.0,0.33205437660217285,12.755681991577148,2.477599620819092,-60.102500915527344,0
1275.1540000000005,-0.00010582157847238705,-0.00022969476412981749,-8.855186024447903e-05,0.0,0.0,0.0,0.0,0.0008497542585246265,0.00013389805098995566,-0.0006433516391552985,0.9999299049377441,0.0,0.0,0.0,0.34732499718666077,12.740093231201172,2.47795033454895,-62.86651611328125,0
1285.0329999999994,-0.0001256406685570255,-0.00021673749142792076,-3.413057129364461e-05,0.0,0.0,0.0,0.0,0.0037608069833368063,0.00580472219735384,-1.427293500455562e-05,1.0010709762573242,0.0,0.0,0.0,0.33438876271247864,12.738811492919922,2.4632790088653564,-60.525028228759766,0
1294.9269999999997,-0.000123263627756387,-0.000237069878494367,-5.4242635087575763e-05,0.0,0.0,0.0,0.0,-5.3809144446859136e-05,0.004036253318190575,-0.002131043002009392,0.9988903403282166,0.0,0.0,0.0,0.3498477339744568,12.728148460388184,2.4503133296966553,-63.32313537597656,0
1304.804,-0.00012779828102793545,-0.00025215308414772153,-7.141754394979216e-06,0.0,0.0,0.0,0.0,0.0005386366392485797,0.004259386099874973,0.002356588374823332,0.9997552633285522,0.0,0.0,0.0,0.3373728394508362,12.718603134155273,2.440819025039673,-61.06515884399414,0
1314.690999999999,-0.0001144182460848242,-0.00025423793704248965,-3.615004607127048e-05,0.0,0.0,0.0,0.0,0.000674053851980716,0.0014192338567227125,0.0008377764606848359,1.0000957250595093,0.0,0.0,0.0,0.3518622815608978,12.711843490600586,2.4418885707855225,-63.687774658203125,0
1324.5720000000001,-0.00013845710782334208,-0.00023785977100487798,2.647268593136687e-05,0.0,0.0,0.0,0.0,0.002832832047715783,0.0020737939048558474,0.0045367078855633736,0.9968851804733276,0.0,0.0,0.0,0.33817824721336365,12.707962036132812,2.4357802867889404,-61.21092987060547,0
1334.4660000000003,-0.00012450884969439358,-0.00024296061019413173,-1.355580025119707e-06,0.0,0.0,0.0,0.0,-0.0008359636995010078,0.0032084807753562927,-0.0030086268670856953,0.9984243512153625,0.0,0.0,0.0,0.3541243076324463,12.696991920471191,2.431264877319336,-64.09720611572266,0
1344.3420000000006,-0.0001308847131440416,-0.00023943113046698272,6.0971789935138077e-05,0.0,0.0,0.0,0.0,-0.001402585068717599,-0.0007908474653959274,-0.00072468415601179,1.0007734298706055,0.0,0.0,0.0,0.33709296584129333,12.693002700805664,2.4240219593048096,-61.01449966430664,0
1354.2469999999994,-0.00010875434236368164,-0.00023928310838527977,2.4590581233496778e-05,0.0,0.0,0.0,0.0,-0.001441081753000617,0.0028973808512091637,-0.0014256940921768546,0.9991350769996643,0.0,0.0,0.0,0.3519476354122162,12.694425582885742,2.432849407196045,-63.70322799682617,0
1364.1090000000004,-0.00014074495993554592,-0.0002372419403400272,7.901655772002414e-05,0.0,0.0,0.0,0.0,0.0012555902358144522,0.0013420152245089412,0.0007072112057358027,0.9998472332954407,0.0,0.0,0.0,0.3377416431903839,12.695486068725586,2.429288148880005,-61.13191223144531,0
1374.003999999999,-8.501932461513206e-05,-0.0002115410752594471,1.0060612112283707e-06,0.0,0.0,0.0,0.0,-0.0006841332069598138,-0.003277159295976162,0.0031523907091468573,0.9995021224021912,0.0,0.0,0.0,0.3482568860054016,12.701729774475098,2.4465975761413574,-63.03519058227539,0
1383.8799999999992,-6.284899427555501e-05,-0.00023426380357705057,5.385855183703825e-05,0.0,0.0,0.0,0.0,0.00370180606842041,0.000884633744135499,0.0007646622834727168,0.9993137121200562,0.0,0.0,0.0,0.34842583537101746,12.686338424682617,2.4480791091918945,-63.06576919555664,0
1393.7829999999994,-1.4014738553669304e-05,-0.00023489411978516728,-2.0559456970659085e-05,0.0,0.0,0.0,0.0,-0.0016870250692591071,-0.0009090039529837668,-0.0010085880057886243,1.0013318061828613,0.0,0.0,0.0,0.356051504611969,12.677512168884277,2.4570188522338867,-64.44602966308594,0
1403.6479999999992,-9.35792486416176e-05,-0.0002270358381792903,1.6884776414372027e-05,0.0,0.0,0.0,0.0,0.00101456418633461,-0.0004292899975553155,0.00034701544791460037,1.0012931823730469,0.0,0.0,0.0,0.3420408368110657,12.680967330932617,2.442129373550415,-61.910072326660156,0
1413.5569999999989,-5.001065073884092e-05,-0.00022417967556975782,-4.561436071526259e-05,0.0,0.0,0.0,0.0,0.00043117336463183165,-0.0013910813722759485,-0.0020371684804558754,0.9992098212242126,0.0,0.0,0.0,0.35348519682884216,12.67988109588623,2.4500460624694824,-63.98152160644531,0
1423.4220000000005,-0.00010611196921672672,-0.00022324611200019717,-2.4752498575253412e-06,0.0,0.0,0.0,0.0,0.000422883837018162,0.0012495997361838818,-0.0004066464025527239,1.0004093647003174,0.0,0.0,0.0,0.3399890959262848,12.678927421569824,2.442037582397461,-61.53870391845703,0
1433.3150000000005,-6.435999239329249e-05,-0.0002253676939290017,-6.154832954052836e-05,0.0,0.0,0.0,0.0,-0.0015148797538131475,0.0010131666203960776,-0.0022198674269020557,0.9993417263031006,0.0,0.0,0.0,0.3504163920879364,12.676718711853027,2.4470713138580322,-63.426063537597656,0
1443.1890000000003,-8.700277248863131e-05,-0.0003041042946279049,-5.547732871491462e-05,0.0,0.0,0.0,0.0,0.0008042167755775154,-0.0016365154879167676,-0.00016097052139230072,0.9993585348129272,0.0,0.0,0.0,0.34874165058135986,12.67200756072998,2.444802761077881,-63.12293243408203,0
1453.0869999999995,-4.653411451727152e-05,-0.00024142058100551367,-9.547881927574053e-05,0.0,0.0,0.0,0.0,-0.002996280090883374,0.0019969383720308542,-0.002277853200212121,1.000748634338379,0.0,0.0,0.0,0.35772648453712463,12.689355850219727,2.45918607711792,-64.74920654296875,0
1462.9699999999993,-6.860908615635708e-05,-0.0003207791596651077,-9.150637924904004e-05,0.0,0.0,0.0,0.0,0.0009488083305768669,0.0003938048903364688,0.0006308620213530958,1.0012166500091553,0.0,0.0,0.0,0.3570772707462311,12.684999465942383,2.4530155658721924,-64.63169860839844,0
1472.8580000000002,-4.477258335100487e-05,-0.0003091524704359472,-0.0001311998494202271,0.0,0.0,0.0,0.0,-0.0018997977022081614,0.0037076319567859173,-0.0010885342489928007,0.9976626038551331,0.0,0.0,0.0,0.36762678623199463,12.69254207611084,2.469805955886841,-66.54117584228516,0
1482.7299999999996,-6.644777749897912e-05,-0.0003903485194314271,-0.00012895413965452462,0.0,0.0,0.0,0.0,0.00104740250390023,0.0029005841352045536,0.001320214127190411,0.9974043369293213,0.0,0.0,0.0,0.3669928014278412,12.678271293640137,2.463935613632202,-66.42642974853516,0
1492.6389999999992,-6.733247573720291e-05,-0.00037025276105850935,-0.00012443156447261572,0.0,0.0,0.0,0.0,2.1171383195905946e-05,0.005514755379408598,-0.0007196424994617701,0.9977527856826782,0.0,0.0,0.0,0.38215214014053345,12.694557189941406,2.4681899547576904,-69.17030334472656,0
1502.4969999999994,-2.5895964427036233e-05,-0.0003589492407627404,-5.437054824142251e-06,0.0,0.0,0.0,0.0,0.0005111336940899491,0.001699180924333632,-0.00025933198048733175,1.001079797744751,0.0,0.0,0.0,0.3705728352069855,12.701788902282715,2.4677047729492188,-67.07441711425781,0
1512.4069999999992,2.2321610231301747e-06,-0.00034074793802574277,-2.426552600809373e-05,0.0,0.0,0.0,0.0,-0.0028905095532536507,-0.0026386831887066364,-0.00018209095287602395,1.0013192892074585,0.0,0.0,0.0,0.3805343508720398,12.708800315856934,2.4770123958587646,-68.87747192382812,0
1522.2729999999992,-7.882645149948075e-05,-0.00031044549541547894,2.374867835897021e-05,0.0,0.0,0.0,0.0,0.0008005336858332157,0.007933838292956352,-0.0017305142246186733,0.9996324777603149,0.0,0.0,0.0,0.3722219169139862,12.72313117980957,2.4697117805480957,-67.37290954589844,0
1532.1800000000003,-5.340247298590839e-05,-0.00030516734113916755,-5.265230356599204e-06,0.0,0.0,0.0,0.0,-0.0016532620647922158,-0.005085931625217199,-0.0005476127262227237,0.9996415376663208,0.0,0.0,0.0,0.38028132915496826,12.724998474121094,2.458615303039551,-68.83167266845703,0
1542.0439999999999,-9.776690421858802e-05,-0.0002994637761730701,4.24589125032071e-05,0.0,0.0,0.0,0.0,-0.0006849634228274226,-0.00203280383720994,-0.0005293381400406361,1.0006786584854126,0.0,0.0,0.0,0.3683631718158722,12.725850105285645,2.464881420135498,-66.67447662353516,0
1551.9429999999993,-6.529914389830083e-05,-0.0002806980919558555,6.544864845636766e-06,0.0,0.0,0.0,0.0,0.0005385374533943832,-0.002723884303122759,0.002443061675876379,0.999209463596344,0.0,0.0,0.0,0.3772861957550049,12.728334426879883,2.46994948387146,-68.28955078125,0
1561.815999999999,-0.00015815180086065084,-0.00027972160023637116,3.5766326618613675e-05,0.0,0.0,0.0,0.0,0.0004556059720925987,-0.002863883040845394,0.0011859176447615027,0.9969851970672607,0.0,0.0,0.0,0.3646315634250641,12.722846984863281,2.446410894393921,-65.9990463256836,0
1571.708999999999,-9.240287181455642e-05,-0.00023810830316506326,-4.606167567544617e-05,0.0,0.0,0.0,0.0,0.0007318944553844631,0.005323898047208786,0.001353427767753601,0.9982262253761292,0.0,0.0,0.0,0.3767224848270416,12.727027893066406,2.4591376781463623,-68.1875228881836,0
1581.5849999999991,-9.12101095309481e-05,-0.00025898253079503775,-7.308869498956483e-06,0.0,0.0,0.0,0.0,-6.320915417745709e-06,0.006585236638784409,-0.0032419743947684765,0.9994593858718872,0.0,0.0,0.0,0.36822807788848877,12.720023155212402,2.4387526512145996,-66.65001678466797,0
1591.476999999999,-4.4838310714112595e-05,-0.000244253285927698,-7.325314800255e-05,0.0,0.0,0.0,0.0,0.0015997400041669607,0.004277483560144901,-0.0010411585681140423,1.000446081161499,0.0,0.0,0.0,0.3766958713531494,12.719508171081543,2.4345200061798096,-68.18270874023438,0
1601.3469999999998,-0.00010173546615988016,-0.0002234779531136155,-3.093046325375326e-05,0.0,0.0,0.0,0.0,-0.00024501795996911824,0.0012219162890687585,0.001227560918778181,1.0012075901031494,0.0,0.0,0.0,0.3621823489665985,12.71587085723877,2.414008855819702,-65.55572509765625,0
1611.2389999999996,-5.209063965594396e-05,-0.00018088123761117458,-9.05784108908847e-05,0.0,0.0,0.0,0.0,-0.0014593381201848388,-0.002923774067312479,0.0032073950860649347,0.9989128708839417,0.0,0.0,0.0,0.3687051236629486,12.721546173095703,2.4134039878845215,-66.73636627197266,0
1621.1270000000004,-2.700506774999667e-05,-0.00025179769727401435,-7.029037806205451e-05,0.0,0.0,0.0,0.0,0.00017181018483825028,0.0041918279603123665,-0.002461989177390933,1.0006576776504517,0.0,0.0,0.0,0.3606831729412079,12.711409568786621,2.4129204750061035,-65.28437805175781,0
1631.0190000000002,1.9107003026874736e-05,-0.000192663399502635,-0.00011657153663691133,0.0,0.0,0.0,0.0,-0.0015101233730092645,0.0016066750977188349,0.0008279526373371482,0.9992839694023132,0.0,0.0,0.0,0.3709375262260437,12.71560287475586,2.4105911254882812,-67.14042663574219,0
1640.9040000000005,-6.939602826605551e-06,-0.00019575648184400052,-7.539814396295696e-05,0.0,0.0,0.0,0.0,-0.0015153905842453241,-0.003931495361030102,0.002308628521859646,0.9980191588401794,0.0,0.0,0.0,0.3623250722885132,12.716117858886719,2.404792547225952,-65.58155822753906,0
1650.7919999999995,4.5952074287924916e-05,-0.00019772458472289145,-0.00015970529057085514,0.0,0.0,0.0,0.0,-0.0002762734657153487,0.0012276966590434313,-0.003051742212846875,0.9999182224273682,0.0,0.0,0.0,0.3732263147830963,12.7089204788208,2.4275460243225098,-67.55470275878906,0
1660.67,-2.5908855604939163e-05,-0.00020801913342438638,-0.0001376882428303361,0.0,0.0,0.0,0.0,0.00039660645416006446,-0.0010301768779754639,0.0005487791495397687,0.999539852142334,0.0,0.0,0.0,0.3672458231449127,12.711718559265137,2.4148924350738525,-66.47222900390625,0
1670.5609999999997,6.8588833528338e-06,-0.00016846760991029441,-0.00017703769844956696,0.0,0.0,0.0,0.0,4.153283589403145e-05,0.0029232145752757788,0.0011540954001247883,0.9985145926475525,0.0,0.0,0.0,0.3765420913696289,12.715919494628906,2.420222282409668,-68.15487670898438,0
1680.441999999999,-1.9993745809188113e-05,-0.0002465706202201545,-0.00017950028995983303,0.0,0.0,0.0,0.0,0.001923405914567411,-0.00043629828724078834,-0.0014542393619194627,0.9982043504714966,0.0,0.0,0.0,0.3777492642402649,12.700589179992676,2.40647029876709,-68.37336730957031,0
1690.3320000000003,-1.3690892956219614e-05,-0.0002140191791113466,-0.0001946927368408069,0.0,0.0,0.0,0.0,-0.0007113713072612882,0.00453986506909132,-0.00013721651339437813,1.0011332035064697,0.0,0.0,0.0,0.38627201318740845,12.710780143737793,2.413407325744629,-69.91600799560547,0
1700.2160000000003,-6.501736788777635e-05,-0.0001865845115389675,-0.00013299239799380302,0.0,0.0,0.0,0.0,0.002634154399856925,0.003318340517580509,0.002475059824064374,1.001083493232727,0.0,0.0,0.0,0.3695567846298218,12.719831466674805,2.387585401535034,-66.89051055908203,0
1710.0990000000002,-3.79400844394695e-05,-0.00016841012984514236,-0.0001733613753458485,0.0,0.0,0.0,0.0,-0.00013601114915218204,-0.0019370922818779945,0.0017627556808292866,0.9999639391899109,0.0,0.0,0.0,0.37858811020851135,12.721335411071777,2.390244245529175,-68.52519989013672,0
1719.9840000000004,-0.00014016144268680364,-0.0001881953503470868,-0.0001596161600900814,0.0,0.0,0.0,0.0,-0.0013507877010852098,0.0019328739726915956,-0.00031183668761514127,0.9997002482414246,0.0,0.0,0.0,0.3640579283237457,12.717326164245605,2.3787484169006348,-65.89521026611328,0
1729.866,-0.0001451884745620191,-0.00021120673045516014,-0.00017491726612206548,0.0,0.0,0.0,0.0,-0.00010582368122413754,-0.00556021835654974,0.0012037729611620307,0.9991228580474854,0.0,0.0,0.0,0.37178680300712585,12.715126991271973,2.367586612701416,-67.29414367675781,0
1739.7529999999988,-0.0001819534954847768,-0.0002276640007039532,-0.00013354193652048707,0.0,0.0,0.0,0.0,0.001383817521855235,0.0028985023964196444,-0.003500782186165452,1.0014222860336304,0.0,0.0,0.0,0.35924455523490906,12.717391967773438,2.364326238632202,-65.02397918701172,0
1749.6399999999994,-0.0001553497713757679,-0.000225750234676525,-0.00018930935766547918,0.0,0.0,0.0,0.0,-0.0007225513691082597,-0.002100537531077862,-8.299519686261192e-05,1.0018796920776367,0.0,0.0,0.0,0.3703541159629822,12.716058731079102,2.368320941925049,-67.03482818603516,0
1759.5239999999994,-0.00013333201059140265,-0.00022077909670770168,-0.00011371170694474131,0.0,0.0,0.0,0.0,-0.0020975254010409117,0.0031084611546248198,0.0004956403863616288,1.0020140409469604,0.0,0.0,0.0,0.35472699999809265,12.719913482666016,2.3738040924072266,-64.20629119873047,0
1769.4089999999997,-0.00010851628030650318,-0.0002235308929812163,-0.00016365230840165168,0.0,0.0,0.0,0.0,0.0011051399633288383,-0.00028628247673623264,-0.002404132392257452,1.000162124633789,0.0,0.0,0.0,0.3648128807544708,12.723150253295898,2.3756792545318604,-66.0318603515625,0
1779.2979999999989,-0.00016755491378717124,-0.00024729411234147847,-0.00012797865201719105,0.0,0.0,0.0,0.0,0.001213669078424573,-2.417023279122077e-05,-0.0009938511066138744,1.0010727643966675,0.0,0.0,0.0,0.35249584913253784,12.715923309326172,2.3718419075012207,-63.80244827270508,0
1789.1769999999997,-0.00012952054385095835,-0.00022591714514419436,-0.00019416080613154918,0.0,0.0,0.0,0.0,0.0010523998644202948,0.0003027297498192638,-0.000240940586081706,0.9998138546943665,0.0,0.0,0.0,0.3600860834121704,12.720470428466797,2.3755745887756348,-65.1762924194336,0
1799.066999999999,-0.00012692439486272633,-0.00022241234546527267,-0.00012673989112954587,0.0,0.0,0.0,0.0,-0.00028556070174090564,0.0024358839727938175,0.0011388452257961035,0.9973267912864685,0.0,0.0,0.0,0.34763842821121216,12.72107219696045,2.374072313308716,-62.92324447631836,0
1808.950999999999,-9.492476237937808e-05,-0.00018164179346058518,-0.00017098234093282372,0.0,0.0,0.0,0.0,0.001190146547742188,-0.002473683562129736,0.0027144942432641983,0.9996671080589294,0.0,0.0,0.0,0.35542017221450806,12.729643821716309,2.3759069442749023,-64.33175659179688,0
1818.8349999999991,-0.00011269003880443051,-0.00018693020683713257,-0.00011356978211551905,0.0,0.0,0.0,0.0,-0.0010339014697819948,-0.0008417751523666084,0.006234899163246155,0.999772846698761,0.0,0.0,0.0,0.34254223108291626,12.721822738647461,2.3798656463623047,-62.000823974609375,0
1828.7170000000006,-9.038795542437583e-05,-0.00015525601338595152,-0.0001491742441430688,0.0,0.0,0.0,0.0,0.0013422525953501463,0.0019246645970270038,0.0023049539886415005,0.9987034201622009,0.0,0.0,0.0,0.3539268970489502,12.729950904846191,2.3837485313415527,-64.06147003173828,0
1838.5969999999998,-7.051453576423228e-05,-0.00019254029029980302,-9.588091052137315e-05,0.0,0.0,0.0,0.0,0.0018719867803156376,0.006919916719198227,0.003844066523015499,1.001436710357666,0.0,0.0,0.0,0.34393614530563354,12.726239204406738,2.3908581733703613,-62.25312423706055,0
1848.4840000000004,-9.218342893291265e-05,-0.0002411495370324701,-9.29856687434949e-05,0.0,0.0,0.0,0.0,-0.004766339901834726,0.004777104593813419,-0.001815516036003828,1.0008482933044434,0.0,0.0,0.0,0.35679903626441956,12.718241691589355,2.3815200328826904,-64.58133697509766,0
1858.3639999999996,-0.00014206793275661767,-0.00022451154654845595,-2.684058199520223e-05,0.0,0.0,0.0,0.0,-0.003394190687686205,0.004790984094142914,-0.0003113900893367827,0.9991767406463623,0.0,0.0,0.0,0.34280645847320557,12.720968246459961,2.3684098720550537,-62.048648834228516,0
1868.2649999999994,-0.00011504755821079016,-0.00022141658701002598,-7.918284245533869e-05,0.0,0.0,0.0,0.0,-0.00031137443147599697,0.002047208370640874,0.002171168103814125,0.9986928105354309,0.0,0.0,0.0,0.3542743921279907,12.725150108337402,2.3717100620269775,-64.12437438964844,0
1878.1549999999988,-6.912143726367503e-05,-0.00024314771872013807,-5.320272975950502e-06,0.0,0.0,0.0,0.0,0.0028384330216795206,0.0026458080392330885,-0.0012380972038954496,0.9980461001396179,0.0,0.0,0.0,0.34787824749946594,12.714753150939941,2.3720359802246094,-62.966651916503906,0
1888.036,-4.159377931500785e-05,-0.00023445661645382643,-5.4229698434937745e-05,0.0,0.0,0.0,0.0,0.0014744177460670471,-0.0013681978452950716,-0.0029514539055526257,0.9986960887908936,0.0,0.0,0.0,0.36078327894210815,12.716495513916016,2.3844425678253174,-65.30249786376953,0
1897.9089999999997,-8.230763341998681e-05,-0.0002839536755345762,-2.61759887507651e-05,0.0,0.0,0.0,0.0,-0.004238387104123831,0.002594150137156248,-0.0006595353479497135,0.997084379196167,0.0,0.0,0.0,0.3473134934902191,12.704911231994629,2.3932442665100098,-62.86443328857422,0
1907.7979999999989,-4.4167740270495415e-05,-0.0002578066196292639,-9.087977377930656e-05,0.0,0.0,0.0,0.0,0.0009337046649307013,0.0018270374275743961,-0.00042551683145575225,0.9993076324462891,0.0,0.0,0.0,0.35761839151382446,12.713172912597656,2.40104079246521,-64.72964477539062,0
1917.6810000000005,-6.046965063433163e-05,-0.0002845631097443402,-5.101254646433517e-05,0.0,0.0,0.0,0.0,0.0004381051112432033,0.003030224237591028,0.0010725535685196519,0.9985955953598022,0.0,0.0,0.0,0.3474540114402771,12.708383560180664,2.4010112285614014,-62.889869689941406,0
1927.5740000000005,-1.2721056918962859e-05,-0.00021169290994293988,-0.00010707687761168927,0.0,0.0,0.0,0.0,0.0010457218158990145,0.0016136318445205688,-0.0006056369747966528,0.9979436993598938,0.0,0.0,0.0,0.35906490683555603,12.717055320739746,2.397616147994995,-64.99146270751953,0
1937.4629999999997,-6.204409874044359e-05,-0.0002429966116324067,-8.351483847945929e-05,0.0,0.0,0.0,0.0,-0.0013562575913965702,0.00038235870306380093,-0.00277089630253613,0.9994269609451294,0.0,0.0,0.0,0.34351015090942383,12.71603775024414,2.3888463973999023,-62.176021575927734,0
1947.3449999999993,-4.458536204765551e-05,-0.0002484894066583365,-0.00013523381494451314,0.0,0.0,0.0,0.0,0.002275078324601054,-0.0005614375695586205,-0.002391088753938675,0.9992920160293579,0.0,0.0,0.0,0.3560749590396881,12.71684455871582,2.3951144218444824,-64.45027160644531,0
1957.2240000000002,-4.1776031139306724e-05,-0.00028006956563331187,-9.784370922716334e-05,0.0,0.0,0.0,0.0,-0.00015457882545888424,0.005737560801208019,-0.0007220794796012342,0.9960334300994873,0.0,0.0,0.0,0.3486773669719696,12.705503463745117,2.393000364303589,-63.11129379272461,0
1967.1149999999998,-4.291382720111869e-05,-0.00028082102653570473,-0.00011550852650543675,0.0,0.0,0.0,0.0,9.478905849391595e-05,-0.0005595548427663743,-0.0004324931651353836,0.996700644493103,0.0,0.0,0.0,0.357082337141037,12.7028169631958,2.3788366317749023,-64.63261413574219,0
1977.0029999999988,-7.715998799540102e-05,-0.00035432184813544154,-0.00011818468192359433,0.0,0.0,0.0,0.0,-0.0007646301528438926,-0.0069301556795835495,-0.004489049781113863,0.999916136264801,0.0,0.0,0.0,0.3564249575138092,12.692708015441895,2.382126569747925,-64.51361846923828,0
1986.8799999999992,-0.00011251462274231017,-0.0004308392817620188,-0.000121355515148025,0.0,0.0,0.0,0.0,0.001656428212299943,0.002847161842510104,-0.0020195553079247475,0.9971104860305786,0.0,0.0,0.0,0.35520434379577637,12.673052787780762,2.383385419845581,-64.29269409179688,0
1996.762999999999,-5.4701136832591146e-05,-0.00038848063559271395,-7.051622560538817e-06,0.0,0.0,0.0,0.0,-0.0021609861869364977,-0.002626992529258132,0.0005993141676299274,0.9984685778617859,0.0,0.0,0.0,0.3456609845161438,12.692449569702148,2.3963053226470947,-62.56532669067383,0
2006.6499999999996,3.057045614696108e-05,-0.00025778659619390965,-0.00012160382902948186,0.0,0.0,0.0,0.0,0.001864476129412651,-0.0009065743070095778,0.001729035982862115,0.9977986812591553,0.0,0.0,0.0,0.35976919531822205,12.729125022888184,2.421574831008911,-65.11893463134766,0
2016.536,-3.059949813177809e-05,-0.0002745466772466898,-0.00010202295379713178,0.0,0.0,0.0,0.0,0.002282665343955159,0.0014333527069538832,-0.0010037716710940003,0.9989017248153687,0.0,0.0,0.0,0.3499488830566406,12.728544235229492,2.413205862045288,-63.34143829345703,0
2026.4220000000005,5.4195985285332426e-05,-0.0001669938792474568,-0.000224571893340908,0.0,0.0,0.0,0.0,0.0005117845139466226,0.0039495425298810005,-0.0013000022154301405,0.9998670816421509,0.0,0.0,0.0,0.3624248504638672,12.743597984313965,2.4200944900512695,-65.59961700439453,0
2036.304,-2.3120781406760216e-05,-0.0001508292043581605,-0.00020311903790570796,0.0,0.0,0.0,0.0,-0.00037551228888332844,0.0012249344727024436,0.0029685685876756907,1.0000557899475098,0.0,0.0,0.0,0.35144445300102234,12.747347831726074,2.394453287124634,-63.61214065551758,0
2046.1819999999989,-9.95795380731579e-06,-0.00013037541066296399,-0.00024083981406874955,0.0,0.0,0.0,0.0,0.0012493431568145752,0.0006900742300786078,-0.0004719623539131135,0.9996373057365417,0.0,0.0,0.0,0.3638647198677063,12.752856254577637,2.399763345718384,-65.86023712158203,0
2056.0730000000003,-0.00014472669863607734,-0.00010106239642482251,-0.00023074608179740608,0.0,0.0,0.0,0.0,-0.0015720382798463106,0.0008304273360408843,-0.0008286373922601342,0.9963277578353882,0.0,0.0,0.0,0.3525969684123993,12.755960464477539,2.377241849899292,-63.82075500488281,0
2065.9580000000005,-0.00014577691035810858,-0.0001444404333597049,-0.00028436913271434605,0.0,0.0,0.0,0.0,-0.0001573489571455866,-0.004161462653428316,-0.00016922726354096085,0.9959072470664978,0.0,0.0,0.0,0.36103177070617676,12.749114036560059,2.379884719848633,-65.34747314453125,0
2075.84,-0.00010367378126829863,-0.0001211512426380068,-0.0002237027365481481,0.0,0.0,0.0,0.0,-0.0018359196837991476,0.005431517958641052,0.00026386594981886446,0.9978046417236328,0.0,0.0,0.0,0.34901854395866394,12.752720832824707,2.40522837638855,-63.17304992675781,0
2085.7219999999998,-0.00011011641618097201,-0.00016734181554056704,-0.0002619916049297899,0.0,0.0,0.0,0.0,0.0012804275611415505,0.007496397942304611,0.0022114538587629795,0.9992197155952454,0.0,0.0,0.0,0.3602893650531769,12.747757911682129,2.397615432739258,-65.21308898925781,0
2095.6049999999996,-0.00010245354496873915,-0.00015068694483488798,-0.0002150471555069089,0.0,0.0,0.0,0.0,-0.00027796870563179255,-0.0003406848991289735,0.0014514345675706863,1.0014609098434448,0.0,0.0,0.0,0.3481428921222687,12.744976997375488,2.383455276489258,-63.014556884765625,0
2105.493999999999,-7.276743417605758e-05,-0.0001168689486803487,-0.0002696203300729394,0.0,0.0,0.0,0.0,-0.0006573881837539375,-0.0032568208407610655,0.00027631738339550793,1.0012097358703613,0.0,0.0,0.0,0.3577580451965332,12.75376033782959,2.3917410373687744,-64.75492095947266,0
2115.3809999999994,-0.00012393285578582436,-0.0001479565107729286,-0.0002650819660630077,0.0,0.0,0.0,0.0,-0.001088742632418871,-0.0016780556179583073,-0.0005036646034568548,1.001729965209961,0.0,0.0,0.0,0.34392794966697693,12.751498222351074,2.3805086612701416,-62.251644134521484,0
2125.259,-0.000152383407112211,-0.00021482750889845192,-0.00027088334900327027,0.0,0.0,0.0,0.0,-0.0005464758141897619,-0.002382208127528429,0.0027026617899537086,0.9993743896484375,0.0,0.0,0.0,0.34362858533859253,12.737784385681152,2.3762001991271973,-62.19745635986328,0
2135.1479999999992,-9.483153553446755e-05,-0.00020857287745457143,-0.00022576309856958687,0.0,0.0,0.0,0.0,0.002612481592223048,0.0016124729299917817,-0.0018491718219593167,0.9984816312789917,0.0,0.0,0.0,0.3351219892501831,12.740392684936523,2.3796193599700928,-60.65774917602539,0
2145.035,-6.813921936554834e-05,-0.00016267542378045619,-0.0002710773842409253,0.0,0.0,0.0,0.0,0.0007885266677476466,-0.002412858186289668,-0.0002638163568917662,0.9998825192451477,0.0,0.0,0.0,0.34751927852630615,12.752488136291504,2.3847436904907227,-62.90167999267578,0
2154.9159999999993,-0.00016307133773807436,-0.0001271638902835548,-0.00023686933855060488,0.0,0.0,0.0,0.0,-0.0010042027570307255,0.0034926312509924173,-0.00117936369497329,1.0010063648223877,0.0,0.0,0.0,0.33442455530166626,12.759201049804688,2.379812717437744,-60.5315055847168,0
2164.797999999999,-0.0001433137949788943,-0.00010203082638327032,-0.00028399747679941356,0.0,0.0,0.0,0.0,0.0015365431318059564,0.004448112566024065,0.0013385926140472293,0.9985187649726868,0.0,0.0,0.0,0.3427961468696594,12.761772155761719,2.3776347637176514,-62.04678726196289,0
2174.691999999999,-6.383206346072257e-05,-0.00013464089715853333,-0.00022646041179541498,0.0,0.0,0.0,0.0,0.0012403738219290972,-0.0015098239528015256,-0.0006081604515202343,0.9972822070121765,0.0,0.0,0.0,0.3342755138874054,12.755074501037598,2.3743014335632324,-60.50453567504883,0
2184.572,-0.0001027176040224731,-0.00021088615176267922,-0.0002111915237037465,0.0,0.0,0.0,0.0,0.00010685400775400922,6.194190063979477e-05,-0.0018216246971860528,0.9985519051551819,0.0,0.0,0.0,0.3421556353569031,12.744034767150879,2.378272294998169,-61.93084716796875,0
2194.458999999999,-4.414965951582417e-05,-0.00025303554139100015,-0.00015923385217320174,0.0,0.0,0.0,0.0,-0.00047086321865208447,0.004992144647985697,-0.0029897461645305157,0.9969725608825684,0.0,0.0,0.0,0.33291661739349365,12.735432624816895,2.3966782093048096,-60.25857162475586,0
2204.349,-3.1410014344146475e-05,-0.00026311035617254674,-0.00019360634905751795,0.0,0.0,0.0,0.0,-0.00014987379836384207,0.00462754350155592,0.0007614778587594628,0.999397873878479,0.0,0.0,0.0,0.34927085041999817,12.73416805267334,2.394507884979248,-63.21872329711914,0
2214.223,-7.249991176649928e-05,-0.0002739597111940384,-0.00015768647426739335,0.0,0.0,0.0,0.0,-0.0029703115578740835,0.0022928803227841854,-0.0017965282313525677,0.9997844696044922,0.0,0.0,0.0,0.33436319231987,12.730846405029297,2.3790934085845947,-60.52040481567383,0
2224.110999999999,-8.0269826867152e-05,-0.00028504611691460013,-0.0001620494294911623,0.0,0.0,0.0,0.0,0.001979460474103689,0.003110781079158187,0.001619445625692606,0.9987538456916809,0.0,0.0,0.0,0.3435898721218109,12.735316276550293,2.369310140609741,-62.19044876098633,0
