timestamp,stateEstimate.x,stateEstimate.y,stateEstimate.z,controller.cmd_thrust,controller.cmd_roll,controller.cmd_pitch,controller.cmd_yaw,controller.r_roll,controller.r_pitch,controller.r_yaw,controller.accelz,controller.actuatorThrust,controller.roll,controller.pitch,controller.yaw,controller.rollRate,controller.pitchRate,controller.yawRate,controller.ctr_yaw
0.0,-0.00014728170935995877,-5.136847903486341e-05,-0.00024054422101471573,0.0,0.0,0.0,0.0,0.0009350937907584012,0.00017780445341486484,0.0014587973710149527,0.9981651902198792,0.0,0.0,0.0,0.3963499963283539,2.6584084033966064,5.6249542236328125,-71.7401351928711,0
9.899000000001251,-0.00014728170935995877,-5.136847903486341e-05,-0.00024054422101471573,0.0,0.0,0.0,0.0,-0.00490531837567687,0.001980637200176716,-0.0018087731441482902,1.0000232458114624,0.0,0.0,0.0,0.3963499963283539,2.6584084033966064,5.6249542236328125,-71.7401351928711,0
19.809000000001106,-0.00016439480532426387,-1.2672992852458265e-05,-0.00035135471262037754,0.0,0.0,0.0,0.0,0.0019542810041457415,0.0054735904559493065,0.0011364789679646492,1.0002307891845703,0.0,0.0,0.0,0.4000193476676941,2.696464776992798,5.636750221252441,-72.404296875,0
29.72700000000077,-0.00016439480532426387,-1.2672992852458265e-05,-0.00035135471262037754,0.0,0.0,0.0,0.0,-0.0041642566211521626,0.0009481956367380917,0.0014013602631166577,0.9992632865905762,0.0,0.0,0.0,0.4000193476676941,2.696464776992798,5.636750221252441,-72.404296875,0
39.642000000001644,-0.00023120225523598492,-2.6787116439663805e-05,-0.00036516052205115557,0.0,0.0,0.0,0.0,-9.375548688694835e-05,-0.0014013712061569095,-0.002064777771010995,1.0027861595153809,0.0,0.0,0.0,0.40176182985305786,2.6940903663635254,5.62568998336792,-72.71968841552734,0
49.55400000000009,-0.00023120225523598492,-2.6787116439663805e-05,-0.00036516052205115557,0.0,0.0,0.0,0.0,-0.002215845277532935,0.0024212230928242207,0.00014671571261715144,1.0011183023452759,0.0,0.0,0.0,0.40176182985305786,2.6940903663635254,5.62568998336792,-72.71968841552734,0
59.46400000000176,-0.000263202004134655,-9.151105587079655e-06,-0.00036624923814088106,0.0,0.0,0.0,0.0,5.515248631127179e-05,-0.0009967231890186667,0.0012529311934486032,0.9980833530426025,0.0,0.0,0.0,0.4009736478328705,2.6941988468170166,5.616354465484619,-72.57703399658203,0
69.375,-0.0002995679678861052,-3.1678820960223675e-05,-0.00037923583295196295,0.0,0.0,0.0,0.0,0.0016021208139136434,-0.001239732839167118,-0.0005281560588628054,0.9999750852584839,0.0,0.0,0.0,0.40030965209007263,2.6976497173309326,5.612549304962158,-72.45684051513672,0
79.28800000000047,-0.00031808100175112486,-1.9209781385143287e-05,-0.0004104026884306222,0.0,0.0,0.0,0.0,0.0006839268025942147,0.0016399199375882745,0.004383984487503767,0.9992485046386719,0.0,0.0,0.0,0.3997880816459656,2.6921117305755615,5.605799674987793,-72.36243438720703,0
89.20300000000134,-0.00035608079633675516,-3.970429679611698e-05,-0.0004264447488822043,0.0,0.0,0.0,0.0,-0.002729614032432437,-0.001591345644555986,-0.0007190302712842822,1.0006595849990845,0.0,0.0,0.0,0.39977791905403137,2.6886048316955566,5.604379177093506,-72.360595703125,0
99.1130000000012,-0.0003779242397285998,7.3326809797436e-06,-0.0004266688192728907,0.0,0.0,0.0,0.0,0.0006984768551774323,0.00010670852498151362,0.001744847628287971,1.0012016296386719,0.0,0.0,0.0,0.40090441703796387,2.692582130432129,5.601437568664551,-72.56449127197266,0
109.02600000000166,-0.00041803609929047525,-9.53863127506338e-06,-0.0004414106660988182,0.0,0.0,0.0,0.0,-0.0005159375141374767,-0.005667824298143387,0.0009260572260245681,0.999579906463623,0.0,0.0,0.0,0.39943236112594604,2.6965816020965576,5.602279186248779,-72.29804992675781,0
118.93700000000172,-0.0004606565344147384,2.183262404287234e-05,-0.0004227939061820507,0.0,0.0,0.0,0.0,-0.002863227389752865,0.001396378967911005,0.001013083616271615,0.9985741376876831,0.0,0.0,0.0,0.39857998490333557,2.6974077224731445,5.597390651702881,-72.14376068115234,0
128.84700000000157,-0.0005014333873987198,5.140524081070907e-06,-0.0004345029010437429,0.0,0.0,0.0,0.0,0.0016395238926634192,0.004121316596865654,-0.0023009106516838074,1.0013402700424194,0.0,0.0,0.0,0.39885178208351135,2.701043128967285,5.597155570983887,-72.1929702758789,0
138.75800000000163,-0.0005255061550997198,3.950938844354823e-05,-0.00044150699977762997,0.0,0.0,0.0,0.0,0.0004004785732831806,-0.0009209482814185321,0.0024281188379973173,1.000830054283142,0.0,0.0,0.0,0.3984690308570862,2.7024242877960205,5.600869655609131,-72.12368774414062,0
148.67000000000007,-6.28918714937754e-05,-0.00018634324078448117,-3.393197403056547e-05,0.0,0.0,0.0,0.0,-0.0004076261830050498,-0.002902780659496784,-0.0002451992186252028,1.0013867616653442,0.0,0.0,0.0,0.39629948139190674,2.6605489253997803,5.675952911376953,-71.73100280761719,0
158.58200000000033,-5.343638258636929e-05,-0.00017355575982946903,-6.745354767190292e-05,0.0,0.0,0.0,0.0,-0.00015709493891336024,0.0023500623647123575,0.00115089095197618,0.9997717142105103,0.0,0.0,0.0,0.3958290219306946,2.6601955890655518,5.675853252410889,-71.64584350585938,0
168.496000000001,-7.236979581648484e-05,-0.0002021462714765221,-6.331009353743866e-05,0.0,0.0,0.0,0.0,0.00104505755007267,-0.007190525997430086,0.004334245342761278,0.9985729455947876,0.0,0.0,0.0,0.3956833481788635,2.6576485633850098,5.668806076049805,-71.61947631835938,0
178.40900000000147,-6.762086559319869e-05,-0.00018960998568218201,-9.282117389375344e-05,0.0,0.0,0.0,0.0,-0.0013312830124050379,-0.0009350429172627628,-0.0007518838974647224,0.9997419118881226,0.0,0.0,0.0,0.3958515524864197,2.6600637435913086,5.669391632080078,-71.64991760253906,0
188.32000000000153,-8.674306445755064e-05,-0.00021974930132273585,-9.130434045800939e-05,0.0,0.0,0.0,0.0,0.0018935499247163534,0.0002322180225746706,0.001830325578339398,1.0031123161315918,0.0,0.0,0.0,0.39617863297462463,2.650592565536499,5.679492473602295,-71.7091293334961,0
198.23300000000017,-6.235389446374029e-05,-0.00010955512698274106,-0.0001560784294269979,0.0,0.0,0.0,0.0,0.003299543634057045,0.0043487632647156715,-0.0044816117733716965,1.0009772777557373,0.0,0.0,0.0,0.3971102237701416,2.6514205932617188,5.6837005615234375,-71.87773895263672,0
208.14900000000125,-8.153020462486893e-05,-0.00013652126654051244,-0.00015774351777508855,0.0,0.0,0.0,0.0,-0.00016774909454397857,0.00031160711660049856,-0.0002450432220939547,0.9993429780006409,0.0,0.0,0.0,0.39518529176712036,2.644071102142334,5.674908638000488,-71.52932739257812,0
218.0570000000007,-7.673168875044212e-05,-0.0001074025931302458,-0.00022148444259073585,0.0,0.0,0.0,0.0,0.0018336839275434613,-0.0001936864573508501,0.0005598246934823692,1.0029325485229492,0.0,0.0,0.0,0.3932436406612396,2.6454975605010986,5.668546676635742,-71.1778793334961,0
227.97600000000057,-9.706320997793227e-05,-0.00013519561616703868,-0.00022646562138106674,0.0,0.0,0.0,0.0,-0.0005773145239800215,0.003625504206866026,-0.0021448766347020864,1.001111626625061,0.0,0.0,0.0,0.39340734481811523,2.640472412109375,5.665657043457031,-71.20751190185547,0
237.88600000000042,-0.00010288717749062926,-8.901448745746166e-05,-0.00025659118546172976,0.0,0.0,0.0,0.0,0.0010943644447252154,-0.0004932180745527148,0.0020888997241854668,1.0009360313415527,0.0,0.0,0.0,0.39457568526268005,2.6339192390441895,5.663649559020996,-71.41897583007812,0
247.8010000000013,-0.000126438942970708,-0.00011498939420562238,-0.00025989030837081373,0.0,0.0,0.0,0.0,-0.00022100275964476168,0.0008470156462863088,0.0012409525224938989,0.9994889497756958,0.0,0.0,0.0,0.3941262662410736,2.633624315261841,5.646451473236084,-71.33763885498047,0
257.71000000000095,-0.00014291419938672334,-9.194032463710755e-05,-0.00026887914282269776,0.0,0.0,0.0,0.0,-0.001275791903026402,-0.0031875809654593468,0.00013239948020782322,1.0023514032363892,0.0,0.0,0.0,0.39455080032348633,2.6276209354400635,5.630010604858398,-71.41447448730469,0
267.6310000000012,-0.00016749059432186186,-0.00011627295316429809,-0.00027132747345604,0.0,0.0,0.0,0.0,0.0022996298503130674,-0.0020388951525092125,0.00014606030890718102,1.00363290309906,0.0,0.0,0.0,0.393698513507843,2.6232223510742188,5.632580280303955,-71.26020812988281,0
277.53000000000065,-0.00020669894001912326,-0.00013308609777595848,-0.0002282225468661636,0.0,0.0,0.0,0.0,-0.002414582297205925,-0.003919986542314291,0.00026954838540405035,1.0013123750686646,0.0,0.0,0.0,0.3932812511920929,2.6261191368103027,5.629952430725098,-71.18468475341797,0
287.45600000000013,-0.00023693288676440716,-0.0001592148473719135,-0.00022223996347747743,0.0,0.0,0.0,0.0,-0.00128034723456949,-0.0031498600728809834,0.002480651019141078,1.000257134437561,0.0,0.0,0.0,0.3931159973144531,2.616217613220215,5.6280012130737305,-71.15477752685547,0
297.3550000000014,-0.0002465910802129656,-0.00010578683577477932,-0.00022467790404334664,0.0,0.0,0.0,0.0,0.0034401058219373226,-0.00022751005599275231,0.001297398586757481,1.0012354850769043,0.0,0.0,0.0,0.3938663899898529,2.6197338104248047,5.636829376220703,-71.29059600830078,0
307.27300000000105,-0.000275543425232172,-0.00012845249148085713,-0.00021704292157664895,0.0,0.0,0.0,0.0,-0.0007725667674094439,0.00170508015435189,0.0025248327292501926,0.9985125064849854,0.0,0.0,0.0,0.3937418758869171,2.6212198734283447,5.634896755218506,-71.26805877685547,0
317.1790000000001,-0.00027556437999010086,-9.640188363846391e-05,-0.00024908792693167925,0.0,0.0,0.0,0.0,0.0027042462024837732,-0.002041841624304652,0.0009126738295890391,0.9983024001121521,0.0,0.0,0.0,0.39348646998405457,2.613668441772461,5.631709575653076,-71.22183227539062,0
327.103000000001,-0.00030302206869237125,-0.00011861891834996641,-0.0002446951693855226,0.0,0.0,0.0,0.0,-0.0015380334807559848,-0.003025285666808486,-0.0033325674012303352,0.9990395903587341,0.0,0.0,0.0,0.39341434836387634,2.6077706813812256,5.630166053771973,-71.20878601074219,0
337.0100000000002,-0.0003271025198046118,-9.091042738873512e-05,-0.0002577017294242978,0.0,0.0,0.0,0.0,0.0011450592428445816,0.004066615831106901,0.0032421096693724394,0.99992436170578,0.0,0.0,0.0,0.39515039324760437,2.6097095012664795,5.637604236602783,-71.52301025390625,0
346.9230000000007,-0.0003271025198046118,-9.091042738873512e-05,-0.0002577017294242978,0.0,0.0,0.0,0.0,0.0010331453522667289,-0.0032194415107369423,0.003065109485760331,0.9991816282272339,0.0,0.0,0.0,0.39515039324760437,2.6097095012664795,5.637604236602783,-71.52301025390625,0
356.82800000000134,-0.0003473387623671442,-8.802471711533144e-05,-0.00030425252043642104,0.0,0.0,0.0,0.0,0.0013510233256965876,0.0013886017259210348,-0.0006566127412952483,1.0018106698989868,0.0,0.0,0.0,0.39547547698020935,2.598874807357788,5.6162519454956055,-71.58185577392578,0
366.7510000000002,-0.0003473387623671442,-8.802471711533144e-05,-0.00030425252043642104,0.0,0.0,0.0,0.0,-0.00229563913308084,0.0005288165411911905,0.0019180665258318186,0.9987897872924805,0.0,0.0,0.0,0.39547547698020935,2.598874807357788,5.6162519454956055,-71.58185577392578,0
376.65400000000045,-0.00034672918263822794,-6.118483725003898e-05,-0.00033353903563693166,0.0,0.0,0.0,0.0,0.0010174824856221676,-0.004725736100226641,0.0006744355778209865,0.9977196455001831,0.0,0.0,0.0,0.39533647894859314,2.592552900314331,5.61415958404541,-71.55668640136719,0
386.5690000000013,-0.00037600036012008786,-8.214474655687809e-05,-0.0003395352396182716,0.0,0.0,0.0,0.0,0.0002278620668221265,-0.0053818002343177795,0.00037433765828609467,0.9997930526733398,0.0,0.0,0.0,0.3962077796459198,2.592841148376465,5.611059188842773,-71.71439361572266,0
396.4890000000014,-0.0003709509619511664,-5.225245331530459e-05,-0.00037741163396276534,0.0,0.0,0.0,0.0,0.001575434929691255,-0.0004152832552790642,-0.001712324796244502,1.0022474527359009,0.0,0.0,0.0,0.39522773027420044,2.5975446701049805,5.611696720123291,-71.5370101928711,0
406.40400000000045,-0.0004031367425341159,-7.223214925033972e-05,-0.00038785001379437745,0.0,0.0,0.0,0.0,-0.003128706244751811,0.001482117804698646,-0.0028996262699365616,1.001732349395752,0.0,0.0,0.0,0.39615383744239807,2.597653388977051,5.605985164642334,-71.70462799072266,0
416.3060000000005,-0.0004369936359580606,-9.399279952049255e-05,-0.000396870105760172,0.0,0.0,0.0,0.0,-0.0016297161346301436,-0.002239384688436985,0.001874315901659429,0.9998911023139954,0.0,0.0,0.0,0.39475181698799133,2.5896658897399902,5.6085357666015625,-71.45085906982422,0
426.22600000000057,-0.00042847232543863356,-4.88088044221513e-05,-0.0004264477756805718,0.0,0.0,0.0,0.0,-0.0009645394748076797,-0.001250705448910594,0.0006748304585926235,0.9998826384544373,0.0,0.0,0.0,0.3955097496509552,2.589021682739258,5.611025333404541,-71.58805847167969,0
436.1280000000006,-0.0004619439132511616,-6.865910108899698e-05,-0.0004358904843684286,0.0,0.0,0.0,0.0,-0.0022593745961785316,0.0039932504296302795,-0.001116470666602254,1.0022430419921875,0.0,0.0,0.0,0.3946501910686493,2.589787244796753,5.609382629394531,-71.4324722290039,0
446.0530000000017,-0.0004239386471454054,8.590961442678235e-06,-0.0004848310200031847,0.0,0.0,0.0,0.0,-0.0006649415590800345,-0.001409416669048369,0.0029929184820502996,1.0008926391601562,0.0,0.0,0.0,0.39972972869873047,2.636837959289551,5.629047393798828,-72.35187530517578,0
455.95300000000134,-0.0004565416311379522,-5.266165317152627e-06,-0.000496763619594276,0.0,0.0,0.0,0.0,0.00017297218437306583,0.000697100069373846,-0.0012092824326828122,1.0024052858352661,0.0,0.0,0.0,0.39928871393203735,2.634690761566162,5.620480537414551,-72.27204895019531,0
465.875,-0.0004323683970142156,7.052184810163453e-05,-0.0005285523948259652,0.0,0.0,0.0,0.0,0.0010831764666363597,-0.004734630696475506,0.0012642977526411414,1.0000089406967163,0.0,0.0,0.0,0.4011535346508026,2.679520606994629,5.643867015838623,-72.60958099365234,0
475.77800000000025,-0.00046447606291621923,6.252878665691242e-05,-0.0005399978253990412,0.0,0.0,0.0,0.0,0.002168223261833191,0.004994013346731663,-0.0015650998102501035,0.9979516863822937,0.0,0.0,0.0,0.4002452492713928,2.6734275817871094,5.644652843475342,-72.4451904296875,0
485.70500000000175,-0.0004896720056422055,7.030174310784787e-05,-0.0005663015763275325,0.0,0.0,0.0,0.0,0.000945917097851634,0.0021614362485706806,-0.0005213456461206079,0.9989205598831177,0.0,0.0,0.0,0.4004840850830078,2.666032552719116,5.626460552215576,-72.48841094970703,0
495.603000000001,-0.0005252893315628171,6.004476745147258e-05,-0.0005797379417344928,0.0,0.0,0.0,0.0,0.002236313419416547,0.004957010503858328,0.0008192312670871615,1.0007678270339966,0.0,0.0,0.0,0.39947888255119324,2.662546157836914,5.61110258102417,-72.30647277832031,0
505.52500000000146,-0.0005477041704580188,9.729870362207294e-05,-0.0005933709326200187,0.0,0.0,0.0,0.0,-0.0014340431662276387,-0.00011660960444714874,0.002756718546152115,1.0014638900756836,0.0,0.0,0.0,0.39977893233299255,2.6547811031341553,5.600338459014893,-72.36077880859375,0
515.4330000000009,-0.0005849480512551963,8.679111488163471e-05,-0.0006073731346987188,0.0,0.0,0.0,0.0,-0.00015346573491115123,-0.0009736598585732281,0.0009158074390143156,1.001323938369751,0.0,0.0,0.0,0.400048166513443,2.6495208740234375,5.585780620574951,-72.40951538085938,0
525.3500000000004,-0.0006083168555051088,0.00010956834739772603,-0.0006319914245977998,0.0,0.0,0.0,0.0,0.00358949089422822,0.000437994982348755,-0.002247239463031292,1.0025105476379395,0.0,0.0,0.0,0.399308443069458,2.6501617431640625,5.579452037811279,-72.27561950683594,0
535.2530000000006,-0.0006476723938249052,9.751528705237433e-05,-0.000644118117634207,0.0,0.0,0.0,0.0,-0.0005564097664318979,4.590731987264007e-05,-0.0013140396913513541,1.0023084878921509,0.0,0.0,0.0,0.39845356345176697,2.64970326423645,5.571558952331543,-72.12088775634766,0
545.1750000000011,-0.0006610008422285318,0.00011541253479663283,-0.0006773912464268506,0.0,0.0,0.0,0.0,0.0006906632333993912,0.00043764529982581735,0.004516100976616144,1.001374363899231,0.0,0.0,0.0,0.3977205157279968,2.6428706645965576,5.567001819610596,-71.98819732666016,0
555.0760000000009,-0.0007016545278020203,0.00010173674672842026,-0.0006872774101793766,0.0,0.0,0.0,0.0,-0.001234129536896944,0.00047520906082354486,0.0007220003171823919,0.9978485107421875,0.0,0.0,0.0,0.39762118458747864,2.6386382579803467,5.56939697265625,-71.97022247314453,0
565.0010000000002,-0.0007144915871322155,0.00012967552174814045,-0.0007166966679506004,0.0,0.0,0.0,0.0,0.0008456996292807162,0.002883354900404811,0.00023165989841800183,1.000658631324768,0.0,0.0,0.0,0.3984466791152954,2.6391260623931885,5.573245525360107,-72.11963653564453,0
574.9030000000002,-0.0007574954070150852,0.00011559932318050414,-0.0007285238243639469,0.0,0.0,0.0,0.0,-0.0011368889827281237,-0.0008245884673669934,0.0037390997167676687,0.9979079961776733,0.0,0.0,0.0,0.39835211634635925,2.6312875747680664,5.554119110107422,-72.10252380371094,0
584.8240000000005,-0.0007617764640599489,0.0001363550400128588,-0.0007702741422690451,0.0,0.0,0.0,0.0,-0.0006288409349508584,0.002059102524071932,0.0009413460502400994,1.0002291202545166,0.0,0.0,0.0,0.39912790060043335,2.6312015056610107,5.556379795074463,-72.2429428100586,0
594.7270000000008,-0.00080594711471349,0.00012352893827483058,-0.0007866919040679932,0.0,0.0,0.0,0.0,-0.0014176557306200266,0.000508206314407289,0.001062487019225955,0.9997904896736145,0.0,0.0,0.0,0.39854517579078674,2.620130777359009,5.538794994354248,-72.13746643066406,0
604.6450000000004,-0.0007906441460363567,0.00014969674521125853,-0.0008428269647993147,0.0,0.0,0.0,0.0,0.0011029361048713326,-0.0007244973094202578,0.003177042817696929,1.0000535249710083,0.0,0.0,0.0,0.3986333906650543,2.6241531372070312,5.534297943115234,-72.15342712402344,0
614.5520000000015,-0.000833752506878227,0.0001379091845592484,-0.000864058209117502,0.0,0.0,0.0,0.0,0.0025385459885001183,0.002723690588027239,0.0010500497883185744,1.000043272972107,0.0,0.0,0.0,0.3994511067867279,2.6267294883728027,5.531668186187744,-72.30144500732422,0
624.4700000000012,-0.0008237251895479858,0.00016769302601460367,-0.0009195685852319002,0.0,0.0,0.0,0.0,-0.000421228090999648,-0.0012750058667734265,0.001528443768620491,0.9985446929931641,0.0,0.0,0.0,0.39942467212677,2.6291275024414062,5.535643577575684,-72.29666137695312,0
634.380000000001,-0.0008674421696923673,0.00015531419194303453,-0.000945093110203743,0.0,0.0,0.0,0.0,0.0007452504360117018,-0.003890083869919181,0.002720699878409505,1.0001537799835205,0.0,0.0,0.0,0.3990791440010071,2.6226513385772705,5.524725914001465,-72.23412322998047,0
644.2980000000007,-0.0009141808259300888,0.00014017905050422996,-0.0009714506450109184,0.0,0.0,0.0,0.0,-0.003670111298561096,-0.0033614409621804953,0.001492728479206562,1.0023585557937622,0.0,0.0,0.0,0.39875727891921997,2.6208465099334717,5.521729469299316,-72.17586517333984,0
654.2070000000003,-0.0010154646588489413,0.00010266613389831036,-0.0010214929934591055,0.0,0.0,0.0,0.0,-0.0009731483296491206,-0.0011821822263300419,0.0019572691526263952,1.0020288228988647,0.0,0.0,0.0,0.39682093262672424,2.619288921356201,5.516157627105713,-71.82537841796875,0
664.121000000001,-0.0010154646588489413,0.00010266613389831036,-0.0010214929934591055,0.0,0.0,0.0,0.0,0.0008107420871965587,0.0018615680746734142,0.000696146278642118,0.9992426633834839,0.0,0.0,0.0,0.39682093262672424,2.619288921356201,5.516157627105713,-71.82537841796875,0
674.0300000000007,-0.0011256341822445393,5.806240005767904e-05,-0.0010654589859768748,0.0,0.0,0.0,0.0,-0.0006831625360064209,-0.007647250778973103,0.0016643767012283206,1.000388741493225,0.0,0.0,0.0,0.3968934416770935,2.618351459503174,5.519588470458984,-71.83850860595703,0
683.9470000000001,-0.0011256341822445393,5.806240005767904e-05,-0.0010654589859768748,0.0,0.0,0.0,0.0,0.003640313632786274,-0.0018063755705952644,-0.00197787513025105,1.0036336183547974,0.0,0.0,0.0,0.3968934416770935,2.618351459503174,5.519588470458984,-71.83850860595703,0
693.8500000000004,-0.0011902798432856798,3.105523137492128e-05,-0.0010882554342970252,0.0,0.0,0.0,0.0,-0.00216405326500535,-0.0012186457170173526,0.00018618990725371987,1.0006587505340576,0.0,0.0,0.0,0.39693930745124817,2.613555669784546,5.525267601013184,-71.84680938720703,0
703.7710000000006,-0.0012509443331509829,4.3367963371565565e-06,-0.0011066538281738758,0.0,0.0,0.0,0.0,0.0010732457740232348,-0.0007671045605093241,0.00664484454318881,0.9994451403617859,0.0,0.0,0.0,0.39732226729393005,2.616689682006836,5.518307209014893,-71.9161148071289,0
713.6780000000017,-0.0013132059248164296,-2.4692002625670284e-05,-0.0011237903963774443,0.0,0.0,0.0,0.0,0.002126658335328102,0.0020229355432093143,0.0019284691661596298,1.0013725757598877,0.0,0.0,0.0,0.39701566100120544,2.610088586807251,5.51845121383667,-71.86062622070312,0
723.6000000000004,-0.0013778689317405224,-5.64893452974502e-05,-0.0011409673606976867,0.0,0.0,0.0,0.0,0.0024151683319360018,-0.0016521645011380315,-0.00012650611461140215,1.0022052526474,0.0,0.0,0.0,0.3972338140010834,2.6076841354370117,5.505484104156494,-71.90010833740234,0
733.5070000000014,-0.001444429624825716,-9.033826790982857e-05,-0.0011570242932066321,0.0,0.0,0.0,0.0,0.0004525127005763352,0.0013334801187738776,0.0009734822669997811,0.9992418885231018,0.0,0.0,0.0,0.39703381061553955,2.6043007373809814,5.4983296394348145,-71.86390686035156,0
743.4260000000013,-0.0015126364305615425,-0.00012553611304610968,-0.0011713795829564333,0.0,0.0,0.0,0.0,-0.0004048875125590712,-0.003593407105654478,0.0028478861786425114,1.0009667873382568,0.0,0.0,0.0,0.39660319685935974,2.603442907333374,5.504600524902344,-71.78596496582031,0
753.3320000000003,-0.0015828688628971577,-0.00016262219287455082,-0.0011851510498672724,0.0,0.0,0.0,0.0,0.00012122612679377198,-0.004800429567694664,0.004483887925744057,1.003300428390503,0.0,0.0,0.0,0.39646103978157043,2.6142680644989014,5.499764442443848,-71.76023864746094,0
763.246000000001,-0.0016544224927201867,-0.0002015511563513428,-0.0011980847921222448,0.0,0.0,0.0,0.0,0.002865617163479328,0.001475723460316658,0.0022764289751648903,1.0016250610351562,0.0,0.0,0.0,0.3958911597728729,2.6097941398620605,5.498996257781982,-71.65708923339844,0
773.148000000001,-0.0017276734579354525,-0.00024195588775910437,-0.0012086192145943642,0.0,0.0,0.0,0.0,-0.0006003638845868409,0.003713567042723298,-0.0028348416090011597,0.9988299012184143,0.0,0.0,0.0,0.3965755105018616,2.609283924102783,5.4932541847229,-71.78096008300781,0
783.0700000000015,-0.0018032104708254337,-0.0002840372617356479,-0.0012173950672149658,0.0,0.0,0.0,0.0,-0.0005199137376621366,-0.006003220099955797,-0.0021973028779029846,1.0006486177444458,0.0,0.0,0.0,0.39641743898391724,2.6020472049713135,5.478828430175781,-71.7523422241211,0
792.9760000000006,-0.00187973165884614,-0.00032821076456457376,-0.0012262027012184262,0.0,0.0,0.0,0.0,-0.0009651826694607735,0.003771486459299922,0.0005540997954085469,1.0002081394195557,0.0,0.0,0.0,0.39588016271591187,2.5991718769073486,5.480813503265381,-71.65510559082031,0
802.8950000000004,-0.0019561047665774822,-0.0003744893183466047,-0.0012345053255558014,0.0,0.0,0.0,0.0,-0.002359086647629738,-0.001974893966689706,0.0027857753448188305,0.9978176951408386,0.0,0.0,0.0,0.3956274688243866,2.600708484649658,5.479292869567871,-71.60935974121094,0
812.8050000000003,-0.002033442026004195,-0.00042323864181526005,-0.001242518424987793,0.0,0.0,0.0,0.0,0.0011109246406704187,-0.003846289124339819,0.0030670559499412775,0.9973751902580261,0.0,0.0,0.0,0.3961399793624878,2.5987160205841064,5.483978271484375,-71.7021255493164,0
822.732,-0.0021129262167960405,-0.00047536136116832495,-0.0012520179152488708,0.0,0.0,0.0,0.0,0.0012445863103494048,-0.00049456866690889,0.001833453425206244,0.9982764720916748,0.0,0.0,0.0,0.39656245708465576,2.592684745788574,5.482515335083008,-71.7785873413086,0
832.6220000000012,-0.002195113804191351,-0.0005310418200679123,-0.0012637922773137689,0.0,0.0,0.0,0.0,0.0018616558518260717,0.00034795349347405136,-0.0032449562568217516,0.9998883008956909,0.0,0.0,0.0,0.3967995345592499,2.5920774936676025,5.477218151092529,-71.8215103149414,0
842.5430000000015,-0.002280331449583173,-0.0005896097281947732,-0.0012771706096827984,0.0,0.0,0.0,0.0,0.0002673169656191021,0.001817318145185709,-0.0005037765367887914,1.0017316341400146,0.0,0.0,0.0,0.39680245518684387,2.587615966796875,5.467445373535156,-71.82202911376953,0
852.4520000000011,-0.002367714187130332,-0.0006503403419628739,-0.0012903900351375341,0.0,0.0,0.0,0.0,0.0015877485275268555,0.002555934712290764,0.0002832062018569559,1.000725269317627,0.0,0.0,0.0,0.39610302448272705,2.586947202682495,5.464086055755615,-71.6954345703125,0
862.3760000000002,-0.0024572445545345545,-0.00071329326601699,-0.0013023574138060212,0.0,0.0,0.0,0.0,-0.0018667528638616204,0.0009404376614838839,0.0015907142078503966,1.000261664390564,0.0,0.0,0.0,0.39507946372032166,2.581568479537964,5.4556097984313965,-71.51016998291016,0
872.2820000000011,-0.0025486608501523733,-0.0007784409681335092,-0.0013133976608514786,0.0,0.0,0.0,0.0,0.0029476128984242678,0.0017062824917957187,-2.5804740289459005e-05,1.0017178058624268,0.0,0.0,0.0,0.39512312412261963,2.581594944000244,5.44685697555542,-71.51807403564453,0
882.1960000000017,-0.002641792641952634,-0.0008452956681139767,-0.0013234480284154415,0.0,0.0,0.0,0.0,-0.0020170100033283234,0.0014603490708395839,0.0016350742662325501,0.9984307289123535,0.0,0.0,0.0,0.39453238248825073,2.5749869346618652,5.436939716339111,-71.41114044189453,0
892.0960000000014,-0.002738123293966055,-0.0009137980523519218,-0.0013325896579772234,0.0,0.0,0.0,0.0,-0.0011928417952731252,-0.005876932758837938,0.00019596189667936414,1.0007340908050537,0.0,0.0,0.0,0.39390283823013306,2.571380138397217,5.432733535766602,-71.29719543457031,0
902.0210000000006,-0.0028370129875838757,-0.0009843648876994848,-0.0013421523617580533,0.0,0.0,0.0,0.0,-0.001342570991255343,0.004701319150626659,0.0013398188166320324,1.0004560947418213,0.0,0.0,0.0,0.39306551218032837,2.571047782897949,5.426266670227051,-71.14563751220703,0
911.9260000000013,-0.00035237352130934596,-0.0012484461767598987,0.0016133940080180764,0.0,0.0,0.0,0.0,0.0047666472382843494,-0.0029336903244256973,-0.001419813372194767,1.0002717971801758,0.0,0.0,0.0,0.3960861563682556,2.648027181625366,5.593029022216797,-71.69239044189453,0
921.8480000000018,-0.0003994611615780741,-0.001310590305365622,0.0016683865105733275,0.0,0.0,0.0,0.0,0.000262290210230276,-0.000432591448770836,0.0002585868933238089,0.9991449117660522,0.0,0.0,0.0,0.39471983909606934,2.6485700607299805,5.588436126708984,-71.445068359375,0
931.746000000001,-0.0004484677338041365,-0.0013739706482738256,0.001723563764244318,0.0,0.0,0.0,0.0,0.0001803205523174256,9.060506999958307e-05,0.0016850335523486137,1.0005651712417603,0.0,0.0,0.0,0.3948269486427307,2.6421329975128174,5.587851047515869,-71.46446990966797,0
941.6690000000017,-0.0004988395376130939,-0.0014385723043233156,0.0017787585966289043,0.0,0.0,0.0,0.0,0.0015495525440201163,-0.0005334578454494476,0.0001438031904399395,0.9987320303916931,0.0,0.0,0.0,0.3949061632156372,2.6398613452911377,5.58938455581665,-71.47880554199219,0
951.5750000000007,-0.0005499310209415853,-0.001505290507338941,0.0018340556416660547,0.0,0.0,0.0,0.0,-0.0020623020827770233,-0.0011747152311727405,0.0036557193379849195,0.9981934428215027,0.0,0.0,0.0,0.3955824375152588,2.6345322132110596,5.581654071807861,-71.60121154785156,0
961.4950000000008,-0.000601983570959419,-0.001574436784721911,0.0018884660676121712,0.0,0.0,0.0,0.0,0.0017665649065747857,-0.0007024816586636007,-0.0005825231783092022,0.9986420273780823,0.0,0.0,0.0,0.3956831395626068,2.6305127143859863,5.578430652618408,-71.61943817138672,0
971.3970000000008,-0.0005167598137632012,-0.0015163688221946359,0.002121103461831808,0.0,0.0,0.0,0.0,0.0034732946660369635,0.005467945244163275,0.0005226648063398898,0.9977366924285889,0.0,0.0,0.0,0.3853978216648102,2.651336193084717,5.630886554718018,-69.75776672363281,0
981.3180000000011,-0.0005167598137632012,-0.0015163688221946359,0.002121103461831808,0.0,0.0,0.0,0.0,0.0012598509201779962,0.0018880290444940329,-0.0004339042934589088,0.9995886087417603,0.0,0.0,0.0,0.3853978216648102,2.651336193084717,5.630886554718018,-69.75776672363281,0
991.2210000000014,-0.0006081452593207359,-0.0016570806037634611,0.0022404114715754986,0.0,0.0,0.0,0.0,0.0004325903719291091,-0.0029057124629616737,-0.0011793921003118157,0.9997087717056274,0.0,0.0,0.0,0.38495713472366333,2.6430575847625732,5.611634254455566,-69.67800903320312,0
1001.1400000000012,-0.0006081452593207359,-0.0016570806037634611,0.0022404114715754986,0.0,0.0,0.0,0.0,-0.001556611037813127,0.0020549322944134474,-0.002528417157009244,0.9993709325790405,0.0,0.0,0.0,0.38495713472366333,2.6430575847625732,5.611634254455566,-69.67800903320312,0
1011.0460000000003,-0.0006613201694563031,-0.0017393778543919325,0.0023050722666084766,0.0,0.0,0.0,0.0,0.0009650297579355538,-8.085012814262882e-05,0.0026318442542105913,0.9999162554740906,0.0,0.0,0.0,0.3846176862716675,2.6369755268096924,5.605605125427246,-69.61656951904297,0
1020.9710000000014,-0.0007102075614966452,-0.001816918607801199,0.002363494597375393,0.0,0.0,0.0,0.0,0.003821263089776039,0.0028065419755876064,0.0046798838302493095,1.002601146697998,0.0,0.0,0.0,0.38516002893447876,2.641556739807129,5.595474720001221,-69.71472930908203,0
1030.8740000000016,-0.0007601643446832895,-0.0018957932479679585,0.002422477351501584,0.0,0.0,0.0,0.0,-0.0005084600416012108,0.001105831703171134,-0.007298188284039497,1.0002975463867188,0.0,0.0,0.0,0.386143296957016,2.6335642337799072,5.596038818359375,-69.8927001953125,0
1040.7930000000015,-0.0008127925684675574,-0.0019755337852984667,0.0024831844493746758,0.0,0.0,0.0,0.0,0.0005456094513647258,-0.0048415143974125385,-0.000979754258878529,1.0005381107330322,0.0,0.0,0.0,0.384525865316391,2.629251003265381,5.581380844116211,-69.59994506835938,0
1050.6960000000017,-0.0008685489883646369,-0.0020565076265484095,0.002545126248151064,0.0,0.0,0.0,0.0,-0.0016844484489411116,-0.002433887915685773,5.362372758099809e-05,0.998772919178009,0.0,0.0,0.0,0.38247328996658325,2.627009868621826,5.577830791473389,-69.22842407226562,0
1060.6190000000006,-0.00092638487694785,-0.002139115473255515,0.0026071250904351473,0.0,0.0,0.0,0.0,0.0001736381818773225,-0.0008191926754079759,-0.0017449614824727178,1.001373291015625,0.0,0.0,0.0,0.38329359889030457,2.624095916748047,5.581937789916992,-69.37689971923828,0
1070.5220000000008,-0.0009855316020548344,-0.0022238066885620356,0.002669060602784157,0.0,0.0,0.0,0.0,-0.0009227391565218568,7.281995931407437e-05,-0.0012319338275119662,1.001060962677002,0.0,0.0,0.0,0.38273364305496216,2.6196963787078857,5.582548141479492,-69.27554321289062,0
1080.438,-0.0010465083178132772,-0.00231039896607399,0.0027315947227180004,0.0,0.0,0.0,0.0,-0.004442605189979076,-0.003882729448378086,0.0039084176532924175,1.0003478527069092,0.0,0.0,0.0,0.38352516293525696,2.6159462928771973,5.5798726081848145,-69.41881561279297,0
1090.3480000000018,-0.0005788388079963624,-0.001984249334782362,0.0027357693761587143,0.0,0.0,0.0,0.0,-0.0016891348641365767,-0.0028816512785851955,0.001827893778681755,1.0019574165344238,0.0,0.0,0.0,0.37888845801353455,2.6722571849823,5.739739894866943,-68.57955932617188,0
1100.2690000000002,-3.701617242768407e-05,-0.00023932136537041515,-0.00029208764317445457,0.0,0.0,0.0,0.0,0.0007256363751366735,0.00029005587566643953,-0.0035838368348777294,1.0004687309265137,0.0,0.0,0.0,0.38167834281921387,2.8808040618896484,5.823085308074951,-69.08453369140625,0
1110.1680000000015,-4.85097334603779e-05,-0.00026130277547053993,-0.00028401779127307236,0.0,0.0,0.0,0.0,-0.0010471675777807832,0.0004452061839401722,0.002277758903801441,1.0012211799621582,0.0,0.0,0.0,0.3807840645313263,2.882829427719116,5.8229756355285645,-68.92267608642578,0
1120.0860000000011,-6.027940253261477e-05,-0.00021262792870402336,-0.0002011707256315276,0.0,0.0,0.0,0.0,-0.0018283494282513857,0.005739468615502119,-0.00036813729093410075,1.0002567768096924,0.0,0.0,0.0,0.3891715407371521,2.900847911834717,5.809459209442139,-70.4408187866211,0
1129.9970000000012,-7.231914787553251e-05,-0.00023293716367334127,-0.0001856266608228907,0.0,0.0,0.0,0.0,0.003866420825943351,-0.001407120143994689,-0.0016453376738354564,0.9971147179603577,0.0,0.0,0.0,0.3890684247016907,2.9042809009552,5.790122032165527,-70.42216491699219,0
1139.9210000000003,-9.072308603208512e-05,-0.00022278176038525999,-0.00010417936573503539,0.0,0.0,0.0,0.0,0.00027873722137883306,0.0032734982669353485,-0.0004443716607056558,0.9974145889282227,0.0,0.0,0.0,0.3944832682609558,2.909961700439453,5.778346538543701,-71.40225219726562,0
1149.8280000000013,6.393055809894577e-05,-0.00028521919739432633,2.731232780206483e-05,0.0,0.0,0.0,0.0,0.0017702252371236682,0.0026606391184031963,9.215102909365669e-05,0.9989234805107117,0.0,0.0,0.0,0.39467498660087585,2.904741048812866,5.7772722244262695,-71.43695068359375,0
1159.7340000000004,0.00010370158997830003,-0.00020268297521397471,1.9144947145832703e-05,0.0,0.0,0.0,0.0,0.0028841737657785416,0.00414790166541934,0.0036023170687258244,0.9984140992164612,0.0,0.0,0.0,0.40564659237861633,2.916332960128784,5.7772626876831055,-73.42283630371094,0
1169.6500000000015,9.512251563137397e-05,-0.00022681230620946735,3.687139178509824e-05,0.0,0.0,0.0,0.0,0.0017206044867634773,0.0009407636825926602,0.0005302458303049207,0.9997695088386536,0.0,0.0,0.0,0.4053727984428406,2.9101150035858154,5.758181571960449,-73.37327575683594,0
1179.5650000000005,0.0001094305407605134,-0.00017732259584590793,3.880995427607559e-05,0.0,0.0,0.0,0.0,-5.1204693590989336e-05,-0.0011723622446879745,0.0022638929076492786,1.0010426044464111,0.0,0.0,0.0,0.40517616271972656,2.904110908508301,5.750173568725586,-73.33769226074219,0
1189.4730000000018,9.728949225973338e-05,-0.00019905836961697787,5.4636966524412856e-05,0.0,0.0,0.0,0.0,0.0005837068893015385,0.004587559495121241,-0.0009629713604226708,0.9996119141578674,0.0,0.0,0.0,0.40650510787963867,2.9024710655212402,5.745825290679932,-73.57823944091797,0
1199.3820000000014,0.0001178223974420689,-0.0001705833856249228,-3.456155127423699e-06,0.0,0.0,0.0,0.0,-0.004458768293261528,0.0006753269117325544,0.0004442110366653651,1.0006699562072754,0.0,0.0,0.0,0.41150352358818054,2.9186785221099854,5.737362384796143,-74.48296356201172,0
1209.3030000000017,6.174464942887425e-05,-0.0001472487929277122,-4.409866960486397e-06,0.0,0.0,0.0,0.0,-0.00031655526254326105,0.002306912560015917,0.000597582955379039,1.0007855892181396,0.0,0.0,0.0,0.41167590022087097,2.9174561500549316,5.723334312438965,-74.51415252685547,0
1219.2050000000017,9.899061114992946e-05,-0.00011662132601486519,-7.078803901094943e-05,0.0,0.0,0.0,0.0,0.0006985691725276411,0.005359950475394726,0.001999962842091918,1.0005359649658203,0.0,0.0,0.0,0.4105965197086334,2.9192755222320557,5.714981555938721,-74.31878662109375,0
1229.125,-7.24355923011899e-05,-6.83342368574813e-05,-8.69462892296724e-05,0.0,0.0,0.0,0.0,-0.000884270470123738,0.0004917594487778842,-0.004122995771467686,1.0022839307785034,0.0,0.0,0.0,0.4113121032714844,2.908721923828125,5.703633785247803,-74.44831085205078,0
1239.036,-8.973941294243559e-05,-9.046520426636562e-05,-0.00010352891695220023,0.0,0.0,0.0,0.0,0.0011481938418000937,0.0003081627073697746,0.0018984164344146848,1.0011804103851318,0.0,0.0,0.0,0.410917192697525,2.912891149520874,5.698135852813721,-74.3768310546875,0
1248.9490000000005,-0.00017603341257199645,-4.046413960168138e-05,-8.118779078358784e-05,0.0,0.0,0.0,0.0,-0.0007784577319398522,0.0007612901390530169,0.0029389241244643927,1.0021047592163086,0.0,0.0,0.0,0.41181308031082153,2.9072763919830322,5.697052001953125,-74.53898620605469,0
1258.8560000000016,-0.00017280464817304164,-1.6305850294884294e-05,-0.0001072101658792235,0.0,0.0,0.0,0.0,-0.0008461350807920098,-0.0011392172891646624,-0.001390980207361281,1.0020520687103271,0.0,0.0,0.0,0.4114355444908142,2.90429425239563,5.692789077758789,-74.47064971923828,0
1268.773000000001,-0.00020177116675768048,-2.9543243726948276e-05,-9.870422218227759e-05,0.0,0.0,0.0,0.0,6.137353193480521e-05,0.003997574094682932,-0.004716451279819012,0.9994301199913025,0.0,0.0,0.0,0.4102855324745178,2.902893304824829,5.688069820404053,-74.26250457763672,0
1278.6780000000017,-0.00017822551308199763,1.0972211384796537e-05,-0.00016066449461504817,0.0,0.0,0.0,0.0,0.00015034600801300257,-0.0023744520731270313,0.0024876189418137074,0.9992050528526306,0.0,0.0,0.0,0.4097290635108948,2.9039485454559326,5.679477214813232,-74.16177368164062,0
1288.5990000000002,-0.0002063555730273947,-2.023458364419639e-06,-0.00015679746866226196,0.0,0.0,0.0,0.0,0.002469941508024931,0.0012625429080799222,-0.0008947065216489136,1.000930666923523,0.0,0.0,0.0,0.4096192419528961,2.898350715637207,5.68477201461792,-74.14189910888672,0
1298.5040000000008,-0.00021626439411193132,2.376145130256191e-05,-0.00017720363393891603,0.0,0.0,0.0,0.0,0.0018551201792433858,0.0025066763628274202,0.0009305791463702917,1.000289797782898,0.0,0.0,0.0,0.40932902693748474,2.8947484493255615,5.677001953125,-74.08936309814453,0
1308.4300000000003,-0.00024546682834625244,1.0445603948028293e-05,-0.00017477812070865184,0.0,0.0,0.0,0.0,-0.0015836746897548437,-0.0023288591764867306,-0.0032239151187241077,0.9992456436157227,0.0,0.0,0.0,0.4101579189300537,2.893017053604126,5.668263912200928,-74.2394027709961,0
1318.3270000000011,-0.0002535308594815433,1.680531568126753e-05,-0.00022154281032271683,0.0,0.0,0.0,0.0,-0.003326338017359376,0.00356261245906353,0.0030713274609297514,1.000217318534851,0.0,0.0,0.0,0.40937450528144836,2.892822742462158,5.6751508712768555,-74.09759521484375,0
1328.2490000000016,-5.6480130297131836e-05,-0.00010084192035719752,-0.00012012574006803334,0.0,0.0,0.0,0.0,-0.0037042589392513037,0.0004348981019575149,-0.0038277185522019863,0.9994837641716003,0.0,0.0,0.0,0.4090275764465332,2.872199296951294,5.710331439971924,-74.03479766845703,0
1338.1590000000015,-5.782648077001795e-05,-6.482632306870073e-05,-0.00012192620488349348,0.0,0.0,0.0,0.0,0.0001336491695838049,0.0028536557219922543,0.0007990952581167221,0.9996685981750488,0.0,0.0,0.0,0.4083667993545532,2.8750874996185303,5.70001220703125,-73.91520690917969,0
1348.0710000000017,-7.95268570072949e-05,-8.383029489777982e-05,-0.00011825615365523845,0.0,0.0,0.0,0.0,-0.004774513654410839,-0.0004570928867906332,-6.802579446230084e-05,0.9996361136436462,0.0,0.0,0.0,0.40851718187332153,2.8702244758605957,5.700011253356934,-73.94242095947266,0
1357.9770000000008,-8.391710434807464e-05,-7.92791906860657e-05,-0.00013974228932056576,0.0,0.0,0.0,0.0,-0.0009361050324514508,-0.004233377519994974,0.0019110071007162333,0.9993024468421936,0.0,0.0,0.0,0.40830105543136597,2.8744497299194336,5.6921586990356445,-73.9032974243164,0
1367.9100000000017,-0.00010823641059687361,-0.00010254188237013295,-0.0001385245268465951,0.0,0.0,0.0,0.0,-0.0039315903559327126,-0.0034589695278555155,-0.000696379691362381,0.999392032623291,0.0,0.0,0.0,0.4082590937614441,2.873997688293457,5.698940277099609,-73.89570617675781,0
1377.8020000000015,-0.0001151416145148687,-0.0001016060559777543,-0.00016905002121347934,0.0,0.0,0.0,0.0,-0.001729970914311707,0.0011925476137548685,0.0011792327277362347,0.9991709589958191,0.0,0.0,0.0,0.40746018290519714,2.8791165351867676,5.703254222869873,-73.75110626220703,0
1387.7290000000012,5.564931416301988e-05,-0.00018954125698655844,-7.494392775697634e-05,0.0,0.0,0.0,0.0,0.0014895449858158827,-0.0024448842741549015,0.00015752394392620772,1.0007963180541992,0.0,0.0,0.0,0.40937936305999756,2.865507125854492,5.731810092926025,-74.09847259521484,0
1397.630000000001,5.131755824550055e-05,-0.00017725222278386354,-7.691774953855202e-05,0.0,0.0,0.0,0.0,-0.0014994260855019093,0.00011636102135526016,0.0026635753456503153,1.0004390478134155,0.0,0.0,0.0,0.409590482711792,2.865731716156006,5.738935947418213,-74.13668823242188,0
1407.549000000001,3.212207957403734e-05,-0.00020186025358270854,-7.29037492419593e-05,0.0,0.0,0.0,0.0,-0.0005704219802282751,-0.0012406168971210718,0.0004592268669512123,1.0000646114349365,0.0,0.0,0.0,0.4096480906009674,2.867886781692505,5.731902599334717,-74.14710998535156,0
1417.4520000000011,2.4609469619463198e-05,-0.0001669745397521183,-6.691155431326479e-05,0.0,0.0,0.0,0.0,-0.002407684689387679,-0.0024394395295530558,0.0023017621133476496,1.000400185585022,0.0,0.0,0.0,0.4083109200000763,2.867255687713623,5.732079982757568,-73.90509033203125,0
1427.3780000000006,-4.805115167982876e-07,-0.00018896553956437856,-6.157990719657391e-05,0.0,0.0,0.0,0.0,0.001726041897200048,0.0018901934381574392,0.0030200956389307976,0.9977689981460571,0.0,0.0,0.0,0.40861502289772034,2.868133068084717,5.731137752532959,-73.96012878417969,0
1437.277,-3.7704701298935106e-06,-0.00014960416592657566,-2.0439329091459513e-05,0.0,0.0,0.0,0.0,0.002223811810836196,-0.0015116300201043487,-0.00298733520321548,1.0024863481521606,0.0,0.0,0.0,0.4093266725540161,2.863816976547241,5.7255988121032715,-74.08894348144531,0
1447.2000000000007,-3.1624094845028594e-05,-0.00017138778639491647,-1.2931297533214092e-05,0.0,0.0,0.0,0.0,-0.0015483952593058348,0.003393629565834999,-0.002055683871731162,1.0022774934768677,0.0,0.0,0.0,0.40834400057792664,2.8554844856262207,5.722381114959717,-73.91107940673828,0
1457.1080000000002,-2.627321009640582e-05,-0.0001461261126678437,-4.347865251475014e-05,0.0,0.0,0.0,0.0,-0.0021059939172118902,-0.004035287536680698,0.0018907287158071995,1.0006054639816284,0.0,0.0,0.0,0.4073609709739685,2.852962017059326,5.714751720428467,-73.733154296875,0
1467.0240000000013,-5.668118683388457e-05,-0.00016867287922650576,-3.468725844868459e-05,0.0,0.0,0.0,0.0,-0.0007898841868154705,0.0024719773791730404,0.0023273222614079714,1.0004539489746094,0.0,0.0,0.0,0.40780583024024963,2.8599164485931396,5.714547157287598,-73.81367492675781,0
1476.9300000000003,-5.8474506658967584e-05,-0.00013201701221987605,-5.5157004680950195e-05,0.0,0.0,0.0,0.0,0.0008099477854557335,0.003380577079951763,0.00262109050527215,1.0004609823226929,0.0,0.0,0.0,0.40747812390327454,2.8547914028167725,5.701089382171631,-73.75435638427734,0
1486.8450000000012,-9.023392340168357e-05,-0.00015424683806486428,-4.670280759455636e-05,0.0,0.0,0.0,0.0,0.0029296178836375475,0.0014320635236799717,-0.000992322457022965,1.0014756917953491,0.0,0.0,0.0,0.40760472416877747,2.8447070121765137,5.685824394226074,-73.77726745605469,0
1496.755000000001,-9.578699246048927e-05,-0.00010589259909465909,-6.470739026553929e-05,0.0,0.0,0.0,0.0,-0.0017777688335627317,-0.0032137464731931686,-0.0008605016046203673,1.0004225969314575,0.0,0.0,0.0,0.4074845314025879,2.840020179748535,5.678193092346191,-73.75550842285156,0
1506.6710000000003,-0.00012688973220065236,-0.0001257982657989487,-5.597007111646235e-05,0.0,0.0,0.0,0.0,-0.001454614568501711,-0.003230573609471321,-0.0012359714601188898,0.9997252225875854,0.0,0.0,0.0,0.4068641662597656,2.8462977409362793,5.687219142913818,-73.64322662353516,0
1516.5820000000003,-0.0001426693779649213,-0.0001397433807142079,-8.038806117838249e-05,0.0,0.0,0.0,0.0,0.0006994488066993654,0.0059592160396277905,-2.828920457886852e-07,1.001428484916687,0.0,0.0,0.0,0.40643081068992615,2.8413336277008057,5.67926549911499,-73.56478881835938,0
1526.4980000000014,-0.000171456893440336,-0.00016232399502769113,-7.30456886230968e-05,0.0,0.0,0.0,0.0,0.0008327384712174535,-0.0035089014563709497,-0.0030779638327658176,1.0011829137802124,0.0,0.0,0.0,0.4058930277824402,2.836926221847534,5.662901878356934,-73.46743774414062,0
1536.4000000000015,-7.599683885928243e-05,-0.00016592397878412157,-1.4427832866203971e-05,0.0,0.0,0.0,0.0,-0.0013482748763635755,0.0024430854246020317,0.0003218195342924446,1.0013246536254883,0.0,0.0,0.0,0.4060206413269043,2.83622407913208,5.665218830108643,-73.49054718017578,0
1546.3240000000005,-0.00010055242455564439,-0.00018953032849822193,-1.1937390809180215e-06,0.0,0.0,0.0,0.0,0.0012187646934762597,-0.0018968948861584067,-0.0010945482645183802,0.9994792938232422,0.0,0.0,0.0,0.40512198209762573,2.835134506225586,5.657873153686523,-73.327880859375,0
1556.2250000000004,-5.224315100349486e-05,-0.00013205307186581194,-9.169364057015628e-05,0.0,0.0,0.0,0.0,-0.002258923137560487,-0.0003009745851159096,-0.0005787258851341903,1.000386118888855,0.0,0.0,0.0,0.40432995557785034,2.833716630935669,5.659836769104004,-73.18452453613281,0
1566.1450000000004,-7.924412784632295e-05,-0.00015482654271181673,-8.463671838399023e-05,0.0,0.0,0.0,0.0,0.0008493412751704454,0.001099503948353231,0.0017327534733340144,0.9989213943481445,0.0,0.0,0.0,0.4043513536453247,2.8366429805755615,5.659267425537109,-73.18840026855469,0
1576.054,-5.7479541283100843e-05,-9.563122875988483e-05,-0.00014056407962925732,0.0,0.0,0.0,0.0,0.0012666193069890141,-0.0019793380051851273,-0.0012365031288936734,1.0018131732940674,0.0,0.0,0.0,0.4040306508541107,2.827448606491089,5.647919178009033,-73.13035583496094,0
1585.9800000000014,-8.555276872357354e-05,-0.0001185762885143049,-0.00013753437087871134,0.0,0.0,0.0,0.0,0.0006906302296556532,-0.0021310048177838326,0.0007713828235864639,1.0013236999511719,0.0,0.0,0.0,0.403154581785202,2.8213980197906494,5.63954496383667,-72.97178649902344,0
1595.8780000000006,-0.00010272316285409033,-8.704111678525805e-05,-0.00013766631309408695,0.0,0.0,0.0,0.0,0.0009217509068548679,0.0019386064959689975,0.0014422825770452619,1.003379464149475,0.0,0.0,0.0,0.40308448672294617,2.8212625980377197,5.6380534172058105,-72.95909881591797,0
1605.799000000001,-0.0001324640616076067,-0.00010916041355812922,-0.00013118459901306778,0.0,0.0,0.0,0.0,0.00031594635220244527,0.0007839147001504898,-0.0011650797678157687,1.0013353824615479,0.0,0.0,0.0,0.4026351571083069,2.8153464794158936,5.626927852630615,-72.87776184082031,0
1615.701000000001,-4.3110339902341366e-05,-0.00011672386608552188,-9.59554745350033e-05,0.0,0.0,0.0,0.0,0.0012834130320698023,0.00039396691136062145,0.0015887082554399967,1.0010759830474854,0.0,0.0,0.0,0.4010579586029053,2.80967116355896,5.616832733154297,-72.59229278564453,0
1625.6220000000012,-6.760848191333935e-05,-0.0001368913217447698,-8.448711014352739e-05,0.0,0.0,0.0,0.0,0.0020924017298966646,-0.0005102416034787893,0.0010914849117398262,1.0004135370254517,0.0,0.0,0.0,0.4017030894756317,2.804084300994873,5.610659599304199,-72.70905303955078,0
1635.5330000000013,-6.621831562370062e-05,-0.00012492372479755431,-0.0001066750191967003,0.0,0.0,0.0,0.0,0.0009130575926974416,0.001872883178293705,0.003919601906090975,1.0003489255905151,0.0,0.0,0.0,0.4011802673339844,2.7956972122192383,5.604084491729736,-72.61442565917969,0
1645.4430000000011,-9.170972771244124e-05,-0.00014740866026841104,-9.604408842278644e-05,0.0,0.0,0.0,0.0,6.077397119952366e-05,0.00019754980166908354,0.0013141511008143425,0.9990502595901489,0.0,0.0,0.0,0.40140044689178467,2.794790267944336,5.592483043670654,-72.6542739868164,0
1655.3470000000016,-9.451911319047213e-05,-0.0001292483793804422,-0.0001131667522713542,0.0,0.0,0.0,0.0,-0.0013213636120781302,-7.435311545123113e-06,0.0003205555840395391,0.999786913394928,0.0,0.0,0.0,0.4013400375843048,2.7930526733398438,5.590008735656738,-72.64334869384766,0
1665.277,-0.0001224850711878389,-0.00015407834143843502,-0.0001046781544573605,0.0,0.0,0.0,0.0,0.0059727574698626995,-0.0019577655475586653,0.00540953828021884,1.0003352165222168,0.0,0.0,0.0,0.40272843837738037,2.7903902530670166,5.578726768493652,-72.8946533203125,0
1675.1720000000005,-0.00012689335562754422,-0.00010158949589822441,-0.00012010040518362075,0.0,0.0,0.0,0.0,-0.0007782607572153211,5.5820419220253825e-05,0.001479783677496016,0.9992988109588623,0.0,0.0,0.0,0.40246281027793884,2.7833547592163086,5.578397274017334,-72.8465805053711,0
1685.0960000000014,-0.00015587884990964085,-0.0001264341699425131,-0.00011321705824229866,0.0,0.0,0.0,0.0,-8.580276335123926e-05,-0.002804551040753722,0.00024393058265559375,0.9997921586036682,0.0,0.0,0.0,0.40264907479286194,2.7836833000183105,5.5711517333984375,-72.88028717041016,0
1695.0,-0.00017110940825659782,-8.710395923117176e-05,-0.00012189400149509311,0.0,0.0,0.0,0.0,-0.0004932740121148527,-0.002545491559430957,0.001842185971327126,1.0016450881958008,0.0,0.0,0.0,0.4014737606048584,2.7876715660095215,5.571818828582764,-72.66754913330078,0
1704.9230000000007,-0.00020146153110545129,-0.00011162529699504375,-0.00011604448081925511,0.0,0.0,0.0,0.0,0.0010149558074772358,0.0004179682000540197,-0.0029630607459694147,1.0003010034561157,0.0,0.0,0.0,0.4014960527420044,2.7837510108947754,5.57517671585083,-72.67157745361328,0
1714.8230000000003,-0.00021166299120523036,-7.189195457613096e-05,-0.00013420861796475947,0.0,0.0,0.0,0.0,-0.003228626912459731,-0.003150300122797489,-0.0007012241403572261,0.9991092085838318,0.0,0.0,0.0,0.3999478220939636,2.777989625930786,5.571563243865967,-72.391357421875,0
1724.7400000000016,-0.00024356896756216884,-9.612856229068711e-05,-0.00012914519174955785,0.0,0.0,0.0,0.0,-0.001824308536015451,-0.0007942699594423175,0.002479980932548642,0.9986429214477539,0.0,0.0,0.0,0.39940181374549866,2.7826952934265137,5.57427978515625,-72.29251861572266,0
1734.6500000000015,-0.0002525489835534245,-5.7495701184961945e-05,-0.00015396646631415933,0.0,0.0,0.0,0.0,-0.0009572788258083165,0.0025520517956465483,-0.0019736532121896744,1.0006353855133057,0.0,0.0,0.0,0.3994143605232239,2.783931016921997,5.581157207489014,-72.29479217529297,0
1744.5720000000001,-0.0002870757016353309,-7.829621608834714e-05,-0.0001521320518804714,0.0,0.0,0.0,0.0,-0.00012524533667601645,-0.0015846078749746084,-0.002051013521850109,1.000383734703064,0.0,0.0,0.0,0.3988223671913147,2.7837612628936768,5.574616432189941,-72.18765258789062,0
1754.4740000000002,-0.00029874517349526286,-7.814938726369292e-05,-0.0001963657996384427,0.0,0.0,0.0,0.0,0.0010455920128151774,-0.001129079726524651,-0.00040590044227428734,1.0016387701034546,0.0,0.0,0.0,0.39873144030570984,2.7806055545806885,5.581291675567627,-72.17118835449219,0
1764.3900000000012,-0.00033472792711108923,-9.791718912310898e-05,-0.00019650177273433656,0.0,0.0,0.0,0.0,-0.0011044834973290563,0.0034222188405692577,-0.0006208358099684119,1.0028413534164429,0.0,0.0,0.0,0.3980271518230438,2.7743327617645264,5.576392650604248,-72.043701171875,0
1774.2960000000003,-0.00033593844273127615,-5.232923285802826e-05,-0.0002276584564242512,0.0,0.0,0.0,0.0,0.0014990230556577444,-0.0027531697414815426,-0.0015916172415018082,1.0005751848220825,0.0,0.0,0.0,0.39654508233070374,2.771435499191284,5.572040557861328,-71.77545166015625,0
1784.2360000000008,-0.000337463483447209,-1.101940233638743e-05,-0.00025122539955191314,0.0,0.0,0.0,0.0,0.0011833279859274626,0.004116158001124859,-0.0025539840571582317,0.9994515776634216,0.0,0.0,0.0,0.3963644206523895,2.7685184478759766,5.569087505340576,-71.74275207519531,0
1794.1230000000014,1.8616456145537086e-05,-0.0001656652457313612,7.219145481940359e-05,0.0,0.0,0.0,0.0,0.0013463367940858006,-0.0006044924375601113,0.0014002301031723619,1.000568151473999,0.0,0.0,0.0,0.39160704612731934,2.7383737564086914,5.6433329582214355,-70.88165283203125,0
1804.0380000000005,5.922699529037345e-06,-0.00018771077156998217,8.642514876555651e-05,0.0,0.0,0.0,0.0,0.002159692579880357,0.0002741608186624944,0.003253774717450142,1.0025373697280884,0.0,0.0,0.0,0.3911866545677185,2.7321629524230957,5.635225296020508,-70.80557250976562,0
1813.9470000000001,3.5117911465931684e-05,-0.00013728276826441288,5.4910666221985593e-05,0.0,0.0,0.0,0.0,-0.0020333153661340475,0.002400842262431979,-0.0009509436204098165,1.0016311407089233,0.0,0.0,0.0,0.39289477467536926,2.7245423793792725,5.626641750335693,-71.11473083496094,0
1823.8730000000014,2.1934276446700096e-05,-0.0001589415333000943,6.948527880012989e-05,0.0,0.0,0.0,0.0,0.00045885753934271634,0.0019671102054417133,-0.0012338007800281048,1.0007994174957275,0.0,0.0,0.0,0.39193734526634216,2.7221767902374268,5.6201066970825195,-70.94143676757812,0
1833.7700000000004,2.905183646362275e-05,-0.00013351062079891562,6.202940130606294e-05,0.0,0.0,0.0,0.0,-0.0005070775514468551,0.004916982725262642,-0.0007832937408238649,1.002021074295044,0.0,0.0,0.0,0.39222124218940735,2.718458890914917,5.614554405212402,-70.9928207397461,0
1843.6990000000005,3.0347036954481155e-05,-0.00010482386278454214,5.6753877288429067e-05,0.0,0.0,0.0,0.0,-0.0009509246447123587,0.0024432174395769835,0.0035321619361639023,1.0017081499099731,0.0,0.0,0.0,0.39118197560310364,2.7162036895751953,5.602461814880371,-70.80471801757812,0
1853.5970000000016,1.418414649378974e-05,-0.00012637503095902503,7.336727867368609e-05,0.0,0.0,0.0,0.0,-0.0011014287592843175,-0.004308875650167465,0.0033101767767220736,1.0008795261383057,0.0,0.0,0.0,0.391327440738678,2.7118372917175293,5.583512306213379,-70.83104705810547,0
1863.527,-7.867380190873519e-06,-0.00014298319001682103,0.00010408824891783297,0.0,0.0,0.0,0.0,0.0017281519249081612,-0.00043244322296231985,-0.0034646298736333847,0.9987122416496277,0.0,0.0,0.0,0.39185431599617004,2.713724136352539,5.574514389038086,-70.9264144897461,0
1873.4190000000017,-2.8433347324607894e-05,-0.00016723768203519285,0.00012405976303853095,0.0,0.0,0.0,0.0,-0.0019211823819205165,0.004778992384672165,0.0010914886370301247,0.998619794845581,0.0,0.0,0.0,0.3909169137477875,2.7101314067840576,5.575387954711914,-70.7567367553711,0
1883.3460000000014,-3.75170711777173e-05,-0.00018581909534987062,9.977009904105216e-05,0.0,0.0,0.0,0.0,0.00019898387836292386,0.0024419971741735935,0.0012007986661046743,0.9998138546943665,0.0,0.0,0.0,0.3916744291782379,2.708588123321533,5.553190231323242,-70.89385223388672,0
1893.2470000000012,-6.130243855295703e-05,-0.0002120454009855166,0.00011446019925642759,0.0,0.0,0.0,0.0,0.002847919939085841,-0.0018264370737597346,0.001097836997359991,1.0013034343719482,0.0,0.0,0.0,0.3917786777019501,2.7039337158203125,5.538586616516113,-70.9127197265625,0
1903.1690000000017,-6.0649610531982034e-05,-0.00019913110008928925,5.641537791234441e-05,0.0,0.0,0.0,0.0,-0.0021171048283576965,-0.0008378312340937555,-0.0026914014015346766,1.0002069473266602,0.0,0.0,0.0,0.392473965883255,2.6970441341400146,5.539406776428223,-71.03856658935547,0
1913.0690000000013,-8.640722080599517e-05,-0.00022608449216932058,6.7275992478244e-05,0.0,0.0,0.0,0.0,-0.0028205346316099167,-0.00309013482183218,-1.4125375855655875e-05,1.0015007257461548,0.0,0.0,0.0,0.3917725682258606,2.6920347213745117,5.533096790313721,-70.91161346435547,0
1923.0,-8.354397141374648e-05,-0.0002083493018290028,9.790774129214697e-06,0.0,0.0,0.0,0.0,9.30780588532798e-05,-0.004850957076996565,0.002158771501854062,1.0011770725250244,0.0,0.0,0.0,0.3926985561847687,2.6870341300964355,5.542850017547607,-71.0792236328125,0
1932.893,-0.00011082316632382572,-0.00023745633370708674,1.7903932530316524e-05,0.0,0.0,0.0,0.0,0.0030661069322377443,0.003938884008675814,0.0013082964578643441,1.0010340213775635,0.0,0.0,0.0,0.3934575319290161,2.684718132019043,5.542292594909668,-71.21659851074219,0
1942.8180000000011,-0.00010336654668208212,-0.0001935491745825857,-3.2487689168192446e-05,0.0,0.0,0.0,0.0,0.0001512250310042873,-0.0024232782889157534,-0.0009166879463009536,0.9999861717224121,0.0,0.0,0.0,0.3933802843093872,2.682044506072998,5.528124809265137,-71.2026138305664,0
1952.7180000000008,-0.00013326219050213695,-0.00022010548855178058,-2.6785550289787352e-05,0.0,0.0,0.0,0.0,0.00027397210942581296,-0.0045671844854950905,0.00044447401887737215,0.998627781867981,0.0,0.0,0.0,0.3928624093532562,2.682701349258423,5.533371925354004,-71.10887908935547,0
1962.6380000000008,-0.00010788520739879459,-0.000132258195662871,-8.425847045145929e-05,0.0,0.0,0.0,0.0,0.0017982530407607555,-0.002302658511325717,-0.0012867751065641642,0.9999865889549255,0.0,0.0,0.0,0.39418384432792664,2.7310516834259033,5.563261985778809,-71.34806060791016,0
1972.5420000000013,-0.0001378083397867158,-0.00015173091378528625,-8.470987086184323e-05,0.0,0.0,0.0,0.0,-0.0007799961022101343,0.0017509356839582324,-0.0015738499350845814,1.0002381801605225,0.0,0.0,0.0,0.3936556279659271,2.7226223945617676,5.563614368438721,-71.25244903564453,0
1982.4570000000003,-0.000117457915621344,-0.00010341232700739056,-0.00015453503874596208,0.0,0.0,0.0,0.0,-0.0017626689514145255,0.0009854849195107818,-0.0009304647101089358,0.9982185363769531,0.0,0.0,0.0,0.3933334946632385,2.7277066707611084,5.554284572601318,-71.19414520263672,0
1992.3680000000004,-0.00014453419134952128,-0.00011765056115109473,-0.00016121480439323932,0.0,0.0,0.0,0.0,-0.0017402820521965623,-0.0062932842411100864,2.568189665907994e-05,0.9997425675392151,0.0,0.0,0.0,0.3922227919101715,2.720412015914917,5.54688024520874,-70.99311065673828,0
2002.291000000001,-0.00012385706941131502,-8.240182796726003e-05,-0.00023444248654413968,0.0,0.0,0.0,0.0,-0.00042617079452611506,-0.0035487834829837084,-0.0009055810514837503,0.9984473586082458,0.0,0.0,0.0,0.3919547498226166,2.720820903778076,5.555500030517578,-70.94459533691406,0
2012.192000000001,-1.1772371180995833e-05,-0.00014022632967680693,-0.00012932911340612918,0.0,0.0,0.0,0.0,-0.0007869716500863433,-0.0020439838990569115,0.0023174879606813192,0.9986402988433838,0.0,0.0,0.0,0.3914114236831665,2.7241857051849365,5.555970191955566,-70.84624481201172,0
2022.1100000000006,-1.6653826605761424e-05,-0.00010976084740832448,-0.00013738658162765205,0.0,0.0,0.0,0.0,-0.0029840439092367887,-0.004108630120754242,0.0012105988571420312,1.0013834238052368,0.0,0.0,0.0,0.39174216985702515,2.7229650020599365,5.551496982574463,-70.90612030029297,0
2032.0220000000008,-3.664256655611098e-05,-0.0001255764509551227,-0.00014747533714398742,0.0,0.0,0.0,0.0,-0.000496491848025471,-0.004569104872643948,-0.0003371665661688894,1.0033248662948608,0.0,0.0,0.0,0.39209863543510437,2.719472646713257,5.545496463775635,-70.97063446044922,0
2041.9400000000005,-4.3949381506536156e-05,-7.949466817080975e-05,-0.0001551704917801544,0.0,0.0,0.0,0.0,5.628644885291578e-06,-0.0006374675431288779,0.0026600337587296963,1.0022307634353638,0.0,0.0,0.0,0.39837440848350525,2.7352185249328613,5.54860258102417,-72.10655212402344,0
2051.8470000000016,-6.745808059349656e-05,-9.593501454219222e-05,-0.00016015338769648224,0.0,0.0,0.0,0.0,-0.0008721327176317573,-0.0013973359018564224,0.003802498336881399,1.00074303150177,0.0,0.0,0.0,0.39921483397483826,2.731809377670288,5.548242092132568,-72.25868225097656,0
2061.7570000000014,-8.365685062017292e-05,-8.371874719159678e-05,-0.0001745293993735686,0.0,0.0,0.0,0.0,-0.0010253103682771325,0.004087713081389666,-0.0018153928685933352,0.999977171421051,0.0,0.0,0.0,0.40027889609336853,2.7314367294311523,5.5481977462768555,-72.4512710571289,0
2071.6710000000003,-0.00010956431651720777,-0.00010114553879247978,-0.00017736242443788797,0.0,0.0,0.0,0.0,0.0034481280017644167,0.0008644047193229198,0.0025388826616108418,0.9988561272621155,0.0,0.0,0.0,0.40016046166419983,2.729008913040161,5.537778377532959,-72.42984008789062,0
2081.5840000000007,-0.00014154522796161473,-9.508358925813809e-05,-0.00015704904217272997,0.0,0.0,0.0,0.0,-0.0015827877214178443,-0.0002267611853312701,-0.002657240256667137,1.0003689527511597,0.0,0.0,0.0,0.399273544549942,2.721050262451172,5.529866695404053,-72.2693099975586,0
2091.491,-0.00017230639059562236,-0.00011497742525534704,-0.00015858886763453484,0.0,0.0,0.0,0.0,-0.002583923749625683,-0.004573555197566748,-0.0010687467874959111,0.9987381100654602,0.0,0.0,0.0,0.39683833718299866,2.720176935195923,5.528581142425537,-71.82852172851562,0
2101.4040000000005,-0.00018938776338472962,-6.579948967555538e-05,-0.00018185847147833556,0.0,0.0,0.0,0.0,-0.00017634901450946927,0.005686721298843622,-0.0027346136048436165,0.9982731342315674,0.0,0.0,0.0,0.4068363606929779,2.7431223392486572,5.548348426818848,-73.63819122314453,0
2111.318000000001,-0.0002214389096479863,-8.66447517182678e-05,-0.0001863337674876675,0.0,0.0,0.0,0.0,0.0009971196996048093,-0.003027119440957904,0.0033122061286121607,0.9989615082740784,0.0,0.0,0.0,0.4056013822555542,2.741015672683716,5.5239434242248535,-73.4146499633789,0
2121.2300000000014,-0.000251906574703753,-6.724565901095048e-05,-0.00017856378690339625,0.0,0.0,0.0,0.0,-0.004467464517802,-0.004914487712085247,0.0037083120550960302,1.0006449222564697,0.0,0.0,0.0,0.4057970345020294,2.736271381378174,5.521738529205322,-73.4500732421875,0
