timestamp,stateEstimate.x,stateEstimate.y,stateEstimate.z,controller.cmd_thrust,controller.cmd_roll,controller.cmd_pitch,controller.cmd_yaw,controller.r_roll,controller.r_pitch,controller.r_yaw,controller.accelz,controller.actuatorThrust,controller.roll,controller.pitch,controller.yaw,controller.rollRate,controller.pitchRate,controller.yawRate,controller.ctr_yaw
0.0,0.0029754433780908585,0.011643607169389725,0.00010055934399133548,0.0,0.0,0.0,0.0,-0.0017685153288766742,-0.00257710344158113,0.0006946766516193748,0.9996209740638733,0.0,0.0,0.0,-1.9664783477783203,2.561396598815918,4.460389614105225,355.9364929199219,0
9.889000000001033,0.0029473109170794487,0.011621483601629734,7.560497033409774e-05,0.0,0.0,0.0,0.0,-0.0024553502444177866,-0.0008580193971283734,0.0032546669244766235,0.9981676936149597,0.0,0.0,0.0,-1.963503360748291,2.562373399734497,4.45289421081543,355.39801025390625,0
19.806000000000495,0.0029027557466179132,0.011602467857301235,7.595392526127398e-05,0.0,0.0,0.0,0.0,-0.0007639831746928394,0.004219320137053728,-0.0016166396671906114,0.9978014230728149,0.0,0.0,0.0,-1.9606120586395264,2.5616166591644287,4.44726037979126,354.8746643066406,0
29.712000000001353,0.003009435487911105,0.011663484387099743,0.00016279715055134147,0.0,0.0,0.0,0.0,0.0027415319345891476,0.00011891996109625325,-0.00033259514020755887,1.000321626663208,0.0,0.0,0.0,-1.9588170051574707,2.566225290298462,4.437103271484375,354.54974365234375,0
39.63000000000102,0.0029675979167222977,0.011646761558949947,0.00016657372179906815,0.0,0.0,0.0,0.0,-0.00027888751355931163,2.9714552510995418e-05,0.0014915873762220144,0.9973524808883667,0.0,0.0,0.0,-1.9568053483963013,2.5647776126861572,4.435102939605713,354.1856689453125,0
49.533000000001266,0.0030660403426736593,0.01164438296109438,0.00018214777810499072,0.0,0.0,0.0,0.0,0.0024957580026239157,0.002608206821605563,-0.0035184610169380903,0.9982782602310181,0.0,0.0,0.0,-1.9616050720214844,2.563016414642334,4.444656848907471,355.0544128417969,0
59.452000000001135,0.003026009304448962,0.011626001447439194,0.00018401793204247952,0.0,0.0,0.0,0.0,-0.000904484186321497,0.0011968245962634683,-0.000630079535767436,0.9995666146278381,0.0,0.0,0.0,-1.9596059322357178,2.5567286014556885,4.441014289855957,354.69256591796875,0
69.35900000000038,0.0030372512992471457,0.01167589146643877,0.00017599623242858797,0.0,0.0,0.0,0.0,0.0005739459302276373,0.0006206014659255743,0.0001941655937116593,1.0002409219741821,0.0,0.0,0.0,-1.9634523391723633,2.5602569580078125,4.4380598068237305,355.3887939453125,0
79.28400000000147,0.002996851457282901,0.011657705530524254,0.00017593330994714051,0.0,0.0,0.0,0.0,-0.0005663462798111141,-0.0002576361002866179,-0.0008078372338786721,1.0010735988616943,0.0,0.0,0.0,-1.9623185396194458,2.556037187576294,4.425159454345703,355.18359375,0
89.1770000000015,0.0029806802049279213,0.011678685434162617,0.000153680142830126,0.0,0.0,0.0,0.0,-0.0026657686103135347,0.004051398020237684,0.0028773630037903786,1.000856876373291,0.0,0.0,0.0,-1.9677671194076538,2.5695459842681885,4.421620845794678,356.1697692871094,0
99.09600000000137,0.0029377341270446777,0.011658950708806515,0.00015309521404560655,0.0,0.0,0.0,0.0,-0.001434676698409021,-0.0022342114243656397,0.0008099828264676034,1.0018826723098755,0.0,0.0,0.0,-1.9652148485183716,2.5655927658081055,4.420660495758057,355.7077941894531,0
109.00500000000102,0.003020069096237421,0.01164012961089611,0.0002001477259909734,0.0,0.0,0.0,0.0,-0.0011663836194202304,0.0009159483015537262,0.004021981731057167,1.000313639640808,0.0,0.0,0.0,-1.9625941514968872,2.5713555812835693,4.408932209014893,355.2334899902344,0
118.92100000000028,0.0029788529500365257,0.011618180200457573,0.00020535818475764245,0.0,0.0,0.0,0.0,0.001808124128729105,0.001647874480113387,-0.0017784705851227045,0.9997557401657104,0.0,0.0,0.0,-1.9602466821670532,2.5745763778686523,4.411816596984863,354.80853271484375,0
128.82200000000012,0.00299280253238976,0.011636244133114815,0.0001370144309476018,0.0,0.0,0.0,0.0,-0.0010761789744719863,-0.00579346576705575,0.0017789164558053017,1.000233769416809,0.0,0.0,0.0,-1.9582016468048096,2.5747811794281006,4.392643928527832,354.4383850097656,0
138.7440000000006,0.002952824579551816,0.011614763177931309,0.00013709551421925426,0.0,0.0,0.0,0.0,0.00023180879361461848,0.0004628441238310188,0.002333328127861023,0.9986382126808167,0.0,0.0,0.0,-1.955912709236145,2.570525884628296,4.388885498046875,354.0240783691406,0
148.64600000000064,0.0029334351420402527,0.011600043624639511,9.842099098023027e-05,0.0,0.0,0.0,0.0,-0.002828564727678895,-0.00011146361794089898,0.0011779824271798134,0.9989718198776245,0.0,0.0,0.0,-1.9597779512405396,2.5699069499969482,4.397418975830078,354.72369384765625,0
158.56900000000132,0.002892762655392289,0.011574934236705303,9.417058026883751e-05,0.0,0.0,0.0,0.0,0.00283258524723351,0.0022226835135370493,7.767149509163573e-05,0.9999739527702332,0.0,0.0,0.0,-1.957075595855713,2.574212074279785,4.394636631011963,354.2345886230469,0
168.47000000000116,0.0030241585336625576,0.011629246175289154,0.00015450915088877082,0.0,0.0,0.0,0.0,0.0009805825538933277,0.0019203395349904895,0.0005306323291733861,0.9969226717948914,0.0,0.0,0.0,-1.9639708995819092,2.5789191722869873,4.421581268310547,355.4826354980469,0
178.38900000000103,0.0030192602425813675,0.011635562404990196,0.0001842702185967937,0.0,0.0,0.0,0.0,-0.0024323121178895235,-0.0025700663682073355,-0.001037456328049302,0.997810959815979,0.0,0.0,0.0,-1.9741958379745483,2.575266122817993,4.415703296661377,357.3333740234375,0
188.29300000000148,0.0030181920155882835,0.011655866168439388,0.00014562532305717468,0.0,0.0,0.0,0.0,0.0019931423012167215,0.00036254964652471244,0.000516121624968946,0.9999375939369202,0.0,0.0,0.0,-1.9791332483291626,2.588067054748535,4.423292636871338,358.22705078125,0
198.22400000000016,0.002982355887070298,0.011636121198534966,0.00013975598267279565,0.0,0.0,0.0,0.0,0.0010889713885262609,-0.0007724880706518888,-0.001177642261609435,0.9997300505638123,0.0,0.0,0.0,-1.977906346321106,2.5882480144500732,4.4218668937683105,358.0049743652344,0
208.11599999999999,0.002965817227959633,0.011636965908110142,0.0001080477304640226,0.0,0.0,0.0,0.0,-0.0026500404346734285,0.0012922616442665458,-0.003508961293846369,0.9988043904304504,0.0,0.0,0.0,-1.9759098291397095,2.584092855453491,4.410662651062012,357.64361572265625,0
218.04200000000128,0.003061749506741762,0.01159402821213007,0.0001596353540662676,0.0,0.0,0.0,0.0,0.0009891623631119728,-4.682797589339316e-05,-0.0011760583147406578,0.9999702572822571,0.0,0.0,0.0,-1.9751309156417847,2.5795743465423584,4.413881301879883,357.50262451171875,0
227.9360000000015,0.003054065629839897,0.011625422164797783,0.0001365745993098244,0.0,0.0,0.0,0.0,0.0005739020998589694,0.0008118839468806982,0.001603267970494926,0.9990198016166687,0.0,0.0,0.0,-1.9734240770339966,2.574861764907837,4.3955979347229,357.19366455078125,0
237.86000000000058,0.0030939853750169277,0.011620133183896542,0.00017127979663200676,0.0,0.0,0.0,0.0,0.002258117776364088,-0.0015244639944285154,0.0010504185920581222,1.0004642009735107,0.0,0.0,0.0,-1.9799724817276,2.571821928024292,4.405360221862793,358.37896728515625,0
247.75900000000001,0.0031094991136342287,0.011658705770969391,0.00011662185715977103,0.0,0.0,0.0,0.0,0.0001037319379975088,0.0038419009651988745,0.0027997109573334455,0.999928891658783,0.0,0.0,0.0,-1.9774467945098877,2.5634422302246094,4.401414394378662,357.92181396484375,0
257.6770000000015,0.0030733109451830387,0.011636830866336823,0.00011028088920284063,0.0,0.0,0.0,0.0,0.0017306101508438587,-0.0003291510511189699,0.003271894296631217,0.9997758865356445,0.0,0.0,0.0,-1.9753414392471313,2.5611817836761475,4.388948917388916,357.54071044921875,0
267.58200000000033,0.003034536726772785,0.011614073999226093,0.00010388631199020892,0.0,0.0,0.0,0.0,-0.001637894194573164,-0.005030738189816475,0.001541032805107534,0.9994505047798157,0.0,0.0,0.0,-1.973170280456543,2.5549228191375732,4.380697727203369,357.1477355957031,0
277.505000000001,0.0030430969782173634,0.011660559102892876,4.379009624244645e-05,0.0,0.0,0.0,0.0,-0.0015692992601543665,-0.0011660833843052387,-0.00010805983765749261,0.9981725811958313,0.0,0.0,0.0,-1.9695647954940796,2.550952434539795,4.379655838012695,356.4951477050781,0
287.40900000000147,0.003001168603077531,0.01164297666400671,3.27380039379932e-05,0.0,0.0,0.0,0.0,0.0011719840113073587,-0.0007569591980427504,-0.00080617651110515,1.0004643201828003,0.0,0.0,0.0,-1.9673267602920532,2.551657199859619,4.376941680908203,356.0900573730469,0
297.3160000000007,0.002988193416967988,0.011651027016341686,-2.588221468613483e-05,0.0,0.0,0.0,0.0,0.002212761202827096,0.00393195915967226,-0.002749625826254487,1.000654697418213,0.0,0.0,0.0,-1.9664324522018433,2.544312000274658,4.37283182144165,355.9281921386719,0
307.22700000000077,0.0029431055299937725,0.011633649468421936,-4.1747032810235396e-05,0.0,0.0,0.0,0.0,0.0015091110253706574,0.005025514867156744,-0.000976670766249299,0.99957275390625,0.0,0.0,0.0,-1.9641000032424927,2.5458314418792725,4.364941120147705,355.5060119628906,0
317.14000000000124,0.002905196975916624,0.011681544594466686,-4.653409996535629e-05,0.0,0.0,0.0,0.0,-0.002402246929705143,-0.004288745112717152,0.0036957338452339172,0.999359130859375,0.0,0.0,0.0,-1.963403344154358,2.539224147796631,4.352830410003662,355.3799133300781,0
327.0500000000011,0.002854089718312025,0.011666805483400822,-6.142373604234308e-05,0.0,0.0,0.0,0.0,-0.0008957753307186067,-0.0005753376171924174,0.0012785495491698384,0.9995028972625732,0.0,0.0,0.0,-1.9614976644515991,2.5428686141967773,4.335081577301025,355.03497314453125,0
336.96900000000096,0.00284292153082788,0.011752516962587833,-9.73249989328906e-05,0.0,0.0,0.0,0.0,0.0022643946576863527,-5.571853762376122e-06,-0.0047605279833078384,1.0007816553115845,0.0,0.0,0.0,-1.9647526741027832,2.585615634918213,4.358255863189697,355.6241455078125,0
346.8770000000004,0.002790836850181222,0.011746367439627647,-0.00011457655637059361,0.0,0.0,0.0,0.0,6.537365698022768e-05,-0.0004202565469313413,-0.0012034833198413253,1.0017948150634766,0.0,0.0,0.0,-1.9635205268859863,2.5870370864868164,4.357454776763916,355.401123046875,0
356.78499999999985,0.0027736977208405733,0.01178541500121355,-0.00016091190627776086,0.0,0.0,0.0,0.0,-0.0017135110683739185,-0.000874855846632272,0.0029944058042019606,1.0001899003982544,0.0,0.0,0.0,-1.9617042541503906,2.5849409103393555,4.343533039093018,355.0723876953125,0
366.6950000000015,0.002720824908465147,0.011781791225075722,-0.00017874041805043817,0.0,0.0,0.0,0.0,-0.0010016049491241574,-0.0035817690659314394,-0.0005236727301962674,0.9976492524147034,0.0,0.0,0.0,-1.9590227603912354,2.5813004970550537,4.346086502075195,354.5870361328125,0
376.60599999999977,0.0027058643754571676,0.01181755494326353,-0.00022829340014141053,0.0,0.0,0.0,0.0,-0.0013477341271936893,-0.001910575432702899,0.0005033360794186592,0.9992865324020386,0.0,0.0,0.0,-1.9570305347442627,2.5835464000701904,4.337734222412109,354.2264099121094,0
386.52200000000084,0.002652286784723401,0.011818249709904194,-0.00024989404482766986,0.0,0.0,0.0,0.0,-0.0015642190119251609,0.0023389325942844152,0.0015468198107555509,0.998290479183197,0.0,0.0,0.0,-1.9550656080245972,2.5795235633850098,4.34268856048584,353.87078857421875,0
396.4340000000011,0.0026366394013166428,0.01185529213398695,-0.00030232081189751625,0.0,0.0,0.0,0.0,0.0014560375129804015,-0.0025479034520685673,0.0026696391869336367,1.0002288818359375,0.0,0.0,0.0,-1.9598006010055542,2.6016483306884766,4.3644185066223145,354.727783203125,0
406.34400000000096,0.002581150969490409,0.01185662392526865,-0.0003281345998402685,0.0,0.0,0.0,0.0,0.002144548110663891,-0.003973725717514753,0.0032535865902900696,0.9992198348045349,0.0,0.0,0.0,-1.9576339721679688,2.599946975708008,4.368474960327148,354.33563232421875,0
416.2520000000004,0.0025288548786193132,0.011858467943966389,-0.00036462562275119126,0.0,0.0,0.0,0.0,-0.0005642690230160952,8.257438457803801e-05,-0.0011105153243988752,0.9985544681549072,0.0,0.0,0.0,-1.9545477628707886,2.593174934387207,4.373387813568115,353.77703857421875,0
426.16200000000026,0.0024716281332075596,0.011858128942549229,-0.00039255197043530643,0.0,0.0,0.0,0.0,5.87331624046783e-06,-0.0009131278493441641,0.0015952246030792594,0.999349057674408,0.0,0.0,0.0,-1.9513471126556396,2.592923164367676,4.3777618408203125,353.19769287109375,0
436.0750000000007,0.0023714995477348566,0.011899682693183422,-0.000450065650511533,0.0,0.0,0.0,0.0,0.00048445365973748267,-0.0012673037126660347,-0.0016504349187016487,1.0005234479904175,0.0,0.0,0.0,-1.955498218536377,2.604497194290161,4.3758134841918945,353.9490966796875,0
445.9850000000006,0.0023714995477348566,0.011899682693183422,-0.000450065650511533,0.0,0.0,0.0,0.0,-0.0010830292012542486,-0.0019881436601281166,-0.00021001571440137923,0.9989592432975769,0.0,0.0,0.0,-1.955498218536377,2.604497194290161,4.3758134841918945,353.9490966796875,0
455.90099999999984,0.0022330936044454575,0.011895435862243176,-0.0004986135754734278,0.0,0.0,0.0,0.0,-0.003342753741890192,0.0021352856419980526,-0.0012340899556875229,0.9998933672904968,0.0,0.0,0.0,-1.9621198177337646,2.5984678268432617,4.370009899139404,355.1475830078125,0
465.8090000000011,0.0022330936044454575,0.011895435862243176,-0.0004986135754734278,0.0,0.0,0.0,0.0,-0.0010226351441815495,-0.0016030383994802833,0.0013202941045165062,1.00026273727417,0.0,0.0,0.0,-1.9621198177337646,2.5984678268432617,4.370009899139404,355.1475830078125,0
475.72500000000036,0.0021079103462398052,0.011890976689755917,-0.0005571258952841163,0.0,0.0,0.0,0.0,0.0023221068549901247,-0.004273565951734781,0.001829349435865879,1.0010448694229126,0.0,0.0,0.0,-1.9576178789138794,2.5981435775756836,4.36322546005249,354.33270263671875,0
485.6329999999998,0.0021079103462398052,0.011890976689755917,-0.0005571258952841163,0.0,0.0,0.0,0.0,0.0005891509936191142,0.0023089481983333826,0.0024691764265298843,1.002272129058838,0.0,0.0,0.0,-1.9576178789138794,2.5981435775756836,4.36322546005249,354.33270263671875,0
495.5490000000009,0.0019705684389919043,0.011882016435265541,-0.0006114101270213723,0.0,0.0,0.0,0.0,-0.0009727571159601212,-0.003307840321213007,-4.089244976057671e-05,1.0017035007476807,0.0,0.0,0.0,-1.9540385007858276,2.5966193675994873,4.354072570800781,353.68487548828125,0
505.46399999999994,0.0019705684389919043,0.011882016435265541,-0.0006114101270213723,0.0,0.0,0.0,0.0,-0.0056418776512146,-0.00035215000389143825,0.003511657239869237,1.001851201057434,0.0,0.0,0.0,-1.9540385007858276,2.5966193675994873,4.354072570800781,353.68487548828125,0
515.3730000000014,0.0018922077724710107,0.011874796822667122,-0.0006376294186338782,0.0,0.0,0.0,0.0,-0.0016246135346591473,-0.0019511213758960366,0.00028782073059119284,0.9991121888160706,0.0,0.0,0.0,-1.9524532556533813,2.598289728164673,4.357308387756348,353.3979187011719,0
525.2930000000015,0.0018189019756391644,0.011867682449519634,-0.0006601897766813636,0.0,0.0,0.0,0.0,0.0009374305373057723,0.00044794849236495793,0.0012039137072861195,1.0014129877090454,0.0,0.0,0.0,-1.9486099481582642,2.6004934310913086,4.3589982986450195,352.7022705078125,0
535.1970000000001,0.0017431327141821384,0.011859728954732418,-0.0006825362797826529,0.0,0.0,0.0,0.0,0.0008346102549694479,0.002112650079652667,-0.0013039855984970927,1.0013717412948608,0.0,0.0,0.0,-1.9461088180541992,2.602933168411255,4.356447219848633,352.2496032714844,0
545.1090000000004,0.0016649001045152545,0.011850440874695778,-0.0007039895281195641,0.0,0.0,0.0,0.0,0.002605921123176813,-0.001156768063083291,0.0007439933251589537,0.9996771216392517,0.0,0.0,0.0,-1.943487524986267,2.591198682785034,4.344329357147217,351.77508544921875,0
555.0200000000004,0.0015849932096898556,0.011839873157441616,-0.0007242369465529919,0.0,0.0,0.0,0.0,-0.0001988633448490873,0.006328405812382698,-0.001313332817517221,0.9991366267204285,0.0,0.0,0.0,-1.941744089126587,2.587578296661377,4.3479838371276855,351.45953369140625,0
564.9279999999999,0.0015034432290121913,0.011828885413706303,-0.000744468648917973,0.0,0.0,0.0,0.0,0.0019249001052230597,0.0027143610641360283,0.0007047487888485193,0.9992148280143738,0.0,0.0,0.0,-1.9405213594436646,2.5804898738861084,4.343860626220703,351.23822021484375,0
574.8430000000008,0.001420099986717105,0.011817892082035542,-0.0007654094370082021,0.0,0.0,0.0,0.0,0.0011668272782117128,0.0012180584017187357,0.0022057760506868362,0.9994052052497864,0.0,0.0,0.0,-1.9392948150634766,2.5761146545410156,4.3273797035217285,351.0162048339844,0
584.7510000000002,0.0013357388088479638,0.011806115508079529,-0.0007869029650464654,0.0,0.0,0.0,0.0,-0.0010491976281628013,-0.0046173990704119205,-0.0016521300422027707,0.9992057085037231,0.0,0.0,0.0,-1.9355002641677856,2.5681450366973877,4.317998886108398,350.32940673828125,0
594.6620000000003,0.0012497842544689775,0.01179321575909853,-0.0008086592424660921,0.0,0.0,0.0,0.0,-0.0002980560529977083,-0.004257979802787304,0.006630634889006615,0.9988155364990234,0.0,0.0,0.0,-1.9332845211029053,2.570436477661133,4.324150562286377,349.9283447265625,0
604.5790000000015,0.0011601228034123778,0.011779389344155788,-0.0008309822296723723,0.0,0.0,0.0,0.0,0.0031972010619938374,0.006116804666817188,-0.0028101394418627024,1.0014070272445679,0.0,0.0,0.0,-1.9316039085388184,2.569059133529663,4.318465709686279,349.6241455078125,0
614.4950000000008,0.001065958640538156,0.011765033937990665,-0.0008536331006325781,0.0,0.0,0.0,0.0,-0.0010195192880928516,0.0010529235005378723,0.00048406547284685075,1.002962589263916,0.0,0.0,0.0,-1.9283193349838257,2.559077262878418,4.318500995635986,349.0296325683594,0
624.4000000000015,0.0009683404350653291,0.01175060123205185,-0.0008749255212023854,0.0,0.0,0.0,0.0,0.00216991500928998,0.0012924207840114832,-0.002039788058027625,1.0009433031082153,0.0,0.0,0.0,-1.9272265434265137,2.5627779960632324,4.309168338775635,348.8318176269531,0
634.3100000000013,0.0008681251783855259,0.011735506355762482,-0.000893876189365983,0.0,0.0,0.0,0.0,0.0013411609688773751,0.0019441301701590419,0.002798291854560375,1.0003541707992554,0.0,0.0,0.0,-1.9254133701324463,2.556992769241333,4.303298473358154,348.503662109375,0
644.2180000000008,0.0007652604253962636,0.011718579567968845,-0.0009112702100537717,0.0,0.0,0.0,0.0,-0.0020786768291145563,0.00032710685627534986,-0.0006946463836356997,1.0003632307052612,0.0,0.0,0.0,-1.923843502998352,2.5575366020202637,4.302061557769775,348.219482421875,0
654.1310000000012,0.0006598985055461526,0.011700735427439213,-0.0009280608501285315,0.0,0.0,0.0,0.0,0.0001482311199652031,-0.0015096062561497092,-0.0019286712631583214,0.9985623955726624,0.0,0.0,0.0,-1.921175479888916,2.550590991973877,4.301238059997559,347.736572265625,0
664.0420000000013,0.0005528336041606963,0.01168392039835453,-0.0009447936317883432,0.0,0.0,0.0,0.0,0.0037130992859601974,0.0009436914115212858,0.000658524630125612,1.0009509325027466,0.0,0.0,0.0,-1.9192949533462524,2.555481195449829,4.302064895629883,347.396240234375,0
673.9540000000015,0.0004448145045898855,0.011667592450976372,-0.0009618250769563019,0.0,0.0,0.0,0.0,-0.00322360685095191,-0.0010842604096978903,0.0011984676821157336,1.0009251832962036,0.0,0.0,0.0,-1.9179633855819702,2.549406051635742,4.287101745605469,347.1551818847656,0
683.8580000000002,0.00033616783912293613,0.011649967171251774,-0.000978298718109727,0.0,0.0,0.0,0.0,0.00461571803316474,0.0011388567509129643,0.0030402266420423985,1.0000889301300049,0.0,0.0,0.0,-1.9147727489471436,2.542846441268921,4.28100061416626,346.5776672363281,0
693.7920000000013,0.00022672259365208447,0.011631143279373646,-0.0009937117574736476,0.0,0.0,0.0,0.0,-0.002912825671955943,-0.0011042066616937518,-0.001020813942886889,1.0002617835998535,0.0,0.0,0.0,-1.9137448072433472,2.535799026489258,4.276313304901123,346.3916320800781,0
703.6880000000001,0.00011547675967449322,0.011611451394855976,-0.0010086644906550646,0.0,0.0,0.0,0.0,0.0003642603987827897,-0.0006243247771635652,-0.00030387102742679417,1.0003634691238403,0.0,0.0,0.0,-1.9122205972671509,2.5277578830718994,4.274295330047607,346.11572265625,0
713.5990000000002,1.1703086784109473e-06,0.011590706184506416,-0.0010232095373794436,0.0,0.0,0.0,0.0,0.00676361471414566,-0.000345084466971457,0.000492074410431087,1.000170111656189,0.0,0.0,0.0,-1.9106987714767456,2.5283632278442383,4.263538360595703,345.8403015136719,0
723.5040000000008,-0.00011647284554783255,0.011568399146199226,-0.0010373946279287338,0.0,0.0,0.0,0.0,0.0022177542559802532,0.004010251723229885,0.0005752990837208927,1.0019798278808594,0.0,0.0,0.0,-1.9095450639724731,2.525275707244873,4.255486011505127,345.6314392089844,0
733.4250000000011,-0.00023626440088264644,0.011543598026037216,-0.0010508757550269365,0.0,0.0,0.0,0.0,0.0007566309650428593,-0.0014215507544577122,-0.001228989684022963,1.002607822418213,0.0,0.0,0.0,-1.906725287437439,2.5203075408935547,4.248624324798584,345.1210632324219,0
743.3320000000003,-0.0003577916359063238,0.011516640894114971,-0.0010623926063999534,0.0,0.0,0.0,0.0,0.0007584182312712073,-0.002615917706862092,-0.002585040172562003,1.0014548301696777,0.0,0.0,0.0,-1.9049394130706787,2.521712303161621,4.242414951324463,344.7978210449219,0
753.2470000000012,-0.00048141824663616717,0.011488277465105057,-0.0010712961666285992,0.0,0.0,0.0,0.0,0.0006271866150200367,0.0012926625786349177,-0.0036516599357128143,0.9998067617416382,0.0,0.0,0.0,-1.9023475646972656,2.519111394882202,4.236321926116943,344.3287353515625,0
763.1580000000013,-0.0006065682973712683,0.011458653956651688,-0.0010786519851535559,0.0,0.0,0.0,0.0,-0.0003463586326688528,0.003437020815908909,-0.0007953313179314137,0.9983857870101929,0.0,0.0,0.0,-1.9016852378845215,2.517024040222168,4.232304096221924,344.2088317871094,0
773.0720000000001,-0.0007335940026678145,0.011427871882915497,-0.0010860258480533957,0.0,0.0,0.0,0.0,-0.0018107063369825482,-0.0008236851426772773,-0.00503837876021862,0.9984912276268005,0.0,0.0,0.0,-1.9004015922546387,2.51356840133667,4.224908828735352,343.9764709472656,0
782.978000000001,-0.0008629077929072082,0.011395779438316822,-0.0010945689864456654,0.0,0.0,0.0,0.0,-0.003915047738701105,0.001478767255321145,0.004990000743418932,0.9989829659461975,0.0,0.0,0.0,-1.8983405828475952,2.5111801624298096,4.220772743225098,343.6033935546875,0
792.893,-0.0011273699346929789,0.01132666040211916,-0.0011151693761348724,0.0,0.0,0.0,0.0,0.00039803460822440684,-0.0028767164330929518,-0.0031825427431613207,0.9997655153274536,0.0,0.0,0.0,-1.8936958312988281,2.5131351947784424,4.2055439949035645,342.7627258300781,0
802.7980000000007,-0.0011273699346929789,0.01132666040211916,-0.0011151693761348724,0.0,0.0,0.0,0.0,-0.0009228352573700249,-0.0012409870978444815,-0.0002501365088392049,1.0002222061157227,0.0,0.0,0.0,-1.8936958312988281,2.5131351947784424,4.2055439949035645,342.7627258300781,0
812.7220000000016,-0.0013986878329887986,0.011251203715801239,-0.0011359346099197865,0.0,0.0,0.0,0.0,-0.0013669074978679419,0.0019251888152211905,-0.0006710007437504828,1.0003681182861328,0.0,0.0,0.0,-1.8897194862365723,2.5126633644104004,4.2143874168396,342.0429992675781,0
822.6200000000008,-0.0013986878329887986,0.011251203715801239,-0.0011359346099197865,0.0,0.0,0.0,0.0,0.0009458718704991043,0.0017957391683012247,0.003349380102008581,1.003069519996643,0.0,0.0,0.0,-1.8897194862365723,2.5126633644104004,4.2143874168396,342.0429992675781,0
832.5420000000013,-0.0016768809873610735,0.011172494851052761,-0.001151696895249188,0.0,0.0,0.0,0.0,-0.0025130538269877434,0.001531146583147347,-0.0018209577538073063,1.0027248859405518,0.0,0.0,0.0,-1.8855739831924438,2.5168099403381348,4.202535629272461,341.29266357421875,0
842.4390000000003,-0.0016768809873610735,0.011172494851052761,-0.001151696895249188,0.0,0.0,0.0,0.0,-0.00039480102714151144,0.0006069190567359328,-0.005577477626502514,1.000393033027649,0.0,0.0,0.0,-1.8855739831924438,2.5168099403381348,4.202535629272461,341.29266357421875,0
852.3550000000014,-0.0018326799618080258,0.011128192767500877,-0.0011555457022041082,0.0,0.0,0.0,0.0,0.0032844978850334883,-0.0038420516066253185,0.002172766486182809,0.9990420341491699,0.0,0.0,0.0,-1.884655475616455,2.5151684284210205,4.190392971038818,341.12640380859375,0
862.2660000000014,-0.001976408064365387,0.011086725629866123,-0.0011580277932807803,0.0,0.0,0.0,0.0,-0.0006983782513998449,0.00043582782382145524,-0.0021548857912421227,1.000382900238037,0.0,0.0,0.0,-1.8835705518722534,2.512863874435425,4.188486576080322,340.92999267578125,0
872.1869999999999,-0.002123503480106592,0.011044333688914776,-0.0011608600616455078,0.0,0.0,0.0,0.0,-0.0007415841682814062,-0.0012492019450291991,-0.0014519591350108385,1.0002481937408447,0.0,0.0,0.0,-1.8804011344909668,2.5043702125549316,4.183552265167236,340.3563232421875,0
882.0830000000005,-0.002273784251883626,0.011000978760421276,-0.0011637242278084159,0.0,0.0,0.0,0.0,0.0007813204429112375,0.00455883052200079,0.002342845546081662,0.9988701939582825,0.0,0.0,0.0,-1.8784306049346924,2.5029022693634033,4.180599689483643,339.9996643066406,0
892.0079999999998,-0.0024262273218482733,0.010956760495901108,-0.0011663120239973068,0.0,0.0,0.0,0.0,0.004210511688143015,0.003078020876273513,0.003869097214192152,0.998711109161377,0.0,0.0,0.0,-1.8767224550247192,2.501495361328125,4.170464992523193,339.6905212402344,0
901.9070000000011,-0.0025801334995776415,0.010910813696682453,-0.0011695042485371232,0.0,0.0,0.0,0.0,0.002740806434303522,0.00040260853711515665,-0.0009808740578591824,0.9991381168365479,0.0,0.0,0.0,-1.8733086585998535,2.497511863708496,4.159149169921875,339.0726013183594,0
911.8330000000005,-0.002736068097874522,0.01086228433996439,-0.0011737310560420156,0.0,0.0,0.0,0.0,-0.0019046172965317965,0.00196660403162241,0.0011495067737996578,0.9989269375801086,0.0,0.0,0.0,-1.870707631111145,2.4875807762145996,4.157173156738281,338.601806640625,0
921.7290000000012,0.0025533977895975113,0.010152018629014492,0.0028028697706758976,0.0,0.0,0.0,0.0,-0.001563195837661624,0.0010796644492074847,-0.0015734767075628042,1.0003738403320312,0.0,0.0,0.0,-1.9002997875213623,2.5218207836151123,4.523487091064453,343.9580383300781,0
931.6670000000013,0.002999733667820692,0.011701122857630253,-2.7848427635035478e-05,0.0,0.0,0.0,0.0,-0.0004983650869689882,0.0025386058259755373,-0.0011138870613649487,0.999925434589386,0.0,0.0,0.0,-1.9103378057479858,2.6892337799072266,4.6200737953186035,345.77496337890625,0
941.5540000000001,0.0030270745046436787,0.011702995747327805,3.256903437431902e-05,0.0,0.0,0.0,0.0,0.0005016023060306907,0.0029294255655258894,-0.003755004610866308,1.0012308359146118,0.0,0.0,0.0,-1.9299290180206299,2.695005178451538,4.605024337768555,349.32098388671875,0
951.4710000000014,0.003008494386449456,0.011690188199281693,3.387998731341213e-05,0.0,0.0,0.0,0.0,-0.00016777509881649166,-0.00012023226008750498,0.0030698494520038366,0.9999352097511292,0.0,0.0,0.0,-1.9274041652679443,2.6906750202178955,4.593807697296143,348.8639831542969,0
961.3760000000002,0.0029890851583331823,0.011677006259560585,3.585078229662031e-05,0.0,0.0,0.0,0.0,0.0016085098031908274,-0.0004919117782264948,-0.0013020695187151432,1.0006051063537598,0.0,0.0,0.0,-1.9258410930633545,2.6927030086517334,4.596249103546143,348.5810546875,0
971.3110000000015,0.0029748280066996813,0.011682229116559029,3.729802119778469e-05,0.0,0.0,0.0,0.0,-0.0008995877578854561,-0.001015902729704976,0.0021250625140964985,1.0013724565505981,0.0,0.0,0.0,-1.9303489923477173,2.695282459259033,4.583706378936768,349.3970031738281,0
981.1970000000001,0.0029544883873313665,0.011670236475765705,4.078855999978259e-05,0.0,0.0,0.0,0.0,0.005537581630051136,0.0022151574958115816,-0.002676034579053521,1.0001205205917358,0.0,0.0,0.0,-1.9290326833724976,2.692978620529175,4.580791473388672,349.1587219238281,0
991.1190000000006,0.0029146834276616573,0.011627950705587864,8.830623846733943e-05,0.0,0.0,0.0,0.0,-0.002988884225487709,0.0044899373315274715,-0.0033845664002001286,1.0002615451812744,0.0,0.0,0.0,-1.9404361248016357,2.681058883666992,4.5786333084106445,351.2227783203125,0
1001.0210000000006,0.003071788465604186,0.011582938954234123,0.00022149681171867996,0.0,0.0,0.0,0.0,0.0025963811203837395,-0.004984840750694275,-0.0009766400326043367,1.0002796649932861,0.0,0.0,0.0,-1.9486690759658813,2.663884162902832,4.6114301681518555,352.7129821777344,0
1010.9400000000005,0.0030437300447374582,0.01154467836022377,0.00024731247685849667,0.0,0.0,0.0,0.0,-0.0006874322425574064,-0.001193502452224493,0.0019723621662706137,1.0012145042419434,0.0,0.0,0.0,-1.9582138061523438,2.6660687923431396,4.606333255767822,354.44061279296875,0
1020.8430000000008,0.003027459839358926,0.011525312438607216,0.0002638873993419111,0.0,0.0,0.0,0.0,-0.001382550923153758,-0.0016377059509977698,-0.00034635624615475535,0.999690055847168,0.0,0.0,0.0,-1.9553099870681763,2.6605000495910645,4.606936454772949,353.9150085449219,0
1030.773000000001,0.003053574822843075,0.011588786728680134,0.00023568238248117268,0.0,0.0,0.0,0.0,0.000933215138502419,-0.002679352415725589,-0.0007737065316177905,0.9999927282333374,0.0,0.0,0.0,-1.960808515548706,2.680497169494629,4.617828845977783,354.9102783203125,0
1040.666000000001,0.0030350969173014164,0.011571344919502735,0.00025051183183677495,0.0,0.0,0.0,0.0,-0.0023410667199641466,-0.00016552179295103997,-0.0008517738315276802,0.9986000061035156,0.0,0.0,0.0,-1.958475947380066,2.682927370071411,4.61934757232666,354.488037109375,0
1050.5920000000006,0.003040070878341794,0.011570535600185394,0.00021186890080571175,0.0,0.0,0.0,0.0,0.003075965913012624,-0.0018364464631304145,0.00011275999713689089,1.0002081394195557,0.0,0.0,0.0,-1.964308261871338,2.6847901344299316,4.620396614074707,355.5437316894531,0
1060.4880000000012,0.0030814434867352247,0.011554219760000706,0.000273491779807955,0.0,0.0,0.0,0.0,0.000346923217875883,-0.0015060569858178496,-0.0014918697997927666,1.0006765127182007,0.0,0.0,0.0,-1.9679217338562012,2.679901361465454,4.634679794311523,356.19775390625,0
1070.4120000000003,0.003132362151518464,0.011620702221989632,0.00020752032287418842,0.0,0.0,0.0,0.0,-0.002565383445471525,-0.0010361089371144772,-0.003819101955741644,0.99849933385849,0.0,0.0,0.0,-1.9650750160217285,2.6726486682891846,4.6372456550598145,355.6824951171875,0
1080.3100000000013,0.003115581814199686,0.011631454341113567,0.0002362710511079058,0.0,0.0,0.0,0.0,-0.002594191348180175,-0.0056538572534918785,0.002996559953317046,1.0008108615875244,0.0,0.0,0.0,-1.9807474613189697,2.679342031478882,4.628722667694092,358.51922607421875,0
1090.2390000000014,0.0031503925565630198,0.01169502828270197,0.00019098844495601952,0.0,0.0,0.0,0.0,-0.0002928719623014331,0.0012806951999664307,0.00041747617069631815,0.9993839263916016,0.0,0.0,0.0,-1.985484004020691,2.6930203437805176,4.644289970397949,359.3765563964844,0
1100.143,0.0031283574644476175,0.011679179966449738,0.00019552433514036238,0.0,0.0,0.0,0.0,0.001903658383525908,-0.004865206778049469,0.002530420431867242,0.9994521141052246,0.0,0.0,0.0,-1.9827593564987183,2.692906618118286,4.64094352722168,358.8833923339844,0
1110.062,0.003112106118351221,0.01170337200164795,0.00017274136189371347,0.0,0.0,0.0,0.0,0.00042149669025093317,-0.002442689146846533,-0.004493938758969307,1.0001846551895142,0.0,0.0,0.0,-1.9852153062820435,2.6896772384643555,4.647148609161377,359.3279113769531,0
1119.9560000000001,0.003086267737671733,0.011740538291633129,0.000182839430635795,0.0,0.0,0.0,0.0,-0.0011055459035560489,-0.0013148144353181124,-0.002647841116413474,0.9998566508293152,0.0,0.0,0.0,-1.9852153062820435,2.6896772384643555,4.647148609161377,359.3279113769531,0
1129.8780000000006,0.0030500588472932577,0.011685083620250225,0.00013888755347579718,0.0,0.0,0.0,0.0,0.00015203107614070177,2.2255858311837073e-06,-0.0029565803706645966,0.997419536113739,0.0,0.0,0.0,-1.981135368347168,2.6897428035736084,4.643504619598389,358.5894470214844,0
1139.7800000000007,0.003076318884268403,0.011663091368973255,0.00013461901107802987,0.0,0.0,0.0,0.0,-0.00105891446582973,-0.0016553273890167475,0.0020154418889433146,0.9992700815200806,0.0,0.0,0.0,-1.9926711320877075,2.6871843338012695,4.64537239074707,360.6774597167969,0
1149.6990000000005,0.0030118203721940517,0.011594578623771667,0.00011400009680073708,0.0,0.0,0.0,0.0,-0.0008737724856473505,0.005226366221904755,-0.003106756368651986,0.9989782571792603,0.0,0.0,0.0,-1.9945956468582153,2.687645673751831,4.643684387207031,361.0257873535156,0
1159.6020000000008,0.0030118203721940517,0.011594578623771667,0.00011400009680073708,0.0,0.0,0.0,0.0,0.0006208475097082555,0.004429304972290993,-0.0035298375878483057,1.0003198385238647,0.0,0.0,0.0,-1.9945956468582153,2.687645673751831,4.643684387207031,361.0257873535156,0
1169.5220000000008,0.002960729645565152,0.011574048548936844,9.130164835369214e-05,0.0,0.0,0.0,0.0,-0.0017064695712178946,-0.0008204506011679769,0.00038152519846335053,0.9995267391204834,0.0,0.0,0.0,-1.9917253255844116,2.6771061420440674,4.609136581420898,360.5062561035156,0
1179.429,0.003076053224503994,0.011579769663512707,0.00016473181312903762,0.0,0.0,0.0,0.0,-0.002103302860632539,-0.0054010446183383465,-0.0014813177986070514,1.0000666379928589,0.0,0.0,0.0,-1.9917253255844116,2.6771061420440674,4.609136581420898,360.5062561035156,0
1189.3490000000002,0.0030720634385943413,0.011605885811150074,0.00014459763769991696,0.0,0.0,0.0,0.0,0.002136783441528678,0.004909472540020943,-0.00351014849729836,1.0004868507385254,0.0,0.0,0.0,-1.9947474002838135,2.6905534267425537,4.62170934677124,361.0532531738281,0
1199.25,0.0030992524698376656,0.011627834290266037,0.00019293594232294708,0.0,0.0,0.0,0.0,0.00046759643009863794,0.0020129180047661066,-0.0008635640260763466,0.9989910125732422,0.0,0.0,0.0,-2.0069198608398438,2.6979057788848877,4.618987560272217,363.25653076171875,0
1209.175000000001,0.0030705116223543882,0.011580392718315125,0.00017872457101475447,0.0,0.0,0.0,0.0,-0.002068009227514267,-0.003999720327556133,0.0033912737853825092,0.9990678429603577,0.0,0.0,0.0,-2.005986452102661,2.6917426586151123,4.610605716705322,363.0875244140625,0
1219.0740000000005,0.003041177522391081,0.011559683829545975,0.000178866830538027,0.0,0.0,0.0,0.0,-0.0023906773421913385,0.0019327766494825482,-0.0024067179765552282,1.0016698837280273,0.0,0.0,0.0,-2.0035314559936523,2.6906657218933105,4.60824728012085,362.6431579589844,0
1228.9950000000008,0.0030431838240474463,0.011603100225329399,0.00015561410691589117,0.0,0.0,0.0,0.0,-0.0029463041573762894,-0.0036674528382718563,0.0019475534791126847,1.0007412433624268,0.0,0.0,0.0,-2.000541925430298,2.6931915283203125,4.616845607757568,362.1020812988281,0
1238.893,0.0030156306456774473,0.011584651656448841,0.00015487609198316932,0.0,0.0,0.0,0.0,-0.0007286399486474693,0.0015106915961951017,-0.0032637056428939104,1.0023069381713867,0.0,0.0,0.0,-1.9981000423431396,2.6950690746307373,4.607145309448242,361.6600646972656,0
1248.8240000000005,0.0029994978103786707,0.011588865891098976,0.0001425877126166597,0.0,0.0,0.0,0.0,0.0035603598225861788,-0.0018780612153932452,-0.000624978740233928,1.0004440546035767,0.0,0.0,0.0,-1.9963533878326416,2.6987545490264893,4.603720664978027,361.34393310546875,0
1258.7180000000008,0.0029713797848671675,0.01157057099044323,0.00014352805737871677,0.0,0.0,0.0,0.0,-0.0017104254802688956,0.004093984607607126,0.0006910986849106848,1.0014666318893433,0.0,0.0,0.0,-1.9937620162963867,2.7005960941314697,4.603161811828613,360.8749084472656,0
1268.6320000000014,0.0029630789067596197,0.011584182269871235,0.00011834362521767616,0.0,0.0,0.0,0.0,0.0008653693948872387,0.0028867670334875584,0.0002841625246219337,1.0003175735473633,0.0,0.0,0.0,-1.99154794216156,2.6948251724243164,4.60236930847168,360.4741516113281,0
1278.5470000000005,0.003028107574209571,0.011596224270761013,0.00022967110271565616,0.0,0.0,0.0,0.0,0.00038243926246650517,0.0033729239366948605,-0.003021598793566227,0.9993276000022888,0.0,0.0,0.0,-1.9895133972167969,2.6897478103637695,4.581198215484619,360.1058654785156,0
1288.4630000000016,0.0030048764310777187,0.011578161269426346,0.00023932973272167146,0.0,0.0,0.0,0.0,-0.0034960724879056215,0.0005946771125309169,0.002206723904237151,0.9970548152923584,0.0,0.0,0.0,-1.9873098134994507,2.6881957054138184,4.575890064239502,359.70703125,0
1298.3640000000014,0.0029809121042490005,0.011557872407138348,0.0002484499418642372,0.0,0.0,0.0,0.0,-0.0003339686954859644,0.0009294482879340649,0.0025752584915608168,0.9969489574432373,0.0,0.0,0.0,-1.9863975048065186,2.6867778301239014,4.563754081726074,359.5419006347656,0
1308.282000000001,0.003017301671206951,0.011632426641881466,0.00019228777091484517,0.0,0.0,0.0,0.0,0.004050979390740395,0.0023208381608128548,0.0014061842812225223,0.9992696046829224,0.0,0.0,0.0,-1.9848142862319946,2.684515953063965,4.553889751434326,359.25531005859375,0
1318.188,0.002994068432599306,0.011615289375185966,0.00019163241086062044,0.0,0.0,0.0,0.0,-0.0008665425702929497,-0.001425187918357551,0.0006900179432705045,0.9990784525871277,0.0,0.0,0.0,-1.9820208549499512,2.6803760528564453,4.553153038024902,358.7497253417969,0
1328.1050000000014,0.0029945578426122665,0.011655797250568867,0.00016712036449462175,0.0,0.0,0.0,0.0,0.0008029083255678415,0.0013155486667528749,0.0015816794475540519,1.000714659690857,0.0,0.0,0.0,-1.9794715642929077,2.669252872467041,4.531744956970215,358.2882995605469,0
1338.0070000000014,0.0030583562329411507,0.011649459600448608,0.00024044731981121004,0.0,0.0,0.0,0.0,-0.0003628901031333953,0.0004650027840398252,0.002130469074472785,0.9998723268508911,0.0,0.0,0.0,-1.9766504764556885,2.670314073562622,4.536622047424316,357.7776794433594,0
1347.9350000000013,0.003100754925981164,0.011725637130439281,0.00017214649415109307,0.0,0.0,0.0,0.0,6.414471863536164e-05,0.0033875552471727133,0.0033129937946796417,0.9992890357971191,0.0,0.0,0.0,-1.9833532571792603,2.6943140029907227,4.540817737579346,358.9908752441406,0
1357.8280000000013,0.003081100294366479,0.011716359294950962,0.0001690217904979363,0.0,0.0,0.0,0.0,0.0013099202187731862,0.0005926582962274551,0.0001878333423519507,1.0007821321487427,0.0,0.0,0.0,-1.9813814163208008,2.6879124641418457,4.532960891723633,358.63397216796875,0
1367.7480000000014,0.0030912531074136496,0.011726371943950653,0.00011938779061893001,0.0,0.0,0.0,0.0,0.0011028085136786103,0.005003474652767181,-0.0009438804700039327,1.0010713338851929,0.0,0.0,0.0,-1.978867530822754,2.69081449508667,4.512300491333008,358.178955078125,0
1377.652,0.003074263921007514,0.01171654462814331,0.00011313934373902157,0.0,0.0,0.0,0.0,-0.0012664272217079997,-0.008686639368534088,-0.0022700654808431864,1.0002776384353638,0.0,0.0,0.0,-1.9775996208190918,2.6913232803344727,4.505804061889648,357.949462890625,0
1387.5750000000007,0.003055388107895851,0.01171770878136158,0.00011812277807621285,0.0,0.0,0.0,0.0,-0.0027005113661289215,-0.0009590375702828169,0.00037568347761407495,1.0000276565551758,0.0,0.0,0.0,-1.9756237268447876,2.6873703002929688,4.498744487762451,357.591796875,0
1397.473,0.003067047568038106,0.011729797348380089,0.00015325886488426477,0.0,0.0,0.0,0.0,-0.0013514304300770164,0.0018556045833975077,0.0025581885129213333,0.9999234080314636,0.0,0.0,0.0,-1.9750218391418457,2.6825106143951416,4.501440525054932,357.48284912109375,0
1407.3900000000012,0.003063255688175559,0.011694594286382198,0.00011200374137843028,0.0,0.0,0.0,0.0,-0.002355380682274699,0.0026503615081310272,-0.000972003152128309,1.0015089511871338,0.0,0.0,0.0,-1.9730592966079712,2.6828932762145996,4.485752105712891,357.1276550292969,0
1417.300000000001,0.0030687381513416767,0.011658153496682644,9.87850216915831e-05,0.0,0.0,0.0,0.0,0.0015707619022578,-0.0014476020587608218,0.0034125912934541702,1.001852035522461,0.0,0.0,0.0,-1.9782387018203735,2.6758792400360107,4.487905502319336,358.065185546875,0
1427.2250000000004,0.00303291087038815,0.011623058468103409,0.00010629298049025238,0.0,0.0,0.0,0.0,-0.0005279090837575495,0.007596890442073345,0.0012795085785910487,1.002026915550232,0.0,0.0,0.0,-1.9756265878677368,2.6775667667388916,4.4857988357543945,357.5923156738281,0
1437.1190000000006,0.0030113321263343096,0.01161104068160057,0.00010589280282147229,0.0,0.0,0.0,0.0,-0.00269843521527946,-0.0029139097314327955,-0.0005105260643176734,1.0004551410675049,0.0,0.0,0.0,-1.972951054573059,2.674377202987671,4.478349208831787,357.1080627441406,0
1447.0349999999999,0.003005641745403409,0.011639858596026897,9.610567212803289e-05,0.0,0.0,0.0,0.0,0.0027318070642650127,-0.0005364262615330517,-0.00016943347873166203,0.9988229274749756,0.0,0.0,0.0,-1.9706448316574097,2.6717779636383057,4.47003698348999,356.6906433105469,0
1456.946,0.0030252370052039623,0.0116394879296422,0.00012794104986824095,0.0,0.0,0.0,0.0,-0.0017041341634467244,-9.791010234039277e-05,-0.002512834034860134,1.0021675825119019,0.0,0.0,0.0,-1.9702131748199463,2.6708643436431885,4.459172248840332,356.6125183105469,0
1466.8640000000014,0.003037620335817337,0.01164853386580944,7.92390201240778e-05,0.0,0.0,0.0,0.0,0.0002321740030311048,0.002189665799960494,0.0007597180083394051,1.0011807680130005,0.0,0.0,0.0,-1.9671300649642944,2.6677262783050537,4.464602947235107,356.0544738769531,0
1476.764000000001,0.0030505829490721226,0.011687831953167915,0.00012464236351661384,0.0,0.0,0.0,0.0,-0.002073366427794099,-0.0006676732446067035,0.001938511268235743,0.9997609853744507,0.0,0.0,0.0,-1.9650137424468994,2.666806221008301,4.459322452545166,355.67138671875,0
1486.6820000000007,0.003038897179067135,0.011709300801157951,8.837356290314347e-05,0.0,0.0,0.0,0.0,0.0012377859093248844,0.006677262019366026,-0.0005710414261557162,0.9989835023880005,0.0,0.0,0.0,-1.9598580598831177,2.6630444526672363,4.446894645690918,354.7381896972656,0
1496.5860000000011,0.003038897179067135,0.011709300801157951,8.837356290314347e-05,0.0,0.0,0.0,0.0,0.0014984945300966501,9.261550439987332e-05,0.003922286909073591,0.9982967376708984,0.0,0.0,0.0,-1.9598580598831177,2.6630444526672363,4.446894645690918,354.7381896972656,0
1506.509,0.002984898164868355,0.011703482829034328,9.541289182379842e-05,0.0,0.0,0.0,0.0,-0.0008884572307579219,5.300323755363934e-05,-0.0008504670695401728,0.9996534585952759,0.0,0.0,0.0,-1.9644140005111694,2.6587610244750977,4.42704439163208,355.5628356933594,0
1516.4130000000005,0.002984898164868355,0.011703482829034328,9.541289182379842e-05,0.0,0.0,0.0,0.0,0.0019894777797162533,-0.002363776322454214,-0.00018074343097396195,1.000377893447876,0.0,0.0,0.0,-1.9644140005111694,2.6587610244750977,4.42704439163208,355.5628356933594,0
1526.3420000000006,0.0029617822729051113,0.01172675285488367,8.938385144574568e-05,0.0,0.0,0.0,0.0,-0.0009671548614278436,-0.0011909821769222617,0.0015163759235292673,1.0036208629608154,0.0,0.0,0.0,-1.962782382965088,2.657611846923828,4.423158168792725,355.2675476074219,0
1536.246000000001,0.0030726350378245115,0.011690574698150158,0.0001716729166219011,0.0,0.0,0.0,0.0,-0.0011596212862059474,-0.0024378225207328796,0.0027341246604919434,1.001908302307129,0.0,0.0,0.0,-1.9732739925384521,2.6477296352386475,4.447728157043457,357.16650390625,0
1546.1540000000005,0.003061827505007386,0.011701413430273533,0.00016517069889232516,0.0,0.0,0.0,0.0,0.0034425840713083744,-0.002363711828365922,0.00017989565094467252,0.9995115995407104,0.0,0.0,0.0,-1.9703748226165771,2.6437594890594482,4.4509663581848145,356.6417541503906,0
1556.0600000000013,0.00303374114446342,0.011693546548485756,0.00017521210247650743,0.0,0.0,0.0,0.0,-0.0015144875505939126,0.0046448055654764175,-0.0026391614228487015,0.9991291761398315,0.0,0.0,0.0,-1.9682612419128418,2.6382088661193848,4.4454545974731445,356.2591857910156,0
1565.9899999999998,0.003011486493051052,0.011654038913547993,0.00015713603352196515,0.0,0.0,0.0,0.0,-0.0014601924922317266,-0.0021224524825811386,0.001761051593348384,0.9985641241073608,0.0,0.0,0.0,-1.9668892621994019,2.6334028244018555,4.435327529907227,356.0108642578125,0
1575.8940000000002,0.0029802180361002684,0.011642697267234325,0.00016430657706223428,0.0,0.0,0.0,0.0,0.000763081421609968,-0.004830172285437584,0.000482334871776402,1.0000886917114258,0.0,0.0,0.0,-1.965248465538025,2.6386525630950928,4.4344353675842285,355.7138977050781,0
1585.7980000000007,0.002965740393847227,0.011624932289123535,0.00012957464787177742,0.0,0.0,0.0,0.0,0.0014186095213517547,-0.000548902025911957,0.0008107999456115067,1.002798080444336,0.0,0.0,0.0,-1.9632937908172607,2.637308120727539,4.428895950317383,355.3600769042969,0
1595.7110000000011,0.0029311925172805786,0.011613545008003712,0.00013312927330844104,0.0,0.0,0.0,0.0,0.00037466242793016136,-0.001082943519577384,-0.001925729331560433,1.00096595287323,0.0,0.0,0.0,-1.9614158868789673,2.6304244995117188,4.4276580810546875,355.0201721191406,0
1605.6270000000004,0.0029075576458126307,0.011647103354334831,0.00012162299390183762,0.0,0.0,0.0,0.0,-0.005057566333562136,0.005289986729621887,-0.0008029837044887245,1.0002769231796265,0.0,0.0,0.0,-1.9593963623046875,2.6184275150299072,4.422330379486084,354.6546325683594,0
1615.532000000001,0.002972160931676626,0.011613006703555584,0.000196919369045645,0.0,0.0,0.0,0.0,0.0013452693819999695,2.239935020043049e-05,0.0043096221052110195,1.001539707183838,0.0,0.0,0.0,-1.9567675590515137,2.6245222091674805,4.4027533531188965,354.1788024902344,0
1625.442000000001,0.0029945026617497206,0.011643788777291775,0.00012920091103296727,0.0,0.0,0.0,0.0,0.0025975399184972048,-0.0031214309856295586,0.0012486763298511505,1.0012198686599731,0.0,0.0,0.0,-1.9534499645233154,2.618446111679077,4.395639896392822,353.5783386230469,0
1635.3690000000006,0.0029619745910167694,0.011635711416602135,0.00013562075037043542,0.0,0.0,0.0,0.0,-0.002445726888254285,-0.003959279041737318,0.003730023978278041,1.0006953477859497,0.0,0.0,0.0,-1.9513276815414429,2.6122865676879883,4.399289131164551,353.1942138671875,0
1645.2660000000014,0.0029513633344322443,0.011671103537082672,0.0001204377695103176,0.0,0.0,0.0,0.0,-0.002629241207614541,-0.0010426720837131143,-0.00018116476712748408,1.0013805627822876,0.0,0.0,0.0,-1.9567921161651611,2.624751567840576,4.406208515167236,354.1832580566406,0
1655.179,0.0029153036884963512,0.011664079502224922,0.00012814177898690104,0.0,0.0,0.0,0.0,0.00018990921671502292,0.0008983959560282528,0.0035849097184836864,1.0011131763458252,0.0,0.0,0.0,-1.9550514221191406,2.6289925575256348,4.40175724029541,353.8681945800781,0
1665.0860000000011,0.0028931433334946632,0.011671718209981918,0.00011243694461882114,0.0,0.0,0.0,0.0,-0.002987259766086936,0.002112648682668805,-0.0004010073025710881,0.999755322933197,0.0,0.0,0.0,-1.9532749652862549,2.624779462814331,4.392609596252441,353.546630859375,0
1675.0020000000004,0.0029924798291176558,0.01161929126828909,0.00019342379528097808,0.0,0.0,0.0,0.0,0.0036032628268003464,-0.0010578901274129748,-0.0028919395990669727,1.000844955444336,0.0,0.0,0.0,-1.963443398475647,2.6215081214904785,4.411672115325928,355.3871765136719,0
1684.9080000000013,0.0029769327957183123,0.011613409034907818,0.0001755039265844971,0.0,0.0,0.0,0.0,0.00019730433996301144,-0.0002764613600447774,0.0023840046487748623,0.9979146122932434,0.0,0.0,0.0,-1.962674617767334,2.6131060123443604,4.40846061706543,355.248046875,0
1694.8240000000005,0.0029420843347907066,0.011599438264966011,0.00018591535626910627,0.0,0.0,0.0,0.0,-0.000180208298843354,0.003534837393090129,0.0024929801002144814,1.0002330541610718,0.0,0.0,0.0,-1.9613364934921265,2.6067962646484375,4.400754928588867,355.00579833984375,0
1704.7309999999998,0.0029410149436444044,0.011652053333818913,0.00016222370322793722,0.0,0.0,0.0,0.0,-0.0023874964099377394,0.0023853101301938295,0.0012880100402981043,0.9997515082359314,0.0,0.0,0.0,-1.9591641426086426,2.604219436645508,4.392150402069092,354.6125793457031,0
1714.648000000001,0.0029034388717263937,0.011638174764811993,0.00016990106087177992,0.0,0.0,0.0,0.0,0.0010310241486877203,-0.0046488759107887745,-0.0009231648873537779,0.9992784261703491,0.0,0.0,0.0,-1.9575592279434204,2.600717782974243,4.385417938232422,354.3221130371094,0
1724.5550000000003,0.002886910689994693,0.011625816114246845,0.0001299787691095844,0.0,0.0,0.0,0.0,-0.0006722724647261202,0.00484063383191824,0.0025026658549904823,0.9986373782157898,0.0,0.0,0.0,-1.9612573385238647,2.601379156112671,4.397963523864746,354.9914855957031,0
1734.4790000000012,0.0028488889802247286,0.011611833237111568,0.00013318764104042202,0.0,0.0,0.0,0.0,-0.0012798133539035916,-0.0014874465996399522,-0.0017783717485144734,1.0013917684555054,0.0,0.0,0.0,-1.9591244459152222,2.599013090133667,4.375881671905518,354.6054382324219,0
1744.371000000001,0.002834596438333392,0.011634971015155315,9.779918764252216e-05,0.0,0.0,0.0,0.0,-0.000685461622197181,-0.0018022599397227168,0.00012324380804784596,1.0002843141555786,0.0,0.0,0.0,-1.9582281112670898,2.5985333919525146,4.373666763305664,354.44317626953125,0
1754.300000000001,0.003082884941250086,0.011525627225637436,0.0002788432175293565,0.0,0.0,0.0,0.0,0.0013722077710554004,0.0018203415675088763,-0.0010114042088389397,1.0002747774124146,0.0,0.0,0.0,-1.969525933265686,2.5807178020477295,4.434544086456299,356.4881286621094,0
1764.1990000000005,0.003096237313002348,0.011567636393010616,0.0002579352294560522,0.0,0.0,0.0,0.0,0.0010978344362229109,-0.0026969711761921644,0.0028832536190748215,0.9999761581420898,0.0,0.0,0.0,-1.9683057069778442,2.5782577991485596,4.428253173828125,356.26727294921875,0
1774.1149999999998,0.0030754399485886097,0.011550352908670902,0.00026772255660034716,0.0,0.0,0.0,0.0,0.0005891519831493497,0.0007303600432351232,0.0035411855205893517,0.9995537400245667,0.0,0.0,0.0,-1.9658414125442505,2.5732805728912354,4.4204182624816895,355.8211975097656,0
1784.0150000000012,0.003109957091510296,0.011610697023570538,0.00020713314006570727,0.0,0.0,0.0,0.0,-0.002993640024214983,0.003483105218037963,-8.724245708435774e-05,1.001168966293335,0.0,0.0,0.0,-1.9695003032684326,2.5892505645751953,4.425683498382568,356.4834899902344,0
1793.933000000001,0.003090004902333021,0.011595693416893482,0.00021214551816228777,0.0,0.0,0.0,0.0,0.0027809017337858677,0.0005171941011212766,-0.003211896400898695,1.0015957355499268,0.0,0.0,0.0,-1.9677605628967285,2.593888521194458,4.409763813018799,356.1685791015625,0
1803.8420000000006,0.0030740646179765463,0.011587223969399929,0.00020590932399500161,0.0,0.0,0.0,0.0,0.0004381694889161736,-0.0008556930697523057,0.006050607189536095,1.0026875734329224,0.0,0.0,0.0,-1.9667521715164185,2.5816233158111572,4.4003705978393555,355.9860534667969,0
1813.7570000000014,0.003023253520950675,0.011587157845497131,0.00019785015319939703,0.0,0.0,0.0,0.0,0.0012382525019347668,-0.0011869303416460752,-0.0017297957092523575,1.000010371208191,0.0,0.0,0.0,-1.9742368459701538,2.5910093784332275,4.396602630615234,357.3407897949219,0
1823.661,0.0030133079271763563,0.011566911824047565,0.00016850919928401709,0.0,0.0,0.0,0.0,0.0009015428368002176,0.00543361809104681,-0.0011863033287227154,1.0005736351013184,0.0,0.0,0.0,-1.979993224143982,2.593313217163086,4.402480125427246,358.38275146484375,0
1833.58,0.0029857808258384466,0.01155161764472723,0.0001751714153215289,0.0,0.0,0.0,0.0,-0.0013418958988040686,0.00183960294816643,-0.0011062099365517497,1.0007685422897339,0.0,0.0,0.0,-1.9794700145721436,2.589796543121338,4.387856960296631,358.28802490234375,0
1843.4850000000006,0.002982854377478361,0.011575589887797832,0.0001528895809315145,0.0,0.0,0.0,0.0,-0.003176359226927161,-0.004960895515978336,0.00034428545041009784,0.9998441338539124,0.0,0.0,0.0,-1.977761149406433,2.5874810218811035,4.3784284591674805,357.9787292480469,0
1853.4130000000005,0.0029534674249589443,0.011560972779989243,0.000159192131832242,0.0,0.0,0.0,0.0,0.0002416338975308463,0.0012749724555760622,-0.0008532459614798427,0.9980545043945312,0.0,0.0,0.0,-1.976072907447815,2.5927963256835938,4.37576150894165,357.6731262207031,0
1863.317000000001,0.0029427669942378998,0.011592593975365162,0.00013886952365282923,0.0,0.0,0.0,0.0,-0.001597637077793479,0.001471622847020626,-0.0017246912466362119,0.997445285320282,0.0,0.0,0.0,-1.97378671169281,2.590606927871704,4.371818542480469,357.2593078613281,0
1873.2350000000006,0.002940388163551688,0.011636506766080856,0.00022186308342497796,0.0,0.0,0.0,0.0,0.0033900749403983355,0.0027901572175323963,0.005991002079099417,0.9993643164634705,0.0,0.0,0.0,-1.9785244464874268,2.601901054382324,4.378109931945801,358.11688232421875,0
1883.1329999999998,0.0029393399599939585,0.011651934124529362,0.00017964551807381213,0.0,0.0,0.0,0.0,-0.0007668317994102836,0.00156380922999233,0.002761516720056534,1.0000773668289185,0.0,0.0,0.0,-1.9750615358352661,2.596341133117676,4.361992835998535,357.49005126953125,0
1893.0529999999999,0.002958166180178523,0.011662346310913563,0.0002215808053733781,0.0,0.0,0.0,0.0,0.0007984893163666129,0.005775296129286289,-0.0033476941753178835,0.99920654296875,0.0,0.0,0.0,-1.9789977073669434,2.60284423828125,4.357133865356445,358.2025146484375,0
1902.951000000001,0.002975654322654009,0.011664816178381443,0.00014267531514633447,0.0,0.0,0.0,0.0,-0.00016009152750484645,-0.0012490077642723918,-0.00027968897484242916,1.001653790473938,0.0,0.0,0.0,-1.977028250694275,2.6007893085479736,4.343548774719238,357.8460693359375,0
1912.8700000000008,0.002941722050309181,0.01165211945772171,0.00014168927737046033,0.0,0.0,0.0,0.0,0.0013166271382942796,-0.002240921603515744,-0.0008148994529619813,0.9997118711471558,0.0,0.0,0.0,-1.9750310182571411,2.6003432273864746,4.337421894073486,357.4845275878906,0
1922.7740000000013,0.002956039970740676,0.011701894924044609,8.0466503277421e-05,0.0,0.0,0.0,0.0,-0.002644728636369109,0.004481036681681871,-0.0014107279712334275,1.0001204013824463,0.0,0.0,0.0,-1.974230170249939,2.597032070159912,4.33254861831665,357.3395690917969,0
1932.6860000000015,0.0029193642549216747,0.011689530685544014,7.641158299520612e-05,0.0,0.0,0.0,0.0,0.0031903476919978857,-0.0011891269823536277,0.0006550003308802843,1.0009455680847168,0.0,0.0,0.0,-1.971859335899353,2.5968306064605713,4.3239264488220215,356.91046142578125,0
1942.5960000000014,0.00292169745080173,0.011726438999176025,6.823297553637531e-06,0.0,0.0,0.0,0.0,0.0024013258516788483,0.007864821702241898,0.0011448090663179755,0.9992275834083557,0.0,0.0,0.0,-1.9702889919281006,2.5955121517181396,4.318716049194336,356.6262512207031,0
1952.5130000000008,0.0030111127998679876,0.011708694510161877,9.143347415374592e-05,0.0,0.0,0.0,0.0,-0.0002221218019258231,-0.0038492432795464993,0.002392220078036189,0.9984716176986694,0.0,0.0,0.0,-1.967907190322876,2.592641592025757,4.306081771850586,356.1950988769531,0
1962.42,0.0029641781002283096,0.011667139828205109,8.967279427452013e-05,0.0,0.0,0.0,0.0,-0.0011941605480387807,-0.0007561931270174682,0.004227862693369389,1.0005279779434204,0.0,0.0,0.0,-1.9656785726547241,2.587642192840576,4.3062615394592285,355.7917175292969,0
1972.3330000000005,0.0030513652600347996,0.011644842103123665,0.00013859086902812123,0.0,0.0,0.0,0.0,-4.851930498261936e-05,0.0023160187993198633,0.0017191368388012052,1.0014656782150269,0.0,0.0,0.0,-1.9629446268081665,2.5854718685150146,4.301186561584473,355.2969055175781,0
1982.2470000000012,0.0030167358927428722,0.01163594238460064,0.0001343233452644199,0.0,0.0,0.0,0.0,-0.00028877193108201027,-0.0017322924686595798,-0.0002931691997218877,0.9988175630569458,0.0,0.0,0.0,-1.9675043821334839,2.5864949226379395,4.292060375213623,356.1221923828125,0
1992.1580000000013,0.0029769728425890207,0.011617236770689487,0.0001360404712613672,0.0,0.0,0.0,0.0,6.346873851725832e-05,-6.391582428477705e-05,-0.0035799704492092133,0.9998223781585693,0.0,0.0,0.0,-1.9647340774536133,2.5818984508514404,4.286170959472656,355.62078857421875,0
2002.071,0.0029476310592144728,0.011617904528975487,0.00012619915651157498,0.0,0.0,0.0,0.0,0.003549864748492837,-0.0018454728415235877,0.0022016174625605345,1.0002738237380981,0.0,0.0,0.0,-1.963494062423706,2.5796806812286377,4.282297134399414,355.3963623046875,0
2011.9770000000008,0.0031293765641748905,0.011561103165149689,0.00023545476142317057,0.0,0.0,0.0,0.0,-0.0030910619534552097,-0.002184991491958499,0.0004146265855524689,0.9994720816612244,0.0,0.0,0.0,-1.9662877321243286,2.5684139728546143,4.31577205657959,355.9019775390625,0
2021.8960000000006,0.003126326249912381,0.011594180017709732,0.0002686075458768755,0.0,0.0,0.0,0.0,0.00010707844921853393,0.00128270429559052,-0.0009045382612384856,0.9988075494766235,0.0,0.0,0.0,-1.9645593166351318,2.565282106399536,4.321414470672607,355.5891418457031,0
2031.799000000001,0.003084532218053937,0.011572519317269325,0.0002778203634079546,0.0,0.0,0.0,0.0,-0.0012980534229427576,0.00034873856930062175,-0.00027755380142480135,1.0014419555664062,0.0,0.0,0.0,-1.9619977474212646,2.565807580947876,4.308535099029541,355.12548828125,0
2041.7120000000014,0.0031035272404551506,0.011624583043158054,0.00022179096413310617,0.0,0.0,0.0,0.0,-0.000602066342253238,-0.0029336826410144567,0.0009212671429850161,1.0008186101913452,0.0,0.0,0.0,-1.9598896503448486,2.564948081970215,4.308835506439209,354.743896484375,0
2051.621000000001,0.003060153918340802,0.011604002676904202,0.00022735875973012298,0.0,0.0,0.0,0.0,0.0037286339793354273,-0.0013285051099956036,0.00024610807304270566,0.9968342185020447,0.0,0.0,0.0,-1.9579256772994995,2.559839963912964,4.307761192321777,354.388427734375,0
2061.535,0.0030243927612900734,0.011621649377048016,0.0001683018053881824,0.0,0.0,0.0,0.0,0.0012310257880017161,0.0030498155392706394,0.0018356702057644725,0.9984928965568542,0.0,0.0,0.0,-1.954506754875183,2.5538618564605713,4.303905963897705,353.7696228027344,0
2071.4480000000003,0.0029790597036480904,0.011602512560784817,0.00016706978203728795,0.0,0.0,0.0,0.0,0.0002944732550531626,0.0009274017065763474,0.002139005810022354,0.9980434775352478,0.0,0.0,0.0,-1.953324317932129,2.5495290756225586,4.300953388214111,353.5555725097656,0
2081.357,0.0030289446003735065,0.011655212379992008,0.0001573734189150855,0.0,0.0,0.0,0.0,-1.7501241018180735e-05,-0.0035275437403470278,0.0030579324811697006,0.9990716576576233,0.0,0.0,0.0,-1.961793065071106,2.5477447509765625,4.305198669433594,355.08843994140625,0
2091.276,0.002980887657031417,0.011638686060905457,0.00015310895105358213,0.0,0.0,0.0,0.0,-0.0019861506298184395,-0.003539744997397065,-0.0003353329375386238,1.0002156496047974,0.0,0.0,0.0,-1.9600658416748047,2.5419652462005615,4.296163082122803,354.77581787109375,0
2101.179,0.0029576574452221394,0.011668361723423004,0.00012371924822218716,0.0,0.0,0.0,0.0,-0.002651803195476532,-0.0024745126720517874,0.001331431558355689,1.000325322151184,0.0,0.0,0.0,-1.9579803943634033,2.546556234359741,4.298948287963867,354.3983459472656,0
2111.1010000000006,0.002905853558331728,0.011652082204818726,0.00011730732512660325,0.0,0.0,0.0,0.0,-0.0007207326707430184,-0.0038080443628132343,0.0030820004176348448,1.0005364418029785,0.0,0.0,0.0,-1.9555565118789673,2.5523951053619385,4.300386905670166,353.9595947265625,0
2121.0020000000004,0.002884523244574666,0.011679623275995255,8.059504762059078e-05,0.0,0.0,0.0,0.0,0.00256802118383348,0.00047090117004700005,-0.0017274634446948767,1.0001592636108398,0.0,0.0,0.0,-1.9624519348144531,2.567488670349121,4.311359405517578,355.20770263671875,0
2130.924000000001,0.0028304283041507006,0.011664924211800098,7.287842890946195e-05,0.0,0.0,0.0,0.0,-0.0002760665083769709,-0.0013697270769625902,-8.894729398889467e-05,1.0005301237106323,0.0,0.0,0.0,-1.961733341217041,2.5638937950134277,4.300265312194824,355.07763671875,0
2140.8290000000015,0.0028023452032357454,0.011712608858942986,4.087491470272653e-05,0.0,0.0,0.0,0.0,0.0017924985149875283,-0.0037628451827913523,0.0004531775775831193,1.0011523962020874,0.0,0.0,0.0,-1.9679112434387207,2.578005313873291,4.306941509246826,356.1958312988281,0
2150.742,0.00274566188454628,0.011698651127517223,3.2419728086097166e-05,0.0,0.0,0.0,0.0,0.0013020613696426153,0.0014653042890131474,-0.0025741381105035543,1.0002299547195435,0.0,0.0,0.0,-1.9672431945800781,2.5758578777313232,4.309022903442383,356.0749206542969,0
