timestamp,stateEstimate.x,stateEstimate.y,stateEstimate.z,controller.cmd_thrust,controller.cmd_roll,controller.cmd_pitch,controller.cmd_yaw,controller.r_roll,controller.r_pitch,controller.r_yaw,controller.accelz,controller.actuatorThrust,controller.roll,controller.pitch,controller.yaw,controller.rollRate,controller.pitchRate,controller.yawRate,controller.ctr_yaw
0.0,-0.02093338593840599,-0.006400314625352621,-0.0013918632175773382,0.0,0.0,0.0,0.0,-0.0005408398574218154,-0.0022941105999052525,0.0037029485683888197,0.9964861273765564,0.0,0.0,0.0,-10.509002685546875,4.381762981414795,8.769974708557129,1902.150390625,0
9.92200000000048,-0.020917562767863274,-0.0063816942274570465,-0.0013768969802185893,0.0,0.0,0.0,0.0,-0.0003834119124803692,0.0005732502904720604,-0.0010683482978492975,0.9992570877075195,0.0,0.0,0.0,-10.522660255432129,4.394143104553223,8.774635314941406,1904.6224365234375,0
19.824000000000524,-0.020951787009835243,-0.006389087066054344,-0.0013875471195206046,0.0,0.0,0.0,0.0,0.0032973347697407007,0.0025630558375269175,-0.005315420683473349,1.0017062425613403,0.0,0.0,0.0,-10.512792587280273,4.389345169067383,8.770485877990723,1902.8363037109375,0
29.743000000000393,-0.020926842465996742,-0.0063698990270495415,-0.0013696107780560851,0.0,0.0,0.0,0.0,0.002213517902418971,-0.0005759462364949286,0.00045264451182447374,1.0000536441802979,0.0,0.0,0.0,-10.52579402923584,4.396972179412842,8.765935897827148,1905.189697265625,0
39.647000000000844,-0.020964503288269043,-0.006378726568073034,-0.001375845167785883,0.0,0.0,0.0,0.0,0.0011134858941659331,0.006102060433477163,0.0002858582593034953,0.9982243180274963,0.0,0.0,0.0,-10.515266418457031,4.393319129943848,8.756031036376953,1903.2840576171875,0
49.56800000000112,-0.020920174196362495,-0.006400085519999266,-0.0013919154880568385,0.0,0.0,0.0,0.0,0.0012265169061720371,0.0008558513363823295,-0.0037970049306750298,0.9962469935417175,0.0,0.0,0.0,-10.53948974609375,4.384496688842773,8.752701759338379,1907.668701171875,0
59.47600000000057,-0.020960666239261627,-0.006409906782209873,-0.0014008977450430393,0.0,0.0,0.0,0.0,0.000835313752759248,-0.0017486009746789932,-0.001264585298486054,0.998165488243103,0.0,0.0,0.0,-10.53002643585205,4.378589630126953,8.741705894470215,1905.9559326171875,0
69.38200000000143,-0.020914677530527115,-0.006429814733564854,-0.001418897183611989,0.0,0.0,0.0,0.0,0.00234315637499094,-0.00133614637888968,0.0010097436606884003,1.000298261642456,0.0,0.0,0.0,-10.550565719604492,4.374693393707275,8.751884460449219,1909.67333984375,0
79.29700000000048,-0.020954277366399765,-0.006440181750804186,-0.0014307497767731547,0.0,0.0,0.0,0.0,0.00258234771899879,0.0009510595700703561,-0.000933067116420716,0.9988229870796204,0.0,0.0,0.0,-10.539047241210938,4.365426063537598,8.741412162780762,1907.5885009765625,0
89.20800000000054,-0.020919613540172577,-0.006442314013838768,-0.001435111160390079,0.0,0.0,0.0,0.0,0.0011101416312158108,-0.00047235452802851796,-0.001773933763615787,1.000485897064209,0.0,0.0,0.0,-10.56137752532959,4.367193698883057,8.74297046661377,1911.63037109375,0
99.11599999999999,-0.02093665860593319,-0.006423330865800381,-0.0014255358837544918,0.0,0.0,0.0,0.0,-0.0012878960696980357,0.000984592130407691,0.0005429580342024565,1.0015974044799805,0.0,0.0,0.0,-10.571721076965332,4.374738693237305,8.740067481994629,1913.5025634765625,0
109.02800000000025,-0.020976597443223,-0.0064314790070056915,-0.0014327575918287039,0.0,0.0,0.0,0.0,0.0014909866731613874,-0.0037363204173743725,0.004109933041036129,0.9993154406547546,0.0,0.0,0.0,-10.56249713897705,4.375032424926758,8.724442481994629,1911.8331298828125,0
118.94900000000052,-0.020885059610009193,-0.006421124096959829,-0.0014761246275156736,0.0,0.0,0.0,0.0,0.0002846713468898088,-0.001827320782467723,0.0018643469084054232,0.999397337436676,0.0,0.0,0.0,-10.597143173217773,4.3813796043396,8.749161720275879,1918.10400390625,0
128.85000000000036,-0.020925423130393028,-0.006429643835872412,-0.0014830786967650056,0.0,0.0,0.0,0.0,-0.00041188247269019485,-0.00040404050378128886,-0.000711434637196362,1.000131368637085,0.0,0.0,0.0,-10.585726737976074,4.377809524536133,8.754293441772461,1916.03759765625,0
138.77300000000105,-0.020870696753263474,-0.006408532615751028,-0.001492826035246253,0.0,0.0,0.0,0.0,0.0032245849724859,0.006035429425537586,0.00031598753412254155,1.0012130737304688,0.0,0.0,0.0,-10.615507125854492,4.394461631774902,8.76229190826416,1921.4278564453125,0
148.6770000000015,-0.0209128949791193,-0.006415036041289568,-0.0014975459780544043,0.0,0.0,0.0,0.0,-0.0032372791320085526,-0.0034518996253609657,0.0012468908680602908,1.0012141466140747,0.0,0.0,0.0,-10.605249404907227,4.380031585693359,8.743470191955566,1919.5712890625,0
158.59300000000076,-0.02095874212682247,-0.006328122224658728,-0.0015015415847301483,0.0,0.0,0.0,0.0,-0.0029956819489598274,-0.0002865313726942986,-0.001141175045631826,0.999711811542511,0.0,0.0,0.0,-10.616926193237305,4.395089149475098,8.746097564697266,1921.684814453125,0
168.4970000000012,-0.021002542227506638,-0.00633327616378665,-0.0015026414766907692,0.0,0.0,0.0,0.0,0.00018288317369297147,5.7064939028350636e-05,7.3068164056167e-05,0.9980247616767883,0.0,0.0,0.0,-10.606224060058594,4.394717216491699,8.740494728088379,1919.7476806640625,0
178.41400000000067,-0.020879942923784256,-0.006285549141466618,-0.0015113604022189975,0.0,0.0,0.0,0.0,0.0005640411982312799,0.0021685848478227854,-0.0006779128452762961,0.997819185256958,0.0,0.0,0.0,-10.623323440551758,4.4025163650512695,8.747868537902832,1922.8427734375,0
188.32999999999993,-0.020923366770148277,-0.006289810407906771,-0.0015144040808081627,0.0,0.0,0.0,0.0,0.0007395400898531079,0.002850523917004466,0.0009635037858970463,0.9999839663505554,0.0,0.0,0.0,-10.612604141235352,4.392727375030518,8.735011100769043,1920.9024658203125,0
198.2420000000002,-0.020921779796481133,-0.006342876236885786,-0.0014934154460206628,0.0,0.0,0.0,0.0,-9.738299559103325e-05,-0.0033302982337772846,-0.0016714234370738268,0.9981367588043213,0.0,0.0,0.0,-10.630271911621094,4.386502742767334,8.72547435760498,1924.100341796875,0
208.14300000000003,-0.020967384800314903,-0.006347688380628824,-0.0014954570215195417,0.0,0.0,0.0,0.0,-0.00028267744346521795,0.006591569632291794,-0.0014706705696880817,0.9992697834968567,0.0,0.0,0.0,-10.620365142822266,4.380363464355469,8.72269344329834,1922.30712890625,0
218.0600000000013,-0.020926788449287415,-0.006333960220217705,-0.0014988892944529653,0.0,0.0,0.0,0.0,-0.004238882102072239,-0.004950840957462788,0.00013738733832724392,0.999381959438324,0.0,0.0,0.0,-10.632973670959473,4.385774612426758,8.716373443603516,1924.5894775390625,0
227.96600000000035,-0.02097310684621334,-0.006338103208690882,-0.0015019646380096674,0.0,0.0,0.0,0.0,-0.0005686588119715452,-0.0047197481617331505,0.0008055505459196866,0.9994513988494873,0.0,0.0,0.0,-10.622086524963379,4.384037494659424,8.717363357543945,1922.6187744140625,0
237.88900000000103,-0.020793387666344643,-0.006407531909644604,-0.0015031308867037296,0.0,0.0,0.0,0.0,0.003035896457731724,-7.415502477670088e-05,-0.00015961429744493216,0.9976770281791687,0.0,0.0,0.0,-10.646209716796875,4.389984130859375,8.75625228881836,1926.985107421875,0
247.79000000000087,-0.020836632698774338,-0.006414485163986683,-0.0015071441885083914,0.0,0.0,0.0,0.0,-0.0022834527771919966,-0.0005460051470436156,0.002904355525970459,0.9995049238204956,0.0,0.0,0.0,-10.635663032531738,4.377752304077148,8.746648788452148,1925.0760498046875,0
257.71200000000135,-0.020803267136216164,-0.006402712315320969,-0.0014675761340186,0.0,0.0,0.0,0.0,-0.0012174771400168538,0.003568578977137804,-0.004190615378320217,0.9998883008956909,0.0,0.0,0.0,-10.659934997558594,4.385865688323975,8.75446605682373,1929.469482421875,0
267.616,-0.020848620682954788,-0.00640881760045886,-0.0014684717170894146,0.0,0.0,0.0,0.0,-0.0018833470530807972,-0.0009264359250664711,0.0005529818590730429,0.9993318319320679,0.0,0.0,0.0,-10.65028190612793,4.385302543640137,8.74038314819336,1927.72216796875,0
277.53499999999985,-0.020859546959400177,-0.006427521351724863,-0.0013990208972245455,0.0,0.0,0.0,0.0,-0.004039655439555645,2.22843427764019e-05,0.0008492377819493413,0.9992887377738953,0.0,0.0,0.0,-10.662703514099121,4.392271041870117,8.74466609954834,1929.9705810546875,0
287.4390000000003,-0.020907441154122353,-0.006432889960706234,-0.0013936529867351055,0.0,0.0,0.0,0.0,0.0006725591374561191,-0.0008430745219811797,-0.002784635638818145,0.9987185001373291,0.0,0.0,0.0,-10.651018142700195,4.394352436065674,8.735548973083496,1927.8555908203125,0
297.35200000000077,-0.020810341462492943,-0.006487313192337751,-0.0013518685009330511,0.0,0.0,0.0,0.0,0.0004931026487611234,0.0005321436910890043,0.0015136080328375101,0.9995526075363159,0.0,0.0,0.0,-10.6702299118042,4.390172958374023,8.748025894165039,1931.3328857421875,0
307.27200000000084,-0.02085534855723381,-0.0065048616379499435,-0.001351447426714003,0.0,0.0,0.0,0.0,0.0003440295113250613,-0.001297774724662304,0.004194897599518299,0.9993398785591125,0.0,0.0,0.0,-10.66617202758789,4.385984897613525,8.736486434936523,1930.5985107421875,0
317.1920000000009,-0.020866217091679573,-0.006479110103100538,-0.001305463956668973,0.0,0.0,0.0,0.0,-5.965481614111923e-05,-0.002105757361277938,0.0034645316191017628,0.9994381070137024,0.0,0.0,0.0,-10.669116020202637,4.387307643890381,8.738420486450195,1931.131103515625,0
327.09000000000015,-0.020857030525803566,-0.006419066805392504,-0.0013520042411983013,0.0,0.0,0.0,0.0,-0.0016316896071657538,-0.0033480473794043064,0.0006695445044897497,0.9971370100975037,0.0,0.0,0.0,-10.664443969726562,4.3953375816345215,8.742822647094727,1930.28564453125,0
337.00800000000163,-0.02082998864352703,-0.006445390172302723,-0.001322308205999434,0.0,0.0,0.0,0.0,-0.001625930075533688,-0.001029265346005559,-0.0024509765207767487,0.9985907077789307,0.0,0.0,0.0,-10.674468040466309,4.391993999481201,8.756925582885742,1932.0999755859375,0
346.91300000000047,-0.02082986943423748,-0.006397694814950228,-0.0013648453168570995,0.0,0.0,0.0,0.0,-0.002813990693539381,-0.0004766589845530689,-0.002572549507021904,1.000861406326294,0.0,0.0,0.0,-10.670260429382324,4.40179443359375,8.755349159240723,1931.33837890625,0
356.8299999999999,-0.020867105573415756,-0.0063669621013104916,-0.0013308761408552527,0.0,0.0,0.0,0.0,6.527266668854281e-05,-0.0008845268748700619,0.0014196514384821057,1.0014269351959229,0.0,0.0,0.0,-10.675018310546875,4.409359455108643,8.756975173950195,1932.1995849609375,0
366.7400000000016,-0.020887814462184906,-0.006336584221571684,-0.001349546597339213,0.0,0.0,0.0,0.0,0.0007731460500508547,-0.0005291406414471567,-2.5491379346931353e-05,0.9993137717247009,0.0,0.0,0.0,-10.671239852905273,4.415780067443848,8.75244426727295,1931.515625,0
376.64800000000105,-0.020857974886894226,-0.006394564639776945,-0.0013382056495174766,0.0,0.0,0.0,0.0,-0.0017036616336554289,0.0016245407750830054,0.001706465845927596,0.9992386102676392,0.0,0.0,0.0,-10.681215286254883,4.404852867126465,8.756453514099121,1933.3211669921875,0
386.5590000000011,-0.02086636982858181,-0.006352393422275782,-0.0013665776932612062,0.0,0.0,0.0,0.0,0.002022258937358856,-0.0016348054632544518,0.0017938828095793724,0.9983194470405579,0.0,0.0,0.0,-10.677389144897461,4.417039394378662,8.750040054321289,1932.628662109375,0
396.4800000000014,-0.020919319242239,-0.006356195546686649,-0.0013614143244922161,0.0,0.0,0.0,0.0,0.0010378099977970123,-4.3051284592365846e-05,-0.0012998832389712334,0.9982497096061707,0.0,0.0,0.0,-10.677692413330078,4.411376953125,8.746787071228027,1932.6837158203125,0
406.3790000000008,-0.020921573042869568,-0.006330892443656921,-0.0014116971287876368,0.0,0.0,0.0,0.0,-0.0014801692450419068,-0.00620139529928565,0.002020403277128935,0.9981255531311035,0.0,0.0,0.0,-10.675582885742188,4.418937683105469,8.744070053100586,1932.3016357421875,0
416.2960000000003,-0.02085687965154648,-0.006385225802659988,-0.0014000276569277048,0.0,0.0,0.0,0.0,0.000850483775138855,0.0029175004456192255,0.0015404970617964864,0.9995124340057373,0.0,0.0,0.0,-10.679793357849121,4.413106441497803,8.770668983459473,1933.0638427734375,0
426.20200000000114,-0.02086479403078556,-0.006360845174640417,-0.0014435142511501908,0.0,0.0,0.0,0.0,0.0018109186785295606,0.00020596278773155063,0.0008581969304941595,1.0000858306884766,0.0,0.0,0.0,-10.669211387634277,4.405332565307617,8.749580383300781,1931.1485595703125,0
436.1240000000016,-0.020863352343440056,-0.006341143976897001,-0.0014149229973554611,0.0,0.0,0.0,0.0,0.001470130868256092,-0.0001750152005115524,-0.0009387833997607231,0.9990930557250977,0.0,0.0,0.0,-10.668137550354004,4.4033331871032715,8.755212783813477,1930.9541015625,0
446.02400000000125,-0.020884817466139793,-0.0063340989872813225,-0.0014480932150036097,0.0,0.0,0.0,0.0,-0.0008291655103676021,-0.003457535058259964,0.001880015479400754,1.0005661249160767,0.0,0.0,0.0,-10.66477108001709,4.398253917694092,8.748758316040039,1930.3448486328125,0
455.9420000000009,-0.02095571532845497,-0.006295235361903906,-0.0014328883262351155,0.0,0.0,0.0,0.0,-0.00015837316459510475,0.001334360451437533,0.003127800766378641,0.998795211315155,0.0,0.0,0.0,-10.663851737976074,4.404913425445557,8.747076034545898,1930.178466796875,0
465.84600000000137,-0.020987553521990776,-0.006323388312011957,-0.0014687245711684227,0.0,0.0,0.0,0.0,-0.0002305333619005978,-0.0012255462352186441,-0.001982039539143443,0.9981337785720825,0.0,0.0,0.0,-10.659212112426758,4.395588397979736,8.74423885345459,1929.3387451171875,0
475.77000000000044,-0.02097516506910324,-0.006303071044385433,-0.0014364841626957059,0.0,0.0,0.0,0.0,0.002041836269199848,-0.00041309327934868634,0.001119401422329247,0.9997105002403259,0.0,0.0,0.0,-10.65835189819336,4.395373821258545,8.756582260131836,1929.1829833984375,0
485.6750000000011,-0.02098221704363823,-0.006282826419919729,-0.0014870460145175457,0.0,0.0,0.0,0.0,8.553145016776398e-05,-0.0030111558735370636,-0.0002449333551339805,1.0007625818252563,0.0,0.0,0.0,-10.646930694580078,4.388304710388184,8.753199577331543,1927.11572265625,0
495.59900000000016,-0.020891180261969566,-0.006333454046398401,-0.001466888003051281,0.0,0.0,0.0,0.0,0.003106263466179371,-0.0006626139511354268,-0.002668062224984169,0.999489963054657,0.0,0.0,0.0,-10.65453815460205,4.387061595916748,8.765294075012207,1928.4927978515625,0
505.4970000000012,-0.020895112305879593,-0.006308605428785086,-0.0015128974337130785,0.0,0.0,0.0,0.0,0.0027431780472397804,-0.00010298314737156034,-0.0030182506889104843,0.9982614517211914,0.0,0.0,0.0,-10.652169227600098,4.3880157470703125,8.759974479675293,1928.0638427734375,0
515.4160000000011,-0.020882247015833855,-0.006362264510244131,-0.0015179214533418417,0.0,0.0,0.0,0.0,0.0005806432454846799,-0.002818112727254629,0.004214338958263397,0.9984756708145142,0.0,0.0,0.0,-10.662214279174805,4.376447677612305,8.766827583312988,1929.882080078125,0
525.3170000000009,-0.020922357216477394,-0.006358090788125992,-0.001543169841170311,0.0,0.0,0.0,0.0,0.0011044801212847233,0.00857794564217329,-0.0039001971017569304,0.9979037642478943,0.0,0.0,0.0,-10.6564302444458,4.374056339263916,8.756836891174316,1928.8350830078125,0
535.2470000000012,-0.020884184166789055,-0.0063761696219444275,-0.0015260973013937473,0.0,0.0,0.0,0.0,0.0006293695187196136,0.0012126096989959478,0.0014062488917261362,0.9983884692192078,0.0,0.0,0.0,-10.66718864440918,4.372467994689941,8.752513885498047,1930.782470703125,0
545.1400000000012,-0.020872266963124275,-0.006352067459374666,-0.0015351169276982546,0.0,0.0,0.0,0.0,-0.0017000266816467047,-0.002971343696117401,0.0023675812408328056,0.9988869428634644,0.0,0.0,0.0,-10.66718864440918,4.372467994689941,8.752513885498047,1930.782470703125,0
555.0600000000013,-0.020901627838611603,-0.006312381476163864,-0.0015103465411812067,0.0,0.0,0.0,0.0,0.002019279170781374,-0.0007214218494482338,-0.0009903437457978725,1.0006917715072632,0.0,0.0,0.0,-10.653631210327148,4.387565612792969,8.753847122192383,1928.3284912109375,0
564.9620000000014,-0.020913181826472282,-0.006365599576383829,-0.0015195102896541357,0.0,0.0,0.0,0.0,-0.000943521095905453,-0.00047575103235431015,-0.0039061778225004673,1.001054048538208,0.0,0.0,0.0,-10.6610746383667,4.380532741546631,8.754486083984375,1929.67578125,0
574.8880000000008,-0.02092648297548294,-0.006340166553854942,-0.0014869454316794872,0.0,0.0,0.0,0.0,-0.002828896977007389,-0.0002870924072340131,0.0004723980382550508,0.9992911219596863,0.0,0.0,0.0,-10.650107383728027,4.3814167976379395,8.754074096679688,1927.6904296875,0
584.7849999999999,-0.020962323993444443,-0.006389976479113102,-0.0014598387060686946,0.0,0.0,0.0,0.0,-0.001120877917855978,-0.0012396976817399263,0.00048499793047085404,0.998511791229248,0.0,0.0,0.0,-10.65959358215332,4.375461578369141,8.750391006469727,1929.4075927734375,0
594.7170000000006,-0.02091575600206852,-0.006366396322846413,-0.0014078357489779592,0.0,0.0,0.0,0.0,-0.0034055733121931553,0.0016751361545175314,0.003024841658771038,0.9991030693054199,0.0,0.0,0.0,-10.658230781555176,4.382747650146484,8.750633239746094,1929.1610107421875,0
604.616,-0.020930247381329536,-0.006330403964966536,-0.001426534727215767,0.0,0.0,0.0,0.0,-0.0005155098624527454,-0.004998892080038786,0.0030425344593822956,1.0001634359359741,0.0,0.0,0.0,-10.65644645690918,4.391298294067383,8.747899055480957,1928.838134765625,0
614.5320000000011,-0.02088271453976631,-0.006332282442599535,-0.0013912026770412922,0.0,0.0,0.0,0.0,-0.002274623606353998,-0.0034802125301212072,-0.0021833714563399553,0.9976297616958618,0.0,0.0,0.0,-10.654356956481934,4.393115043640137,8.752096176147461,1928.4598388671875,0
624.4360000000015,-0.0208683330565691,-0.0063092890195548534,-0.001460118219256401,0.0,0.0,0.0,0.0,-0.00021834284416399896,-0.0010243700817227364,-0.0006827277829870582,0.9989665150642395,0.0,0.0,0.0,-10.648600578308105,4.398128509521484,8.760730743408203,1927.417724609375,0
634.3610000000008,-0.020856674760580063,-0.0063503943383693695,-0.0014584909658879042,0.0,0.0,0.0,0.0,-0.002447828184813261,-0.0042525529861450195,-0.00026262138271704316,0.9977431893348694,0.0,0.0,0.0,-10.659491539001465,4.399850368499756,8.77751350402832,1929.38916015625,0
644.2570000000014,-0.0208777766674757,-0.006337628699839115,-0.0014869325095787644,0.0,0.0,0.0,0.0,-0.0004094709875062108,-0.00197301572188735,0.0016669470351189375,0.9976383447647095,0.0,0.0,0.0,-10.649494171142578,4.3956522941589355,8.780498504638672,1927.5797119140625,0
654.1830000000009,-0.02094324491918087,-0.006295896600931883,-0.001472880132496357,0.0,0.0,0.0,0.0,-0.0030103735625743866,0.005298822186887264,0.0038020359352231026,0.9992969036102295,0.0,0.0,0.0,-10.648857116699219,4.405142784118652,8.766135215759277,1927.4642333984375,0
664.0790000000015,-0.02101115509867668,-0.00635835574939847,-0.001472499337978661,0.0,0.0,0.0,0.0,0.002230422804132104,-0.004624552559107542,-0.001430140808224678,0.9990273714065552,0.0,0.0,0.0,-10.64455795288086,4.390824794769287,8.755979537963867,1926.6861572265625,0
674.0110000000004,-0.02085709758102894,-0.006398079916834831,-0.0014228137442842126,0.0,0.0,0.0,0.0,0.001078088185749948,0.0007549621514044702,0.0025856136344373226,0.9989590644836426,0.0,0.0,0.0,-10.65389633178711,4.389822006225586,8.782447814941406,1928.3763427734375,0
683.9110000000001,-0.020913155749440193,-0.006444576196372509,-0.0014191950904205441,0.0,0.0,0.0,0.0,-0.0007404245552606881,-0.0028146610129624605,-0.004089587368071079,0.9988701343536377,0.0,0.0,0.0,-10.651514053344727,4.379292964935303,8.781641960144043,1927.9453125,0
693.8220000000001,-0.020951885730028152,-0.006413307040929794,-0.0013955405447632074,0.0,0.0,0.0,0.0,0.001882155891507864,-0.006173599977046251,0.003571824636310339,0.9974715113639832,0.0,0.0,0.0,-10.65344524383545,4.392111778259277,8.781657218933105,1928.2947998046875,0
703.7360000000008,-0.021033314988017082,-0.006474110763520002,-0.0013668406754732132,0.0,0.0,0.0,0.0,0.0027352378237992525,0.0024705620016902685,-0.0023793030995875597,0.9977399110794067,0.0,0.0,0.0,-10.65076732635498,4.385497570037842,8.7749605178833,1927.8101806640625,0
713.6460000000006,-0.020902525633573532,-0.006509014870971441,-0.0013128349091857672,0.0,0.0,0.0,0.0,-0.0006429287604987621,0.002093492541462183,-0.0038060785736888647,0.9984796047210693,0.0,0.0,0.0,-10.661855697631836,4.37980842590332,8.807029724121094,1929.8172607421875,0
723.5570000000007,-0.020913874730467796,-0.006482804659754038,-0.0013382277684286237,0.0,0.0,0.0,0.0,-0.001709689386188984,-0.0019518104381859303,-2.290746670041699e-05,0.9988291263580322,0.0,0.0,0.0,-10.66366958618164,4.385162830352783,8.794751167297363,1930.1455078125,0
733.4700000000012,-0.020864520221948624,-0.006482535041868687,-0.0013009004760533571,0.0,0.0,0.0,0.0,-0.00043528893729671836,0.002859806641936302,0.0008468622108921409,0.9986855387687683,0.0,0.0,0.0,-10.663407325744629,4.385194301605225,8.806921005249023,1930.0980224609375,0
743.3770000000004,-0.020854070782661438,-0.006447045598179102,-0.001351537648588419,0.0,0.0,0.0,0.0,0.0010751050431281328,-0.0025912849232554436,-0.0006946427165530622,0.9979961514472961,0.0,0.0,0.0,-10.657954216003418,4.398703575134277,8.806036949157715,1929.111083984375,0
753.2920000000013,-0.020786164328455925,-0.006503975950181484,-0.0013393918052315712,0.0,0.0,0.0,0.0,0.00198580720461905,-0.0008375750039704144,-0.00011344764061504975,0.9988160133361816,0.0,0.0,0.0,-10.665607452392578,4.386474132537842,8.819196701049805,1930.496337890625,0
763.2120000000014,-0.020772775635123253,-0.006436884868890047,-0.0013792389072477818,0.0,0.0,0.0,0.0,0.00010998663492500782,-0.0043305903673172,0.0019676415249705315,0.9995403289794922,0.0,0.0,0.0,-10.660626411437988,4.397191047668457,8.822549819946289,1929.5946044921875,0
773.1170000000002,-0.020808536559343338,-0.006422577891498804,-0.0013727264013141394,0.0,0.0,0.0,0.0,0.001372920349240303,0.0005559573182836175,-0.003390055848285556,1.0007480382919312,0.0,0.0,0.0,-10.6595458984375,4.396919250488281,8.81525707244873,1929.39892578125,0
783.0290000000005,-0.02075154334306717,-0.006336156278848648,-0.0014687801012769341,0.0,0.0,0.0,0.0,0.0031359700951725245,0.00030349247390404344,-0.0035849004052579403,0.9981637597084045,0.0,0.0,0.0,-10.657408714294434,4.412444591522217,8.814452171325684,1929.01220703125,0
792.9380000000001,-0.020789088681340218,-0.006329373922199011,-0.0014753872528672218,0.0,0.0,0.0,0.0,0.0009759637759998441,0.0007030721753835678,0.000164904267876409,0.9996666312217712,0.0,0.0,0.0,-10.65687084197998,4.407453536987305,8.814626693725586,1928.9149169921875,0
802.853000000001,-0.020773014053702354,-0.006290904711931944,-0.0015408305916935205,0.0,0.0,0.0,0.0,-0.0003624389646574855,-0.00015076063573360443,0.001700314343906939,0.9991441369056702,0.0,0.0,0.0,-10.65583324432373,4.406757354736328,8.80903148651123,1928.7271728515625,0
812.7560000000012,-0.020786747336387634,-0.006289165932685137,-0.0015470017679035664,0.0,0.0,0.0,0.0,0.0005463439738377929,-0.0013106642290949821,-0.00189933308865875,0.9964675903320312,0.0,0.0,0.0,-10.657476425170898,4.405716419219971,8.80249309539795,1929.0244140625,0
822.6720000000005,-0.02083190158009529,-0.006296978332102299,-0.0015524099580943584,0.0,0.0,0.0,0.0,7.494443707400933e-05,0.00039808766450732946,-0.0005276860320009291,1.0013600587844849,0.0,0.0,0.0,-10.646174430847168,4.398615837097168,8.790390014648438,1926.978759765625,0
832.5790000000015,-0.02084834687411785,-0.006271096412092447,-0.001548188622109592,0.0,0.0,0.0,0.0,-0.0004890707205049694,-0.003167962422594428,0.0034170944709330797,0.9987637400627136,0.0,0.0,0.0,-10.648505210876465,4.403110980987549,8.787691116333008,1927.4005126953125,0
842.496000000001,-0.020943451672792435,-0.006366067565977573,-0.0015241329092532396,0.0,0.0,0.0,0.0,-0.00014393703895621002,-0.0010015687439590693,-0.0007625879952684045,0.9995812177658081,0.0,0.0,0.0,-10.638915061950684,4.391580104827881,8.78619384765625,1925.664794921875,0
852.4090000000015,-0.020968470722436905,-0.006337018217891455,-0.0015087949577718973,0.0,0.0,0.0,0.0,0.0013783234171569347,0.0002526638563722372,-0.0005589884822256863,0.9996247291564941,0.0,0.0,0.0,-10.629159927368164,4.392207145690918,8.787542343139648,1923.89892578125,0
862.3250000000007,-0.020951438695192337,-0.00632103718817234,-0.001528916065581143,0.0,0.0,0.0,0.0,0.0004175917129032314,-0.002817857079207897,0.0005281970952637494,0.9974657893180847,0.0,0.0,0.0,-10.635574340820312,4.399154186248779,8.789488792419434,1925.0601806640625,0
872.2250000000004,-0.020904263481497765,-0.006354569923132658,-0.0015207324177026749,0.0,0.0,0.0,0.0,0.0015575741417706013,-0.0002945428714156151,-0.00030199004686437547,0.9982284903526306,0.0,0.0,0.0,-10.63641357421875,4.381855010986328,8.811054229736328,1925.2120361328125,0
882.1530000000002,-0.020900998264551163,-0.006350409239530563,-0.0015262130182236433,0.0,0.0,0.0,0.0,0.0005900900578126311,0.0024962022434920073,0.0017324747750535607,0.9969871044158936,0.0,0.0,0.0,-10.642566680908203,4.386302947998047,8.811233520507812,1926.32568359375,0
892.0529999999999,-0.02099466696381569,-0.00628823833540082,-0.0015179303009063005,0.0,0.0,0.0,0.0,0.0005266346852295101,-0.000246332841925323,0.0034800374414771795,0.9988029599189758,0.0,0.0,0.0,-10.63158130645752,4.389126300811768,8.798360824584961,1924.33740234375,0
901.9650000000001,-0.02099190093576908,-0.0062895650044083595,-0.001524418592453003,0.0,0.0,0.0,0.0,-4.984653787687421e-05,0.0036507099866867065,-0.0014967697206884623,1.0003005266189575,0.0,0.0,0.0,-10.641474723815918,4.393379211425781,8.798408508300781,1926.128173828125,0
911.871000000001,-0.020925115793943405,-0.006286641117185354,-0.0014926546718925238,0.0,0.0,0.0,0.0,0.0011775643797591329,0.004304502625018358,-0.001508403685875237,0.9998257756233215,0.0,0.0,0.0,-10.627021789550781,4.382531642913818,8.798190116882324,1923.5120849609375,0
921.7930000000015,-0.02094278484582901,-0.006275455467402935,-0.0015336499782279134,0.0,0.0,0.0,0.0,0.0007116979104466736,-0.0015620467020198703,-0.0033429728355258703,0.99915611743927,0.0,0.0,0.0,-10.625646591186523,4.379502296447754,8.788765907287598,1923.2633056640625,0
931.7070000000003,-0.020970433950424194,-0.006246733479201794,-0.0015150087419897318,0.0,0.0,0.0,0.0,0.0014308113604784012,0.0024527579080313444,-0.0025341627188026905,1.0006030797958374,0.0,0.0,0.0,-10.627065658569336,4.385142803192139,8.789167404174805,1923.5201416015625,0
941.6230000000014,-0.021020490676164627,-0.006295591592788696,-0.0015325612621381879,0.0,0.0,0.0,0.0,0.00015052851813379675,0.0006966957589611411,-5.882289315195521e-06,0.9982666969299316,0.0,0.0,0.0,-10.625395774841309,4.369743347167969,8.781761169433594,1923.2177734375,0
951.5190000000002,-0.021013198420405388,-0.006269887555390596,-0.0015025116736069322,0.0,0.0,0.0,0.0,-0.0011234725825488567,0.0017380423378199339,0.002633530180901289,0.9981364607810974,0.0,0.0,0.0,-10.625935554504395,4.376986503601074,8.777114868164062,1923.3154296875,0
961.4420000000009,-0.021039100363850594,-0.0062496718019247055,-0.0015284961555153131,0.0,0.0,0.0,0.0,0.001639844849705696,-0.0012163198553025723,-3.267416832386516e-05,0.9981551170349121,0.0,0.0,0.0,-10.626168251037598,4.37980318069458,8.776147842407227,1923.3575439453125,0
971.3400000000001,-0.020968280732631683,-0.00627765990793705,-0.0015070533845573664,0.0,0.0,0.0,0.0,0.00017335884331259876,0.001355588436126709,-0.00498628243803978,0.9987638592720032,0.0,0.0,0.0,-10.630105018615723,4.373580455780029,8.783692359924316,1924.0701904296875,0
981.2570000000014,-0.021003633737564087,-0.006268919911235571,-0.001522274687886238,0.0,0.0,0.0,0.0,0.0016613197512924671,0.0009725575800985098,0.0018458403646945953,0.9991438984870911,0.0,0.0,0.0,-10.629486083984375,4.369523048400879,8.775218963623047,1923.9580078125,0
991.1650000000009,-0.020873403176665306,-0.006319066043943167,-0.0014916796935722232,0.0,0.0,0.0,0.0,-0.00292167323641479,0.0028021547477692366,0.0009526872891001403,1.0013587474822998,0.0,0.0,0.0,-10.628133773803711,4.35540246963501,8.79883861541748,1923.7132568359375,0
1001.0889999999999,-0.02091941423714161,-0.006313358899205923,-0.0014850834850221872,0.0,0.0,0.0,0.0,-0.00043365306919440627,-0.005148855037987232,-0.0010094817262142897,0.9981340765953064,0.0,0.0,0.0,-10.62574291229248,4.352166652679443,8.791175842285156,1923.280517578125,0
1010.987000000001,-0.020817410200834274,-0.00640227971598506,-0.0014766056556254625,0.0,0.0,0.0,0.0,-0.002983048092573881,-0.000126818340504542,9.989800309995189e-05,0.9990384578704834,0.0,0.0,0.0,-10.636236190795898,4.345865726470947,8.823241233825684,1925.1798095703125,0
1020.9080000000013,-0.020903000608086586,-0.006460228469222784,-0.0014339688932523131,0.0,0.0,0.0,0.0,-0.002125674393028021,-0.0014873896725475788,0.0007130613666959107,0.9986097812652588,0.0,0.0,0.0,-10.634479522705078,4.333539009094238,8.80557632446289,1924.862060546875,0
1030.8110000000015,-0.020835690200328827,-0.00651530222967267,-0.0014123956207185984,0.0,0.0,0.0,0.0,0.00094093062216416,-0.0038060902152210474,0.0030280635692179203,1.0002413988113403,0.0,0.0,0.0,-10.644344329833984,4.3291192054748535,8.825386047363281,1926.6474609375,0
1040.7400000000016,-0.020845215767621994,-0.0064630694687366486,-0.0014227931387722492,0.0,0.0,0.0,0.0,-0.0004416294686961919,0.0005571682704612613,-0.0041219377890229225,0.9979957342147827,0.0,0.0,0.0,-10.644730567932129,4.340667724609375,8.825000762939453,1926.7174072265625,0
1050.6400000000012,-0.020811649039387703,-0.006510894279927015,-0.001409247750416398,0.0,0.0,0.0,0.0,0.000600270985160023,-0.00045970335486344993,0.0019086218671873212,0.9995046257972717,0.0,0.0,0.0,-10.655553817749023,4.333440780639648,8.820287704467773,1928.6766357421875,0
1060.559000000001,-0.020814746618270874,-0.006476040463894606,-0.001436205580830574,0.0,0.0,0.0,0.0,0.0014312209095805883,-0.000696288188919425,-0.003938550595194101,1.0024001598358154,0.0,0.0,0.0,-10.653692245483398,4.3400397300720215,8.815096855163574,1928.3394775390625,0
1070.4680000000008,-0.02090473286807537,-0.006487129721790552,-0.0014432580210268497,0.0,0.0,0.0,0.0,-0.00028056834707967937,-0.0017336459131911397,-0.001926486729644239,0.9984700679779053,0.0,0.0,0.0,-10.663856506347656,4.335749626159668,8.805139541625977,1930.1793212890625,0
1080.3830000000016,-0.02091585472226143,-0.0064742062240839005,-0.001472506788559258,0.0,0.0,0.0,0.0,0.002778255147859454,-0.00017531923367641866,0.0006655142060481012,0.9974632263183594,0.0,0.0,0.0,-10.658941268920898,4.331378936767578,8.803234100341797,1929.28955078125,0
1090.2849999999999,-0.020882850512862206,-0.00648723728954792,-0.0014461230020970106,0.0,0.0,0.0,0.0,-0.00173519819509238,0.0013873162679374218,-0.0014275372959673405,0.9995334148406982,0.0,0.0,0.0,-10.66307544708252,4.32643461227417,8.806682586669922,1930.0379638671875,0
1100.2120000000014,-0.020919140428304672,-0.006462432444095612,-0.0014313200954347849,0.0,0.0,0.0,0.0,0.0011878542136400938,0.0016130056465044618,0.002248170552775264,0.999835193157196,0.0,0.0,0.0,-10.659690856933594,4.3323588371276855,8.789451599121094,1929.42529296875,0
1110.1110000000008,-0.02101418375968933,-0.00638140132650733,-0.001393597456626594,0.0,0.0,0.0,0.0,0.0005716024897992611,-0.002620399696752429,0.0031757967080920935,0.999586284160614,0.0,0.0,0.0,-10.661982536315918,4.343339443206787,8.770920753479004,1929.8402099609375,0
1120.0160000000014,-0.021052656695246696,-0.006394839379936457,-0.001396004343405366,0.0,0.0,0.0,0.0,-0.002062508836388588,-0.005148160737007856,-0.0009200791828334332,1.0000288486480713,0.0,0.0,0.0,-10.658150672912598,4.340478897094727,8.774759292602539,1929.146484375,0
1129.9270000000015,-0.021035484969615936,-0.006364839617162943,-0.0013463676441460848,0.0,0.0,0.0,0.0,-0.0018313375767320395,0.0034016643185168505,0.00014595608809031546,0.9992713928222656,0.0,0.0,0.0,-10.660659790039062,4.351576805114746,8.777320861816406,1929.6007080078125,0
1139.8420000000006,-0.021058157086372375,-0.006373065523803234,-0.001367018441669643,0.0,0.0,0.0,0.0,-0.00012937864812556654,-0.00045143402530811727,-0.0016060031484812498,1.0011036396026611,0.0,0.0,0.0,-10.66019344329834,4.349878311157227,8.760246276855469,1929.516357421875,0
1149.7520000000004,-0.02100227400660515,-0.006385601591318846,-0.0013179921079427004,0.0,0.0,0.0,0.0,-0.0013830856187269092,0.001732228440232575,-0.0021780149545520544,0.9998493790626526,0.0,0.0,0.0,-10.669618606567383,4.352656841278076,8.764287948608398,1931.22216796875,0
1159.6630000000005,-0.020991666242480278,-0.006377067416906357,-0.0013726577162742615,0.0,0.0,0.0,0.0,0.0012259172508493066,0.005650235805660486,0.0002513873332645744,0.9982848167419434,0.0,0.0,0.0,-10.66797924041748,4.3511481285095215,8.75961971282959,1930.9254150390625,0
1169.5740000000005,-0.020931903272867203,-0.006369017064571381,-0.0013198821106925607,0.0,0.0,0.0,0.0,-0.0026655737310647964,-0.0028952802531421185,0.0023114741779863834,0.9980391263961792,0.0,0.0,0.0,-10.66772747039795,4.355295181274414,8.761889457702637,1930.8798828125,0
1179.4880000000012,-0.020918160676956177,-0.006346231326460838,-0.0013745457399636507,0.0,0.0,0.0,0.0,0.0018703957321122289,-0.0011750380508601665,0.0012480909936130047,0.9961099028587341,0.0,0.0,0.0,-10.662242889404297,4.360851764678955,8.764030456542969,1929.88720703125,0
1189.3960000000006,-0.020894037559628487,-0.0064090825617313385,-0.0013753531966358423,0.0,0.0,0.0,0.0,0.0009044611360877752,-0.001731167663820088,-0.001254802686162293,0.998681366443634,0.0,0.0,0.0,-10.671403884887695,4.346439361572266,8.77540397644043,1931.54541015625,0
1199.3150000000005,-0.020821182057261467,-0.006326436530798674,-0.001446821610443294,0.0,0.0,0.0,0.0,0.0033609550446271896,0.000920289137866348,0.0007228785543702543,0.9997737407684326,0.0,0.0,0.0,-10.678815841674805,4.368103981018066,8.783737182617188,1932.886962890625,0
1209.2290000000012,-0.020881785079836845,-0.006370035000145435,-0.0014721903717145324,0.0,0.0,0.0,0.0,0.0013572948519140482,0.00284634274430573,-0.0007757304701954126,0.9975573420524597,0.0,0.0,0.0,-10.678600311279297,4.3510541915893555,8.768369674682617,1932.847900390625,0
1219.1400000000012,-0.02088114619255066,-0.006355778779834509,-0.001468812464736402,0.0,0.0,0.0,0.0,0.0009280215599574149,0.0008530100458301604,0.0044213817454874516,0.9959883093833923,0.0,0.0,0.0,-10.68747615814209,4.357929229736328,8.767242431640625,1934.4544677734375,0
1229.0460000000003,-0.020940687507390976,-0.006347975227981806,-0.001474157441407442,0.0,0.0,0.0,0.0,0.002508745063096285,0.0002784859389066696,0.0019009396200999618,0.9980096220970154,0.0,0.0,0.0,-10.677719116210938,4.352719306945801,8.746368408203125,1932.6883544921875,0
1238.964,-0.0209041777998209,-0.006314313970506191,-0.001513753435574472,0.0,0.0,0.0,0.0,-0.0009737625368870795,0.0010173063492402434,0.004515787120908499,0.9996384382247925,0.0,0.0,0.0,-10.68867301940918,4.3641180992126465,8.750179290771484,1934.671142578125,0
1248.8700000000008,-0.020800990983843803,-0.006400095298886299,-0.0015270302537828684,0.0,0.0,0.0,0.0,-0.0011367237893864512,-0.0025093297008424997,-0.0016294113593176007,1.0010349750518799,0.0,0.0,0.0,-10.685123443603516,4.350271701812744,8.772994041442871,1934.028564453125,0
1258.7840000000015,-0.02083614096045494,-0.006382252089679241,-0.001522864680737257,0.0,0.0,0.0,0.0,0.004173796158283949,-0.0018923316383734345,-0.00017561342974659055,0.9999035000801086,0.0,0.0,0.0,-10.674017906188965,4.345127105712891,8.771444320678711,1932.0184326171875,0
1268.6980000000003,-0.020791664719581604,-0.006434121634811163,-0.0015257468912750483,0.0,0.0,0.0,0.0,-0.00031222804682329297,6.442741141654551e-05,4.8854613851290196e-05,1.000245213508606,0.0,0.0,0.0,-10.683128356933594,4.33547306060791,8.77905559539795,1933.66748046875,0
1278.6110000000008,-0.02082708105444908,-0.006414881441742182,-0.00151409104000777,0.0,0.0,0.0,0.0,-0.0013502069050446153,-0.00035059903166256845,0.002127701183781028,0.9986777305603027,0.0,0.0,0.0,-10.67983341217041,4.3407440185546875,8.77481460571289,1933.071044921875,0
1288.518,-0.020849211141467094,-0.006402997765690088,-0.0015059569850564003,0.0,0.0,0.0,0.0,0.0018222836079075933,-0.0016622960101813078,0.0022424531634896994,0.9995288848876953,0.0,0.0,0.0,-10.674047470092773,4.3375163078308105,8.767991065979004,1932.0238037109375,0
1298.4350000000013,-0.020873235538601875,-0.006388128735125065,-0.0015159305185079575,0.0,0.0,0.0,0.0,-0.0003659479261841625,-0.003067610552534461,-0.0008130751084536314,0.999620258808136,0.0,0.0,0.0,-10.670636177062988,4.336490154266357,8.77122688293457,1931.4063720703125,0
1308.3370000000014,-0.020804474130272865,-0.006452192086726427,-0.0015123664634302258,0.0,0.0,0.0,0.0,-0.0023635211400687695,0.0021484235767275095,-0.0007311594672501087,0.9987390041351318,0.0,0.0,0.0,-10.680082321166992,4.327204704284668,8.789090156555176,1933.1160888671875,0
1318.2570000000014,-0.02083006128668785,-0.006419760175049305,-0.001512706745415926,0.0,0.0,0.0,0.0,-9.467316704103723e-05,-0.002185371471568942,-0.0009666660916991532,0.9988987445831299,0.0,0.0,0.0,-10.676526069641113,4.335010528564453,8.775075912475586,1932.4725341796875,0
1328.1650000000009,-0.020869722589850426,-0.006403590086847544,-0.0015053022652864456,0.0,0.0,0.0,0.0,0.0014872074825689197,-0.003528855973854661,0.001291833003051579,0.9992358088493347,0.0,0.0,0.0,-10.67559814453125,4.340851306915283,8.771297454833984,1932.3045654296875,0
1338.0840000000007,-0.02089289017021656,-0.006395529489964247,-0.0015255084726959467,0.0,0.0,0.0,0.0,-0.00247430638410151,0.0030516216065734625,-0.0015603877836838365,0.997069239616394,0.0,0.0,0.0,-10.664429664611816,4.334344387054443,8.77151107788086,1930.282958984375,0
1347.9840000000004,-0.020914385095238686,-0.006411241367459297,-0.0015252374578267336,0.0,0.0,0.0,0.0,0.0010087533155456185,-2.394756393186981e-06,0.002006951253861189,0.9965614080429077,0.0,0.0,0.0,-10.67691707611084,4.335699558258057,8.766961097717285,1932.5433349609375,0
1357.9050000000007,-0.02093384601175785,-0.006391989532858133,-0.0015525356866419315,0.0,0.0,0.0,0.0,-0.004879471380263567,-0.001465331413783133,0.0017984979785978794,1.0007374286651611,0.0,0.0,0.0,-10.672079086303711,4.339211940765381,8.759366989135742,1931.66748046875,0
1367.8050000000003,-0.02085261233150959,-0.006391741801053286,-0.001509909168817103,0.0,0.0,0.0,0.0,0.00019105504907201976,0.0006785189034417272,0.004220400471240282,0.9982820749282837,0.0,0.0,0.0,-10.681618690490723,4.346920967102051,8.779993057250977,1933.394287109375,0
1377.7290000000012,-0.020928382873535156,-0.0064339954406023026,-0.0014739742036908865,0.0,0.0,0.0,0.0,-0.0013681368436664343,-0.003586516482755542,0.0002952634822577238,1.0000770092010498,0.0,0.0,0.0,-10.67684268951416,4.338045597076416,8.767316818237305,1932.5296630859375,0
1387.6320000000014,-0.020925000309944153,-0.006381606217473745,-0.0014253268018364906,0.0,0.0,0.0,0.0,0.0006122980266809464,-0.0006150115514174104,-0.004286862909793854,0.9986540079116821,0.0,0.0,0.0,-10.67587947845459,4.341742515563965,8.763056755065918,1932.35546875,0
1397.554,-0.02097531221807003,-0.006423887796700001,-0.001423872308805585,0.0,0.0,0.0,0.0,-0.006659687962383032,-0.0026917399372905493,0.002519831759855151,0.9978823661804199,0.0,0.0,0.0,-10.666781425476074,4.334371566772461,8.759202003479004,1930.708740234375,0
1407.4570000000003,-0.020979315042495728,-0.00640982436016202,-0.001394637394696474,0.0,0.0,0.0,0.0,0.0005245789652690291,-0.000925689993891865,0.00038976717041805387,0.9983320236206055,0.0,0.0,0.0,-10.667359352111816,4.344149589538574,8.771546363830566,1930.813232421875,0
1417.371000000001,-0.02100231498479843,-0.006381097249686718,-0.0014055484207347035,0.0,0.0,0.0,0.0,-0.0012418258702382445,0.0028994635213166475,-0.0015827855095267296,0.998350203037262,0.0,0.0,0.0,-10.656976699829102,4.335333824157715,8.760109901428223,1928.93408203125,0
1427.2870000000003,-0.020918473601341248,-0.006438570562750101,-0.0013840883038938046,0.0,0.0,0.0,0.0,0.0021540671586990356,0.00024823565036058426,0.0006907166098244488,1.0015404224395752,0.0,0.0,0.0,-10.665786743164062,4.332837104797363,8.774277687072754,1930.5286865234375,0
1437.196,-0.02091410756111145,-0.006376863922923803,-0.0014146772446110845,0.0,0.0,0.0,0.0,-0.0002817848580889404,-0.0038715016562491655,-0.00017310028488282114,0.9998408555984497,0.0,0.0,0.0,-10.663113594055176,4.346434593200684,8.771055221557617,1930.0447998046875,0
1447.1050000000014,-0.02098962292075157,-0.006338035222142935,-0.001398448133841157,0.0,0.0,0.0,0.0,-0.00355323264375329,-0.0028125038370490074,0.0025267882738262415,0.9991864562034607,0.0,0.0,0.0,-10.66169548034668,4.349034309387207,8.755631446838379,1929.7882080078125,0
1457.018,-0.021002143621444702,-0.006337781436741352,-0.0014383492525666952,0.0,0.0,0.0,0.0,0.002727730665355921,0.005433169659227133,-0.003970588091760874,0.9972727298736572,0.0,0.0,0.0,-10.650646209716797,4.357128620147705,8.755187034606934,1927.7882080078125,0
1466.925000000001,-0.020860522985458374,-0.006396348588168621,-0.0014009980950504541,0.0,0.0,0.0,0.0,-0.00019268759933765978,-0.0031301777344197035,6.15351673332043e-05,0.9977680444717407,0.0,0.0,0.0,-10.658501625061035,4.349956035614014,8.778023719787598,1929.2100830078125,0
1476.8420000000006,-0.020881954580545425,-0.006407987326383591,-0.001425829716026783,0.0,0.0,0.0,0.0,0.00010402867337688804,0.005614798050373793,0.0014580319402739406,1.0006805658340454,0.0,0.0,0.0,-10.654803276062012,4.3476176261901855,8.772685050964355,1928.5406494140625,0
1486.7570000000014,-0.020945308730006218,-0.006391681730747223,-0.001417890889570117,0.0,0.0,0.0,0.0,-0.00032528964220546186,0.0017864563269540668,-0.00020972301717847586,0.99871426820755,0.0,0.0,0.0,-10.65428638458252,4.342044353485107,8.756791114807129,1928.4471435546875,0
1496.6640000000007,-0.020951570942997932,-0.006349189206957817,-0.001448382972739637,0.0,0.0,0.0,0.0,0.0010788746876642108,-0.0032331885304301977,-0.0017165410099551082,0.9980358481407166,0.0,0.0,0.0,-10.652728080749512,4.3525309562683105,8.750887870788574,1928.1650390625,0
1506.5750000000007,-0.02088138461112976,-0.006401171907782555,-0.001433657482266426,0.0,0.0,0.0,0.0,-0.0012834605295211077,0.0012132463743910193,-0.0016805059276521206,0.9984244704246521,0.0,0.0,0.0,-10.661759376525879,4.345076084136963,8.76462459564209,1929.7996826171875,0
1516.496000000001,-0.02089175023138523,-0.006365561857819557,-0.0014601977309212089,0.0,0.0,0.0,0.0,-7.470819400623441e-05,0.0016176591161638498,0.0036415299400687218,0.9985546469688416,0.0,0.0,0.0,-10.659299850463867,4.3500075340271,8.74417495727539,1929.3546142578125,0
1526.407000000001,-0.02091125026345253,-0.00634682085365057,-0.0014409464783966541,0.0,0.0,0.0,0.0,0.0020788225810974836,-0.0059942640364170074,0.004255384672433138,0.9990074038505554,0.0,0.0,0.0,-10.657197952270508,4.353152275085449,8.742188453674316,1928.97412109375,0
1536.312,-0.02090565115213394,-0.00636598514392972,-0.0014598006382584572,0.0,0.0,0.0,0.0,0.004319432657212019,0.001100656925700605,0.0016346272313967347,0.9992629885673523,0.0,0.0,0.0,-10.66572093963623,4.353466510772705,8.743945121765137,1930.5167236328125,0
1546.223,-0.020931506529450417,-0.00635072635486722,-0.0014428753638640046,0.0,0.0,0.0,0.0,0.0020448591094464064,-0.0003676747146528214,-0.00036317191552370787,1.0001837015151978,0.0,0.0,0.0,-10.668128967285156,4.349152088165283,8.744202613830566,1930.95263671875,0
1556.1370000000006,-0.020940037444233894,-0.00633588433265686,-0.0014891508035361767,0.0,0.0,0.0,0.0,6.844311428721994e-05,-0.0021528820507228374,-0.00016763521125540137,0.999280571937561,0.0,0.0,0.0,-10.66309642791748,4.350409507751465,8.735944747924805,1930.0416259765625,0
1566.0520000000015,-0.020930921658873558,-0.006323967594653368,-0.0014677593717351556,0.0,0.0,0.0,0.0,0.004722996614873409,-0.0004924061358906329,0.0031918585300445557,0.9983580708503723,0.0,0.0,0.0,-10.663277626037598,4.35156774520874,8.73564624786377,1930.074462890625,0
1575.9630000000016,-0.020971227437257767,-0.006350474897772074,-0.0014868706930428743,0.0,0.0,0.0,0.0,0.001347216428257525,0.0015487581258639693,0.00038848843541927636,0.9984757900238037,0.0,0.0,0.0,-10.66090202331543,4.34207010269165,8.721817970275879,1929.64453125,0
1585.871000000001,-0.0209145899862051,-0.0063411216251552105,-0.0014493940398097038,0.0,0.0,0.0,0.0,0.0005825713742524385,-0.006776539608836174,-0.002075103111565113,1.000566840171814,0.0,0.0,0.0,-10.660447120666504,4.3431525230407715,8.722830772399902,1929.5621337890625,0
1595.7840000000015,-0.02093316614627838,-0.006314823869615793,-0.0014755628071725368,0.0,0.0,0.0,0.0,-8.377525227842852e-05,0.00010862723138416186,-0.0006941494066268206,0.9987694025039673,0.0,0.0,0.0,-10.656840324401855,4.345764636993408,8.728314399719238,1928.9093017578125,0
1605.701000000001,-0.02095150388777256,-0.006319539621472359,-0.0014672363176941872,0.0,0.0,0.0,0.0,0.0017162886215373874,0.001340419170446694,-0.0011340125929564238,0.9972996115684509,0.0,0.0,0.0,-10.657571792602539,4.340485572814941,8.733772277832031,1929.041748046875,0
1615.607,-0.020969299599528313,-0.006312188226729631,-0.0015044213505461812,0.0,0.0,0.0,0.0,-0.0013170972233638167,0.0015420566778630018,0.002679286990314722,0.9986087083816528,0.0,0.0,0.0,-10.653295516967773,4.338889122009277,8.725883483886719,1928.2677001953125,0
1625.523000000001,-0.02089088410139084,-0.006349931471049786,-0.0014877724461257458,0.0,0.0,0.0,0.0,-0.00019807598437182605,0.0016947354888543487,-0.0019923343788832426,0.9995221495628357,0.0,0.0,0.0,-10.655085563659668,4.334385871887207,8.738581657409668,1928.591796875,0
1635.4300000000003,-0.020918013527989388,-0.006334430072456598,-0.00150498712901026,0.0,0.0,0.0,0.0,-0.00012579766917042434,-0.004483107943087816,0.0009829597547650337,1.000641942024231,0.0,0.0,0.0,-10.655433654785156,4.342702865600586,8.737710952758789,1928.65478515625,0
1645.3370000000014,-0.020876653492450714,-0.006378477439284325,-0.0014992436626926064,0.0,0.0,0.0,0.0,4.624874418368563e-05,-0.002667448716238141,-0.004147046711295843,1.0003639459609985,0.0,0.0,0.0,-10.659682273864746,4.336230278015137,8.753158569335938,1929.4237060546875,0
1655.2530000000006,-0.02092217653989792,-0.0064118364825844765,-0.0015080792363733053,0.0,0.0,0.0,0.0,0.0015204327646642923,-0.003882067743688822,0.0017965234583243728,0.9992472529411316,0.0,0.0,0.0,-10.657501220703125,4.329222679138184,8.754152297973633,1929.0289306640625,0
1665.1689999999999,-0.020894307643175125,-0.006423657294362783,-0.0014835643814876676,0.0,0.0,0.0,0.0,-0.0025800885632634163,0.0033236914314329624,0.00023166087339632213,0.9976799488067627,0.0,0.0,0.0,-10.665040969848633,4.329871654510498,8.764535903930664,1930.3935546875,0
1675.08,-0.020900871604681015,-0.006387311965227127,-0.0015169864054769278,0.0,0.0,0.0,0.0,-0.0033759139478206635,0.003452610457316041,0.0002517396933399141,0.9982942938804626,0.0,0.0,0.0,-10.654160499572754,4.332796573638916,8.761651992797852,1928.42431640625,0
1684.9890000000014,-0.020905975252389908,-0.006349210627377033,-0.0014861244708299637,0.0,0.0,0.0,0.0,-0.0008316382300108671,-0.0017966830637305975,0.00026448321295902133,1.000255823135376,0.0,0.0,0.0,-10.653388977050781,4.339925765991211,8.759247779846191,1928.28466796875,0
1694.9000000000015,-0.020907988771796227,-0.0063140359707176685,-0.0015289043076336384,0.0,0.0,0.0,0.0,-0.0013525047106668353,0.001657423679716885,-0.0031232519540935755,1.0005165338516235,0.0,0.0,0.0,-10.650472640991211,4.346311569213867,8.764888763427734,1927.756591796875,0
1704.817000000001,-0.02090221829712391,-0.006289206445217133,-0.0015021420549601316,0.0,0.0,0.0,0.0,0.0023848386481404305,0.0001546132261864841,0.0007424562936648726,0.9993581175804138,0.0,0.0,0.0,-10.653022766113281,4.3525710105896,8.760613441467285,1928.2183837890625,0
1714.7260000000006,-0.020941292867064476,-0.006294989958405495,-0.0015068934299051762,0.0,0.0,0.0,0.0,0.0007658777758479118,-0.00011245659698033705,-0.002235019812360406,0.9986817836761475,0.0,0.0,0.0,-10.652243614196777,4.3498616218566895,8.751261711120605,1928.077392578125,0
1724.630000000001,-0.020953740924596786,-0.006296150851994753,-0.0014947829768061638,0.0,0.0,0.0,0.0,-0.004045433830469847,-0.0007736009429208934,-0.0022233547642827034,0.9992607831954956,0.0,0.0,0.0,-10.653069496154785,4.34188985824585,8.745980262756348,1928.2269287109375,0
1734.545,-0.020975911989808083,-0.006300979293882847,-0.0015234202146530151,0.0,0.0,0.0,0.0,0.0012263990938663483,0.0028453615959733725,0.001053132931701839,0.9999421238899231,0.0,0.0,0.0,-10.649702072143555,4.345086097717285,8.741877555847168,1927.6170654296875,0
1744.4570000000003,-0.020851382985711098,-0.006353992037475109,-0.0014914405765011907,0.0,0.0,0.0,0.0,0.0019249679753556848,0.0022689488250762224,-0.0005298465839587152,0.9996752142906189,0.0,0.0,0.0,-10.659225463867188,4.336075305938721,8.753866195678711,1929.3409423828125,0
1754.3740000000016,-0.020886309444904327,-0.006338118109852076,-0.0014853517059236765,0.0,0.0,0.0,0.0,-0.0019465077202767134,-0.0006861225119791925,0.0019759333226829767,0.9986080527305603,0.0,0.0,0.0,-10.656853675842285,4.32937479019165,8.743160247802734,1928.911865234375,0
1764.282000000001,-0.020872706547379494,-0.006370740942656994,-0.0014755475567653775,0.0,0.0,0.0,0.0,-0.0023020701482892036,0.0054427520371973515,-0.0012271151645109057,0.9977421164512634,0.0,0.0,0.0,-10.66724967956543,4.323056697845459,8.752047538757324,1930.79345703125,0
1774.196,-0.02092886157333851,-0.006385405547916889,-0.0014519286341965199,0.0,0.0,0.0,0.0,-0.0008015551720745862,0.0025296220555901527,-0.00070126325590536,0.9981740713119507,0.0,0.0,0.0,-10.663933753967285,4.328130722045898,8.732490539550781,1930.193359375,0
1784.1150000000016,-0.020913315936923027,-0.00635057408362627,-0.0014053953345865011,0.0,0.0,0.0,0.0,-0.0006409199559129775,-0.0009876515250653028,-0.0016398363513872027,1.000281810760498,0.0,0.0,0.0,-10.665573120117188,4.329811096191406,8.722201347351074,1930.4898681640625,0
1794.0240000000013,-0.021051110699772835,-0.006456522736698389,-0.001300776144489646,0.0,0.0,0.0,0.0,0.0009478286956436932,-0.0035919747315347195,-0.0020102285780012608,1.0011786222457886,0.0,0.0,0.0,-10.655552864074707,4.332000255584717,8.709067344665527,1928.6763916015625,0
1803.9320000000007,-0.021000169217586517,-0.006479572970420122,-0.001257031224668026,0.0,0.0,0.0,0.0,0.0032858203630894423,0.002696687588468194,0.003201681887730956,0.9987775087356567,0.0,0.0,0.0,-10.654831886291504,4.329620838165283,8.719498634338379,1928.5457763671875,0
1813.8470000000016,-0.021037928760051727,-0.006499307695776224,-0.001251548994332552,0.0,0.0,0.0,0.0,0.0015904264291748405,0.004150866996496916,-0.0015410390915349126,0.998084306716919,0.0,0.0,0.0,-10.642959594726562,4.326528549194336,8.712940216064453,1926.3968505859375,0
1823.7480000000014,-0.020915547385811806,-0.006532838102430105,-0.0011853768955916166,0.0,0.0,0.0,0.0,0.0020230025984346867,-4.632745913113467e-06,0.0016554115572944283,0.9989562630653381,0.0,0.0,0.0,-10.650129318237305,4.32365608215332,8.734034538269043,1927.694580078125,0
1833.6620000000003,-0.020908359438180923,-0.006518434267491102,-0.0012224467936903238,0.0,0.0,0.0,0.0,0.0009001318830996752,0.00013266404857859015,-0.0018459741258993745,0.9980925917625427,0.0,0.0,0.0,-10.648567199707031,4.323974609375,8.728416442871094,1927.4117431640625,0
1843.571,-0.020927680656313896,-0.006488703656941652,-0.001175424549728632,0.0,0.0,0.0,0.0,-0.0014119716361165047,0.0006907384376972914,0.00024973414838314056,1.0006219148635864,0.0,0.0,0.0,-10.65117359161377,4.329746246337891,8.725817680358887,1927.8836669921875,0
1853.4860000000008,-0.020879900082945824,-0.006418835371732712,-0.0012506961356848478,0.0,0.0,0.0,0.0,0.0014814847381785512,-0.001372755621559918,0.001935530104674399,1.0004820823669434,0.0,0.0,0.0,-10.639601707458496,4.3249640464782715,8.714598655700684,1925.7891845703125,0
1863.3950000000004,-0.020959757268428802,-0.006420285906642675,-0.001245897146873176,0.0,0.0,0.0,0.0,-0.0016098851338028908,-0.0017574644880369306,0.004278855863958597,0.9974474310874939,0.0,0.0,0.0,-10.6402006149292,4.31477165222168,8.708708763122559,1925.8974609375,0
1873.309000000001,-0.020899299532175064,-0.006350160110741854,-0.0013516939943656325,0.0,0.0,0.0,0.0,-0.0011385396355763078,-0.00045833815238438547,-0.00031561273499391973,0.9976287484169006,0.0,0.0,0.0,-10.628189086914062,4.311581134796143,8.698516845703125,1923.723388671875,0
1883.2150000000001,-0.020925801247358322,-0.0063458760268986225,-0.0013411878608167171,0.0,0.0,0.0,0.0,0.0005280059995129704,0.0005626898491755128,-0.00011031217582058161,0.9980654120445251,0.0,0.0,0.0,-10.627436637878418,4.311886310577393,8.695148468017578,1923.5872802734375,0
1893.1280000000006,-0.020818442106246948,-0.0062242052517831326,-0.0015026840846985579,0.0,0.0,0.0,0.0,0.003839445998892188,-0.00017038296209648252,0.0014945155708119273,0.9991236925125122,0.0,0.0,0.0,-10.615849494934082,4.312438488006592,8.688008308410645,1921.48974609375,0
1903.0340000000015,-0.020832736045122147,-0.006267960648983717,-0.0015269146533682942,0.0,0.0,0.0,0.0,0.0017552090575918555,-0.0028631631284952164,0.002491072751581669,0.9985052347183228,0.0,0.0,0.0,-10.629657745361328,4.29852294921875,8.687335968017578,1923.9891357421875,0
1912.9480000000003,-0.02078055590391159,-0.006182442419230938,-0.0016302771400660276,0.0,0.0,0.0,0.0,0.002331557683646679,-2.88954015559284e-05,0.0016728665214031935,0.9986573457717896,0.0,0.0,0.0,-10.627165794372559,4.3076019287109375,8.69168758392334,1923.5380859375,0
1922.862000000001,-0.02083970420062542,-0.006163028534501791,-0.0016486018430441618,0.0,0.0,0.0,0.0,-0.0001730392687022686,-5.626887650578283e-05,-0.0012481189332902431,0.9974473118782043,0.0,0.0,0.0,-10.62753963470459,4.305351734161377,8.683274269104004,1923.6058349609375,0
1932.7760000000017,-0.020845523104071617,-0.006156174931675196,-0.0017122311983257532,0.0,0.0,0.0,0.0,0.002167294966056943,-0.007407457567751408,0.0004444289952516556,0.996419370174408,0.0,0.0,0.0,-10.617453575134277,4.297082424163818,8.672208786010742,1921.7802734375,0
1942.6820000000007,-0.02084127999842167,-0.006138801574707031,-0.0017130092019215226,0.0,0.0,0.0,0.0,0.002586262533441186,-0.001905060256831348,-0.0006630003917962313,0.9975141286849976,0.0,0.0,0.0,-10.621196746826172,4.29149055480957,8.677571296691895,1922.457763671875,0
1952.594000000001,-0.02089638076722622,-0.006167469080537558,-0.0017252452671527863,0.0,0.0,0.0,0.0,-0.0013135214103385806,-0.004630574490875006,0.001356346532702446,0.996826171875,0.0,0.0,0.0,-10.610827445983887,4.282677173614502,8.670827865600586,1920.5809326171875,0
1962.5100000000002,-0.020825808867812157,-0.00622072396799922,-0.0017369540873914957,0.0,0.0,0.0,0.0,0.001388965523801744,-0.003435418475419283,0.0010854649590328336,0.9968695044517517,0.0,0.0,0.0,-10.623333930969238,4.275754928588867,8.693533897399902,1922.844482421875,0
1972.4189999999999,-0.020913921296596527,-0.006296108476817608,-0.0017184193711727858,0.0,0.0,0.0,0.0,-0.0026016761548817158,-0.0011185024632140994,-0.0006459745345637202,0.9990913271903992,0.0,0.0,0.0,-10.6212158203125,4.25279426574707,8.68263053894043,1922.4610595703125,0
1982.3270000000011,-0.02086121216416359,-0.006320904474705458,-0.001720186322927475,0.0,0.0,0.0,0.0,0.00033095659455284476,0.004127302207052708,-0.0008079769904725254,1.000109076499939,0.0,0.0,0.0,-10.629252433776855,4.259646892547607,8.693573951721191,1923.915771484375,0
1992.2400000000016,-0.020928526297211647,-0.006343620829284191,-0.0017077268566936255,0.0,0.0,0.0,0.0,0.0007777340360917151,0.0008550432394258678,-0.00422681262716651,0.9993470907211304,0.0,0.0,0.0,-10.62597942352295,4.258908748626709,8.676509857177734,1923.3233642578125,0
2002.1540000000005,-0.0208068136125803,-0.006382235325872898,-0.001684380229562521,0.0,0.0,0.0,0.0,0.00011567948968149722,0.004538877867162228,-0.0011897408403456211,0.9981781840324402,0.0,0.0,0.0,-10.640830993652344,4.262141227722168,8.697524070739746,1926.011474609375,0
2012.0650000000005,-0.020910881459712982,-0.0064548831433057785,-0.0016299646813422441,0.0,0.0,0.0,0.0,0.0006900269654579461,0.00116653589066118,-0.0010397888254374266,0.9995163083076477,0.0,0.0,0.0,-10.64021110534668,4.24749231338501,8.67475700378418,1925.8994140625,0
2021.9750000000004,-0.02087477035820484,-0.006437763571739197,-0.0015947534702718258,0.0,0.0,0.0,0.0,-0.000597352278418839,-0.0013975896872580051,-0.0012793309288099408,0.9997990131378174,0.0,0.0,0.0,-10.649551391601562,4.254819869995117,8.668482780456543,1927.5899658203125,0
2031.889000000001,-0.020943840965628624,-0.006469203159213066,-0.0015688341809436679,0.0,0.0,0.0,0.0,-0.0038299490697681904,-0.0074915033765137196,-0.0027114690747112036,1.0021618604660034,0.0,0.0,0.0,-10.652881622314453,4.253059387207031,8.651715278625488,1928.1927490234375,0
2041.7970000000005,-0.020879028365015984,-0.006455085705965757,-0.00151636207010597,0.0,0.0,0.0,0.0,0.0025096391327679157,0.005058120004832745,-0.0016996499616652727,1.0003021955490112,0.0,0.0,0.0,-10.664803504943848,4.26834774017334,8.665816307067871,1930.3505859375,0
2051.7080000000005,-0.020983058959245682,-0.006546085234731436,-0.0014555647503584623,0.0,0.0,0.0,0.0,0.0013063055230304599,-0.0013162971008569002,0.00045480052358470857,0.9980045557022095,0.0,0.0,0.0,-10.662270545959473,4.248027324676514,8.649819374084473,1929.892333984375,0
2061.6240000000016,-0.020898334681987762,-0.006548641249537468,-0.001392944948747754,0.0,0.0,0.0,0.0,0.0021327694412320852,-0.005280504934489727,-0.001554698683321476,0.9966206550598145,0.0,0.0,0.0,-10.668569564819336,4.256758689880371,8.650493621826172,1931.0323486328125,0
2071.5330000000013,-0.02091781608760357,-0.00652811536565423,-0.0013989978469908237,0.0,0.0,0.0,0.0,-0.0015999333700165153,0.0025357056874781847,0.0035906387493014336,1.0000011920928955,0.0,0.0,0.0,-10.667183876037598,4.257918834686279,8.648592948913574,1930.781494140625,0
2081.4440000000013,-0.020918382331728935,-0.00653082737699151,-0.001366336364299059,0.0,0.0,0.0,0.0,0.00165772985201329,-0.00127483403775841,0.0007532620802521706,0.9999313950538635,0.0,0.0,0.0,-10.676431655883789,4.266125202178955,8.666263580322266,1932.455322265625,0
2091.354000000001,-0.020942633971571922,-0.00653379550203681,-0.0013785092160105705,0.0,0.0,0.0,0.0,0.0003304182318970561,0.004004103597253561,-0.0009218113264068961,0.9994629621505737,0.0,0.0,0.0,-10.665206909179688,4.255350112915039,8.664925575256348,1930.423583984375,0
2101.2670000000016,-0.020905528217554092,-0.006529708858579397,-0.0013304161839187145,0.0,0.0,0.0,0.0,0.0009690520819276571,0.00034841103479266167,0.0017164793098345399,1.0002191066741943,0.0,0.0,0.0,-10.673529624938965,4.254766941070557,8.662030220031738,1931.9300537109375,0
2111.179,-0.020870642736554146,-0.006451796740293503,-0.0013898713514208794,0.0,0.0,0.0,0.0,0.0023243871983140707,0.0028444472700357437,0.000424279976869002,1.0006500482559204,0.0,0.0,0.0,-10.66141128540039,4.2467169761657715,8.656722068786621,1929.73681640625,0
2121.099,-0.02090846747159958,-0.006398680619895458,-0.001345355063676834,0.0,0.0,0.0,0.0,0.00330129056237638,-0.0010961889056488872,-0.001565143815241754,0.9983953833580017,0.0,0.0,0.0,-10.663785934448242,4.250091552734375,8.653643608093262,1930.1663818359375,0
2131.0030000000006,-0.020906737074255943,-0.0063445293344557285,-0.0013696376699954271,0.0,0.0,0.0,0.0,0.001818488584831357,-0.0013016585726290941,-0.0027905169408768415,0.9978857040405273,0.0,0.0,0.0,-10.661164283752441,4.258513450622559,8.636693954467773,1929.692138671875,0
2140.9230000000007,-0.020840834826231003,-0.006377393379807472,-0.0013362020254135132,0.0,0.0,0.0,0.0,-0.004026477225124836,0.0021860715933144093,0.005772480275481939,0.9990532994270325,0.0,0.0,0.0,-10.672571182250977,4.252544403076172,8.657275199890137,1931.756591796875,0
2150.827000000001,-0.020851342007517815,-0.006353961769491434,-0.0013550878502428532,0.0,0.0,0.0,0.0,0.0006061800522729754,-0.001052641891874373,-0.0004533049068413675,0.9982782602310181,0.0,0.0,0.0,-10.669316291809082,4.260575294494629,8.649529457092285,1931.1673583984375,0
