timestamp,stateEstimate.x,stateEstimate.y,stateEstimate.z,controller.cmd_thrust,controller.cmd_roll,controller.cmd_pitch,controller.cmd_yaw,controller.r_roll,controller.r_pitch,controller.r_yaw,controller.accelz,controller.actuatorThrust,controller.roll,controller.pitch,controller.yaw,controller.rollRate,controller.pitchRate,controller.yawRate,controller.ctr_yaw
0.0,0.0029446412809193134,-0.01176426187157631,0.00015634915325790644,0.0,0.0,0.0,0.0,-0.00010891960118897259,0.0021594762802124023,-0.0008086916641332209,1.0023881196975708,0.0,0.0,0.0,-1.762000322341919,5.221426963806152,1.0555801391601562,318.925537109375,0
9.877000000000407,0.0029536322690546513,-0.011756828054785728,0.00015445309691131115,0.0,0.0,0.0,0.0,0.0005474237841553986,-0.003388773649930954,0.000121779135952238,1.0005217790603638,0.0,0.0,0.0,-1.754359483718872,5.225761890411377,1.0615408420562744,317.54254150390625,0
19.782999999999447,0.002944496925920248,-0.011773639358580112,0.00015787535812705755,0.0,0.0,0.0,0.0,-0.0024527458008378744,0.0015232247533276677,0.002421989105641842,1.0022501945495605,0.0,0.0,0.0,-1.7525396347045898,5.2173027992248535,1.056942343711853,317.2131652832031,0
29.655000000000655,0.0029564923606812954,-0.011762825772166252,0.0001586631260579452,0.0,0.0,0.0,0.0,0.006306065246462822,0.005083973053842783,0.0005947627360001206,1.0012158155441284,0.0,0.0,0.0,-1.751033067703247,5.211394309997559,1.0606675148010254,316.9404602050781,0
39.54899999999907,0.0029510436579585075,-0.0117792384698987,0.0001642874995013699,0.0,0.0,0.0,0.0,-0.0026185910683125257,-0.0036219495814293623,0.0008074184297583997,0.9994418025016785,0.0,0.0,0.0,-1.7495226860046387,5.198752403259277,1.0484445095062256,316.6670837402344,0
49.42699999999968,0.0029466378036886454,-0.011797006241977215,0.00017045372806023806,0.0,0.0,0.0,0.0,-0.0015010647475719452,-0.0029831579886376858,-0.0027627150993794203,1.000651240348816,0.0,0.0,0.0,-1.7465317249298096,5.194231986999512,1.0523041486740112,316.1257019042969,0
59.32300000000032,0.0029413141310214996,-0.011815709993243217,0.00017694428970571607,0.0,0.0,0.0,0.0,0.0009643461089581251,0.0011610473738983274,-0.0006295566563494503,0.9995004534721375,0.0,0.0,0.0,-1.7455408573150635,5.194177150726318,1.054175853729248,315.94635009765625,0
69.1939999999995,0.00293550337664783,-0.011835196055471897,0.00018327996076550335,0.0,0.0,0.0,0.0,-0.002253391081467271,-0.007323177065700293,-0.0016769533976912498,0.9986569881439209,0.0,0.0,0.0,-1.7437809705734253,5.188539505004883,1.0559343099594116,315.6278076171875,0
79.09300000000076,0.002930080983787775,-0.011855452321469784,0.0001885454257717356,0.0,0.0,0.0,0.0,0.0028078770264983177,-0.005383825395256281,0.0007547932327724993,0.9982408881187439,0.0,0.0,0.0,-1.7418986558914185,5.188111782073975,1.072365164756775,315.287109375,0
88.96899999999914,0.002924657892435789,-0.011876672506332397,0.00019252153288107365,0.0,0.0,0.0,0.0,0.0002713818976189941,-0.0003916106652468443,-0.0009630523854866624,0.9998804926872253,0.0,0.0,0.0,-1.7404485940933228,5.1769280433654785,1.0648741722106934,315.024658203125,0
98.86000000000058,0.003071549814194441,-0.011880175210535526,0.00036457902751863003,0.0,0.0,0.0,0.0,-0.0025168079882860184,0.0009157652966678143,0.0003080011229030788,1.001510739326477,0.0,0.0,0.0,-1.7523837089538574,5.184401512145996,1.0857969522476196,317.1849670410156,0
108.73699999999917,0.0030715735629200935,-0.011900671757757664,0.0003763549611903727,0.0,0.0,0.0,0.0,0.0004378305748105049,-0.0029990447219461203,0.00019611924653872848,0.9984014630317688,0.0,0.0,0.0,-1.7507327795028687,5.181187629699707,1.0777442455291748,316.8861083984375,0
118.63500000000022,0.00307041616179049,-0.011883380822837353,0.00041850190609693527,0.0,0.0,0.0,0.0,0.002614492317661643,0.0054457648657262325,0.002372262766584754,0.998822033405304,0.0,0.0,0.0,-1.766695499420166,5.1877522468566895,1.0762778520584106,319.775390625,0
128.51100000000042,0.0030731717124581337,-0.011901653371751308,0.00043115904554724693,0.0,0.0,0.0,0.0,0.0021434170193970203,-0.0011036579962819815,-0.0010302170412614942,1.00172758102417,0.0,0.0,0.0,-1.7644509077072144,5.176385402679443,1.0661529302597046,319.369140625,0
138.41300000000047,0.0031046560034155846,-0.011910833418369293,0.0004549217119347304,0.0,0.0,0.0,0.0,0.003396772313863039,0.0012663297820836306,-0.003797609591856599,1.0014206171035767,0.0,0.0,0.0,-1.7823203802108765,5.176059246063232,1.0750781297683716,322.603515625,0
148.28700000000026,0.0031038064043968916,-0.011930589564144611,0.000470577651867643,0.0,0.0,0.0,0.0,-0.0005914681823924184,-0.0023000873625278473,-0.003334685228765011,0.9996437430381775,0.0,0.0,0.0,-1.7813931703567505,5.16505765914917,1.066832423210144,322.4356994628906,0
158.1839999999993,0.0030835645738989115,-0.011949758045375347,0.0004907338880002499,0.0,0.0,0.0,0.0,-0.00012792872439604253,-0.0038539262022823095,0.006478015799075365,1.000449538230896,0.0,0.0,0.0,-1.7960131168365479,5.164231777191162,1.0670721530914307,325.08197021484375,0
168.0599999999995,0.0030778544023633003,-0.011971443891525269,0.000507487915456295,0.0,0.0,0.0,0.0,-0.0028986327815800905,0.0018219414632767439,-0.0008063053246587515,1.0014592409133911,0.0,0.0,0.0,-1.7929619550704956,5.161520957946777,1.0744649171829224,324.52972412109375,0
177.95700000000033,0.0030818688683211803,-0.011989395134150982,0.0005309683037921786,0.0,0.0,0.0,0.0,0.00043389078928157687,0.00034415556001476943,-0.00197216821834445,0.9987242817878723,0.0,0.0,0.0,-1.8067723512649536,5.167765140533447,1.0687204599380493,327.02935791015625,0
187.82300000000032,0.0030757850036025047,-0.012015078216791153,0.0005487938760779798,0.0,0.0,0.0,0.0,0.001004764810204506,0.004582236520946026,-0.0007742549059912562,0.9995843172073364,0.0,0.0,0.0,-1.8050020933151245,5.161408424377441,1.0607695579528809,326.7089538574219,0
197.72199999999975,0.0030868526082485914,-0.012033214792609215,0.0005745320813730359,0.0,0.0,0.0,0.0,-0.0029565615113824606,-0.007031034212559462,0.00583901721984148,0.998221755027771,0.0,0.0,0.0,-1.8175361156463623,5.161500930786133,1.0625526905059814,328.9776306152344,0
207.60299999999916,0.0030826881993561983,-0.012062247842550278,0.0005909031606279314,0.0,0.0,0.0,0.0,-0.00029530562460422516,-0.0016153567703440785,-0.0006815182860009372,0.998368501663208,0.0,0.0,0.0,-1.8150449991226196,5.163623809814453,1.0783580541610718,328.5267333984375,0
217.48699999999917,0.0030742448288947344,-0.012067158706486225,0.0006264374242164195,0.0,0.0,0.0,0.0,0.0027862803544849157,0.00548578379675746,-0.0006313546327874064,1.0005158185958862,0.0,0.0,0.0,-1.828957200050354,5.168005466461182,1.0733038187026978,331.044921875,0
227.37900000000081,0.003069949336349964,-0.01209708396345377,0.0006424769526347518,0.0,0.0,0.0,0.0,-0.0008565176976844668,0.00038622759166173637,-0.0013280713465064764,0.9998155236244202,0.0,0.0,0.0,-1.8272701501846313,5.156810283660889,1.0647979974746704,330.7395324707031,0
237.26100000000042,0.003047109115868807,-0.012110184878110886,0.0006764524732716382,0.0,0.0,0.0,0.0,0.0009929639054462314,0.0002983116137329489,0.001581298653036356,0.9991470575332642,0.0,0.0,0.0,-1.8407783508300781,5.1650166511535645,1.0505768060684204,333.1845703125,0
247.14500000000044,0.0030423372518271208,-0.012142403982579708,0.0006932561518624425,0.0,0.0,0.0,0.0,0.002472184132784605,0.0031411871314048767,-0.0017631456721574068,0.999398946762085,0.0,0.0,0.0,-1.8379818201065063,5.160335063934326,1.0508688688278198,332.6783447265625,0
257.04399999999987,0.0029557785019278526,-0.01215667836368084,0.0007267108303494751,0.0,0.0,0.0,0.0,0.0008667340152896941,-0.0011398501228541136,0.00475899875164032,1.0026501417160034,0.0,0.0,0.0,-1.847217082977295,5.161179065704346,1.0373300313949585,334.3499755859375,0
266.91300000000047,0.0029511393513530493,-0.012192292138934135,0.0007457805331796408,0.0,0.0,0.0,0.0,-0.00159358698874712,-0.00178512092679739,0.003922144882380962,1.0024574995040894,0.0,0.0,0.0,-1.8439215421676636,5.159260272979736,1.0351592302322388,333.75347900390625,0
276.7999999999993,0.00302097387611866,-0.012195195071399212,0.0007957264897413552,0.0,0.0,0.0,0.0,-0.0023568361066281796,0.0037653110921382904,-0.0014117555692791939,0.9999997019767761,0.0,0.0,0.0,-1.851797342300415,5.170143127441406,1.0536425113677979,335.1789855957031,0
286.6869999999999,0.003165781032294035,-0.011878549121320248,6.992901035118848e-05,0.0,0.0,0.0,0.0,-0.0024715603794902563,0.002806855598464608,-0.0013096655020490289,0.9992428421974182,0.0,0.0,0.0,-1.8363301753997803,5.234686374664307,1.064330816268921,332.37939453125,0
296.5769999999993,0.0031547746621072292,-0.011861944571137428,9.571573900757357e-05,0.0,0.0,0.0,0.0,-0.0015373493079096079,-0.0013954787282273173,0.0011377964401617646,0.9986399412155151,0.0,0.0,0.0,-1.8492348194122314,5.238827705383301,1.0621975660324097,334.7151794433594,0
306.45700000000033,0.0031602291855961084,-0.011850696057081223,0.00010370708332629874,0.0,0.0,0.0,0.0,0.0018634495791047812,0.001258342294022441,0.0007028664695098996,1.0003939867019653,0.0,0.0,0.0,-1.8347699642181396,5.241131782531738,1.068604588508606,332.09698486328125,0
316.35000000000036,0.0031483552884310484,-0.011862252838909626,0.0001077968263416551,0.0,0.0,0.0,0.0,-0.0011609046487137675,-0.00582853751257062,6.615830352529883e-05,1.0001938343048096,0.0,0.0,0.0,-1.8414223194122314,5.234210968017578,1.0669183731079102,333.3011169433594,0
326.2340000000004,0.003180798375979066,-0.011806048452854156,8.905203867470846e-05,0.0,0.0,0.0,0.0,-0.003176954574882984,0.003277343697845936,-0.0032284690532833338,1.001003623008728,0.0,0.0,0.0,-1.8389703035354614,5.237133979797363,1.0849953889846802,332.8572998046875,0
336.1239999999998,0.003140297718346119,-0.01182791031897068,8.026605064515024e-05,0.0,0.0,0.0,0.0,-0.000432472734246403,-0.0003955379652325064,0.0043879421427845955,0.9991821646690369,0.0,0.0,0.0,-1.8491867780685425,5.235834121704102,1.0673291683197021,334.70648193359375,0
346.0010000000002,0.003156023332849145,-0.011778805404901505,8.72134041856043e-05,0.0,0.0,0.0,0.0,0.001888364553451538,-0.0008676105062477291,0.0018620609771460295,0.9991165399551392,0.0,0.0,0.0,-1.8346083164215088,5.234282970428467,1.0724117755889893,332.0677795410156,0
355.89400000000023,0.0031082136556506157,-0.011838595382869244,6.616084283450618e-05,0.0,0.0,0.0,0.0,6.76960771670565e-05,-0.0037133670412003994,0.00044630360207520425,0.9999995231628418,0.0,0.0,0.0,-1.847435474395752,5.227369785308838,1.0695925951004028,334.3895263671875,0
365.77000000000044,0.003099417546764016,-0.011838238686323166,8.484854333801195e-05,0.0,0.0,0.0,0.0,-0.00325757940299809,0.0011134877568110824,-0.001116980449296534,1.0000160932540894,0.0,0.0,0.0,-1.8388093709945679,5.2259979248046875,1.079481840133667,332.82818603515625,0
375.66300000000047,0.0031240161042660475,-0.011869232170283794,9.670040162745863e-05,0.0,0.0,0.0,0.0,-0.0020536696538329124,-0.0019070523558184505,-0.0017226769123226404,0.9998423457145691,0.0,0.0,0.0,-1.8470855951309204,5.224491596221924,1.0904526710510254,334.326171875,0
385.54199999999946,0.003129544435068965,-0.011813364923000336,0.00011852041643578559,0.0,0.0,0.0,0.0,-0.0012357102241367102,0.0013342556776478887,-3.191510131728137e-06,1.002124547958374,0.0,0.0,0.0,-1.8394298553466797,5.230981826782227,1.0848641395568848,332.94049072265625,0
395.4349999999995,0.00313172722235322,-0.011856256984174252,0.00012293376494199038,0.0,0.0,0.0,0.0,0.001335793873295188,-0.0028782160952687263,-0.0011162242153659463,1.0006773471832275,0.0,0.0,0.0,-1.8476663827896118,5.224112033843994,1.0872938632965088,334.4312744140625,0
405.3199999999997,0.003164336085319519,-0.011792652308940887,0.00011939915566472337,0.0,0.0,0.0,0.0,0.0019253309583291411,0.000540338980499655,0.0035301384050399065,0.9984159469604492,0.0,0.0,0.0,-1.833491563796997,5.233613014221191,1.0997732877731323,331.8656005859375,0
415.20700000000033,0.0031563052907586098,-0.011829267255961895,0.00012298393994569778,0.0,0.0,0.0,0.0,-0.0003534764691721648,-0.0007207906455732882,-0.005054519046097994,0.9995850324630737,0.0,0.0,0.0,-1.843191385269165,5.225515365600586,1.0923335552215576,333.6213073730469,0
425.09000000000015,0.0031740893609821796,-0.011795999482274055,0.0001292782399104908,0.0,0.0,0.0,0.0,0.001285423873923719,-8.753415022511035e-05,-0.0011343612568452954,0.9993324279785156,0.0,0.0,0.0,-1.8351895809173584,5.226756572723389,1.0884695053100586,332.1729431152344,0
434.98199999999997,0.003168894676491618,-0.01184028759598732,0.00012888223864138126,0.0,0.0,0.0,0.0,-0.0014231544919312,-0.005512405186891556,0.002295906189829111,0.9987892508506775,0.0,0.0,0.0,-1.8459725379943848,5.22093391418457,1.0914146900177002,334.12469482421875,0
444.8629999999994,0.0031785499304533005,-0.011855707503855228,0.00013127567945048213,0.0,0.0,0.0,0.0,0.0022152797318995,-0.00508139468729496,-0.00277210446074605,1.0004403591156006,0.0,0.0,0.0,-1.8328883647918701,5.221281051635742,1.1075694561004639,331.7564697265625,0
454.7610000000004,0.003147715236991644,-0.01189662516117096,0.00012543954653665423,0.0,0.0,0.0,0.0,0.0009504826157353818,0.0009640751522965729,-0.0039529623463749886,1.0033071041107178,0.0,0.0,0.0,-1.837612509727478,5.212050437927246,1.110446572303772,332.61151123046875,0
464.6290000000008,0.003146935487166047,-0.011886817403137684,0.00015064295439515263,0.0,0.0,0.0,0.0,-0.0004540121299214661,-0.0032093224581331015,0.0027029854245483875,1.0006736516952515,0.0,0.0,0.0,-1.836501121520996,5.201282024383545,1.0943198204040527,332.41033935546875,0
474.52900000000045,0.0031041703186929226,-0.011866232380270958,0.0001719797437544912,0.0,0.0,0.0,0.0,0.00010433528950670734,-0.001894382294267416,0.0012251150328665972,0.997965395450592,0.0,0.0,0.0,-1.8438416719436646,5.201852798461914,1.092005729675293,333.739013671875,0
484.40400000000045,0.0031177077908068895,-0.011859195306897163,0.00017815153114497662,0.0,0.0,0.0,0.0,0.0026066992431879044,0.0046221595257520676,0.001251889392733574,0.9974736571311951,0.0,0.0,0.0,-1.8332860469818115,5.205870628356934,1.0980149507522583,331.82843017578125,0
494.29199999999946,0.0031165534164756536,-0.011887090280652046,0.00019253844220656902,0.0,0.0,0.0,0.0,-0.000358062912710011,-0.00812721997499466,0.003107794327661395,0.9979533553123474,0.0,0.0,0.0,-1.8412007093429565,5.201583385467529,1.0922213792800903,333.260986328125,0
504.17399999999907,0.0031708511523902416,-0.011859126389026642,0.00014741305494681,0.0,0.0,0.0,0.0,0.002067624358460307,-0.004387709312140942,0.0006933246622793376,1.0025824308395386,0.0,0.0,0.0,-1.830437183380127,5.209972858428955,1.1161161661148071,331.31280517578125,0
514.0630000000001,0.003134801983833313,-0.011861099861562252,0.00015849662304390222,0.0,0.0,0.0,0.0,-0.0001499605132266879,-0.00701052276417613,0.004760835785418749,1.0014328956604004,0.0,0.0,0.0,-1.839701533317566,5.209153652191162,1.117243766784668,332.9896545410156,0
523.9459999999999,0.0031720411498099566,-0.011817502789199352,0.00013894011499360204,0.0,0.0,0.0,0.0,0.001103005837649107,0.00238634180277586,-5.940623850619886e-06,0.9997080564498901,0.0,0.0,0.0,-1.837109923362732,5.207108974456787,1.1323764324188232,332.52056884765625,0
533.8379999999997,0.0031370732467621565,-0.011863461695611477,0.00013269671762827784,0.0,0.0,0.0,0.0,-0.0007093067397363484,-0.0027844959404319525,-0.002124676015228033,0.9991289973258972,0.0,0.0,0.0,-1.8461008071899414,5.203742027282715,1.1246556043624878,334.1479187011719,0
543.7119999999995,0.0031718865502625704,-0.011810309253633022,0.00011581367289181799,0.0,0.0,0.0,0.0,0.0007032165303826332,-0.0004890557029284537,0.004037272650748491,0.9981876611709595,0.0,0.0,0.0,-1.8445422649383545,5.204878330230713,1.1306713819503784,333.8658447265625,0
553.6010000000006,0.0031724560540169477,-0.011880244128406048,0.00010961613588733599,0.0,0.0,0.0,0.0,0.0019254239741712809,0.001059305970557034,0.0042458693496882915,0.9996228814125061,0.0,0.0,0.0,-1.8508944511413574,5.195440769195557,1.1297742128372192,335.0155944824219,0
563.4879999999994,0.003209901275113225,-0.011831196956336498,8.721198537386954e-05,0.0,0.0,0.0,0.0,0.0013281325809657574,5.068351583759068e-06,-0.002863402245566249,1.0024913549423218,0.0,0.0,0.0,-1.8477392196655273,5.19049596786499,1.1308523416519165,334.4444580078125,0
573.3780000000006,0.0031353961676359177,-0.011837777681648731,8.02658760221675e-05,0.0,0.0,0.0,0.0,-0.0012940254528075457,0.0012543726479634643,-0.0025120105128735304,1.0014655590057373,0.0,0.0,0.0,-1.8574875593185425,5.18813943862915,1.1206908226013184,336.2089538574219,0
583.2639999999992,0.0031189811415970325,-0.01185749750584364,0.00010444404324516654,0.0,0.0,0.0,0.0,-0.00172437634319067,-0.0022339753340929747,-0.002195128006860614,0.9995667934417725,0.0,0.0,0.0,-1.848837971687317,5.189100742340088,1.1183303594589233,334.6433410644531,0
593.1569999999992,0.0030818411614745855,-0.011856568977236748,0.00011803006782429293,0.0,0.0,0.0,0.0,-3.7774672819068655e-05,-0.004109099041670561,-0.0003899172297678888,1.0004802942276,0.0,0.0,0.0,-1.8555448055267334,5.192399024963379,1.1126927137374878,335.8572998046875,0
603.0249999999996,0.0030792057514190674,-0.011861988343298435,0.0001328063808614388,0.0,0.0,0.0,0.0,-0.000836171384435147,-0.007508034817874432,-0.0012628518743440509,1.0006473064422607,0.0,0.0,0.0,-1.8533862829208374,5.190948009490967,1.1321070194244385,335.46661376953125,0
612.9189999999999,0.0031124334782361984,-0.011901237070560455,0.00015170767437666655,0.0,0.0,0.0,0.0,-0.001096675987355411,0.002678367542102933,-0.000620692444499582,1.000070571899414,0.0,0.0,0.0,-1.8592644929885864,5.186753749847412,1.149243950843811,336.53057861328125,0
622.8060000000005,0.003113771555945277,-0.011896477080881596,0.0001738770370138809,0.0,0.0,0.0,0.0,0.0006452010129578412,-0.0003447755298111588,-0.0017814702587202191,0.9979409575462341,0.0,0.0,0.0,-1.850407600402832,5.186426639556885,1.14517080783844,334.92742919921875,0
632.7009999999991,0.0030864770524203777,-0.01187367644160986,0.00019978079944849014,0.0,0.0,0.0,0.0,-0.0006916244165040553,0.00012779152893926948,0.0002830682205967605,0.9999231100082397,0.0,0.0,0.0,-1.8570557832717896,5.188846111297607,1.1346954107284546,336.13079833984375,0
642.5799999999999,0.0031047912780195475,-0.01186161395162344,0.0002017568185692653,0.0,0.0,0.0,0.0,2.2398855890060076e-06,0.003825916675850749,-0.0007398428278975189,0.9987022280693054,0.0,0.0,0.0,-1.8548617362976074,5.188349723815918,1.142681360244751,335.73370361328125,0
652.4709999999995,0.0031107619870454073,-0.011900534853339195,0.0002143612364307046,0.0,0.0,0.0,0.0,0.0016286676982417703,0.004701994825154543,-0.0018514894181862473,0.999365508556366,0.0,0.0,0.0,-1.86078679561615,5.182635307312012,1.13248872756958,336.8061218261719,0
662.3510000000006,0.0031633914913982153,-0.011832968331873417,0.00019127549603581429,0.0,0.0,0.0,0.0,-0.005739427171647549,-0.006119799334555864,-0.003094089450314641,0.9995158910751343,0.0,0.0,0.0,-1.8494629859924316,5.191183567047119,1.129697561264038,334.7564697265625,0
672.2369999999992,0.0030748946592211723,-0.011901948601007462,0.00015967362560331821,0.0,0.0,0.0,0.0,0.00020344702352304012,0.0020697354339063168,-0.0010075521422550082,0.9987297654151917,0.0,0.0,0.0,-1.8582978248596191,5.190537452697754,1.1217864751815796,336.3555908203125,0
682.1200000000008,0.0030965819023549557,-0.01187758706510067,0.00015151720435824245,0.0,0.0,0.0,0.0,-0.0016206919681280851,-0.0012080942979082465,0.0016494973096996546,0.9990051984786987,0.0,0.0,0.0,-1.8488234281539917,5.197813987731934,1.1181504726409912,334.6407165527344,0
692.0010000000002,0.003095768392086029,-0.011855934746563435,0.00018001247372012585,0.0,0.0,0.0,0.0,0.0003737105871550739,0.00019962391525041312,-0.00262031564489007,0.9996617436408997,0.0,0.0,0.0,-1.8552097082138062,5.204971790313721,1.1312142610549927,335.7966613769531,0
701.8950000000004,0.0031549669802188873,-0.011790808290243149,0.00013678801769856364,0.0,0.0,0.0,0.0,0.0011822291417047381,0.0030412892811000347,-0.003073418978601694,1.0004241466522217,0.0,0.0,0.0,-1.8531800508499146,5.198658466339111,1.1411685943603516,335.42926025390625,0
711.7819999999992,0.003089168108999729,-0.011800171807408333,0.0001299470168305561,0.0,0.0,0.0,0.0,-0.0028389955405145884,-0.0023173720110207796,0.002433736575767398,0.9976036548614502,0.0,0.0,0.0,-1.8580076694488525,5.198322772979736,1.1351004838943481,336.3030700683594,0
721.664999999999,0.00312371039763093,-0.011763686314225197,0.00010431380360387266,0.0,0.0,0.0,0.0,0.0001632125786272809,0.005905139725655317,0.0018383959541097283,0.9986971616744995,0.0,0.0,0.0,-1.8561015129089355,5.197576999664307,1.1384024620056152,335.95806884765625,0
731.5529999999999,0.0031471808906644583,-0.011821087449789047,0.00010050013224827126,0.0,0.0,0.0,0.0,-7.896940951468423e-05,-0.0018859233241528273,-0.0009187386021949351,1.0001164674758911,0.0,0.0,0.0,-1.8607195615768433,5.188666820526123,1.1349419355392456,336.7939453125,0
741.4329999999991,0.0031254549976438284,-0.011844674125313759,0.0001343271869700402,0.0,0.0,0.0,0.0,0.00040729413740336895,-0.0062150065787136555,-0.0017842078814283013,1.001787543296814,0.0,0.0,0.0,-1.8589801788330078,5.190589427947998,1.1342772245407104,336.4790954589844,0
751.3189999999995,0.0031438295263797045,-0.011881326325237751,0.00014320696936920285,0.0,0.0,0.0,0.0,0.002170035382732749,-0.0006808603648096323,-0.0011040251702070236,1.0014439821243286,0.0,0.0,0.0,-1.869179368019104,5.187226295471191,1.1590211391448975,338.3251953125,0
761.2080000000005,0.0031328522600233555,-0.011924576945602894,0.00016291324573103338,0.0,0.0,0.0,0.0,0.0019446859369054437,0.0007705535972490907,0.0022582095116376877,0.999832272529602,0.0,0.0,0.0,-1.8672099113464355,5.1795735359191895,1.1535283327102661,337.96868896484375,0
771.098,0.0031368997879326344,-0.011939271353185177,0.0001789749221643433,0.0,0.0,0.0,0.0,0.0006086610374040902,-0.005361803341656923,-0.000720438314601779,0.9982427954673767,0.0,0.0,0.0,-1.871047854423523,5.177987575531006,1.1525614261627197,338.66339111328125,0
780.9740000000002,0.0031389789655804634,-0.01192533690482378,0.00019860370957758278,0.0,0.0,0.0,0.0,-0.0032310315873473883,-0.0002438076480757445,-0.0030724050011485815,0.9992157220840454,0.0,0.0,0.0,-1.8598123788833618,5.17949104309082,1.1646660566329956,336.6297302246094,0
790.8690000000006,0.003133930265903473,-0.011930524371564388,0.00021681775979232043,0.0,0.0,0.0,0.0,-0.00018428296607453376,0.00014477178046945482,-0.0010442830389365554,1.0013176202774048,0.0,0.0,0.0,-1.8688567876815796,5.1893630027771,1.1586815118789673,338.26678466796875,0
800.7479999999996,0.003195272758603096,-0.01184486597776413,0.00018794582865666598,0.0,0.0,0.0,0.0,-0.00012455177784431726,-0.0009785714792087674,0.0010890447301790118,0.9989619851112366,0.0,0.0,0.0,-1.8545730113983154,5.2035603523254395,1.1646878719329834,335.6814270019531,0
810.6419999999998,0.0031683030538260937,-0.01191327627748251,0.00017057362128980458,0.0,0.0,0.0,0.0,-0.0001229338231496513,-0.00433298759162426,0.0038302282337099314,1.001245379447937,0.0,0.0,0.0,-1.861425757408142,5.190854072570801,1.1583949327468872,336.9217529296875,0
820.5190000000002,0.0032499812077730894,-0.01183862704783678,0.00011315256415400654,0.0,0.0,0.0,0.0,-0.0022973089944571257,0.003829335328191519,-0.0005076213274151087,0.9986906051635742,0.0,0.0,0.0,-1.8454397916793823,5.207794666290283,1.1767498254776,334.02825927734375,0
830.4040000000005,0.0031786817125976086,-0.011848834343254566,0.00010092313459608704,0.0,0.0,0.0,0.0,-0.004291025456041098,0.0012617927277460694,0.0010027727112174034,1.0017509460449219,0.0,0.0,0.0,-1.854843258857727,5.203324794769287,1.1531696319580078,335.7303161621094,0
840.289999999999,0.0032115266658365726,-0.011812643148005009,9.176686580758542e-05,0.0,0.0,0.0,0.0,-0.0011444236151874065,3.522065526340157e-05,0.0036907566245645285,0.9989641904830933,0.0,0.0,0.0,-1.8454790115356445,5.213759899139404,1.1562942266464233,334.0353698730469,0
850.1800000000003,0.003181599313393235,-0.011847182177007198,8.023522968869656e-05,0.0,0.0,0.0,0.0,0.0010675672674551606,-0.0014426489360630512,0.001086321659386158,0.9985629320144653,0.0,0.0,0.0,-1.8515465259552002,5.213373184204102,1.1435765027999878,335.1335754394531,0
860.0689999999995,0.0031524421647191048,-0.011879689991474152,0.00013091793516650796,0.0,0.0,0.0,0.0,-0.00014518725220113993,-0.0005983870360068977,0.0023693048860877752,1.0001766681671143,0.0,0.0,0.0,-1.8435214757919312,5.204631805419922,1.1341557502746582,333.6810607910156,0
869.9519999999993,0.003171568736433983,-0.011897041462361813,0.0001452760334359482,0.0,0.0,0.0,0.0,-0.000779524038080126,-0.0008594570099376142,-0.0013120851945132017,1.0011428594589233,0.0,0.0,0.0,-1.849226713180542,5.2007269859313965,1.1341476440429688,334.7137145996094,0
879.8400000000001,0.0031872023828327656,-0.011893882416188717,0.00015994686691556126,0.0,0.0,0.0,0.0,0.0009111075196415186,-0.004913691431283951,0.00038783179479651153,0.9991037845611572,0.0,0.0,0.0,-1.8461580276489258,5.196140289306641,1.129724144935608,334.15826416015625,0
889.7289999999994,0.0031596715562045574,-0.01189064048230648,0.00016861992480698973,0.0,0.0,0.0,0.0,-3.8216840039240196e-05,-0.0006957021541893482,-0.00040945265209302306,0.9974305033683777,0.0,0.0,0.0,-1.8535723686218262,5.199469089508057,1.1315416097640991,335.5002746582031,0
899.6080000000002,0.003166279522702098,-0.011891092173755169,0.0001931211882038042,0.0,0.0,0.0,0.0,-7.087141420925036e-05,0.001381227863021195,-0.0007162885740399361,1.000256896018982,0.0,0.0,0.0,-1.8430691957473755,5.1968278884887695,1.1247484683990479,333.59918212890625,0
909.491,0.003179827705025673,-0.011900714598596096,0.00021239029592834413,0.0,0.0,0.0,0.0,-0.0005749936681240797,-0.0015479465946555138,0.0005768502596765757,0.9998936653137207,0.0,0.0,0.0,-1.852151870727539,5.202311992645264,1.123323678970337,335.2431640625,0
919.3860000000004,0.0031966599635779858,-0.011893878690898418,0.00022913308930583298,0.0,0.0,0.0,0.0,0.004424291662871838,-0.001205016509629786,0.00036710791755467653,1.0003101825714111,0.0,0.0,0.0,-1.8385337591171265,5.208425521850586,1.131309151649475,332.7782287597656,0
929.2620000000006,0.003154636826366186,-0.01189742237329483,0.00023668727953918278,0.0,0.0,0.0,0.0,-0.0007305743056349456,-0.0017615292454138398,0.0025395480915904045,0.9993987679481506,0.0,0.0,0.0,-1.8492215871810913,5.206748008728027,1.1241638660430908,334.7127990722656,0
939.1579999999994,0.0032218743581324816,-0.0118175707757473,0.00021182694763410836,0.0,0.0,0.0,0.0,-0.000828468706458807,-0.004828020930290222,0.00145069626159966,0.9986801147460938,0.0,0.0,0.0,-1.8361108303070068,5.221129417419434,1.1360076665878296,332.3396911621094,0
949.0450000000001,0.0032049415167421103,-0.011902286671102047,0.00018997488950844854,0.0,0.0,0.0,0.0,-0.0011439179070293903,-0.004125630017369986,0.002161840908229351,0.9974920749664307,0.0,0.0,0.0,-1.8397995233535767,5.208865642547607,1.1326991319656372,333.00738525390625,0
958.9300000000003,0.003206761321052909,-0.011908076703548431,0.00021669450507033616,0.0,0.0,0.0,0.0,0.0006296944338828325,-0.008574731647968292,0.005419980734586716,0.9985297918319702,0.0,0.0,0.0,-1.8288723230361938,5.210371017456055,1.1427817344665527,331.029541015625,0
968.8140000000003,0.003141582477837801,-0.01192289125174284,0.00020650362421292812,0.0,0.0,0.0,0.0,0.0038582379929721355,0.005699649918824434,-0.0023057330399751663,0.9998262524604797,0.0,0.0,0.0,-1.835471510887146,5.210182189941406,1.1397546529769897,332.2239685058594,0
978.7000000000007,0.003167287912219763,-0.0119053665548563,0.0002053289645118639,0.0,0.0,0.0,0.0,-0.0005475706420838833,-0.0013240678235888481,0.004680228885263205,0.9993579983711243,0.0,0.0,0.0,-1.8334416151046753,5.196753978729248,1.131362795829773,331.8565673828125,0
988.5900000000001,0.0031543399672955275,-0.011924484744668007,0.0002055190852843225,0.0,0.0,0.0,0.0,-0.00010675321391317993,-0.0065849050879478455,0.0020658799912780523,0.9990756511688232,0.0,0.0,0.0,-1.840144395828247,5.197762489318848,1.132125973701477,333.0697937011719,0
998.4830000000002,0.003173187142238021,-0.01190664991736412,0.00021521661255974323,0.0,0.0,0.0,0.0,-0.004946062806993723,0.001715460792183876,-0.002268197014927864,1.0011299848556519,0.0,0.0,0.0,-1.8381000757217407,5.192119121551514,1.1453337669372559,332.6997375488281,0
1008.3600000000006,0.0030945923645049334,-0.01188056543469429,0.00021499487047549337,0.0,0.0,0.0,0.0,-0.004011925309896469,-0.004198816604912281,0.002019394189119339,0.9990777373313904,0.0,0.0,0.0,-1.843712568283081,5.196290493011475,1.1321072578430176,333.7156677246094,0
1018.2569999999996,0.003113768296316266,-0.011873401701450348,0.00021783796546515077,0.0,0.0,0.0,0.0,0.0030813689809292555,0.002415112219750881,0.0035646299365907907,0.9980583786964417,0.0,0.0,0.0,-1.8346203565597534,5.207372665405273,1.1425930261611938,332.0699157714844,0
1028.1299999999992,0.0030747707933187485,-0.011860326863825321,0.0002229745005024597,0.0,0.0,0.0,0.0,0.0019053115975111723,0.0010167850414291024,0.0006193022709339857,0.9981672763824463,0.0,0.0,0.0,-1.8417986631393433,5.208916187286377,1.1242929697036743,333.3692321777344,0
1038.0229999999992,0.003144090762361884,-0.011785694397985935,0.00017852411838248372,0.0,0.0,0.0,0.0,-0.00010166998254135251,0.002086329972371459,-0.001506555243395269,1.0022600889205933,0.0,0.0,0.0,-1.8305985927581787,5.217689037322998,1.136012315750122,331.34197998046875,0
1047.9040000000005,0.003146303351968527,-0.011851111426949501,0.00016250461339950562,0.0,0.0,0.0,0.0,-0.001650382881052792,-0.0041823796927928925,-0.0010336593259125948,0.9991257190704346,0.0,0.0,0.0,-1.8361135721206665,5.209666728973389,1.1316131353378296,332.3402099609375,0
1057.7980000000007,0.0032395096495747566,-0.011745680123567581,0.0001011085623758845,0.0,0.0,0.0,0.0,-0.001848920132033527,0.0008408526191487908,0.00023977737873792648,0.9992374181747437,0.0,0.0,0.0,-1.8266944885253906,5.229851245880127,1.1459934711456299,330.6353759765625,0
1067.6769999999997,0.003175698220729828,-0.011802898719906807,6.0008947912137955e-05,0.0,0.0,0.0,0.0,-5.184975452721119e-05,-0.003086998825892806,-0.0009784834692254663,1.0007559061050415,0.0,0.0,0.0,-1.831505537033081,5.2287421226501465,1.1308629512786865,331.50616455078125,0
1077.562,0.0032335256692022085,-0.011765831150114536,1.4556486348737963e-05,0.0,0.0,0.0,0.0,-0.0037812914233654737,-0.00041838292963802814,0.0022505568340420723,1.0025410652160645,0.0,0.0,0.0,-1.824300765991211,5.234774589538574,1.1382774114608765,330.20208740234375,0
1087.4500000000007,0.0031352394726127386,-0.011740682646632195,-6.556740572705166e-06,0.0,0.0,0.0,0.0,-0.0019473020220175385,-0.005872190464287996,0.004032702185213566,1.0005769729614258,0.0,0.0,0.0,-1.830597162246704,5.246127128601074,1.1283197402954102,331.34173583984375,0
1097.3340000000007,0.0031837187707424164,-0.011674262583255768,-3.57844983227551e-05,0.0,0.0,0.0,0.0,-0.0007204643916338682,0.0011411223094910383,-0.0005364517564885318,1.0011284351348877,0.0,0.0,0.0,-1.8278447389602661,5.242386341094971,1.1442168951034546,330.8435363769531,0
1107.2170000000006,0.003140955464914441,-0.011709071695804596,-6.518528243759647e-05,0.0,0.0,0.0,0.0,0.0008602687157690525,0.004341293126344681,0.001413119025528431,0.9996483325958252,0.0,0.0,0.0,-1.8333767652511597,5.235306262969971,1.1292437314987183,331.8448486328125,0
1117.1100000000006,0.003165638307109475,-0.011711341328918934,-8.822463860269636e-05,0.0,0.0,0.0,0.0,0.0028783909510821104,-0.00033605832140892744,0.0005370030994527042,1.0009939670562744,0.0,0.0,0.0,-1.8310295343399048,5.227142333984375,1.1265536546707153,331.41998291015625,0
1126.9989999999998,0.0031447371002286673,-0.011708884499967098,-9.750528988661245e-05,0.0,0.0,0.0,0.0,0.00059739057905972,0.003034611465409398,-0.00013489770935848355,1.0007445812225342,0.0,0.0,0.0,-1.8381006717681885,5.221229076385498,1.1117655038833618,332.6998596191406,0
1136.8870000000006,0.0031185909174382687,-0.011706516146659851,-5.27786833117716e-05,0.0,0.0,0.0,0.0,-0.00040534697473049164,0.0018504163017496467,-0.0016273423098027706,0.9995474219322205,0.0,0.0,0.0,-1.8225252628326416,5.221061706542969,1.110324501991272,329.88067626953125,0
1146.7659999999996,0.003139825537800789,-0.011706974357366562,-4.567127689369954e-05,0.0,0.0,0.0,0.0,0.0013374428963288665,-0.0006640232750214636,-0.0005013508489355445,0.9998276233673096,0.0,0.0,0.0,-1.8298850059509277,5.222132682800293,1.1086534261703491,331.21282958984375,0
1156.6579999999994,0.0031326613388955593,-0.011711079627275467,-2.5559635105310008e-05,0.0,0.0,0.0,0.0,0.003260130062699318,0.005546893458813429,0.004756187088787556,1.0018908977508545,0.0,0.0,0.0,-1.8283250331878662,5.2119669914245605,1.1120048761367798,330.9304504394531,0
1166.5319999999992,0.003183902706950903,-0.011746050789952278,-1.6459358448628336e-05,0.0,0.0,0.0,0.0,-0.0029920570086687803,-0.001770632341504097,-0.0011109743500128388,1.0016309022903442,0.0,0.0,0.0,-1.8372482061386108,5.197782516479492,1.1134873628616333,332.54559326171875,0
1176.4220000000005,0.0031380425207316875,-0.01179136149585247,4.815841748495586e-05,0.0,0.0,0.0,0.0,-0.0033508155029267073,-0.003582034958526492,0.0002804025134537369,1.000411868095398,0.0,0.0,0.0,-1.8348885774612427,5.199532508850098,1.121410608291626,332.1184997558594,0
1186.3160000000007,0.0031705491710454226,-0.011813518591225147,6.386037421179935e-05,0.0,0.0,0.0,0.0,0.00032523355912417173,0.0034857564605772495,0.0024602864868938923,0.9997448325157166,0.0,0.0,0.0,-1.846270203590393,5.1993937492370605,1.129181981086731,334.1785583496094,0
1196.1910000000007,0.0031343488954007626,-0.011877501383423805,0.00011938824172830209,0.0,0.0,0.0,0.0,-0.0015157919842749834,-4.784517295775004e-05,0.001577982329763472,0.9996358752250671,0.0,0.0,0.0,-1.8440295457839966,5.195202350616455,1.1193674802780151,333.77301025390625,0
1206.0840000000007,0.003211323404684663,-0.011921417899429798,0.00014619923604186624,0.0,0.0,0.0,0.0,-0.0011812375159934163,0.0016989500727504492,0.001992899691686034,1.000519037246704,0.0,0.0,0.0,-1.856135606765747,5.19425106048584,1.1203535795211792,335.9642333984375,0
1215.9689999999991,0.0031824233010411263,-0.011916832067072392,0.00022300981800071895,0.0,0.0,0.0,0.0,-0.0004122642276342958,0.002147151157259941,-0.0014659033622592688,0.9993555545806885,0.0,0.0,0.0,-1.8545887470245361,5.187077045440674,1.1132826805114746,335.68426513671875,0
1225.8500000000004,0.0032225537579506636,-0.011957406997680664,0.0002462506527081132,0.0,0.0,0.0,0.0,-0.00015165575314313173,0.003379227127879858,-0.0009769429452717304,1.0004104375839233,0.0,0.0,0.0,-1.8635822534561157,5.182857036590576,1.113239049911499,337.31207275390625,0
1235.7360000000008,0.003224328625947237,-0.011984484270215034,0.0002805872354656458,0.0,0.0,0.0,0.0,-0.0013935264432802796,-0.0017693000845611095,-0.0005353037267923355,1.0017741918563843,0.0,0.0,0.0,-1.861879825592041,5.180729866027832,1.111950397491455,337.0039367675781,0
1245.6219999999994,0.0031822044402360916,-0.011951163411140442,0.0003110206744167954,0.0,0.0,0.0,0.0,0.0003511643735691905,5.1285365771036595e-05,-0.0003371785278432071,0.9990298748016357,0.0,0.0,0.0,-1.8697319030761719,5.189701080322266,1.1187249422073364,338.4252014160156,0
1255.5059999999994,0.0032103757839649916,-0.011959484778344631,0.00032154435757547617,0.0,0.0,0.0,0.0,-0.0010531535372138023,-0.0015004348242655396,-0.0012318695662543178,1.0014171600341797,0.0,0.0,0.0,-1.868062138557434,5.183442115783691,1.1091539859771729,338.1229553222656,0
1265.3999999999996,0.003168052062392235,-0.012009219266474247,0.0003189158160239458,0.0,0.0,0.0,0.0,0.001617091242223978,0.0006705960258841515,-0.00047456283937208354,0.9989820718765259,0.0,0.0,0.0,-1.8657035827636719,5.177210330963135,1.1170551776885986,337.696044921875,0
1275.2849999999999,0.003266521729528904,-0.011886347085237503,0.0002772193111013621,0.0,0.0,0.0,0.0,-0.0022783405147492886,-0.00476510776206851,0.0010360516607761383,0.9991618394851685,0.0,0.0,0.0,-1.8570365905761719,5.195962905883789,1.1210591793060303,336.1273193359375,0
1285.1710000000003,0.003154545556753874,-0.011902834288775921,0.0002607110654935241,0.0,0.0,0.0,0.0,0.00010795664275065064,0.0030873804353177547,-0.002666893182322383,0.9994434714317322,0.0,0.0,0.0,-1.863824486732483,5.195455551147461,1.1061110496520996,337.3559265136719,0
1295.0499999999993,0.0032234450336545706,-0.011821257881820202,0.00023590434284415096,0.0,0.0,0.0,0.0,-0.003373826155439019,0.005678793881088495,0.00380280171521008,1.0014820098876953,0.0,0.0,0.0,-1.8529638051986694,5.208220481872559,1.1019598245620728,335.3901062011719,0
1304.9490000000005,0.003077761735767126,-0.01183224469423294,0.0002072768402285874,0.0,0.0,0.0,0.0,0.002011667937040329,-0.0038218393456190825,-0.0014549319166690111,0.9993205070495605,0.0,0.0,0.0,-1.8629812002182007,5.2184600830078125,1.068988561630249,337.20330810546875,0
1314.8220000000001,0.0031433289404958487,-0.011818388476967812,0.00015789101598784328,0.0,0.0,0.0,0.0,-0.001121665583923459,0.00032417543116025627,0.0014202477177605033,0.9988265633583069,0.0,0.0,0.0,-1.853949785232544,5.2190728187561035,1.0841444730758667,335.568603515625,0
1324.7090000000007,0.0031018054578453302,-0.011826076544821262,0.00015390239423140883,0.0,0.0,0.0,0.0,-4.5992404920980334e-05,-0.0007390611572191119,-0.0014121178537607193,0.9984145164489746,0.0,0.0,0.0,-1.859346866607666,5.221108913421631,1.067431092262268,336.54547119140625,0
1334.5969999999998,0.0031483282800763845,-0.01182157639414072,0.0001201886625494808,0.0,0.0,0.0,0.0,0.0005449684686027467,-0.0001814264978747815,0.0004155640199314803,0.9989151358604431,0.0,0.0,0.0,-1.8498564958572388,5.2224836349487305,1.0790632963180542,334.8277282714844,0
1344.4850000000006,0.003140154527500272,-0.011847367510199547,0.00011294033902231604,0.0,0.0,0.0,0.0,-0.0051904465071856976,0.002596367383375764,-0.0027154667768627405,1.0007984638214111,0.0,0.0,0.0,-1.8585125207901,5.21577262878418,1.064467430114746,336.39447021484375,0
1354.3680000000004,0.003147039096802473,-0.011842388659715652,0.00012956875434610993,0.0,0.0,0.0,0.0,0.0008543814765289426,-0.005776758771389723,0.0010188715532422066,1.0006567239761353,0.0,0.0,0.0,-1.8467118740081787,5.225509166717529,1.0651211738586426,334.2585144042969,0
1364.2600000000002,0.0031066536903381348,-0.011846624314785004,0.00012489089567679912,0.0,0.0,0.0,0.0,9.506838250672445e-05,9.643442353990395e-06,-0.00301354075782001,0.9985210299491882,0.0,0.0,0.0,-1.8526244163513184,5.2271809577941895,1.0783671140670776,335.32867431640625,0
1374.1380000000008,0.0031273390632122755,-0.011846683919429779,0.00012472568778321147,0.0,0.0,0.0,0.0,0.0003479885926935822,0.002327376278117299,0.003981659188866615,1.0010813474655151,0.0,0.0,0.0,-1.8518069982528687,5.228226661682129,1.084141492843628,335.18072509765625,0
1384.027,0.00310464296489954,-0.011827930808067322,0.00013505031529348344,0.0,0.0,0.0,0.0,-0.00023222593881655484,-0.002404180122539401,0.0013303696177899837,1.0000628232955933,0.0,0.0,0.0,-1.8574734926223755,5.228883266448975,1.0724685192108154,336.2063903808594,0
1393.914999999999,0.0031250088941305876,-0.011817037127912045,0.0001386924705002457,0.0,0.0,0.0,0.0,0.0026025925762951374,0.0010355017147958279,-0.001727504888549447,0.9980974793434143,0.0,0.0,0.0,-1.8473472595214844,5.228209018707275,1.0826969146728516,334.3735046386719,0
1403.8019999999997,0.003128818003460765,-0.011846578679978848,0.00013755066902376711,0.0,0.0,0.0,0.0,-0.00013336350093595684,-0.01023136731237173,-0.0016963047673925757,1.0009669065475464,0.0,0.0,0.0,-1.8560056686401367,5.22205924987793,1.0667914152145386,335.94073486328125,0
1413.6890000000003,0.003082753624767065,-0.01191064715385437,0.00020047437283210456,0.0,0.0,0.0,0.0,-0.0003765902074519545,-0.002628699876368046,0.002156028989702463,1.0017352104187012,0.0,0.0,0.0,-1.8538334369659424,5.213129043579102,1.090674638748169,335.5475158691406,0
1423.5810000000001,0.0031246019061654806,-0.011908349581062794,0.00023393733135890216,0.0,0.0,0.0,0.0,-0.0003085594507865608,0.00024292325542774051,-8.500200783601031e-05,1.0005348920822144,0.0,0.0,0.0,-1.8640276193618774,5.219875335693359,1.1017640829086304,337.3927307128906,0
1433.4560000000001,0.003153220983222127,-0.011882693506777287,0.0002379312354605645,0.0,0.0,0.0,0.0,0.0010997053468599916,0.0014749756082892418,0.003992496524006128,0.9993298053741455,0.0,0.0,0.0,-1.8623782396316528,5.219573020935059,1.0931411981582642,337.0941467285156,0
1443.3449999999993,0.003126119263470173,-0.011910700239241123,0.0002407230786047876,0.0,0.0,0.0,0.0,0.003308525774627924,0.004237582441419363,-0.0023105074651539326,0.9999068379402161,0.0,0.0,0.0,-1.8686615228652954,5.2211761474609375,1.0862194299697876,338.2314453125,0
1453.232,0.0031541157513856888,-0.01188882626593113,0.00024065753677859902,0.0,0.0,0.0,0.0,0.0014582809526473284,-0.0017719462048262358,-0.00040305170114152133,1.0014764070510864,0.0,0.0,0.0,-1.8672747611999512,5.2131667137146,1.0793535709381104,337.9804382324219,0
1463.1129999999994,0.0032062174286693335,-0.011920841410756111,0.0002629535156302154,0.0,0.0,0.0,0.0,0.0017650219378992915,-0.0008208891376852989,-0.0007728132768534124,1.000344157218933,0.0,0.0,0.0,-1.8729625940322876,5.2061448097229,1.0877562761306763,339.00994873046875,0
1472.9989999999998,0.0032308187801390886,-0.01189781166613102,0.00027219756157137454,0.0,0.0,0.0,0.0,-0.0013817751314491034,0.0009815001394599676,0.0009917046409100294,0.9998597502708435,0.0,0.0,0.0,-1.8584294319152832,5.208649158477783,1.0882058143615723,336.3794250488281,0
1482.8960000000006,0.0031505238730460405,-0.011901448480784893,0.00026881409576162696,0.0,0.0,0.0,0.0,0.0017536163795739412,0.00833017285913229,-0.000564486370421946,0.9989611506462097,0.0,0.0,0.0,-1.8631713390350342,5.209020137786865,1.0613203048706055,337.2377014160156,0
1492.7749999999996,0.003187713446095586,-0.011860249564051628,0.0002634412085171789,0.0,0.0,0.0,0.0,-0.0005618546856567264,-0.0027604547794908285,0.0002694609866011888,0.9979272484779358,0.0,0.0,0.0,-1.8544766902923584,5.209638595581055,1.044390320777893,335.6639709472656,0
1502.6640000000007,0.003229585476219654,-0.01192211452871561,0.00026678378344513476,0.0,0.0,0.0,0.0,0.003012019209563732,0.0018805116415023804,0.0033546737395226955,0.9978398084640503,0.0,0.0,0.0,-1.8533998727798462,5.205368995666504,1.0529060363769531,335.46905517578125,0
1512.5480000000007,0.003251759335398674,-0.011900924146175385,0.0002736619208008051,0.0,0.0,0.0,0.0,0.004333962220698595,0.003388030454516411,-0.00029106566216796637,0.998676598072052,0.0,0.0,0.0,-1.8511425256729126,5.194064617156982,1.048973560333252,335.0604553222656,0
1522.438,0.003151326673105359,-0.011911138892173767,0.0002572343510109931,0.0,0.0,0.0,0.0,-0.0017749551916494966,-0.0026978703681379557,0.0003316429501865059,0.9998274445533752,0.0,0.0,0.0,-1.8562365770339966,5.180975914001465,1.0346404314041138,335.9825134277344,0
1532.3140000000003,0.003180615371093154,-0.01188641507178545,0.00024724414106458426,0.0,0.0,0.0,0.0,0.00014625188487116247,-0.002286313334479928,-0.000673944887239486,0.9997687935829163,0.0,0.0,0.0,-1.8534406423568726,5.175818920135498,1.034045934677124,335.4764099121094,0
1542.2090000000007,0.0031759031116962433,-0.01193821057677269,0.00023966307344380766,0.0,0.0,0.0,0.0,-0.0021484000608325005,-0.004509142599999905,0.004049098119139671,1.0002723932266235,0.0,0.0,0.0,-1.8601471185684204,5.1697306632995605,1.0355216264724731,336.6903381347656,0
1552.0879999999997,0.0032343182247132063,-0.01189146563410759,0.0001953070459421724,0.0,0.0,0.0,0.0,-0.0002221886970801279,-0.006190125830471516,0.0014392954763025045,0.9996634125709534,0.0,0.0,0.0,-1.8518409729003906,5.180479526519775,1.048401117324829,335.1869201660156,0
1561.9779999999992,0.003148329444229603,-0.011880320496857166,0.00018265779362991452,0.0,0.0,0.0,0.0,0.0030776404310017824,0.0013520920183509588,0.0020555623341351748,0.9986701011657715,0.0,0.0,0.0,-1.8584396839141846,5.185928821563721,1.0553642511367798,336.38128662109375,0
1571.8590000000004,0.0031818924471735954,-0.011862460523843765,0.0001523208775324747,0.0,0.0,0.0,0.0,0.00036315491888672113,-0.00017824363021645695,-0.0022292002104222775,0.9980707168579102,0.0,0.0,0.0,-1.8488757610321045,5.180865287780762,1.0679386854171753,334.65020751953125,0
1581.7489999999998,0.003092466853559017,-0.011900424025952816,0.00011846201959997416,0.0,0.0,0.0,0.0,6.888627103762701e-05,0.0008208115468733013,-0.0007138055516406894,1.0004873275756836,0.0,0.0,0.0,-1.857985258102417,5.1748151779174805,1.0494506359100342,336.2990417480469,0
1591.6290000000008,0.003104672534391284,-0.011870088055729866,0.00011118441034341231,0.0,0.0,0.0,0.0,-0.0009579269681125879,0.0027457401156425476,-0.0005317502073012292,0.9993649125099182,0.0,0.0,0.0,-1.8561091423034668,5.170173645019531,1.0458533763885498,335.9594421386719,0
1601.5300000000007,0.0030774411279708147,-0.011900186538696289,9.484455222263932e-05,0.0,0.0,0.0,0.0,-0.0008198909927159548,0.0037819419521838427,-0.00309742777608335,0.9983628988265991,0.0,0.0,0.0,-1.8645665645599365,5.165990352630615,1.034746527671814,337.4902648925781,0
1611.4060000000009,0.0030877511017024517,-0.011853115633130074,9.28025838220492e-05,0.0,0.0,0.0,0.0,-0.004854218568652868,0.0036496706306934357,0.0017153951339423656,0.99949711561203,0.0,0.0,0.0,-1.854037880897522,5.173099994659424,1.0242645740509033,335.5845642089844,0
1621.289999999999,0.003035189351066947,-0.011851326562464237,7.77883396949619e-05,0.0,0.0,0.0,0.0,0.0011090345215052366,-0.002531296806409955,0.0017830689903348684,1.000476360321045,0.0,0.0,0.0,-1.8605538606643677,5.183705806732178,1.0012035369873047,336.76397705078125,0
1631.1749999999993,0.003042796393856406,-0.011817879043519497,7.473901496268809e-05,0.0,0.0,0.0,0.0,-0.0014759671175852418,-0.003101921873167157,0.0022661720868200064,0.999928891658783,0.0,0.0,0.0,-1.8517141342163086,5.1849517822265625,1.0105323791503906,335.1639404296875,0
1641.0640000000003,0.003073276486247778,-0.011876209639012814,6.314356141956523e-05,0.0,0.0,0.0,0.0,-0.0014377919724211097,0.00042357470374554396,0.0007732306839898229,1.0018284320831299,0.0,0.0,0.0,-1.861093282699585,5.17726469039917,1.012607216835022,336.861572265625,0
1650.941999999999,0.0030733973253518343,-0.01181042194366455,8.35046885185875e-05,0.0,0.0,0.0,0.0,-0.00031873807893134654,0.0011545991292223334,-0.00019393993716221303,1.0008188486099243,0.0,0.0,0.0,-1.8489348888397217,5.189728260040283,1.0107312202453613,334.660888671875,0
1660.8369999999995,0.003073869040235877,-0.011869821697473526,6.536748696817085e-05,0.0,0.0,0.0,0.0,-0.0022031310945749283,-0.005600995849817991,-0.0005176684935577214,0.9999019503593445,0.0,0.0,0.0,-1.8569029569625854,5.179259777069092,1.0002979040145874,336.1031188964844,0
1670.7129999999997,0.0030833957716822624,-0.011837451718747616,6.521718023577705e-05,0.0,0.0,0.0,0.0,-0.0014022988034412265,-1.6830781532917172e-05,0.0029744186904281378,0.9979998469352722,0.0,0.0,0.0,-1.8473857641220093,5.188894271850586,1.0129133462905884,334.3804931640625,0
1680.6039999999994,0.0031215264461934566,-0.01184886321425438,7.627525337738916e-05,0.0,0.0,0.0,0.0,0.00012398396211210638,0.002562921494245529,0.0007432515849359334,0.9986162781715393,0.0,0.0,0.0,-1.8549216985702515,5.1902360916137695,1.0150384902954102,335.7445068359375,0
1690.4850000000006,0.003112536622211337,-0.011848731897771358,9.218214836437255e-05,0.0,0.0,0.0,0.0,0.0016334917163476348,-0.0032461057417094707,-0.00075754668796435,1.0004079341888428,0.0,0.0,0.0,-1.853129506111145,5.192389488220215,1.0076059103012085,335.42010498046875,0
1700.3799999999992,0.003144721267744899,-0.01186106726527214,0.0001036541725625284,0.0,0.0,0.0,0.0,0.0011729904217645526,-0.00312195741571486,-0.0002466114528942853,0.9995137453079224,0.0,0.0,0.0,-1.8570163249969482,5.191072463989258,1.032500982284546,336.1236572265625,0
1710.2540000000008,0.003167924704030156,-0.011795577593147755,9.969813982024789e-05,0.0,0.0,0.0,0.0,0.002781699877232313,-0.00030554545810446143,-0.0021684367675334215,0.9998459219932556,0.0,0.0,0.0,-1.843199610710144,5.202090740203857,1.0421041250228882,333.622802734375,0
1720.152,0.0031590485014021397,-0.011805740185081959,0.00010353791731176898,0.0,0.0,0.0,0.0,0.0005245105712674558,-0.0040374682284891605,-0.0009144328651018441,0.9995386004447937,0.0,0.0,0.0,-1.8544007539749146,5.197899341583252,1.0527377128601074,335.6502380371094,0
1730.0290000000005,0.0031416339334100485,-0.011814097873866558,0.00012681780208367854,0.0,0.0,0.0,0.0,-0.0008058337843976915,-0.0006004255847074091,-0.0012761850375682116,0.9986169338226318,0.0,0.0,0.0,-1.8525851964950562,5.194606781005859,1.0593799352645874,335.32159423828125,0
1739.9210000000003,0.00313312909565866,-0.011848906055092812,0.00012074811093043536,0.0,0.0,0.0,0.0,0.0015239673666656017,-6.470131484093145e-05,-0.0004541798844002187,0.999126672744751,0.0,0.0,0.0,-1.8585058450698853,5.192200660705566,1.0571415424346924,336.39324951171875,0
1749.8089999999993,0.003109151730313897,-0.011850250884890556,0.00015339335368480533,0.0,0.0,0.0,0.0,0.0017728812526911497,-0.0053804898634552956,-0.0008209752268157899,1.0001472234725952,0.0,0.0,0.0,-1.8513963222503662,5.1909918785095215,1.060083031654358,335.10638427734375,0
1759.6949999999997,0.003127714619040489,-0.011863643303513527,0.00016823718033265322,0.0,0.0,0.0,0.0,0.003994110971689224,0.003921465016901493,-0.0030588756781071424,1.0014153718948364,0.0,0.0,0.0,-1.8603640794754028,5.1881914138793945,1.0732885599136353,336.7295837402344,0
1769.5730000000003,0.0031269192695617676,-0.011843737214803696,0.00018318691581953317,0.0,0.0,0.0,0.0,0.000740279268939048,0.00018734046898316592,0.003772546537220478,1.0010775327682495,0.0,0.0,0.0,-1.8527201414108276,5.181066989898682,1.0693076848983765,335.3460388183594,0
1779.4779999999992,0.0031156570184975863,-0.011855088174343109,0.00019170505402144045,0.0,0.0,0.0,0.0,-0.0012804153375327587,0.0003646364784799516,-0.00132496387232095,0.999428927898407,0.0,0.0,0.0,-1.8586199283599854,5.17720365524292,1.0533164739608765,336.4139404296875,0
1789.348,0.003161670407280326,-0.011779405176639557,0.00017003864923026413,0.0,0.0,0.0,0.0,0.00010956565529340878,-0.0003487335634417832,0.002586680231615901,0.9990251064300537,0.0,0.0,0.0,-1.8446546792984009,5.188653469085693,1.0594494342803955,333.88616943359375,0
1799.2360000000008,0.003180373227223754,-0.011828407645225525,0.00016918695473577827,0.0,0.0,0.0,0.0,-0.0005220437305979431,0.0025474787689745426,0.0013866490917280316,0.9993857741355896,0.0,0.0,0.0,-1.852536916732788,5.179055690765381,1.0575096607208252,335.3128662109375,0
1809.1190000000006,0.003203050931915641,-0.01178508810698986,0.00016940532077569515,0.0,0.0,0.0,0.0,-0.0022328218910843134,0.0003343918069731444,0.0031090129632502794,1.0010522603988647,0.0,0.0,0.0,-1.8392270803451538,5.190191268920898,1.052880883216858,332.9037780761719,0
1819.0200000000004,0.0031621484085917473,-0.01180825475603342,0.00016313315427396446,0.0,0.0,0.0,0.0,-0.00030241478816606104,0.0027123186737298965,-0.0005095140659250319,0.9998633861541748,0.0,0.0,0.0,-1.848915457725525,5.183267116546631,1.0526478290557861,334.6573791503906,0
1828.8960000000006,0.003148016519844532,-0.01182775478810072,0.000190197562915273,0.0,0.0,0.0,0.0,0.0007385094650089741,-0.0002749175182543695,-0.0018019721610471606,1.000098705291748,0.0,0.0,0.0,-1.8472480773925781,5.178459644317627,1.0476917028427124,334.3555908203125,0
1838.7970000000005,0.003103960305452347,-0.011817596852779388,0.00019758095731958747,0.0,0.0,0.0,0.0,-0.0015018264530226588,-0.0005516362725757062,-0.0010259936098009348,0.9989172220230103,0.0,0.0,0.0,-1.8554346561431885,5.178340911865234,1.0345964431762695,335.8373718261719,0
1848.6749999999993,0.0031420160084962845,-0.0118015231564641,0.00016259195399470627,0.0,0.0,0.0,0.0,-0.0025505118537694216,-0.0056729381904006,-0.0016378468135371804,0.9978067874908447,0.0,0.0,0.0,-1.8541229963302612,5.173654079437256,1.0322580337524414,335.5999450683594,0
1858.563,0.003098319051787257,-0.011793499812483788,0.00016263274301309139,0.0,0.0,0.0,0.0,-0.002903685672208667,0.00350114144384861,-0.0006101738545112312,0.9986867904663086,0.0,0.0,0.0,-1.8599209785461426,5.174396991729736,1.0252842903137207,336.6493835449219,0
1868.450999999999,0.003123752772808075,-0.011791602708399296,0.0001271992950933054,0.0,0.0,0.0,0.0,0.0004009358526673168,-0.008377864956855774,0.002629350870847702,1.0003217458724976,0.0,0.0,0.0,-1.8574318885803223,5.174882888793945,1.0270743370056152,336.1988830566406,0
1878.3289999999997,0.0030791156459599733,-0.011795233935117722,0.00012033658276777714,0.0,0.0,0.0,0.0,-0.0003645659890025854,-0.001575595117174089,0.00020807744294870645,0.9998700618743896,0.0,0.0,0.0,-1.8639079332351685,5.170552730560303,1.0290470123291016,337.37103271484375,0
1888.2119999999995,0.0031119261402636766,-0.011734926141798496,8.674065611558035e-05,0.0,0.0,0.0,0.0,-6.253892024687957e-06,0.005920431111007929,-0.0011536881793290377,1.0003434419631958,0.0,0.0,0.0,-1.8540843725204468,5.178308486938477,1.0336209535598755,335.59295654296875,0
1898.1020000000008,0.0031216333154588938,-0.011789712123572826,7.48255115468055e-05,0.0,0.0,0.0,0.0,-0.000446793477749452,0.0005849297158420086,0.0025102151557803154,1.0003641843795776,0.0,0.0,0.0,-1.8612202405929565,5.16858434677124,1.0244776010513306,336.8845520019531,0
1907.982,0.0030942014418542385,-0.01179579645395279,9.75338916759938e-05,0.0,0.0,0.0,0.0,-0.0016100273933261633,-0.0005357364425435662,-0.005608771927654743,0.9997279047966003,0.0,0.0,0.0,-1.8507933616638184,5.166999340057373,1.0251346826553345,334.99725341796875,0
1917.8739999999998,0.003126314841210842,-0.011840851046144962,0.00010227319580735639,0.0,0.0,0.0,0.0,0.0003842938458546996,-0.001687954063527286,-0.0013896089512854815,1.0016369819641113,0.0,0.0,0.0,-1.8553125858306885,5.158321380615234,1.033246397972107,335.8152770996094,0
1927.7569999999996,0.003105930984020233,-0.011833173222839832,0.00012324107228778303,0.0,0.0,0.0,0.0,-0.0018973080441355705,0.0006024258909747005,-0.0012774539645761251,1.0024324655532837,0.0,0.0,0.0,-1.8472388982772827,5.158128261566162,1.0408285856246948,334.3539123535156,0
1937.6409999999996,0.0031437468715012074,-0.011903418228030205,0.00012524404155556113,0.0,0.0,0.0,0.0,-0.0015977524453774095,-0.0004729313950520009,0.0043148440308868885,1.0008368492126465,0.0,0.0,0.0,-1.8528590202331543,5.147555351257324,1.0480248928070068,335.37115478515625,0
1947.5310000000009,0.003136166138574481,-0.011875311844050884,0.000141859010909684,0.0,0.0,0.0,0.0,1.9036157027585432e-05,-0.002570456126704812,-0.0004622664419002831,0.9986926317214966,0.0,0.0,0.0,-1.8439966440200806,5.158390998840332,1.053053855895996,333.7670593261719,0
1957.4179999999997,0.003193862969055772,-0.011906294152140617,0.00016565145051572472,0.0,0.0,0.0,0.0,3.306943835923448e-05,0.003794237272813916,0.002265576971694827,0.9996777176856995,0.0,0.0,0.0,-1.842738151550293,5.155628681182861,1.0575532913208008,333.5392761230469,0
1967.3150000000005,0.003179184626787901,-0.011890376918017864,0.00019000105385202914,0.0,0.0,0.0,0.0,0.002639585407450795,0.0035783876664936543,-0.0017078717937693,0.9995791912078857,0.0,0.0,0.0,-1.833555817604065,5.158525466918945,1.049005389213562,331.87725830078125,0
1977.196,0.0031231893226504326,-0.011894799768924713,0.000194047242985107,0.0,0.0,0.0,0.0,0.0007193565834313631,0.0009034344111569226,-0.002402266953140497,0.9976651072502136,0.0,0.0,0.0,-1.8399401903152466,5.154313564300537,1.0304890871047974,333.0328369140625,0
1987.0879999999997,0.0031283958815038204,-0.01181455235928297,0.0002084788284264505,0.0,0.0,0.0,0.0,-0.0009567366214469075,0.004230716731399298,-0.00096863106591627,1.0001486539840698,0.0,0.0,0.0,-1.8286242485046387,5.166478157043457,1.0244187116622925,330.984619140625,0
1996.9580000000005,0.0030722736846655607,-0.011890635825693607,0.00018365394498687238,0.0,0.0,0.0,0.0,0.0015032038791105151,-0.002515066647902131,-0.001541605917736888,1.0000765323638916,0.0,0.0,0.0,-1.8356678485870361,5.152406692504883,1.0063039064407349,332.259521484375,0
2006.8500000000004,0.003085395786911249,-0.011853454634547234,0.0001725964102661237,0.0,0.0,0.0,0.0,-0.002726594917476177,-0.008659417741000652,-0.0026383327785879374,0.9958482384681702,0.0,0.0,0.0,-1.8344502449035645,5.153287887573242,1.0216128826141357,332.0391540527344,0
2016.7330000000002,0.0030504080932587385,-0.01191017683595419,0.0001564095582580194,0.0,0.0,0.0,0.0,-0.001843014732003212,-0.00023228349164128304,-0.002586560556665063,0.9998632073402405,0.0,0.0,0.0,-1.84233820438385,5.153534412384033,1.0283498764038086,333.4668884277344,0
2026.6170000000002,0.0030718629714101553,-0.011854470707476139,0.00013575289631262422,0.0,0.0,0.0,0.0,0.002075077500194311,0.0045380801893770695,0.0008313527214340866,1.0009357929229736,0.0,0.0,0.0,-1.835164189338684,5.167443752288818,1.0338749885559082,332.1683654785156,0
2036.5,0.003097251057624817,-0.011876987293362617,0.00014637284039054066,0.0,0.0,0.0,0.0,-0.0028916799928992987,0.003056624671444297,-0.001637464971281588,1.0012603998184204,0.0,0.0,0.0,-1.8413066864013672,5.162123203277588,1.0346148014068604,333.28021240234375,0
2046.3899999999994,0.0031455846037715673,-0.011796152219176292,0.00010579184890957549,0.0,0.0,0.0,0.0,-3.4559577670734143e-06,-0.003428854513913393,0.0024909647181630135,1.0001105070114136,0.0,0.0,0.0,-1.8402029275894165,5.162670135498047,1.0360352993011475,333.0804138183594,0
2056.272000000001,0.0031477119773626328,-0.011808003298938274,0.00011489917960716411,0.0,0.0,0.0,0.0,-0.0025404870975762606,-0.00037764638545922935,0.001295517198741436,1.0017273426055908,0.0,0.0,0.0,-1.8516725301742554,5.163913249969482,1.0392736196517944,335.15643310546875,0
2066.16,0.003172667231410742,-0.011754056438803673,0.00010080567153636366,0.0,0.0,0.0,0.0,0.00020971336925867945,-0.0006623818771913648,0.003785601584240794,1.000401258468628,0.0,0.0,0.0,-1.8488484621047974,5.161233425140381,1.0440062284469604,334.6452331542969,0
2076.0509999999995,0.003143354319036007,-0.011804014444351196,8.549448830308393e-05,0.0,0.0,0.0,0.0,-0.0013166371500119567,-0.0015619605546817183,0.001686675357632339,1.0009257793426514,0.0,0.0,0.0,-1.8539164066314697,5.1494221687316895,1.035645842552185,335.5625305175781,0
2085.9310000000005,0.0030975190456956625,-0.011834009550511837,0.00013672681234311312,0.0,0.0,0.0,0.0,0.0029646207112818956,-0.0020144388545304537,0.0016442507039755583,1.0005789995193481,0.0,0.0,0.0,-1.8439439535140991,5.142577171325684,1.0277132987976074,333.75750732421875,0
2095.8179999999993,0.003082443494349718,-0.01179326418787241,0.00016494584269821644,0.0,0.0,0.0,0.0,-0.0032920967787504196,-0.0015096463030204177,0.00022188159346114844,0.9983524680137634,0.0,0.0,0.0,-1.8509440422058105,5.145626068115234,1.0332952737808228,335.0245361328125,0
2105.7129999999997,0.0030842265114188194,-0.01178715005517006,0.00017126937746070325,0.0,0.0,0.0,0.0,0.0004999780794605613,0.0039923605509102345,-0.001874424866400659,1.0015342235565186,0.0,0.0,0.0,-1.8435375690460205,5.148387908935547,1.0396028757095337,333.6839599609375,0
2115.593999999999,0.0031139557249844074,-0.011822402477264404,0.00018525394261814654,0.0,0.0,0.0,0.0,0.00165360642131418,0.0016310112550854683,0.0028765713796019554,1.0014153718948364,0.0,0.0,0.0,-1.8523354530334473,5.141717433929443,1.0266261100769043,335.2763977050781,0
2125.4760000000006,0.0031162018422037363,-0.011818168684840202,0.000197266970644705,0.0,0.0,0.0,0.0,0.0017829138087108731,0.002288471907377243,-0.0021376304794102907,1.000436544418335,0.0,0.0,0.0,-1.8493118286132812,5.1345438957214355,1.0195327997207642,334.7290954589844,0
2135.3639999999996,0.003121820976957679,-0.011853024363517761,0.0002075554511975497,0.0,0.0,0.0,0.0,-0.003246910637244582,-0.009342984296381474,0.0031614864710718393,0.9989688396453857,0.0,0.0,0.0,-1.8563894033432007,5.126089572906494,1.0214219093322754,336.01019287109375,0
