timestamp,stateEstimate.x,stateEstimate.y,stateEstimate.z,controller.cmd_thrust,controller.cmd_roll,controller.cmd_pitch,controller.cmd_yaw,controller.r_roll,controller.r_pitch,controller.r_yaw,controller.accelz,controller.actuatorThrust,controller.roll,controller.pitch,controller.yaw,controller.rollRate,controller.pitchRate,controller.yawRate,controller.ctr_yaw
0.0,-0.00010111155279446393,-0.0001269696222152561,-9.69640605035238e-05,0.0,0.0,0.0,0.0,-0.0008513004868291318,-0.0018943909090012312,-0.0017874379409477115,0.9989416599273682,0.0,0.0,0.0,0.15999354422092438,5.16372537612915,1.3882381916046143,-28.959148406982422,0
9.895000000000437,-0.00010076472244691104,-0.0001359777379548177,-0.00011305643420200795,0.0,0.0,0.0,0.0,0.000295803853077814,0.0006960138562135398,-0.0018484988249838352,0.9984881281852722,0.0,0.0,0.0,0.16558723151683807,5.163965225219727,1.391897201538086,-29.971616744995117,0
19.786000000000058,-7.981159433256835e-05,-0.00018596941663417965,-9.519749437458813e-05,0.0,0.0,0.0,0.0,-0.0027052522636950016,-0.0024804507847875357,0.00044713911483995616,1.0000431537628174,0.0,0.0,0.0,0.16539829969406128,5.158531665802002,1.3869432210922241,-29.937419891357422,0
29.661000000000058,-0.0001186811423394829,-0.00020227963977959007,-6.862173904664814e-05,0.0,0.0,0.0,0.0,-0.0016524483216926455,-0.0039832862094044685,0.002423644997179508,1.0008615255355835,0.0,0.0,0.0,0.16526329517364502,5.146994113922119,1.3934177160263062,-29.91298484802246,0
39.5570000000007,-7.772565732011572e-05,-0.00022294599330052733,-2.736449459916912e-05,0.0,0.0,0.0,0.0,-0.0018356627551838756,-0.003933187108486891,-0.0018161579500883818,1.0017889738082886,0.0,0.0,0.0,0.16574692726135254,5.1402692794799805,1.4043948650360107,-30.000524520874023,0
49.4380000000001,-6.423771264962852e-05,-0.0002052223717328161,-4.7679455747129396e-05,0.0,0.0,0.0,0.0,0.003025484038516879,0.001682998496107757,-0.00017686236242298037,0.9996181130409241,0.0,0.0,0.0,0.16525079309940338,5.134259223937988,1.4034394025802612,-29.910720825195312,0
59.318999999999505,-6.352539639919996e-05,-0.00019083591178059578,-8.333436198881827e-06,0.0,0.0,0.0,0.0,0.00174820760730654,-0.002734560053795576,0.0005946986493654549,1.0007110834121704,0.0,0.0,0.0,0.15606346726417542,5.135849952697754,1.4039443731307983,-28.247798919677734,0
69.20600000000013,-5.455993232317269e-05,-0.00018636041204445064,-2.7309975848766044e-05,0.0,0.0,0.0,0.0,3.033542043340276e-06,-0.0004904732923023403,0.0009168089600279927,1.0000994205474854,0.0,0.0,0.0,0.16259366273880005,5.135426998138428,1.4193941354751587,-29.42977523803711,0
79.09100000000035,-4.827868542633951e-05,-0.0002026159781962633,2.8895628929603845e-06,0.0,0.0,0.0,0.0,-0.002109937136992812,-0.0027880286797881126,0.0021924034226685762,0.9985385537147522,0.0,0.0,0.0,0.1622600108385086,5.130889892578125,1.4149457216262817,-29.369386672973633,0
88.97600000000057,-1.081544814951485e-05,-0.00013873974967282265,-3.6522884329315275e-05,0.0,0.0,0.0,0.0,0.0016273991204798222,-0.001090537989512086,0.00021888218179810792,0.998669445514679,0.0,0.0,0.0,0.16241919994354248,5.122550964355469,1.4151159524917603,-29.398197174072266,0
98.86599999999999,-1.430717202310916e-05,-0.00019890678231604397,-3.2656575058354065e-05,0.0,0.0,0.0,0.0,-0.000648575252853334,-0.00860684271901846,0.0010211028857156634,0.9969773292541504,0.0,0.0,0.0,0.15520542860031128,5.118948936462402,1.4340026378631592,-28.092491149902344,0
108.75,6.292141188168898e-05,-0.0001404550130246207,-0.00012691825395449996,0.0,0.0,0.0,0.0,0.002830746117979288,0.003847853746265173,7.543430547229946e-05,1.0010945796966553,0.0,0.0,0.0,0.1623569279909134,5.135429859161377,1.4630540609359741,-29.386926651000977,0
118.63700000000063,3.332211417728104e-05,-0.00018735088815446943,-0.00013439169561024755,0.0,0.0,0.0,0.0,0.002627253532409668,-0.002691606990993023,0.0008693475392647088,0.9995180368423462,0.0,0.0,0.0,0.162486270070076,5.127322196960449,1.4556843042373657,-29.41033935546875,0
128.52700000000004,3.1525571102974936e-05,-0.0001587248989380896,-0.00014253247354645282,0.0,0.0,0.0,0.0,0.0007615823415108025,0.001405969145707786,-0.0007497839396819472,1.0004043579101562,0.0,0.0,0.0,0.16299457848072052,5.122570991516113,1.4616507291793823,-29.502344131469727,0
138.40599999999904,1.6242758647422306e-05,-0.00018453988013789058,-0.0001349347148789093,0.0,0.0,0.0,0.0,0.000700733857229352,-0.0031376080587506294,0.0004512653104029596,1.0008976459503174,0.0,0.0,0.0,0.15287110209465027,5.124392032623291,1.4619923830032349,-27.669973373413086,0
148.29700000000048,1.9160015654051676e-05,-0.00014678214211016893,-0.00014461447426583618,0.0,0.0,0.0,0.0,-0.0013559901854023337,-0.0005147357587702572,-0.0015298202633857727,0.9999774098396301,0.0,0.0,0.0,0.15342403948307037,5.1155900955200195,1.4683560132980347,-27.770055770874023,0
158.1839999999993,-8.257368790509645e-06,-0.00015131309919524938,-0.0001326099445577711,0.0,0.0,0.0,0.0,-0.0009182690409943461,0.00037460410385392606,-0.0009241106454282999,1.000066876411438,0.0,0.0,0.0,0.14591941237449646,5.11867618560791,1.4615612030029297,-26.41170310974121,0
168.07300000000032,-2.32013135246234e-05,-0.00017810075951274484,-0.00013838337326887995,0.0,0.0,0.0,0.0,-0.001656195498071611,0.004998678807169199,-0.000354659539880231,1.0000853538513184,0.0,0.0,0.0,0.1453646570444107,5.114543914794922,1.4745171070098877,-26.31129264831543,0
177.95199999999932,-6.337244849419221e-05,-0.00020098252571187913,-0.00013285831664688885,0.0,0.0,0.0,0.0,-0.00012550973042380065,-0.00400057528167963,-0.000724939804058522,0.9993168115615845,0.0,0.0,0.0,0.14472542703151703,5.110758304595947,1.4613839387893677,-26.19559097290039,0
187.84200000000055,-6.50147267151624e-05,-0.00020676663552876562,-0.00014991794887464494,0.0,0.0,0.0,0.0,-0.0036662863567471504,-0.0017448579892516136,-0.0040977150201797485,0.9986470937728882,0.0,0.0,0.0,0.1443108320236206,5.10630989074707,1.4652389287948608,-26.120546340942383,0
197.72199999999975,-6.89360749674961e-05,-0.0002313361910637468,-0.00013434015272650868,0.0,0.0,0.0,0.0,-0.0015143764903768897,0.002084859414026141,0.0016834087437018752,0.9991287589073181,0.0,0.0,0.0,0.14414845407009125,5.105171203613281,1.4679629802703857,-26.091157913208008,0
207.6200000000008,-6.465164915425703e-05,-0.00023485082783736289,-0.00015622403589077294,0.0,0.0,0.0,0.0,-0.0038606186863034964,-0.0018138812156394124,-0.0015762310940772295,1.001960039138794,0.0,0.0,0.0,0.14400331676006317,5.104466915130615,1.465281367301941,-26.06488609313965,0
217.51100000000042,-7.281521538970992e-05,-0.00024939217837527394,-0.00013858887541573495,0.0,0.0,0.0,0.0,0.002192177576944232,-0.00826653279364109,7.896962051745504e-05,1.0004465579986572,0.0,0.0,0.0,0.14370280504226685,5.104949474334717,1.4676133394241333,-26.010496139526367,0
227.38600000000042,-0.00010137440403923392,-0.00024623272474855185,-0.00011131705105071887,0.0,0.0,0.0,0.0,-0.0007823975756764412,0.005742054432630539,-0.001956536201760173,0.9990896582603455,0.0,0.0,0.0,0.14281296730041504,5.09492301940918,1.464473009109497,-25.84943199157715,0
237.26699999999983,-6.810351624153554e-05,-0.00026055151829496026,-7.639815885340795e-05,0.0,0.0,0.0,0.0,-0.001500793732702732,-0.003949637059122324,-0.001833089510910213,0.9966824650764465,0.0,0.0,0.0,0.14282841980457306,5.089629650115967,1.4623866081237793,-25.85222816467285,0
247.16499999999905,-8.819066715659574e-05,-0.0002617647987790406,-5.597609197138809e-05,0.0,0.0,0.0,0.0,0.00015553775301668793,-0.003753245109692216,0.0008063782006502151,0.9999080300331116,0.0,0.0,0.0,0.14230257272720337,5.084797382354736,1.4716547727584839,-25.757047653198242,0
257.03999999999905,-8.321650966536254e-05,-0.00027078119455836713,-2.5826111595961265e-05,0.0,0.0,0.0,0.0,-0.0011644006008282304,0.00237708049826324,0.0010216233786195517,0.9996517300605774,0.0,0.0,0.0,0.13679789006710052,5.0841755867004395,1.4739468097686768,-24.76068878173828,0
266.9380000000001,-9.19699523365125e-05,-0.0002391374873695895,-5.8561981859384105e-06,0.0,0.0,0.0,0.0,-0.0008916389779187739,-0.0019618275109678507,-0.0018885390600189567,1.0021560192108154,0.0,0.0,0.0,0.14471489191055298,5.09598970413208,1.4697192907333374,-26.19368553161621,0
276.8240000000005,-5.3186598961474374e-05,-0.00024352029140572995,3.950163954868913e-05,0.0,0.0,0.0,0.0,0.0008279875619336963,-0.0006225905963219702,0.0003259967779740691,0.999454140663147,0.0,0.0,0.0,0.14416325092315674,5.0937886238098145,1.470145583152771,-26.093833923339844,0
286.71199999999953,-9.511562529951334e-05,-0.00028250296600162983,8.58390485518612e-05,0.0,0.0,0.0,0.0,-0.0010883312206715345,-0.0003549775865394622,0.00024636421585455537,1.0006341934204102,0.0,0.0,0.0,0.14479662477970123,5.0931854248046875,1.4664405584335327,-26.208477020263672,0
296.59599999999955,-6.498541188193485e-05,-0.00029101973632350564,0.00013130827574059367,0.0,0.0,0.0,0.0,0.0016746085602790117,-0.003023771336302161,0.0048914821818470955,1.0010191202163696,0.0,0.0,0.0,0.14584432542324066,5.091687202453613,1.466038465499878,-26.398113250732422,0
306.4860000000008,-1.5385803635581397e-06,-0.00024997827131301165,7.828514935681596e-05,0.0,0.0,0.0,0.0,-0.0037509019020944834,-0.004227031022310257,0.0011536802630871534,0.9998139142990112,0.0,0.0,0.0,0.14626306295394897,5.08504056930542,1.4794780015945435,-26.473905563354492,0
316.3610000000008,-3.805851883953437e-05,-0.00026001795777119696,0.0001027313555823639,0.0,0.0,0.0,0.0,0.0010791075183078647,0.0018171764677390456,-0.0020396141335368156,1.0015116930007935,0.0,0.0,0.0,0.1464315503835678,5.080530643463135,1.479749321937561,-26.504404067993164,0
326.2520000000004,2.9530361643992364e-05,-0.0001858764298958704,5.149799108039588e-05,0.0,0.0,0.0,0.0,0.0018226902466267347,-0.0021914236713200808,-0.0010648187017068267,1.0009076595306396,0.0,0.0,0.0,0.14598478376865387,5.070359706878662,1.4653674364089966,-26.423534393310547,0
336.1370000000006,-2.266963929287158e-05,-0.000194489024579525,6.861449946882203e-05,0.0,0.0,0.0,0.0,-0.002735638292506337,-0.0016667834715917706,0.0013327304041013122,0.9981269836425781,0.0,0.0,0.0,0.14615744352340698,5.069099426269531,1.4710360765457153,-26.454788208007812,0
346.02299999999923,3.112945705652237e-05,-0.0001351696701021865,2.6110703402082436e-05,0.0,0.0,0.0,0.0,0.000432561180787161,0.0006965087377466261,0.0010806330246850848,1.0000646114349365,0.0,0.0,0.0,0.14569267630577087,5.069052219390869,1.4780234098434448,-26.37066650390625,0
355.89899999999943,1.8183425709139556e-05,-0.00020282820332795382,2.574055179138668e-05,0.0,0.0,0.0,0.0,0.0006871518562547863,0.0021190065890550613,-0.003254454117268324,1.000579595565796,0.0,0.0,0.0,0.13968725502490997,5.054066181182861,1.480506420135498,-25.28367042541504,0
365.79099999999926,6.434541865019128e-05,-0.00019659471581690013,-2.2697317035635933e-05,0.0,0.0,0.0,0.0,-0.00019811693346127868,-0.003248132998123765,0.005490698851644993,1.0003937482833862,0.0,0.0,0.0,0.14788106083869934,5.060454368591309,1.4837830066680908,-26.766767501831055,0
375.6810000000005,2.9784147045575082e-05,-0.00023990515910554677,-2.2165886548464186e-05,0.0,0.0,0.0,0.0,-0.0010953398887068033,-0.0007860460900701582,0.0010023644426837564,0.9994451403617859,0.0,0.0,0.0,0.14838846027851105,5.051412105560303,1.4860426187515259,-26.85860824584961,0
385.5689999999995,0.00010914651647908613,-0.0001883978839032352,-0.00010286862379871309,0.0,0.0,0.0,0.0,0.0016141600208356977,0.001266941661015153,0.0005003987462259829,0.9976429343223572,0.0,0.0,0.0,0.14886163175106049,5.047344207763672,1.4953023195266724,-26.944250106811523,0
395.4459999999999,6.969161404413171e-06,-0.00017731414118316025,-0.00010993718751706183,0.0,0.0,0.0,0.0,0.00027748357388190925,0.0019621658138930798,0.001977787120267749,0.9981452822685242,0.0,0.0,0.0,0.14827904105186462,5.045689105987549,1.490591049194336,-26.838802337646484,0
405.34599999999955,6.744247366441414e-05,-0.00014113629003986716,-0.00017910472524818033,0.0,0.0,0.0,0.0,-0.0015660321805626154,-0.003298576222732663,-0.0027942112646996975,0.9998181462287903,0.0,0.0,0.0,0.1575963944196701,5.056270122528076,1.4920142889022827,-28.52526092529297,0
415.21299999999974,-2.4492033844580874e-05,-0.00016341124137397856,-0.0001982827379833907,0.0,0.0,0.0,0.0,-0.0019603362306952477,0.0014998670667409897,-0.0010020658373832703,1.0003799200057983,0.0,0.0,0.0,0.15160197019577026,5.0558929443359375,1.4777706861495972,-27.440258026123047,0
425.1080000000002,-1.6539332136744633e-05,-0.00017947690503206104,-0.00022406218340620399,0.0,0.0,0.0,0.0,0.00041893194429576397,0.0015295626362785697,0.0002388754510320723,0.9967280030250549,0.0,0.0,0.0,0.15174928307533264,5.051087379455566,1.4735854864120483,-27.466922760009766,0
434.9840000000004,-2.585005495348014e-05,-0.0001537787466077134,-0.00020778714679181576,0.0,0.0,0.0,0.0,0.0005505394074134529,-0.0005716977757401764,-0.00016437126032542437,0.9958739280700684,0.0,0.0,0.0,0.1528615951538086,5.049808502197266,1.4758501052856445,-27.66825294494629,0
444.8850000000002,-5.590548971667886e-05,-0.00020753203716594726,-0.00019956530013587326,0.0,0.0,0.0,0.0,-2.3725622668280266e-05,0.005742092151194811,0.0012410599738359451,0.9982563257217407,0.0,0.0,0.0,0.15285713970661163,5.04313850402832,1.4775502681732178,-27.66744613647461,0
454.762999999999,-6.222102092579007e-05,-0.00021377157827373594,-0.0001946994016179815,0.0,0.0,0.0,0.0,-0.0018365468131378293,-0.0024133585393428802,-0.0009133457206189632,1.0012178421020508,0.0,0.0,0.0,0.1520395129919052,5.039728164672852,1.4689931869506836,-27.519453048706055,0
464.65200000000004,-0.00010173137707170099,-0.0002372082235524431,-0.0001656197855481878,0.0,0.0,0.0,0.0,0.0025627082213759422,0.00850460585206747,0.00021802076662424952,0.9991503357887268,0.0,0.0,0.0,0.15289825201034546,5.03400182723999,1.4629430770874023,-27.674884796142578,0
474.53000000000065,-0.00010727161134127527,-0.00020730674441438168,-0.00014160372666083276,0.0,0.0,0.0,0.0,0.0007207242306321859,2.59040534729138e-05,-0.0012812153436243534,0.9994677305221558,0.0,0.0,0.0,0.1520332545042038,5.023562908172607,1.4527297019958496,-27.518320083618164,0
484.42399999999907,-0.00014219735749065876,-0.0002170819352613762,-0.00011067101877415553,0.0,0.0,0.0,0.0,0.0003905422636307776,0.004415275529026985,-0.003111709374934435,0.9996495246887207,0.0,0.0,0.0,0.1513889580965042,5.017282962799072,1.4455128908157349,-27.401700973510742,0
494.3009999999995,-0.00011608104250626639,-0.00020111954654566944,-7.609657041030005e-05,0.0,0.0,0.0,0.0,-0.005892504006624222,-0.0015785080613568425,-0.0015478793065994978,1.0002893209457397,0.0,0.0,0.0,0.1504681557416916,5.014341831207275,1.440667986869812,-27.235036849975586,0
504.2009999999991,-0.00014735202421434224,-0.0002386745036346838,-5.159735519555397e-05,0.0,0.0,0.0,0.0,-0.003049628110602498,0.00032288141665048897,-0.00024952288367785513,0.9988520741462708,0.0,0.0,0.0,0.15059790015220642,5.018916130065918,1.4393213987350464,-27.258520126342773,0
514.0720000000001,-8.41534128994681e-05,-0.0002624104672577232,-1.6180913007701747e-05,0.0,0.0,0.0,0.0,0.0018277970375493169,-4.08498681281344e-06,0.0022704056464135647,0.9998705387115479,0.0,0.0,0.0,0.15045234560966492,5.017971038818359,1.4409608840942383,-27.2321720123291,0
523.973,-4.143200203543529e-05,-0.00023259017325472087,-6.0043297708034515e-05,0.0,0.0,0.0,0.0,0.0008807572303339839,-0.00033364968840032816,0.0006754611385986209,1.0003650188446045,0.0,0.0,0.0,0.15157204866409302,5.008310317993164,1.4219213724136353,-27.43484115600586,0
533.8510000000006,-2.770183709799312e-05,-0.00022921744675841182,-3.229610956623219e-05,0.0,0.0,0.0,0.0,0.0008456115610897541,0.0017668207874521613,-0.0009128338424488902,0.9987834692001343,0.0,0.0,0.0,0.15031775832176208,5.00068998336792,1.4251357316970825,-27.207813262939453,0
543.7379999999994,2.6447096388437785e-06,-0.00021545823256019503,-6.136085721664131e-05,0.0,0.0,0.0,0.0,-0.0011899122036993504,-0.0028531423304229975,0.0011256781872361898,1.0009262561798096,0.0,0.0,0.0,0.15038518607616425,4.997648239135742,1.4230921268463135,-27.22001838684082,0
553.6180000000004,1.683500704530161e-05,-0.0002576136321295053,-5.3184670832706615e-05,0.0,0.0,0.0,0.0,-0.0004393444396555424,0.003900550538673997,0.0008656112477183342,0.9986043572425842,0.0,0.0,0.0,0.14926984906196594,4.994361877441406,1.4237841367721558,-27.018138885498047,0
563.509,8.312949648825452e-05,-0.0001806887157727033,-0.00010724746971391141,0.0,0.0,0.0,0.0,-0.0008653334225527942,0.0005674652056768537,-0.002786006312817335,1.000011682510376,0.0,0.0,0.0,0.14919674396514893,4.994119167327881,1.4222925901412964,-27.004905700683594,0
573.393,3.3893875297508202e-06,-0.00017808072152547538,-0.00011175319377798587,0.0,0.0,0.0,0.0,-0.0014195435214787722,-0.004525625612586737,0.0015038995770737529,1.0014442205429077,0.0,0.0,0.0,0.14819590747356415,4.9942779541015625,1.4213770627975464,-26.823755264282227,0
583.2870000000003,1.509215417172527e-05,-0.00014789354463573545,-0.0001224903971888125,0.0,0.0,0.0,0.0,-0.0014191154623404145,-0.0038862149231135845,-0.0022317401599138975,1.0001815557479858,0.0,0.0,0.0,0.14814914762973785,4.995462417602539,1.4240573644638062,-26.815290451049805,0
593.1669999999995,-2.9432323572109453e-05,-0.00013139905058778822,-0.0001095580228138715,0.0,0.0,0.0,0.0,0.0016508501721546054,0.0027888743206858635,-0.0012535525020211935,0.9983074069023132,0.0,0.0,0.0,0.14027152955532074,5.002746105194092,1.4213744401931763,-25.389427185058594,0
603.0560000000005,-3.527311855577864e-05,-0.00015663026715628803,-0.0001212854404002428,0.0,0.0,0.0,0.0,0.0012850798666477203,0.0034368298947811127,-0.001195681979879737,0.9973635077476501,0.0,0.0,0.0,0.1400892585515976,4.990204334259033,1.4132030010223389,-25.356433868408203,0
612.9429999999993,-6.55682961223647e-05,-0.00019799123401753604,-0.00012653149315156043,0.0,0.0,0.0,0.0,-0.00039932571235112846,0.0042717233300209045,-0.00244684680365026,0.9988404512405396,0.0,0.0,0.0,0.1396128386259079,4.984134197235107,1.3939387798309326,-25.27020263671875,0
622.8279999999995,-5.945024167886004e-05,-0.0001942598755704239,-0.00014456412463914603,0.0,0.0,0.0,0.0,0.0031897970475256443,0.002305783098563552,0.0002257761370856315,0.9987919926643372,0.0,0.0,0.0,0.14491666853427887,4.984388828277588,1.3809113502502441,-26.23020362854004,0
632.7070000000003,-6.511864194180816e-05,-0.00022201731917448342,-0.0001387499360134825,0.0,0.0,0.0,0.0,-0.0011553210206329823,-0.003453593933954835,0.0031677456572651863,0.9987659454345703,0.0,0.0,0.0,0.1446087658405304,4.9758501052856445,1.383291482925415,-26.174476623535156,0
642.6080000000002,-5.928493192186579e-05,-0.00021406814630609006,-0.00015296567289624363,0.0,0.0,0.0,0.0,0.0005514076328836381,0.0013599448138847947,0.0006124696810729802,0.9984514117240906,0.0,0.0,0.0,0.14483614265918732,4.970893859863281,1.3830690383911133,-26.21562957763672,0
652.4830000000002,-2.340062565053813e-05,-0.00021470800857059658,-0.0001288458297494799,0.0,0.0,0.0,0.0,0.002639572136104107,-0.004344543907791376,0.0031990036368370056,0.9983037710189819,0.0,0.0,0.0,0.14390668272972107,4.964590549468994,1.382967233657837,-26.047395706176758,0
662.3780000000006,-5.930853876634501e-05,-0.00024511769879609346,-0.0001022771029965952,0.0,0.0,0.0,0.0,-0.00043706840369850397,-0.004848642274737358,0.0020575900562107563,1.000579595565796,0.0,0.0,0.0,0.1439265012741089,4.954411506652832,1.3807646036148071,-26.05098533630371,0
672.2549999999992,-0.00013178754306863993,-0.000207363540539518,-8.936839003581554e-05,0.0,0.0,0.0,0.0,-0.0022955345921218395,-6.839518755441532e-05,-0.002229628385975957,0.9990684986114502,0.0,0.0,0.0,0.14409326016902924,4.9498209953308105,1.3961193561553955,-26.081165313720703,0
682.1419999999998,-0.0001584577839821577,-0.0002335057797608897,-7.564581756014377e-05,0.0,0.0,0.0,0.0,0.00031747572938911617,0.0014528847532346845,-0.0006619829800911248,0.9970757961273193,0.0,0.0,0.0,0.1513201743364334,4.956882953643799,1.4022012948989868,-27.389251708984375,0
692.0200000000004,-0.00012062507448717952,-0.00018544794875197113,-2.4779092200333253e-05,0.0,0.0,0.0,0.0,0.002147864317521453,0.0023701381869614124,-0.002107661683112383,1.000200867652893,0.0,0.0,0.0,0.15013152360916138,4.948936462402344,1.3906744718551636,-27.174102783203125,0
701.9369999999999,-0.00012958694424014539,-0.00018624970107339323,-2.6354988222010434e-05,0.0,0.0,0.0,0.0,-0.001306793768890202,-0.0013262543361634016,-0.0020635395776480436,0.998521625995636,0.0,0.0,0.0,0.1499881148338318,4.946140289306641,1.3909648656845093,-27.148147583007812,0
711.7919999999995,-5.6026354286586866e-05,-0.00021378962264861912,7.92884202382993e-06,0.0,0.0,0.0,0.0,0.0020129207987338305,0.007410276681184769,-0.0013233370846137404,0.9986011981964111,0.0,0.0,0.0,0.15029338002204895,4.937656402587891,1.3866100311279297,-27.203399658203125,0
721.6910000000007,-6.698650395264849e-06,-0.0001572110631968826,-4.150565291638486e-05,0.0,0.0,0.0,0.0,0.00033983064349740744,0.004402320832014084,-0.004047668073326349,0.9984372854232788,0.0,0.0,0.0,0.15017591416835785,4.933824062347412,1.363648533821106,-27.182138442993164,0
731.5769999999993,-2.038211823673919e-05,-0.0001705032482277602,-3.3289979910477996e-05,0.0,0.0,0.0,0.0,-0.0044430820271372795,-0.00267933146096766,0.0004409345565363765,0.9984003305435181,0.0,0.0,0.0,0.14204087853431702,4.941648960113525,1.3471742868423462,-25.70968246459961,0
741.4599999999991,3.2320709578925744e-05,-0.00013643663260154426,-9.380790288560092e-05,0.0,0.0,0.0,0.0,0.000355977303115651,-0.00389858172275126,-0.0024930594954639673,1.0007238388061523,0.0,0.0,0.0,0.14843067526817322,4.956643104553223,1.3596950769424438,-26.866249084472656,0
751.348,-6.022311936249025e-06,-0.00016052827413659543,-9.966293146135285e-05,0.0,0.0,0.0,0.0,0.0010708633344620466,0.0014196898555383086,-0.0009068644139915705,0.9988887906074524,0.0,0.0,0.0,0.14765417575836182,4.95190954208374,1.357196569442749,-26.72570037841797,0
761.2399999999998,3.43197061738465e-05,-0.00012254269677214324,-0.00014484580606222153,0.0,0.0,0.0,0.0,0.0009075534762814641,-0.0007812313851900399,0.0018686940893530846,0.9989631772041321,0.0,0.0,0.0,0.15388652682304382,4.9662766456604,1.3545434474945068,-27.85376739501953,0
771.1170000000002,-8.875949788489379e-06,-0.00014391780132427812,-0.0001535753399366513,0.0,0.0,0.0,0.0,0.0009736146894283593,-0.0013363455655053258,-0.003231104463338852,0.9985532760620117,0.0,0.0,0.0,0.15428249537944794,4.9593634605407715,1.3555113077163696,-27.925439834594727,0
781.0069999999996,8.915212674764916e-07,-0.000137506183818914,-0.00017465787823311985,0.0,0.0,0.0,0.0,0.00011343274672981352,-0.0028255083598196507,0.0017917624209076166,0.9997991323471069,0.0,0.0,0.0,0.1551678627729416,4.95240592956543,1.3571492433547974,-28.085693359375,0
790.8919999999998,8.671935574966483e-06,-0.00022335161338560283,-0.00019065075321123004,0.0,0.0,0.0,0.0,-0.00042792208842001855,-0.002322976477444172,-0.0036820070818066597,0.9990082383155823,0.0,0.0,0.0,0.15520763397216797,4.949043273925781,1.3576258420944214,-28.092891693115234,0
800.7829999999994,7.6002738751412835e-06,-0.0002496490487828851,-0.00020365357340779155,0.0,0.0,0.0,0.0,-0.0007828890811651945,-0.0033139644656330347,-0.004707477521151304,0.9986073970794678,0.0,0.0,0.0,0.15462572872638702,4.946435928344727,1.361079454421997,-27.987564086914062,0
810.6630000000005,-5.9614274505293e-05,-0.00023606796457897872,-0.00020448681607376784,0.0,0.0,0.0,0.0,-0.0012029840145260096,-0.0008038141531869769,0.001983308931812644,0.9983751773834229,0.0,0.0,0.0,0.1535518318414688,4.943907260894775,1.3809449672698975,-27.79318618774414,0
820.5540000000001,-5.7519078836776316e-05,-0.00022879603784531355,-0.00021322284010238945,0.0,0.0,0.0,0.0,-0.0020065491553395987,-0.001474430551752448,0.0017478090012446046,0.9983094930648804,0.0,0.0,0.0,0.1590912938117981,4.949148654937744,1.3828595876693726,-28.79584312438965,0
830.4470000000001,1.4427567293751054e-05,-0.0002496603410691023,-0.0001890110142994672,0.0,0.0,0.0,0.0,0.0023469971492886543,0.0070126792415976524,0.0003384170704521239,0.9993839859962463,0.0,0.0,0.0,0.15289324522018433,4.95763635635376,1.3910466432571411,-27.673980712890625,0
840.3209999999999,6.913569450262003e-07,-0.0002772537700366229,-0.00018386999727226794,0.0,0.0,0.0,0.0,0.003289291635155678,0.007227080408483744,0.002354925964027643,0.9981025457382202,0.0,0.0,0.0,0.15273675322532654,4.950031757354736,1.3861415386199951,-27.645654678344727,0
850.2139999999999,-1.7281261534662917e-05,-0.0002408165019005537,-0.0001631452760193497,0.0,0.0,0.0,0.0,-0.0031559180933982134,0.00022549976711161435,-0.001433826982975006,0.999013364315033,0.0,0.0,0.0,0.15299038589000702,4.948058605194092,1.3760982751846313,-27.69156265258789,0
860.0889999999999,-2.0066412616870366e-05,-0.0002472679771017283,-0.0001647814642637968,0.0,0.0,0.0,0.0,-0.0021150310058146715,-0.0008759618503972888,-0.00321920495480299,0.9986424446105957,0.0,0.0,0.0,0.15297484397888184,4.950730800628662,1.3759735822677612,-27.688749313354492,0
869.991,-1.6469397451146506e-05,-0.00021846368326805532,-0.000138197181513533,0.0,0.0,0.0,0.0,-0.0009584348299540579,-0.0018853270448744297,0.00027198661700822413,0.9994359612464905,0.0,0.0,0.0,0.14605963230133057,4.962523460388184,1.3827425241470337,-26.437084197998047,0
879.875,-2.440184834995307e-05,-0.00024313016911037266,-0.00013690715422853827,0.0,0.0,0.0,0.0,-0.004428528249263763,-0.005574097856879234,0.0022527724504470825,1.0004770755767822,0.0,0.0,0.0,0.1450989991426468,4.962272644042969,1.3897850513458252,-26.263208389282227,0
889.7610000000004,-2.3174885427579284e-05,-0.00023484685516450554,-0.00011480667308205739,0.0,0.0,0.0,0.0,0.00021285132970660925,0.001435058075003326,-0.0008717832970432937,0.9982082843780518,0.0,0.0,0.0,0.14525924623012543,4.964173316955566,1.4047530889511108,-26.292213439941406,0
899.637999999999,7.649601684533991e-06,-0.00019669438188429922,-0.0001431985292583704,0.0,0.0,0.0,0.0,0.001515164040029049,0.0009887136984616518,0.0016842092154547572,0.9984084367752075,0.0,0.0,0.0,0.14445649087429047,4.959115028381348,1.4069498777389526,-26.14691162109375,0
909.521999999999,-4.0788356272969395e-05,-0.00021982849284540862,-0.00014792982256039977,0.0,0.0,0.0,0.0,0.0018899086862802505,-0.0008572506485506892,-0.002482892945408821,1.0002827644348145,0.0,0.0,0.0,0.14398576319217682,4.955453872680664,1.4047948122024536,-26.061710357666016,0
919.4110000000001,-2.74303260994202e-06,-0.00022278045071288943,-0.00019622068793978542,0.0,0.0,0.0,0.0,-0.003956055734306574,0.002924639033153653,-0.0009116644505411386,1.0017316341400146,0.0,0.0,0.0,0.14379186928272247,4.94942045211792,1.4058387279510498,-26.026613235473633,0
929.2950000000001,-4.886473834631033e-05,-0.00023218602291308343,-0.00019790347141679376,0.0,0.0,0.0,0.0,-0.0018599025206640363,-0.003746644826605916,0.0010838537709787488,1.0010654926300049,0.0,0.0,0.0,0.1422189623117447,4.948177814483643,1.4043946266174316,-25.741912841796875,0
939.1810000000005,1.0381616448285058e-05,-0.0001783210609573871,-0.0002550297067500651,0.0,0.0,0.0,0.0,0.0006418611155822873,-0.00129198026843369,0.000870071875397116,0.9989057779312134,0.0,0.0,0.0,0.14250406622886658,4.945749759674072,1.4061940908432007,-25.79351806640625,0
949.0830000000005,-3.898726208717562e-05,-0.00020050184684805572,-0.0002622177707962692,0.0,0.0,0.0,0.0,0.00022091747086960822,0.0014468865701928735,-0.003376496024429798,0.9981019496917725,0.0,0.0,0.0,0.14273636043071747,4.940182209014893,1.400065541267395,-25.835567474365234,0
958.9490000000005,-3.662423478090204e-05,-0.0001826162333600223,-0.00026234134566038847,0.0,0.0,0.0,0.0,-0.00016619486268609762,-0.0036860110703855753,-0.0012177828466519713,0.9997875094413757,0.0,0.0,0.0,0.1417832374572754,4.934447288513184,1.4016491174697876,-25.663049697875977,0
968.8510000000006,-7.419354369631037e-05,-0.00017646944615989923,-0.00025560936774127185,0.0,0.0,0.0,0.0,-0.00030233533470891416,0.003997521474957466,0.0026761863846331835,1.0008323192596436,0.0,0.0,0.0,0.14093410968780518,4.934475898742676,1.3964613676071167,-25.509353637695312,0
978.7199999999993,-9.044101170729846e-05,-0.0002085571177303791,-0.00024658982874825597,0.0,0.0,0.0,0.0,0.0009247895213775337,0.001155930571258068,-0.00048164415056817234,0.9997902512550354,0.0,0.0,0.0,0.14182721078395844,4.928038120269775,1.3867833614349365,-25.671009063720703,0
988.6180000000004,-9.598102769814432e-05,-0.00018446939066052437,-0.0002158449642593041,0.0,0.0,0.0,0.0,-0.0005052114138379693,0.0008581179426982999,0.0005785011453554034,1.0002201795578003,0.0,0.0,0.0,0.1409887820482254,4.923615455627441,1.3794561624526978,-25.519248962402344,0
998.4940000000006,-0.00012519618030637503,-0.00021120718156453222,-0.00018477521371096373,0.0,0.0,0.0,0.0,0.0012536027934402227,0.001207637251354754,-0.00033838723902590573,1.0003721714019775,0.0,0.0,0.0,0.14089658856391907,4.923447132110596,1.3848531246185303,-25.502561569213867,0
1008.3940000000002,-3.0737381166545674e-05,-0.00021661832579411566,-0.00013391621178016067,0.0,0.0,0.0,0.0,0.0005135359242558479,-0.003264849539846182,-1.8041598650597734e-06,0.9981734752655029,0.0,0.0,0.0,0.13440264761447906,4.927417755126953,1.3880929946899414,-24.327144622802734,0
1018.2710000000006,-5.9658734244294465e-05,-0.0002505423908587545,-9.528292866889387e-05,0.0,0.0,0.0,0.0,0.00024022493744269013,0.0020295060239732265,-0.0007092757150530815,0.9986128807067871,0.0,0.0,0.0,0.133499875664711,4.921717166900635,1.3851213455200195,-24.163742065429688,0
1028.1589999999997,-3.126562660327181e-05,-0.0002591469092294574,-5.873895133845508e-05,0.0,0.0,0.0,0.0,0.0002729864208959043,0.001988958800211549,0.0005723136127926409,0.9995299577713013,0.0,0.0,0.0,0.133090540766716,4.925224304199219,1.3835337162017822,-24.08965301513672,0
1038.0439999999999,5.792071988253156e-06,-0.0002645619388204068,-9.006715845316648e-05,0.0,0.0,0.0,0.0,-0.00047397520393133163,0.003133507678285241,4.437823918124195e-06,0.9985118508338928,0.0,0.0,0.0,0.13273556530475616,4.916215896606445,1.3790329694747925,-24.025402069091797,0
1047.9339999999993,-4.3676074710674584e-05,-0.0002708059037104249,-7.494091551052406e-05,0.0,0.0,0.0,0.0,0.00048353272723034024,-0.0007521053776144981,0.0004544290422927588,1.0015040636062622,0.0,0.0,0.0,0.13343799114227295,4.917150020599365,1.3777292966842651,-24.152544021606445,0
1057.8189999999995,-1.1058253221563064e-05,-0.00027521656011231244,-0.00010244186705676839,0.0,0.0,0.0,0.0,-0.0006836888496764004,-0.0034775612875819206,-0.0013742295559495687,1.0010948181152344,0.0,0.0,0.0,0.13365617394447327,4.918128490447998,1.3852598667144775,-24.192033767700195,0
1067.6970000000001,-5.845697523909621e-05,-0.00028686184668913484,-8.424711268162355e-05,0.0,0.0,0.0,0.0,0.00023510828032158315,0.003367442637681961,-0.002146294340491295,1.0020132064819336,0.0,0.0,0.0,0.13296347856521606,4.911966323852539,1.386014461517334,-24.066652297973633,0
1077.5810000000001,1.5785997675266117e-05,-0.00021584656496997923,-0.00013551277515944093,0.0,0.0,0.0,0.0,0.0007039913325570524,-0.0012458310229703784,0.00099009124096483,1.0010502338409424,0.0,0.0,0.0,0.13873594999313354,4.93058967590332,1.382965087890625,-25.111482620239258,0
1087.4789999999994,-5.610053904092638e-06,-0.0002228833909612149,-0.0001125263879657723,0.0,0.0,0.0,0.0,0.00042528152698650956,0.00499795563519001,-9.865027823252603e-05,0.9997451305389404,0.0,0.0,0.0,0.13839459419250488,4.920132160186768,1.379583716392517,-25.049697875976562,0
1097.3539999999994,2.4684984964551404e-05,-0.00019030658586416394,-0.00012341447290964425,0.0,0.0,0.0,0.0,-0.00041737520950846374,-0.002887078793719411,-0.0002942026185337454,0.9987293481826782,0.0,0.0,0.0,0.13833031058311462,4.914217948913574,1.3733874559402466,-25.038063049316406,0
1107.2459999999992,1.049447564582806e-05,-0.00013322170707397163,-0.00010461374040460214,0.0,0.0,0.0,0.0,0.0008336005848832428,0.0005869660526514053,-0.0022051758132874966,1.0004026889801025,0.0,0.0,0.0,0.13833031058311462,4.914217948913574,1.3733874559402466,-25.038063049316406,0
1117.125,-2.739013871178031e-05,-0.0002476719964761287,-5.4167139751370996e-05,0.0,0.0,0.0,0.0,0.0003386903554201126,0.0002790822181850672,0.0015433215303346515,0.9988990426063538,0.0,0.0,0.0,0.13848918676376343,4.903578758239746,1.3722789287567139,-25.066818237304688,0
1127.0120000000006,1.0756092706287745e-05,-0.00023011570738162845,-3.861752702505328e-05,0.0,0.0,0.0,0.0,0.001552069908939302,0.00013411816325969994,-0.0005346714751794934,0.9999513030052185,0.0,0.0,0.0,0.13198500871658325,4.90740442276001,1.3754922151565552,-23.88954734802246,0
1136.8960000000006,6.425702849810477e-06,-0.00029972445918247104,-9.77131276158616e-06,0.0,0.0,0.0,0.0,0.00047288325731642544,0.006748644169420004,-0.0012707649730145931,0.9984380006790161,0.0,0.0,0.0,0.1316533386707306,4.893984317779541,1.3717564344406128,-23.829517364501953,0
1146.7929999999997,-2.1600759282591753e-05,-0.0002240905596408993,1.1315925803501159e-05,0.0,0.0,0.0,0.0,-0.002183580072596669,-0.002639177953824401,-0.00028862105682492256,0.999050498008728,0.0,0.0,0.0,0.1316533386707306,4.893984317779541,1.3717564344406128,-23.829517364501953,0
1156.673999999999,-2.1315318008419126e-05,-0.0002942546270787716,3.0510280339512974e-05,0.0,0.0,0.0,0.0,-0.0018175028963014483,0.004018052015453577,0.0023948075249791145,1.0007455348968506,0.0,0.0,0.0,0.13160505890846252,4.885772705078125,1.363372564315796,-23.820777893066406,0
1166.5609999999997,1.7720123651088215e-05,-0.0002577609848231077,5.5784519645385444e-05,0.0,0.0,0.0,0.0,0.000714866619091481,0.0018937481800094247,0.0022525221575051546,1.0018057823181152,0.0,0.0,0.0,0.13160505890846252,4.885772705078125,1.363372564315796,-23.820777893066406,0
1176.4439999999995,3.129133619950153e-05,-0.00026102090487256646,6.489965744549409e-05,0.0,0.0,0.0,0.0,0.0003167696704622358,-0.000591173127759248,-0.0007109388243407011,1.0010104179382324,0.0,0.0,0.0,0.13183848559856415,4.885392189025879,1.3636579513549805,-23.86302947998047,0
1186.3349999999991,-4.844601426157169e-05,-0.0002660247264429927,8.4648811025545e-05,0.0,0.0,0.0,0.0,-0.005198410712182522,-0.00403631804510951,-0.000806054740678519,0.9987468719482422,0.0,0.0,0.0,0.13287353515625,4.875891208648682,1.3646090030670166,-24.05037498474121,0
1196.2080000000005,2.2313277440844104e-05,-0.00022469171381089836,3.781140185310505e-05,0.0,0.0,0.0,0.0,-0.00047353660920634866,-0.00035641746944747865,-0.0020783196669071913,0.9990166425704956,0.0,0.0,0.0,0.1334197074174881,4.877110004425049,1.3622360229492188,-24.149232864379883,0
1206.107,-1.7909673260874115e-05,-0.00021554858540184796,6.487849896075204e-05,0.0,0.0,0.0,0.0,0.0008873710758052766,0.0026832830626517534,-0.00033140546292997897,0.9999920129776001,0.0,0.0,0.0,0.1327257603406906,4.876893520355225,1.3624461889266968,-24.02362632751465,0
1215.9889999999996,2.877075530705042e-06,-0.00020672065147664398,6.501482130261138e-05,0.0,0.0,0.0,0.0,-0.0012845676392316818,-0.004783235490322113,-0.0013160872040316463,0.9997084736824036,0.0,0.0,0.0,0.13252569735050201,4.875704288482666,1.3663101196289062,-23.987415313720703,0
1225.8799999999992,-7.456631283275783e-05,-0.00023020656954031438,7.115963671822101e-05,0.0,0.0,0.0,0.0,0.0016113799065351486,-0.000565508205909282,0.0015780330868437886,0.9991264343261719,0.0,0.0,0.0,0.13207632303237915,4.871126174926758,1.363461971282959,-23.90607452392578,0
1235.7569999999996,-3.7172176234889776e-06,-0.00018904887838289142,2.1095063857501373e-05,0.0,0.0,0.0,0.0,-0.0013221116969361901,0.0011896687792614102,-0.00020379152556415647,1.0004721879959106,0.0,0.0,0.0,0.13215108215808868,4.86751651763916,1.3779597282409668,-23.91960906982422,0
1245.6460000000006,-2.9566712328232825e-05,-0.00020631580264307559,3.96210998587776e-05,0.0,0.0,0.0,0.0,0.0007094385800883174,0.0012231665896251798,-0.00047593051567673683,1.0012072324752808,0.0,0.0,0.0,0.1312650442123413,4.863580703735352,1.3777096271514893,-23.759235382080078,0
1255.5319999999992,3.0492024961858988e-05,-0.00016067118849605322,-8.304675247927662e-06,0.0,0.0,0.0,0.0,-0.002325254026800394,0.0025195316411554813,-0.004732689820230007,1.0011950731277466,0.0,0.0,0.0,0.13032940030097961,4.857403755187988,1.365802526473999,-23.589881896972656,0
1265.4310000000005,-4.660565173253417e-05,-0.00022053095744922757,-1.9779005015152507e-05,0.0,0.0,0.0,0.0,0.0015953517286106944,0.0028853609692305326,0.0016590392915531993,0.998619556427002,0.0,0.0,0.0,0.12871688604354858,4.859568119049072,1.3531115055084229,-23.298009872436523,0
1275.298999999999,-7.625232683494687e-06,-0.00023717182921245694,-6.0751433920813724e-05,0.0,0.0,0.0,0.0,0.0015192750142887235,0.003084483789280057,-0.0009754528291523457,1.00121009349823,0.0,0.0,0.0,0.12759125232696533,4.8518900871276855,1.3380916118621826,-23.094270706176758,0
1285.1939999999995,-5.636240166495554e-05,-0.0002631197858136147,-5.35729959665332e-05,0.0,0.0,0.0,0.0,0.0032277749851346016,0.006570565048605204,-0.0022151395678520203,0.9975461959838867,0.0,0.0,0.0,0.127982035279274,4.84896993637085,1.3311970233917236,-23.16500473022461,0
1295.0840000000007,-1.9365190382814035e-05,-0.0002499227412045002,-8.676209836266935e-05,0.0,0.0,0.0,0.0,0.00387164787389338,0.003371045459061861,0.0039746384136378765,1.000220537185669,0.0,0.0,0.0,0.12775097787380219,4.841322422027588,1.3131306171417236,-23.123180389404297,0
1304.9619999999995,-3.426361217861995e-05,-0.0002274001599289477,-5.866289939149283e-05,0.0,0.0,0.0,0.0,-0.0018318739021196961,0.0019816369749605656,-6.766695150872692e-05,0.9998011589050293,0.0,0.0,0.0,0.12161998450756073,4.842127323150635,1.303453803062439,-22.013460159301758,0
1314.8410000000003,-1.2116423022234812e-05,-0.00023274212435353547,-8.047994924709201e-05,0.0,0.0,0.0,0.0,-0.0017750756815075874,-0.004030337557196617,0.003811467671766877,0.9998066425323486,0.0,0.0,0.0,0.12796853482723236,4.847782611846924,1.295765995979309,-23.162559509277344,0
1324.7389999999996,-2.9018048735451885e-05,-0.00020845459948759526,-5.368644269765355e-05,0.0,0.0,0.0,0.0,-0.0023627793416380882,0.0011500073596835136,-0.0016500636702403426,0.9989675283432007,0.0,0.0,0.0,0.12150631099939346,4.8599443435668945,1.2974467277526855,-21.992883682250977,0
1334.625,-6.901258984726155e-06,-0.0002117016410920769,-7.649229519302025e-05,0.0,0.0,0.0,0.0,-0.002215311164036393,-0.0021852790378034115,0.0020012049935758114,0.9979830980300903,0.0,0.0,0.0,0.12006392329931259,4.85350227355957,1.2880542278289795,-21.731807708740234,0
1344.5200000000004,1.902557778521441e-05,-0.00024286357802338898,-5.731288547394797e-05,0.0,0.0,0.0,0.0,0.0006286667776294053,0.0012805198784917593,0.0011604739120230079,0.9997454285621643,0.0,0.0,0.0,0.11266063153743744,4.857521057128906,1.2916775941848755,-20.391799926757812,0
1354.3940000000002,2.422247598588001e-05,-0.00024148150987457484,-5.925751611357555e-05,0.0,0.0,0.0,0.0,0.0005788537673652172,0.004707987420260906,-0.002690529450774193,0.9991415143013,0.0,0.0,0.0,0.1196150854229927,4.863706588745117,1.288098692893982,-21.65056800842285,0
1364.280999999999,-2.1973130060359836e-05,-0.00023213325766846538,-4.590122262015939e-05,0.0,0.0,0.0,0.0,-0.0008475208305753767,-0.0028215311467647552,0.00026000800426118076,1.0002716779708862,0.0,0.0,0.0,0.11854052543640137,4.857872486114502,1.2783910036087036,-21.456069946289062,0
1374.1640000000007,-5.069126473244978e-06,-0.00024318258510902524,-6.842743459856138e-05,0.0,0.0,0.0,0.0,-0.0015348533634096384,0.00262364256195724,0.00393357640132308,0.9984300136566162,0.0,0.0,0.0,0.11828416585922241,4.857832431793213,1.284375786781311,-21.409669876098633,0
1384.0609999999997,-5.575644172495231e-05,-0.00026341923512518406,-6.40529251541011e-05,0.0,0.0,0.0,0.0,0.00046846902114339173,-0.0010166142601519823,0.0001931442238856107,0.9987496733665466,0.0,0.0,0.0,0.11850609630346298,4.857226371765137,1.2778252363204956,-21.449838638305664,0
1393.9320000000007,-4.346810328570427e-06,-0.00024097671848721802,-0.00012326514115557075,0.0,0.0,0.0,0.0,-2.139489515684545e-05,-0.004219707101583481,-0.0014736121520400047,0.9984404444694519,0.0,0.0,0.0,0.12554007768630981,4.8614325523376465,1.2922478914260864,-22.723003387451172,0
1403.8359999999993,-5.465875437948853e-05,-0.000270761112915352,-0.0001266997423954308,0.0,0.0,0.0,0.0,-0.0010414081625640392,-0.0019575769547373056,-0.0013907712418586016,1.0002763271331787,0.0,0.0,0.0,0.12463141232728958,4.855990409851074,1.2891253232955933,-22.558534622192383,0
1413.7060000000001,-4.20117903559003e-05,-0.00025796779664233327,-0.000145805548527278,0.0,0.0,0.0,0.0,0.0007347921491600573,-0.003179942723363638,0.0032317896839231253,1.001403570175171,0.0,0.0,0.0,0.12507115304470062,4.850506782531738,1.2898821830749512,-22.638126373291016,0
1423.6080000000002,-9.435263928025961e-05,-0.00023811205755919218,-0.00013162109826225787,0.0,0.0,0.0,0.0,0.0010453404393047094,-5.333314766176045e-05,0.0008839768706820905,1.0000076293945312,0.0,0.0,0.0,0.1251910924911499,4.851311683654785,1.2890889644622803,-22.659835815429688,0
1433.4830000000002,-7.411863771267235e-05,-0.00023850647266954184,-0.00016143792890943587,0.0,0.0,0.0,0.0,-0.0019850002136081457,0.002283035311847925,0.003613861510530114,0.9994570016860962,0.0,0.0,0.0,0.12448839843273163,4.845871448516846,1.2783228158950806,-22.532649993896484,0
1443.3690000000006,-0.00010138794459635392,-0.000211242469958961,-0.00013376861170399934,0.0,0.0,0.0,0.0,0.00010792306420626119,-0.003059937385842204,0.0013716419925913215,1.0009665489196777,0.0,0.0,0.0,0.12470761686563492,4.84390115737915,1.2836052179336548,-22.57232666015625,0
1453.2620000000006,-7.750833901809528e-05,-0.0002133138623321429,-0.0001665110612520948,0.0,0.0,0.0,0.0,0.0002670742978807539,-0.001215000287629664,5.0782480684574693e-05,1.0015578269958496,0.0,0.0,0.0,0.12542276084423065,4.840545177459717,1.2968971729278564,-22.701770782470703,0
1463.134,-9.92534842225723e-05,-0.00020747410599142313,-0.00014479730452876538,0.0,0.0,0.0,0.0,0.0005489340401254594,0.000768721045460552,0.002104108454659581,0.9992151856422424,0.0,0.0,0.0,0.12513762712478638,4.838400840759277,1.3001275062561035,-22.650157928466797,0
1473.027,-3.503674815874547e-05,-0.0001564681006129831,-0.00020741965272463858,0.0,0.0,0.0,0.0,0.0024526112247258425,0.0009427916957065463,0.0018139915773645043,0.9999254941940308,0.0,0.0,0.0,0.13285239040851593,4.855399131774902,1.3068616390228271,-24.046545028686523,0
1482.9079999999994,-7.907289545983076e-05,-0.00016207275621127337,-0.00020069238962605596,0.0,0.0,0.0,0.0,0.0025493514258414507,0.0017524558352306485,0.0015373066999018192,0.9981674551963806,0.0,0.0,0.0,0.13265439867973328,4.847471237182617,1.306089997291565,-24.010709762573242,0
1492.8070000000007,-4.057744445162825e-05,-0.0001297184790018946,-0.00023957823577802628,0.0,0.0,0.0,0.0,0.0006254209438338876,-0.000807697419077158,0.0007135390769690275,1.000329613685608,0.0,0.0,0.0,0.14124998450279236,4.852941989898682,1.3062506914138794,-25.5665283203125,0
1502.688,-7.92986829765141e-05,-0.00014013242616783828,-0.00023696596326772124,0.0,0.0,0.0,0.0,-0.0017397078918293118,-0.0036447327584028244,-0.0016716743120923638,1.000662088394165,0.0,0.0,0.0,0.14176885783672333,4.848201274871826,1.3070324659347534,-25.660444259643555,0
1512.5730000000003,-5.026935468777083e-05,-0.00011191874364158139,-0.00026797354803420603,0.0,0.0,0.0,0.0,-0.0007935232715681195,0.002812124090269208,0.0005701707559637725,1.0002954006195068,0.0,0.0,0.0,0.1472814679145813,4.866412162780762,1.3220466375350952,-26.65823745727539,0
1522.4539999999997,-7.955203909659758e-05,-0.00012617184256669134,-0.00026477084611542523,0.0,0.0,0.0,0.0,0.00021984745399095118,-0.0044350046664476395,0.0008413561736233532,0.9989365935325623,0.0,0.0,0.0,0.14750176668167114,4.86677885055542,1.3173143863677979,-26.69811248779297,0
1532.348,-0.00010366050992161036,-0.0001654883672017604,-0.00025064207147806883,0.0,0.0,0.0,0.0,-0.005206229165196419,0.00013293218216858804,-0.0014499372337013483,1.0001477003097534,0.0,0.0,0.0,0.14786280691623688,4.866909503936768,1.324014663696289,-26.763460159301758,0
1542.2309999999998,-5.474556382978335e-05,-0.00019612896721810102,-0.00022501453349832445,0.0,0.0,0.0,0.0,-0.0018614495638757944,-0.007108693476766348,-0.0025768340565264225,1.0011565685272217,0.0,0.0,0.0,0.14734087884426117,4.863804817199707,1.3246709108352661,-26.668989181518555,0
1552.116,-9.603177022654563e-05,-0.00022261563572101295,-0.0001826617371989414,0.0,0.0,0.0,0.0,-0.0031126560643315315,-0.004331695381551981,0.00508280610665679,1.0006145238876343,0.0,0.0,0.0,0.146912083029747,4.859192371368408,1.3327131271362305,-26.591379165649414,0
1561.991,-3.283830301370472e-05,-0.00023067959409672767,-0.00013653270434588194,0.0,0.0,0.0,0.0,-0.0008517117821611464,-0.0008021989488042891,-0.0008115029777400196,0.9996660947799683,0.0,0.0,0.0,0.14827775955200195,4.854989528656006,1.3379884958267212,-26.83856773376465,0
1571.8919999999998,-1.7645708794589154e-05,-0.00024659762857481837,-0.00015084189362823963,0.0,0.0,0.0,0.0,0.0021155073773115873,0.0023847990669310093,0.0037501524202525616,0.998001754283905,0.0,0.0,0.0,0.1486218422651291,4.858150482177734,1.3352309465408325,-26.900850296020508,0
1581.762999999999,-6.965288775973022e-05,-0.0002464099379722029,-0.00013254876830615103,0.0,0.0,0.0,0.0,0.0013664858415722847,-0.001728928997181356,0.00100219389423728,0.9986913204193115,0.0,0.0,0.0,0.14970068633556366,4.848503112792969,1.3212157487869263,-27.09612274169922,0
1591.6730000000007,-2.6525296561885625e-05,-0.00019399457960389555,-0.00016162885003723204,0.0,0.0,0.0,0.0,0.0018871177453547716,0.0006913467077538371,0.001248183660209179,0.9995046854019165,0.0,0.0,0.0,0.1498478651046753,4.848456382751465,1.3222366571426392,-27.122760772705078,0
1601.5480000000007,2.8674556233454496e-05,-0.00023847227566875517,-0.00013369416410569102,0.0,0.0,0.0,0.0,0.0005736038438044488,-0.00027155099087394774,-0.002170803491026163,0.9988515377044678,0.0,0.0,0.0,0.14909549057483673,4.841700553894043,1.3181782960891724,-26.986581802368164,0
1611.441999999999,5.401536691351794e-05,-0.00024928548373281956,-0.00015835947124287486,0.0,0.0,0.0,0.0,0.001803077757358551,0.006925612688064575,-0.0010444145882502198,1.0000810623168945,0.0,0.0,0.0,0.1480305790901184,4.838210582733154,1.3192296028137207,-26.79383087158203,0
1621.321,-3.5198440855310764e-06,-0.00023085261636879295,-0.00013835134450346231,0.0,0.0,0.0,0.0,0.0021043119486421347,3.67411739716772e-05,0.0009680304792709649,1.0010241270065308,0.0,0.0,0.0,0.14805097877979279,4.829203128814697,1.2979722023010254,-26.79751968383789,0
1631.205,1.0693447620724328e-06,-0.00024459956330247223,-0.00014439609367400408,0.0,0.0,0.0,0.0,-0.0034038247540593147,-0.005502928048372269,0.002077295910567045,0.9994605779647827,0.0,0.0,0.0,0.14828243851661682,4.817311763763428,1.2973721027374268,-26.839414596557617,0
1641.0869999999995,2.2831285605207086e-05,-0.0002835645282175392,-0.0001215572701767087,0.0,0.0,0.0,0.0,-0.0010210819309577346,0.005036793649196625,0.0015947810607030988,1.0026752948760986,0.0,0.0,0.0,0.14874687790870667,4.816769599914551,1.307218313217163,-26.923480987548828,0
1650.9740000000002,6.855325045762584e-05,-0.00023441860685124993,-0.00015921593876555562,0.0,0.0,0.0,0.0,0.0018332205945625901,-0.0003858372219838202,0.002703620819374919,0.9993301033973694,0.0,0.0,0.0,0.14994490146636963,4.814181327819824,1.3019936084747314,-27.14032554626465,0
1660.8520000000008,-9.07144567463547e-06,-0.00022703218564856797,-0.0001467627298552543,0.0,0.0,0.0,0.0,-0.005678058601915836,0.0032053969334810972,-0.001075894688256085,1.0005784034729004,0.0,0.0,0.0,0.1505856066942215,4.8065290451049805,1.302080512046814,-27.25629425048828,0
1670.7459999999992,-1.2633811820705887e-05,-0.00023762183263897896,-0.00014728032692801207,0.0,0.0,0.0,0.0,0.0003963318304158747,0.002939441706985235,0.0020893376786261797,0.9994939565658569,0.0,0.0,0.0,0.14936165511608124,4.808980941772461,1.2913262844085693,-27.034757614135742,0
1680.634,-2.941155617008917e-05,-0.0003034811234101653,-0.0001446833339286968,0.0,0.0,0.0,0.0,0.0017288661329075694,-0.0012630583951249719,0.00011472204641904682,0.9997492432594299,0.0,0.0,0.0,0.1497151255607605,4.807929992675781,1.2897354364395142,-27.098735809326172,0
1690.518,-6.472964014392346e-05,-0.0002961917780339718,-9.862105071078986e-05,0.0,0.0,0.0,0.0,-0.000680317054502666,0.001100318506360054,0.0029419385828077793,0.9986383318901062,0.0,0.0,0.0,0.14962781965732574,4.801619052886963,1.284943699836731,-27.082931518554688,0
1700.3989999999994,-8.307822281494737e-05,-0.0003626201651059091,-9.250307630281895e-05,0.0,0.0,0.0,0.0,0.0006563843344338238,-0.005419962573796511,-0.000499145477078855,0.9982937574386597,0.0,0.0,0.0,0.1512988805770874,4.79305362701416,1.2811646461486816,-27.385398864746094,0
1710.295,-6.591506826225668e-05,-0.000321511848596856,-9.836987010203302e-05,0.0,0.0,0.0,0.0,0.0012136746663600206,0.004190553445369005,-0.0016697223763912916,0.9986104965209961,0.0,0.0,0.0,0.15197794139385223,4.788632392883301,1.2856645584106445,-27.50830841064453,0
1720.1710000000003,-8.050643373280764e-05,-0.000387862412026152,-9.549499372951686e-05,0.0,0.0,0.0,0.0,0.00042893842328339815,-0.0021068518981337547,0.0023080927785485983,0.9975724816322327,0.0,0.0,0.0,0.1511128544807434,4.782771587371826,1.285569190979004,-27.351728439331055,0
1730.0750000000007,-9.240948566002771e-05,-0.0003324550052639097,-6.087945803301409e-05,0.0,0.0,0.0,0.0,0.0009540930041112006,0.003286756807938218,-1.2104935194656719e-05,0.9999701380729675,0.0,0.0,0.0,0.15409864485263824,4.818362236022949,1.2880388498306274,-27.892160415649414,0
1739.941999999999,-0.0001076229746104218,-0.0003937557921744883,-5.881716060684994e-05,0.0,0.0,0.0,0.0,0.00029862657538615167,-0.0010972386226058006,0.0005777011974714696,1.00154447555542,0.0,0.0,0.0,0.15486827492713928,4.8198089599609375,1.2766152620315552,-28.031465530395508,0
1749.8330000000005,-0.00011029222514480352,-0.00030515342950820923,-1.85621884156717e-05,0.0,0.0,0.0,0.0,0.0023298989981412888,0.0008105562883429229,-0.000928456021938473,0.9998456239700317,0.0,0.0,0.0,0.16065669059753418,4.860540866851807,1.2870500087738037,-29.079177856445312,0
1759.7119999999995,-0.00012342000263743103,-0.0003598193870857358,-1.2562899428303353e-05,0.0,0.0,0.0,0.0,-0.003029106417670846,0.00012496447016019374,-9.624261292628944e-05,0.9972283840179443,0.0,0.0,0.0,0.15955248475074768,4.852989673614502,1.2856082916259766,-28.879316329956055,0
1769.6039999999994,-6.976859003771096e-05,-0.00030993050313554704,-2.624827902764082e-05,0.0,0.0,0.0,0.0,0.001157717895694077,-0.0015988523373380303,-0.0017375823808833957,0.9958488941192627,0.0,0.0,0.0,0.15981516242027283,4.890771389007568,1.3162391185760498,-28.926862716674805,0
1779.4840000000004,-7.829949026927352e-05,-0.00036220948095433414,-2.531724749132991e-05,0.0,0.0,0.0,0.0,-4.475989408092573e-05,-0.0008578991983085871,-0.0006549934041686356,0.9983141422271729,0.0,0.0,0.0,0.16028262674808502,4.882653713226318,1.3183094263076782,-29.011476516723633,0
1789.3809999999994,-2.869858144549653e-05,-0.0003188281552866101,-3.686718991957605e-05,0.0,0.0,0.0,0.0,-2.9234675821498968e-05,0.004238996189087629,0.001534863724373281,0.9990692138671875,0.0,0.0,0.0,0.1615552008152008,4.915137767791748,1.340465784072876,-29.241811752319336,0
1799.2549999999992,-3.368241596035659e-05,-0.0003691694582812488,-4.215494845993817e-05,0.0,0.0,0.0,0.0,-0.002497199224308133,0.0001513393799541518,-0.0014096942031756043,0.9995076060295105,0.0,0.0,0.0,0.16160055994987488,4.90878963470459,1.3445594310760498,-29.25002098083496,0
1809.1499999999996,4.228347825119272e-05,-0.00028850859962403774,-5.391414379118942e-05,0.0,0.0,0.0,0.0,-0.0020016480702906847,-0.004012764431536198,0.000685610924847424,1.001336932182312,0.0,0.0,0.0,0.16878142952919006,4.961951732635498,1.3645730018615723,-30.549772262573242,0
1819.0280000000002,4.5301130739971995e-05,-0.0003303000412415713,-6.152756395749748e-05,0.0,0.0,0.0,0.0,0.00035551097244024277,0.00042055928497575223,0.0030751912854611874,0.9991331100463867,0.0,0.0,0.0,0.16806577146053314,4.9561357498168945,1.3645310401916504,-30.420238494873047,0
1828.932999999999,0.00010988202120643109,-0.0002677020675037056,-7.096728222677484e-05,0.0,0.0,0.0,0.0,0.0013526247348636389,0.00013016123557463288,-0.0034933811984956264,0.998558759689331,0.0,0.0,0.0,0.17281000316143036,4.987429141998291,1.3867360353469849,-31.278953552246094,0
1838.8070000000007,0.00011695789726218209,-0.0003027181955985725,-7.977613859111443e-05,0.0,0.0,0.0,0.0,0.0014914392959326506,-6.613461664528586e-06,0.001133429235778749,0.999071478843689,0.0,0.0,0.0,0.17223326861858368,4.9845051765441895,1.3970361948013306,-31.174564361572266,0
1848.714,0.0001567550061736256,-0.0002380387159064412,-7.395359716610983e-05,0.0,0.0,0.0,0.0,-0.0010536957997828722,0.0031500207260251045,-0.001517601776868105,0.9999722838401794,0.0,0.0,0.0,0.1801125556230545,5.016580581665039,1.4169206619262695,-32.600730895996094,0
1858.571,0.00016461251652799547,-0.00026708823861554265,-8.410777809331194e-05,0.0,0.0,0.0,0.0,-0.0011728242971003056,-0.004921381827443838,0.00010232939530396834,0.999634861946106,0.0,0.0,0.0,0.1794101595878601,5.011810302734375,1.4145725965499878,-32.473594665527344,0
1868.4689999999991,0.00018689443822950125,-0.00021965881751384586,-7.668093894608319e-05,0.0,0.0,0.0,0.0,-8.206607890315354e-05,0.007072240114212036,-0.001827765954658389,0.9983649849891663,0.0,0.0,0.0,0.1785513013601303,5.0085954666137695,1.4223018884658813,-32.31814193725586,0
1878.3430000000008,0.00019398858421482146,-0.0002483371936250478,-8.696955046616495e-05,0.0,0.0,0.0,0.0,-0.0012554904678836465,0.00027212523855268955,-0.0025207989383488894,0.9981156587600708,0.0,0.0,0.0,0.17842283844947815,5.007043838500977,1.4196281433105469,-32.294891357421875,0
1888.241,0.00020017156202811748,-0.0002796222106553614,-9.859591955319047e-05,0.0,0.0,0.0,0.0,-0.002941045444458723,0.0035336706787347794,0.0008249212987720966,0.9982103705406189,0.0,0.0,0.0,0.17826113104820251,5.005621910095215,1.414299488067627,-32.26561737060547,0
1898.1209999999992,0.00020582776051014662,-0.0003117694577667862,-0.00011176173575222492,0.0,0.0,0.0,0.0,0.0010942609515041113,0.00202565616928041,-0.00033089061616919935,1.0027912855148315,0.0,0.0,0.0,0.17832650244235992,4.999172210693359,1.4220930337905884,-32.27745056152344,0
1908.0100000000002,0.00021097200806252658,-0.0003439989814069122,-0.00012517356663011014,0.0,0.0,0.0,0.0,0.0023813380394130945,0.0012715512420982122,0.001308131730183959,1.0000516176223755,0.0,0.0,0.0,0.17818458378314972,4.993655681610107,1.4106038808822632,-32.25176239013672,0
1917.893,0.00021570890385191888,-0.00037700068787671626,-0.0001370464451611042,0.0,0.0,0.0,0.0,2.787946505122818e-05,-0.00215056911110878,-0.0015144164208322763,0.9983818531036377,0.0,0.0,0.0,0.17868401110172272,4.989602088928223,1.4141244888305664,-32.3421630859375,0
1927.7970000000005,0.00021999559248797596,-0.00041184149449691176,-0.0001485328539274633,0.0,0.0,0.0,0.0,0.0012341148685663939,4.2581872548907995e-05,-0.002063010586425662,1.0001811981201172,0.0,0.0,0.0,0.17802223563194275,4.985727787017822,1.4095467329025269,-32.22237777709961,0
1937.6720000000005,-1.8652630387805402e-05,-0.00020649511134251952,-0.00021074611868243665,0.0,0.0,0.0,0.0,-0.002290344564244151,-0.00259046140126884,-0.00029857183108106256,1.0009708404541016,0.0,0.0,0.0,0.17487803101539612,5.036686897277832,1.3720762729644775,-31.653270721435547,0
1947.5640000000003,-2.660605969140306e-05,-0.00023452905588783324,-0.0002213329280493781,0.0,0.0,0.0,0.0,0.000426751677878201,0.0023976280353963375,-0.0015089327935129404,1.0011487007141113,0.0,0.0,0.0,0.17463181912899017,5.029873847961426,1.3674827814102173,-31.608705520629883,0
1957.4529999999995,-2.3356536985374987e-05,-0.00018731964519247413,-0.00016721610154490918,0.0,0.0,0.0,0.0,-0.002829072531312704,0.0034359293058514595,-0.0015420919517055154,0.9997535347938538,0.0,0.0,0.0,0.16764496266841888,5.043025970458984,1.3668487071990967,-30.344072341918945,0
1967.348,-3.505940185277723e-05,-0.00021439795091282576,-0.00017206538177561015,0.0,0.0,0.0,0.0,6.548467354150489e-05,-0.0015476555563509464,-0.0029841302894055843,1.0000065565109253,0.0,0.0,0.0,0.16762860119342804,5.036827087402344,1.3578263521194458,-30.341110229492188,0
1977.2160000000003,-2.887233677029144e-05,-0.00018375685613136739,-0.00013494360609911382,0.0,0.0,0.0,0.0,-0.00124259979929775,0.004899917170405388,0.0017137681134045124,1.0011759996414185,0.0,0.0,0.0,0.16025321185588837,5.046192169189453,1.3639107942581177,-29.006149291992188,0
1987.1010000000006,-3.9744405512465164e-05,-0.00021272350568324327,-0.00013647103332914412,0.0,0.0,0.0,0.0,0.00042710191337391734,-0.0007763548055663705,0.0027392159681767225,0.9988158941268921,0.0,0.0,0.0,0.16034364700317383,5.0388712882995605,1.3544288873672485,-29.022518157958984,0
1996.9940000000006,-4.2471969209145755e-05,-0.00018557728617452085,-9.898572898237035e-05,0.0,0.0,0.0,0.0,-0.003084413940086961,0.0029869782738387585,-0.0021249570418149233,0.9999489784240723,0.0,0.0,0.0,0.14797888696193695,5.051748752593994,1.344146490097046,-26.78447151184082,0
2006.8770000000004,-5.4453070333693177e-05,-0.00021662893414031714,-9.763502021087334e-05,0.0,0.0,0.0,0.0,-0.00011532527423696592,0.0007368255755864084,0.003009817795827985,0.9989967346191406,0.0,0.0,0.0,0.14700846374034882,5.045623302459717,1.338120460510254,-26.608823776245117,0
2016.7479999999996,-3.515653224894777e-05,-0.00020410833531059325,-6.648058479186147e-05,0.0,0.0,0.0,0.0,3.77869037038181e-05,0.003265845589339733,-0.0022955797612667084,0.9994641542434692,0.0,0.0,0.0,0.14041031897068024,5.060910701751709,1.3384850025177002,-25.414546966552734,0
2026.646999999999,-4.881403219769709e-05,-0.00023744863574393094,-6.36976765235886e-05,0.0,0.0,0.0,0.0,0.0008759506745263934,-0.00100006686989218,-0.002059335121884942,0.9978337287902832,0.0,0.0,0.0,0.13981573283672333,5.050004005432129,1.324484944343567,-25.30692481994629,0
2036.5229999999992,2.3993006834643893e-06,-0.00025746101164259017,-5.213150507188402e-05,0.0,0.0,0.0,0.0,0.0013478596229106188,-0.0012340544490143657,-0.0014264463679865003,0.9995309710502625,0.0,0.0,0.0,0.13920974731445312,5.04409646987915,1.3255085945129395,-25.197242736816406,0
2046.4159999999993,-1.2469886314647738e-05,-0.0002957948890980333,-5.0936851039296016e-05,0.0,0.0,0.0,0.0,0.002699820091947913,0.004148274194449186,-0.0029961501713842154,0.9999183416366577,0.0,0.0,0.0,0.13965612649917603,5.037651062011719,1.320868730545044,-25.278034210205078,0
2056.2919999999995,-5.1934308430645615e-05,-0.0002850716409739107,-1.4327304597827606e-05,0.0,0.0,0.0,0.0,0.0023206332698464394,0.0008519283146597445,-0.001910536433570087,0.9989404678344727,0.0,0.0,0.0,0.12888051569461823,5.05414342880249,1.3128366470336914,-23.32762908935547,0
2066.1890000000003,-6.542984920088202e-05,-0.0003252093738410622,-1.0916161045315675e-05,0.0,0.0,0.0,0.0,-0.0028887426014989614,-0.0033910046331584454,0.0007136579952202737,1.0014684200286865,0.0,0.0,0.0,0.12904146313667297,5.050690174102783,1.3093483448028564,-23.356760025024414,0
2076.0679999999993,-2.747050893958658e-05,-0.00032444833777844906,2.195441265939735e-05,0.0,0.0,0.0,0.0,0.0012664151145145297,-0.0018468910129740834,0.0021435918752104044,0.9983905553817749,0.0,0.0,0.0,0.11824740469455719,5.071165561676025,1.3225669860839844,-21.40301513671875,0
2085.964,-3.99394120904617e-05,-0.00036555196857079864,2.866744398488663e-05,0.0,0.0,0.0,0.0,-0.00020142056746408343,0.0010986179113388062,0.003368189325556159,1.0005513429641724,0.0,0.0,0.0,0.11880967020988464,5.064055442810059,1.335785150527954,-21.50478744506836,0
2095.8410000000003,-4.561530295177363e-05,-0.0003536244621500373,7.066070975270122e-05,0.0,0.0,0.0,0.0,0.0028847830835729837,2.463104647176806e-05,-0.002022768137976527,1.0001214742660522,0.0,0.0,0.0,0.11884354054927826,5.057351589202881,1.33858323097229,-21.51091766357422,0
