timestamp,stateEstimate.x,stateEstimate.y,stateEstimate.z,controller.cmd_thrust,controller.cmd_roll,controller.cmd_pitch,controller.cmd_yaw,controller.r_roll,controller.r_pitch,controller.r_yaw,controller.accelz,controller.actuatorThrust,controller.roll,controller.pitch,controller.yaw,controller.rollRate,controller.pitchRate,controller.yawRate,controller.ctr_yaw
0.0,-0.002352205803617835,-0.019199958071112633,-0.00024915888207033277,0.0,0.0,0.0,0.0,-0.0003194350574631244,-0.002336813136935234,-0.0013269952032715082,1.000701665878296,0.0,0.0,0.0,-11.9796724319458,6.137472152709961,0.931930661201477,2168.344482421875,0
9.88299999999981,-0.0023576465900987387,-0.01917932741343975,-0.00022912624990567565,0.0,0.0,0.0,0.0,-0.0005350835854187608,0.0013124598190188408,-0.0024190330877900124,1.0005691051483154,0.0,0.0,0.0,-11.967671394348145,6.133895397186279,0.9389567375183105,2166.17236328125,0
19.771999999999025,-0.0023130159825086594,-0.019260790199041367,-0.00024265286629088223,0.0,0.0,0.0,0.0,-0.0005698408931493759,-0.00028209068113937974,-5.4054245993029326e-05,1.0004359483718872,0.0,0.0,0.0,-11.973912239074707,6.122623920440674,0.944733202457428,2167.302001953125,0
29.661999999998443,-0.0023389083798974752,-0.019278697669506073,-0.00020095749641768634,0.0,0.0,0.0,0.0,0.001388596254400909,0.00039157900027930737,0.0002510208869352937,1.0008152723312378,0.0,0.0,0.0,-11.961410522460938,6.115121841430664,0.9354576468467712,2165.039306640625,0
39.539999999999054,-0.0023165103048086166,-0.01930069550871849,-0.00018603466742206365,0.0,0.0,0.0,0.0,-0.0005364763201214373,-0.005352690350264311,-0.0004645594453904778,1.0009546279907227,0.0,0.0,0.0,-11.973968505859375,6.113921165466309,0.9386976361274719,2167.31201171875,0
49.43299999999908,-0.002326966030523181,-0.019308900460600853,-0.00015307021385524422,0.0,0.0,0.0,0.0,-0.0001707503543002531,-0.007364905439317226,0.00311547820456326,1.000525712966919,0.0,0.0,0.0,-11.96800708770752,6.107529640197754,0.947445273399353,2166.233154296875,0
59.3119999999999,-0.002320157131180167,-0.01932518184185028,-0.0001347242359770462,0.0,0.0,0.0,0.0,0.0007894521695561707,0.004202077630907297,0.0007534108008258045,0.9982706904411316,0.0,0.0,0.0,-11.978357315063477,6.1023850440979,0.9572276473045349,2168.1064453125,0
69.20399999999972,-0.0023172982037067413,-0.0193337369710207,-0.00011347911640768871,0.0,0.0,0.0,0.0,2.554591446823906e-05,-0.0011889309389516711,-0.0019309152849018574,0.9994450211524963,0.0,0.0,0.0,-11.965109825134277,6.0931267738342285,0.9559335708618164,2165.708740234375,0
79.09199999999873,-0.0023561359848827124,-0.019317101687192917,-9.233559103449807e-05,0.0,0.0,0.0,0.0,-0.0009085316560231149,-0.0004817986337002367,-0.0009041356388479471,1.0003724098205566,0.0,0.0,0.0,-11.97425651550293,6.095884323120117,0.9549646377563477,2167.364013671875,0
88.98199999999997,-0.002340482547879219,-0.019314300268888474,-8.139541751006618e-05,0.0,0.0,0.0,0.0,0.0013434108113870025,-0.004893159959465265,-0.0006046552443876863,0.9976989030838013,0.0,0.0,0.0,-11.968488693237305,6.100578308105469,0.9494649767875671,2166.3203125,0
98.85800000000017,-0.002387312240898609,-0.019309768453240395,-7.016079325694591e-05,0.0,0.0,0.0,0.0,3.3984055335167795e-05,-0.003921101335436106,0.0009086255449801683,0.9974191784858704,0.0,0.0,0.0,-11.9717435836792,6.101953506469727,0.960578203201294,2166.909423828125,0
108.74799999999959,-0.00239113112911582,-0.019318757578730583,-4.160966636845842e-05,0.0,0.0,0.0,0.0,4.7406159865204245e-05,-0.003063743468374014,0.0013131157029420137,0.9991807341575623,0.0,0.0,0.0,-11.96625804901123,6.10556697845459,0.9659749269485474,2165.91650390625,0
118.6319999999996,-0.00243447907269001,-0.019358225166797638,-4.5910546759841964e-05,0.0,0.0,0.0,0.0,-0.0012174599105492234,0.002308143535628915,0.000750326958950609,0.9977574944496155,0.0,0.0,0.0,-11.97404670715332,6.100093841552734,0.9654732942581177,2167.326171875,0
128.51499999999942,-0.002384596737101674,-0.019326884299516678,-7.096451008692384e-05,0.0,0.0,0.0,0.0,-0.0002536448882892728,0.0036188431549817324,-0.00019753861124627292,0.9979471564292908,0.0,0.0,0.0,-11.962027549743652,6.095513343811035,0.9520898461341858,2165.15087890625,0
138.41499999999905,-0.0023922366090118885,-0.019327128306031227,-5.271592453937046e-05,0.0,0.0,0.0,0.0,-0.0013969449792057276,-0.0037482483312487602,0.0026996005326509476,1.0020827054977417,0.0,0.0,0.0,-11.963772773742676,6.103246212005615,0.9564619064331055,2165.466796875,0
148.29299999999967,-0.0023016168270260096,-0.019265741109848022,-0.00011592046212172136,0.0,0.0,0.0,0.0,-0.0019478419562801719,0.002298689680173993,0.0024431124329566956,1.0004003047943115,0.0,0.0,0.0,-11.958074569702148,6.11837100982666,0.9694038033485413,2164.435302734375,0
158.17399999999907,-0.0024006699677556753,-0.01930069923400879,-0.00013942432997282594,0.0,0.0,0.0,0.0,0.003796044969931245,0.005203362088650465,-0.0011126445606350899,1.001177191734314,0.0,0.0,0.0,-11.964946746826172,6.111799240112305,0.9536796808242798,2165.67919921875,0
168.0649999999987,-0.00237879971973598,-0.01929709129035473,-0.00013789914373774081,0.0,0.0,0.0,0.0,-0.0027951132506132126,-0.00035766270593740046,0.0026921471580863,0.9994953870773315,0.0,0.0,0.0,-11.952605247497559,6.098762035369873,0.9367950558662415,2163.4453125,0
177.9479999999985,-0.002378100296482444,-0.01930413208901882,-0.00012433566735126078,0.0,0.0,0.0,0.0,-0.0019032919080927968,-0.00018419693515170366,0.0007062399527058005,0.9998365640640259,0.0,0.0,0.0,-11.955904960632324,6.104645729064941,0.9414178729057312,2164.04248046875,0
187.83799999999974,-0.0023000568617135286,-0.019252195954322815,-0.00017275054415222257,0.0,0.0,0.0,0.0,0.001965935342013836,0.0018894369713962078,-0.0024647011887282133,1.000793218612671,0.0,0.0,0.0,-11.952428817749023,6.118200302124023,0.9520171880722046,2163.41357421875,0
197.72599999999875,-0.0023396313190460205,-0.019254064187407494,-0.0001701967848930508,0.0,0.0,0.0,0.0,0.0008080406696535647,-0.002369507448747754,0.003281636629253626,0.9990463852882385,0.0,0.0,0.0,-11.962624549865723,6.119648456573486,0.9474722146987915,2165.2587890625,0
207.61199999999917,-0.0023272933904081583,-0.01923750899732113,-0.00014740128244739026,0.0,0.0,0.0,0.0,-0.0033325424883514643,-0.0038524691481143236,-0.0008679943275637925,0.9974444508552551,0.0,0.0,0.0,-11.956657409667969,6.126112461090088,0.9557856321334839,2164.178955078125,0
217.4920000000002,-0.002311552409082651,-0.019297365099191666,-0.00015170230471994728,0.0,0.0,0.0,0.0,0.0019413537811487913,0.00012790874461643398,0.0005124574527144432,1.0012813806533813,0.0,0.0,0.0,-11.961529731750488,6.129211902618408,0.9624857902526855,2165.060791015625,0
227.375,-0.0022932954598218203,-0.019273856654763222,-0.0001320860901614651,0.0,0.0,0.0,0.0,-0.00021386894513852894,0.0022832173854112625,-0.0010391202522441745,0.9996585249900818,0.0,0.0,0.0,-11.956323623657227,6.133657455444336,0.9588415026664734,2164.118408203125,0
237.2619999999988,-0.002306377748027444,-0.01933967135846615,-0.00014366368122864515,0.0,0.0,0.0,0.0,-0.00100937788374722,-0.001363125047646463,0.0006723909173160791,0.9988135099411011,0.0,0.0,0.0,-11.960515975952148,6.123956203460693,0.9624652862548828,2164.877197265625,0
247.16499999999905,-0.002279731910675764,-0.019298629835247993,-0.0001246669125976041,0.0,0.0,0.0,0.0,-0.0017530223121866584,0.0045745037496089935,-0.00129492930136621,0.9991503357887268,0.0,0.0,0.0,-11.948001861572266,6.120744228363037,0.9664193391799927,2162.612060546875,0
257.03600000000006,-0.0022959571797400713,-0.0193227156996727,-0.0001187456218758598,0.0,0.0,0.0,0.0,-0.0005481084808707237,-0.008072277531027794,0.0008013583719730377,0.9998230934143066,0.0,0.0,0.0,-11.958396911621094,6.119004249572754,0.9514526724815369,2164.49365234375,0
266.92399999999907,-0.002283720299601555,-0.01933901570737362,-9.690068691270426e-05,0.0,0.0,0.0,0.0,0.0011936620576307178,0.0013617529766634107,0.0003771836345549673,0.9996229410171509,0.0,0.0,0.0,-11.951619148254395,6.121649265289307,0.9614726901054382,2163.266845703125,0
276.8149999999987,-0.0023610286880284548,-0.019323408603668213,-9.404675802215934e-05,0.0,0.0,0.0,0.0,0.0012115365825593472,0.000687345047481358,0.0034842025488615036,1.0007354021072388,0.0,0.0,0.0,-11.961997032165527,6.120253562927246,0.9411197900772095,2165.145263671875,0
286.6919999999991,-0.0023442180827260017,-0.019330047070980072,-7.783558976370841e-05,0.0,0.0,0.0,0.0,0.000578106555622071,-0.0007382079493254423,0.003948497585952282,0.9987950921058655,0.0,0.0,0.0,-11.949272155761719,6.113555908203125,0.9422973990440369,2162.842041015625,0
296.58100000000013,-0.002420357195660472,-0.01933722011744976,-7.425028161378577e-05,0.0,0.0,0.0,0.0,-0.0017023038817569613,-0.00287092593498528,0.0013117113849148154,1.0000543594360352,0.0,0.0,0.0,-11.962441444396973,6.1112518310546875,0.9347156286239624,2165.2255859375,0
306.48199999999997,-0.0023655355907976627,-0.019269626587629318,-8.913791680242866e-05,0.0,0.0,0.0,0.0,0.00030939100543037057,-0.002824909519404173,0.0025809193029999733,0.9980931878089905,0.0,0.0,0.0,-11.955435752868652,6.129150867462158,0.9398285150527954,2163.957763671875,0
316.36099999999897,-0.0023755740839987993,-0.01929711177945137,-8.104241715045646e-05,0.0,0.0,0.0,0.0,-0.0009221415384672582,0.0018972147954627872,0.00044118872028775513,1.0001078844070435,0.0,0.0,0.0,-11.958634376525879,6.1238603591918945,0.9527127146720886,2164.53662109375,0
326.2399999999998,-0.002336055738851428,-0.019259246066212654,-8.228582009905949e-05,0.0,0.0,0.0,0.0,0.001114256796427071,-0.0007613778579980135,0.0004375835123937577,0.998706042766571,0.0,0.0,0.0,-11.95269775390625,6.137243270874023,0.9456614851951599,2163.4619140625,0
336.1269999999986,-0.002359219128265977,-0.019272329285740852,-6.841982394689694e-05,0.0,0.0,0.0,0.0,0.0007777725113555789,0.0033600577153265476,-0.0007474259473383427,0.9983606934547424,0.0,0.0,0.0,-11.964457511901855,6.133928298950195,0.9465280771255493,2165.5908203125,0
346.009,-0.0023246731143444777,-0.019248448312282562,-6.688792927889153e-05,0.0,0.0,0.0,0.0,-0.0008436586940661073,0.005818342790007591,-0.003372923471033573,0.9970670938491821,0.0,0.0,0.0,-11.959208488464355,6.138767719268799,0.9506893754005432,2164.640625,0
355.89799999999923,-0.0023128988686949015,-0.019304241985082626,-6.316116923699155e-05,0.0,0.0,0.0,0.0,0.0005670224200002849,-0.00062302325386554,0.0002205803757533431,0.996090829372406,0.0,0.0,0.0,-11.97017765045166,6.129047870635986,0.9454216957092285,2166.6259765625,0
365.78699999999844,-0.0022931168787181377,-0.01930771954357624,-5.587633131654002e-05,0.0,0.0,0.0,0.0,0.0010794972768053412,-0.0016451828414574265,-0.0007430898258462548,0.9985955953598022,0.0,0.0,0.0,-11.957720756530762,6.121102333068848,0.9424825310707092,2164.37109375,0
375.66799999999967,-0.002309728879481554,-0.019334904849529266,-5.547226464841515e-05,0.0,0.0,0.0,0.0,-0.0016763374442234635,-0.0020394199527800083,0.0008874139166437089,1.0012892484664917,0.0,0.0,0.0,-11.964653015136719,6.118223190307617,0.9387691020965576,2165.6259765625,0
385.5540000000001,-0.002231612801551819,-0.019286787137389183,-0.0001056656037690118,0.0,0.0,0.0,0.0,0.0014003044925630093,-0.0011967106256633997,-0.001789919100701809,1.0001320838928223,0.0,0.0,0.0,-11.961166381835938,6.131760120391846,0.944534957408905,2164.9951171875,0
395.4509999999991,-0.0023595213424414396,-0.019290994852781296,-0.00013129044964443892,0.0,0.0,0.0,0.0,-0.001240889192558825,-0.006036313716322184,0.00112315290607512,1.0001143217086792,0.0,0.0,0.0,-11.963004112243652,6.126957893371582,0.9316198229789734,2165.32763671875,0
405.3349999999991,-0.002343960339203477,-0.019297951832413673,-0.0001278397103305906,0.0,0.0,0.0,0.0,0.0011514066718518734,0.0006650473223999143,0.0011779095511883497,1.0010595321655273,0.0,0.0,0.0,-11.955924034118652,6.129414081573486,0.9330474138259888,2164.046142578125,0
415.21799999999894,-0.002366163767874241,-0.01928567700088024,-0.00011295393778709695,0.0,0.0,0.0,0.0,0.0014069514581933618,0.0005781740765087306,-5.307409446686506e-05,1.0010130405426025,0.0,0.0,0.0,-11.962112426757812,6.128020286560059,0.9306785464286804,2165.166259765625,0
425.10499999999956,-0.0023214120883494616,-0.019291050732135773,-0.0001425862283213064,0.0,0.0,0.0,0.0,-0.0004772363172378391,0.0019852130208164454,0.0004078031925018877,0.9986308217048645,0.0,0.0,0.0,-11.950287818908691,6.119431972503662,0.9306192398071289,2163.02587890625,0
434.9830000000002,-0.002381806494668126,-0.01930362544953823,-0.00014723767526447773,0.0,0.0,0.0,0.0,-0.0028386355843394995,-0.006332699209451675,0.0017254224512726068,0.9989713430404663,0.0,0.0,0.0,-11.956900596618652,6.119472980499268,0.9174826145172119,2164.222900390625,0
444.869999999999,-0.002322586253285408,-0.019254405051469803,-0.00018550899403635412,0.0,0.0,0.0,0.0,-0.004071145784109831,-0.001910987077280879,0.002195522654801607,0.9994881749153137,0.0,0.0,0.0,-11.944476127624512,6.117054462432861,0.9387946128845215,2161.973876953125,0
454.7559999999994,-0.0023491433821618557,-0.01926191709935665,-0.0001839754550019279,0.0,0.0,0.0,0.0,0.0013522199587896466,0.0022177777718752623,-0.0025588187854737043,0.9994024634361267,0.0,0.0,0.0,-11.953153610229492,6.122142791748047,0.9333367943763733,2163.544677734375,0
464.6449999999986,-0.0022997125051915646,-0.01921418309211731,-0.000215049265534617,0.0,0.0,0.0,0.0,0.00015419757983181626,-0.004861278925091028,-0.0005798409692943096,0.9993876814842224,0.0,0.0,0.0,-11.941654205322266,6.112529754638672,0.929790735244751,2161.463134765625,0
474.53199999999924,-0.0023803268559277058,-0.019258800894021988,-0.0002451498876325786,0.0,0.0,0.0,0.0,-0.0018783172126859426,-0.002179820789024234,0.0022189856972545385,1.0002892017364502,0.0,0.0,0.0,-11.950864791870117,6.101792812347412,0.9446240663528442,2163.130126953125,0
484.41899999999987,-0.00238059856928885,-0.019235769286751747,-0.00022631789033766836,0.0,0.0,0.0,0.0,4.7875408199615777e-05,-0.0020866221748292446,-0.00021236736210994422,1.0011653900146484,0.0,0.0,0.0,-11.938490867614746,6.102213382720947,0.9522683620452881,2160.890625,0
494.3059999999987,-0.002373060444369912,-0.019243165850639343,-0.00021636868768837303,0.0,0.0,0.0,0.0,-0.003152361838147044,-4.726756378659047e-05,-2.3517171939602122e-05,0.9990062713623047,0.0,0.0,0.0,-11.944303512573242,6.098230361938477,0.954107403755188,2161.942626953125,0
504.1880000000001,-0.002366088330745697,-0.019228912889957428,-0.00020125109585933387,0.0,0.0,0.0,0.0,-0.0007019018521532416,-0.0008657542057335377,-0.0016966202529147267,0.9967933893203735,0.0,0.0,0.0,-11.94003677368164,6.108436584472656,0.9567840099334717,2161.17041015625,0
514.0779999999995,-0.002343286294490099,-0.0192327331751585,-0.00017854926409199834,0.0,0.0,0.0,0.0,0.0021699685603380203,0.004358708392828703,-0.0015995176509022713,1.00008225440979,0.0,0.0,0.0,-11.951314926147461,6.106783866882324,0.9665095210075378,2163.2119140625,0
523.9650000000001,-0.002343775238841772,-0.019237788394093513,-0.0001586040889378637,0.0,0.0,0.0,0.0,0.0016036848537623882,0.001300584408454597,-0.0003435449907556176,1.0013103485107422,0.0,0.0,0.0,-11.939313888549805,6.098803997039795,0.9565861821174622,2161.039794921875,0
533.8429999999989,-0.0023366000968962908,-0.019308224320411682,-0.00016391309327445924,0.0,0.0,0.0,0.0,-0.005663717165589333,-0.0062204343266785145,0.0014019953086972237,0.9995838403701782,0.0,0.0,0.0,-11.945180892944336,6.086049556732178,0.962347149848938,2162.1015625,0
543.7389999999996,-0.00234125810675323,-0.01931927725672722,-0.0001425150694558397,0.0,0.0,0.0,0.0,4.0099686884786934e-05,-0.0016609890153631568,-0.0025774436071515083,0.9982041716575623,0.0,0.0,0.0,-11.932876586914062,6.087162494659424,0.9801965355873108,2159.874267578125,0
553.6170000000002,-0.002382384380325675,-0.019298691302537918,-0.00012264447286725044,0.0,0.0,0.0,0.0,0.00033895380329340696,0.0002066933666355908,0.0013573705218732357,0.9993441700935364,0.0,0.0,0.0,-11.94414234161377,6.093445777893066,0.9789977073669434,2161.91357421875,0
563.5109999999986,-0.002370148664340377,-0.01929536834359169,-0.00011987460311502218,0.0,0.0,0.0,0.0,0.0025561584625393152,-0.005607489496469498,0.004333715885877609,0.9980531930923462,0.0,0.0,0.0,-11.93298625946045,6.086523056030273,0.9845226407051086,2159.894287109375,0
573.3909999999996,-0.002364383079111576,-0.019312335178256035,-0.0001078915229300037,0.0,0.0,0.0,0.0,0.00022731204808223993,0.002576640108600259,-0.004586334340274334,0.9983038902282715,0.0,0.0,0.0,-11.949821472167969,6.08711576461792,0.9905974268913269,2162.941650390625,0
583.2889999999989,-0.00228866096585989,-0.019288450479507446,-0.00015243662346620113,0.0,0.0,0.0,0.0,0.003913186024874449,-0.0022830860689282417,-0.00022680280380882323,1.000064492225647,0.0,0.0,0.0,-11.934124946594238,6.096214294433594,1.0045413970947266,2160.100341796875,0
593.1549999999988,-0.00235148798674345,-0.019280796870589256,-0.00014778837794438004,0.0,0.0,0.0,0.0,-0.0028593908064067364,-0.0024301193188875914,-0.0033923231530934572,1.0023796558380127,0.0,0.0,0.0,-11.943967819213867,6.091883659362793,1.006523847579956,2161.8818359375,0
603.0519999999997,-0.0023626333568245173,-0.019274720922112465,-0.00013597247016150504,0.0,0.0,0.0,0.0,-0.0016950452700257301,-0.0017354560550302267,-0.0027633802965283394,1.0002856254577637,0.0,0.0,0.0,-11.953197479248047,6.0942535400390625,1.0038576126098633,2163.552734375,0
612.9279999999999,-0.0023884233087301254,-0.019268931820988655,-0.00012123043416067958,0.0,0.0,0.0,0.0,-0.004247445613145828,0.0021742726676166058,0.0012716160854324698,0.9995226860046387,0.0,0.0,0.0,-11.959243774414062,6.094303607940674,1.003722906112671,2164.646728515625,0
622.8199999999997,-0.0023083153646439314,-0.019236119464039803,-0.00015563440683763474,0.0,0.0,0.0,0.0,0.0005497244419530034,0.004226952791213989,-0.0008876535575836897,1.0004440546035767,0.0,0.0,0.0,-11.944282531738281,6.103803634643555,1.0038583278656006,2161.93896484375,0
632.7079999999987,-0.002415174851194024,-0.019259942695498466,-0.00017690676031634212,0.0,0.0,0.0,0.0,0.003606523619964719,-0.003749354276806116,0.0034491592086851597,0.9987145662307739,0.0,0.0,0.0,-11.966018676757812,6.100429534912109,0.992897629737854,2165.873291015625,0
642.6039999999994,-0.002385966246947646,-0.019301390275359154,-0.00017447843856643885,0.0,0.0,0.0,0.0,-0.003340248018503189,0.001114560291171074,-0.002890039933845401,0.9996923804283142,0.0,0.0,0.0,-11.941069602966309,6.079555988311768,0.9986160397529602,2161.357421875,0
652.4719999999998,-0.0023918594233691692,-0.019278915598988533,-0.0001518273347755894,0.0,0.0,0.0,0.0,-0.0004409962275531143,-0.0039039445109665394,-0.002271357225254178,1.00107741355896,0.0,0.0,0.0,-11.954753875732422,6.086296558380127,1.0024440288543701,2163.834228515625,0
662.369999999999,-0.0023133193608373404,-0.019258474931120872,-0.00018009489576797932,0.0,0.0,0.0,0.0,0.0010141237871721387,0.0010618387022987008,-0.001522932667285204,1.0019961595535278,0.0,0.0,0.0,-11.931783676147461,6.08745002746582,1.0060844421386719,2159.6767578125,0
672.2429999999986,-0.0023928573355078697,-0.019258007407188416,-0.00018522267055232078,0.0,0.0,0.0,0.0,-0.0018937853164970875,-0.006041457876563072,-1.2660787433560472e-05,0.9998852610588074,0.0,0.0,0.0,-11.949737548828125,6.088535308837891,0.9995075464248657,2162.926513671875,0
682.1389999999992,-0.002364393323659897,-0.01930403709411621,-0.00017003105313051492,0.0,0.0,0.0,0.0,0.0009722317918203771,-0.0005802105879411101,0.0003815388772636652,0.9980906248092651,0.0,0.0,0.0,-11.933537483215332,6.077735900878906,1.0024981498718262,2159.994140625,0
692.0169999999998,-0.002386704320088029,-0.019264837726950645,-0.00014323394862003624,0.0,0.0,0.0,0.0,0.0007627932354807854,-0.0006241992232389748,-9.448743367101997e-05,0.9992030262947083,0.0,0.0,0.0,-11.953911781311035,6.087715148925781,1.0034935474395752,2163.681640625,0
701.9139999999989,-0.002295776503160596,-0.0192513857036829,-0.00017516734078526497,0.0,0.0,0.0,0.0,3.580969860195182e-05,0.001798659679479897,0.002283056266605854,0.9994311332702637,0.0,0.0,0.0,-11.936963081359863,6.085761070251465,1.007214903831482,2160.6142578125,0
711.8009999999995,-0.0024095443077385426,-0.019266581162810326,-0.0001943717070389539,0.0,0.0,0.0,0.0,0.0002765200915746391,-0.0026205352041870356,0.0014522142009809613,1.000713586807251,0.0,0.0,0.0,-11.959562301635742,6.0838727951049805,0.995527446269989,2164.70458984375,0
721.6869999999999,-0.002373612718656659,-0.01930367387831211,-0.00018323563563171774,0.0,0.0,0.0,0.0,-0.0011093716602772474,-0.0008065900183282793,-0.0004338912258390337,0.999021589756012,0.0,0.0,0.0,-11.94245433807373,6.077369689941406,0.992455244064331,2161.608154296875,0
731.5639999999985,-0.0023901283275336027,-0.019268417730927467,-0.00015831051860004663,0.0,0.0,0.0,0.0,-0.003304269164800644,-0.00662934361025691,0.0003803711151704192,1.0008094310760498,0.0,0.0,0.0,-11.965753555297852,6.087047100067139,0.9922109842300415,2165.8251953125,0
741.4599999999991,-0.002389444038271904,-0.019328448921442032,-0.00010154220944968984,0.0,0.0,0.0,0.0,-0.0010764894541352987,-0.0028553083539009094,0.00224410486407578,1.001478672027588,0.0,0.0,0.0,-11.941832542419434,6.077737331390381,1.0190086364746094,2161.495361328125,0
751.3329999999987,-0.002364783314988017,-0.019325876608490944,-7.435372390318662e-05,0.0,0.0,0.0,0.0,-0.0001507616398157552,0.0022444683127105236,0.0013628738233819604,1.0011931657791138,0.0,0.0,0.0,-11.964272499084473,6.083045482635498,1.0274457931518555,2165.55712890625,0
761.2279999999992,-0.002336441073566675,-0.01937209442257881,-2.9504542908398435e-05,0.0,0.0,0.0,0.0,0.0008542341529391706,0.0020903502590954304,-0.0010078452760353684,1.0015145540237427,0.0,0.0,0.0,-11.946510314941406,6.078433513641357,1.023282766342163,2162.342041015625,0
771.1059999999998,-0.0023712427355349064,-0.01937718316912651,-2.4040187781793065e-05,0.0,0.0,0.0,0.0,0.0008843244286254048,0.0009007792687043548,0.0025434794370085,1.0005648136138916,0.0,0.0,0.0,-11.964422225952148,6.07992696762085,1.0232473611831665,2165.584228515625,0
781.0059999999994,-0.0023278372827917337,-0.019403845071792603,1.6239835531450808e-05,0.0,0.0,0.0,0.0,-0.0014491425827145576,-0.0005838523502461612,-0.0013541996013373137,1.0004465579986572,0.0,0.0,0.0,-11.946389198303223,6.075608253479004,0.9993366599082947,2162.320068359375,0
790.878999999999,-0.002366954693570733,-0.019395887851715088,2.664028033905197e-05,0.0,0.0,0.0,0.0,0.0007659630500711501,-0.0013618853408843279,-0.0020267879590392113,0.9999109506607056,0.0,0.0,0.0,-11.963492393493652,6.079171180725098,0.9995656609535217,2165.416015625,0
800.771999999999,-0.0023067777510732412,-0.019349556416273117,1.7183665477205068e-05,0.0,0.0,0.0,0.0,0.0018853144720196724,0.00014995057426858693,-0.00023520324612036347,0.9986802339553833,0.0,0.0,0.0,-11.960350036621094,6.091468811035156,0.9954324960708618,2164.84716796875,0
810.6569999999992,-0.0024010981433093548,-0.019350141286849976,2.7601025067269802e-05,0.0,0.0,0.0,0.0,-0.0010345744667574763,-0.0009377786773256958,-0.0019271933706477284,1.0001113414764404,0.0,0.0,0.0,-11.961663246154785,6.089879512786865,0.9892476797103882,2165.0849609375,0
820.5489999999991,-0.0023414434399455786,-0.01931249350309372,1.246831288881367e-05,0.0,0.0,0.0,0.0,-4.517449997365475e-05,-0.005275354720652103,0.0014607147313654423,1.0007072687149048,0.0,0.0,0.0,-11.950021743774414,6.084657669067383,0.991420328617096,2162.977783203125,0
830.4209999999985,-0.0024115554988384247,-0.019325723871588707,2.3928581867949106e-05,0.0,0.0,0.0,0.0,0.0015071490779519081,-0.002414603717625141,-4.118582728551701e-05,0.9992474913597107,0.0,0.0,0.0,-11.956558227539062,6.087154865264893,0.9848366975784302,2164.16064453125,0
840.3159999999989,-0.0023246044293045998,-0.019299758598208427,-2.911370393121615e-05,0.0,0.0,0.0,0.0,0.0018612402491271496,0.00796724297106266,-1.4377227671502624e-05,0.9984581470489502,0.0,0.0,0.0,-11.951116561889648,6.100504398345947,1.0023504495620728,2163.176025390625,0
850.1939999999995,-0.002372576156631112,-0.019309258088469505,-1.2870817954535596e-05,0.0,0.0,0.0,0.0,-0.0004058216291014105,-0.004670233000069857,0.004012146033346653,0.9996651411056519,0.0,0.0,0.0,-11.959908485412598,6.095543384552002,0.997029721736908,2164.767333984375,0
860.0859999999993,-0.0022843200713396072,-0.01923741027712822,-6.152899004518986e-05,0.0,0.0,0.0,0.0,0.0004783768381457776,0.0013052638387307525,-0.0010355575941503048,0.9989630579948425,0.0,0.0,0.0,-11.953473091125488,6.1165242195129395,0.9901074767112732,2163.6025390625,0
869.9659999999985,-0.002385842613875866,-0.019263215363025665,-7.61930423323065e-05,0.0,0.0,0.0,0.0,-0.0008711486589163542,-0.0023986371234059334,0.0016970630967989564,0.9986739754676819,0.0,0.0,0.0,-11.956493377685547,6.115547180175781,0.9971606135368347,2164.149169921875,0
879.8599999999988,-0.002328408882021904,-0.01925976760685444,-0.0001145756323239766,0.0,0.0,0.0,0.0,-0.0028763827867805958,-0.0011072615161538124,0.00028721883427351713,0.997829020023346,0.0,0.0,0.0,-11.944583892822266,6.107293605804443,0.9956620931625366,2161.993408203125,0
889.75,-0.0024222873616963625,-0.019295115023851395,-0.00013666166341863573,0.0,0.0,0.0,0.0,0.0004742076271213591,0.002641516737639904,0.0018849930493161082,0.9992599487304688,0.0,0.0,0.0,-11.954033851623535,6.099149703979492,0.9890867471694946,2163.703857421875,0
899.6279999999988,-0.002351969014853239,-0.019235407933592796,-0.00018454545352142304,0.0,0.0,0.0,0.0,-0.0013972322922199965,-0.0031906072981655598,0.0007752939127385616,0.9976221323013306,0.0,0.0,0.0,-11.941848754882812,6.093705654144287,0.9904119968414307,2161.49853515625,0
909.5159999999996,-0.002340349368751049,-0.019279612228274345,-0.00018940558948088437,0.0,0.0,0.0,0.0,0.0025727637112140656,0.0028388595674186945,0.001169537310488522,0.9988786578178406,0.0,0.0,0.0,-11.945752143859863,6.08854866027832,0.9902790784835815,2162.205078125,0
919.4119999999984,-0.00229061720892787,-0.01923903077840805,-0.00021481655130628496,0.0,0.0,0.0,0.0,-0.0029175770469009876,-7.075343455653638e-05,-0.002470067935064435,1.0004571676254272,0.0,0.0,0.0,-11.942262649536133,6.1004719734191895,0.9876164793968201,2161.5732421875,0
929.2829999999994,-0.0023490996100008488,-0.01922323741018772,-0.0002186904166592285,0.0,0.0,0.0,0.0,-0.0005490066250786185,-0.0023428150452673435,0.0010182643309235573,1.00074303150177,0.0,0.0,0.0,-11.95168399810791,6.096259593963623,0.9784405827522278,2163.27880859375,0
939.1779999999999,-0.0023684678599238396,-0.019259272143244743,-0.00018309148435946554,0.0,0.0,0.0,0.0,0.0010815354762598872,-0.0020847534760832787,0.004265500232577324,0.9986041784286499,0.0,0.0,0.0,-11.940200805664062,6.090818405151367,0.9799053072929382,2161.199951171875,0
949.0559999999987,-0.002380690537393093,-0.01924150250852108,-0.00016947057156357914,0.0,0.0,0.0,0.0,-0.00012631686695385724,0.0010065395617857575,-0.00020262753241695464,0.9976216554641724,0.0,0.0,0.0,-11.94364070892334,6.1027631759643555,0.9765889048576355,2161.82275390625,0
958.9429999999993,-0.002382121980190277,-0.019262470304965973,-0.00014674813428428024,0.0,0.0,0.0,0.0,-0.0008380388608202338,0.004318983294069767,0.003750131232663989,0.9987380504608154,0.0,0.0,0.0,-11.931540489196777,6.091528415679932,0.9771140813827515,2159.6328125,0
968.8289999999997,-0.0023114762734621763,-0.019228605553507805,-0.00016696055536158383,0.0,0.0,0.0,0.0,0.003127905074506998,-0.0020807047840207815,-0.000656339805573225,1.0003583431243896,0.0,0.0,0.0,-11.93775463104248,6.092221736907959,0.9665256142616272,2160.75732421875,0
978.7150000000001,-0.0023114762734621763,-0.019228605553507805,-0.00016696055536158383,0.0,0.0,0.0,0.0,-0.0019383562030270696,-0.003959685564041138,0.002683301456272602,1.000544786453247,0.0,0.0,0.0,-11.93775463104248,6.092221736907959,0.9665256142616272,2160.75732421875,0
988.6059999999998,-0.0022815046831965446,-0.01921195723116398,-0.00018425547750666738,0.0,0.0,0.0,0.0,0.001185964560136199,0.0013017981545999646,-0.003186156740412116,0.9982673525810242,0.0,0.0,0.0,-11.953572273254395,6.097113609313965,0.9709451794624329,2163.620361328125,0
998.4969999999994,-0.002257160609588027,-0.01923711597919464,-0.00019271980272606015,0.0,0.0,0.0,0.0,-0.003703037276864052,-0.0016067468095570803,-0.0003527637163642794,1.0000996589660645,0.0,0.0,0.0,-11.941801071166992,6.089122772216797,0.97090083360672,2161.489990234375,0
1008.375,-0.0022958959452807903,-0.019231269136071205,-0.00021500438742805272,0.0,0.0,0.0,0.0,0.0010418654419481754,-0.00047300136066041887,-0.0011884360574185848,1.0007619857788086,0.0,0.0,0.0,-11.959134101867676,6.100769519805908,0.9706264734268188,2164.627197265625,0
1018.2600000000002,-0.002272395184263587,-0.01925748959183693,-0.0002244680217700079,0.0,0.0,0.0,0.0,0.001542501151561737,-0.0005554888630285859,-0.005185394547879696,1.0003488063812256,0.0,0.0,0.0,-11.947248458862305,6.0971269607543945,0.9755328297615051,2162.475830078125,0
1028.146999999999,-0.0023181475698947906,-0.019240671768784523,-0.00018240146164316684,0.0,0.0,0.0,0.0,-0.0008854437037371099,0.00010631875193212181,0.004101109225302935,0.9997515082359314,0.0,0.0,0.0,-11.965332984924316,6.104083061218262,0.970740556716919,2165.7490234375,0
1038.030999999999,-0.002294171368703246,-0.01926840841770172,-0.00018615629232954234,0.0,0.0,0.0,0.0,0.002209877595305443,0.008706262335181236,-0.0005219180602580309,1.001294493675232,0.0,0.0,0.0,-11.953437805175781,6.101832389831543,0.9729123115539551,2163.59619140625,0
1047.92,-0.002379968296736479,-0.019258897751569748,-0.00015938948490656912,0.0,0.0,0.0,0.0,0.0012264051474630833,-0.0012773032067343593,0.0019884472712874413,1.0004807710647583,0.0,0.0,0.0,-11.963438987731934,6.105599403381348,0.9678170084953308,2165.40625,0
1057.8089999999993,-0.002358263125643134,-0.019288046285510063,-0.0001587998995091766,0.0,0.0,0.0,0.0,0.004284441936761141,0.0002535784151405096,-0.0009786424925550818,1.0013948678970337,0.0,0.0,0.0,-11.951278686523438,6.096593379974365,0.9573808312416077,2163.205322265625,0
1067.6979999999985,-0.002395185176283121,-0.019295809790492058,-9.629049600334838e-05,0.0,0.0,0.0,0.0,0.0023773889988660812,0.0018697577761486173,0.0003160322376061231,1.0015325546264648,0.0,0.0,0.0,-11.968538284301758,6.087651252746582,0.9546582102775574,2166.329345703125,0
1077.575999999999,-0.002372478134930134,-0.01932181417942047,-8.785358659224585e-05,0.0,0.0,0.0,0.0,0.0020752858836203814,-0.0009746213327161968,0.0007645391160622239,1.0003052949905396,0.0,0.0,0.0,-11.956561088562012,6.068867206573486,0.9434158205986023,2164.1611328125,0
1087.4629999999997,-0.0023727789521217346,-0.019294481724500656,-7.393125270027667e-05,0.0,0.0,0.0,0.0,-0.0009682459058240056,0.003731191623955965,0.001186282024718821,1.0006628036499023,0.0,0.0,0.0,-11.971017837524414,6.076701641082764,0.9512982368469238,2166.778076171875,0
1097.3539999999994,-0.00235020462423563,-0.01931742951273918,-6.270753510762006e-05,0.0,0.0,0.0,0.0,0.0018281071679666638,-0.0016950571443885565,-0.000948918575886637,1.0021729469299316,0.0,0.0,0.0,-11.958398818969727,6.067203998565674,0.9559333324432373,2164.494140625,0
1107.2339999999986,-0.0023307993542402983,-0.019318461418151855,-4.009011900052428e-05,0.0,0.0,0.0,0.0,0.0003360766277182847,-0.0036766426637768745,-0.0021140670869499445,1.000488042831421,0.0,0.0,0.0,-11.964232444763184,6.05830192565918,0.967096745967865,2165.5498046875,0
1117.1279999999988,-0.0023090422619134188,-0.019340885803103447,-2.4488603230565786e-05,0.0,0.0,0.0,0.0,-0.0006528339581564069,-0.00039529279456473887,0.002824082039296627,0.9997575283050537,0.0,0.0,0.0,-11.95286750793457,6.053255081176758,0.9708778858184814,2163.492919921875,0
1127.0069999999996,-0.0023578424006700516,-0.019241634756326675,-3.3238229661947116e-05,0.0,0.0,0.0,0.0,0.0031145813409239054,-0.001712180208414793,0.0014811945147812366,0.9998344779014587,0.0,0.0,0.0,-11.966168403625488,6.065665245056152,0.9629249572753906,2165.900390625,0
1136.8999999999996,-0.002340379636734724,-0.019260287284851074,-1.89419042726513e-05,0.0,0.0,0.0,0.0,0.0008240967872552574,-0.00016033266729209572,0.004654947202652693,0.9989929795265198,0.0,0.0,0.0,-11.953730583190918,6.055477619171143,0.9686267971992493,2163.649169921875,0
1146.7799999999988,-0.0023671044036746025,-0.01924234814941883,-1.281793538510101e-05,0.0,0.0,0.0,0.0,0.001186734065413475,0.001888148719444871,0.002827423857524991,0.9975147843360901,0.0,0.0,0.0,-11.961054801940918,6.046671390533447,0.9529803991317749,2164.974853515625,0
1156.664999999999,-0.00234957505017519,-0.019261062145233154,-4.4036733015673235e-07,0.0,0.0,0.0,0.0,0.001272797118872404,0.00356391747482121,-0.0005019570817239583,0.9994567632675171,0.0,0.0,0.0,-11.948410987854004,6.040667533874512,0.9594589471817017,2162.68603515625,0
1166.557999999999,-0.002359276171773672,-0.019253544509410858,-1.4976902775742928e-06,0.0,0.0,0.0,0.0,-0.0003939075395464897,-0.006601232104003429,0.002071856986731291,1.0008273124694824,0.0,0.0,0.0,-11.956018447875977,6.029374122619629,0.9483843445777893,2164.06298828125,0
1176.4439999999995,-0.0023408159613609314,-0.019274521619081497,8.209310180973262e-06,0.0,0.0,0.0,0.0,-0.0044433195143938065,-0.005862431135028601,0.0008235704153776169,0.9967676401138306,0.0,0.0,0.0,-11.944816589355469,6.019859790802002,0.9534189701080322,2162.03564453125,0
1186.3239999999987,-0.002355458913370967,-0.019262975081801414,3.0773280741414055e-06,0.0,0.0,0.0,0.0,0.00027630539261735976,0.002510015619918704,-0.00044012104626744986,0.9993597269058228,0.0,0.0,0.0,-11.960991859436035,6.031742095947266,0.9697268605232239,2164.963134765625,0
1196.2099999999991,-0.0023347188252955675,-0.01928321085870266,9.8301734396955e-06,0.0,0.0,0.0,0.0,0.002503679133951664,-0.0022503386717289686,-1.2694071301666554e-05,1.000206470489502,0.0,0.0,0.0,-11.947576522827148,6.026633262634277,0.9800971150398254,2162.53515625,0
1206.0999999999985,-0.0023567748721688986,-0.019251760095357895,-7.365395049419021e-07,0.0,0.0,0.0,0.0,8.393399184569716e-06,-0.0006010489305481315,0.0015822764253243804,0.9990828037261963,0.0,0.0,0.0,-11.964296340942383,6.032649517059326,0.9696690440177917,2165.5615234375,0
1215.9889999999996,-0.0023328003007918596,-0.019271763041615486,3.7501069982681656e-06,0.0,0.0,0.0,0.0,9.546271758154035e-05,-0.008462074212729931,0.0011919845128431916,1.0002208948135376,0.0,0.0,0.0,-11.950776100158691,6.0266499519348145,0.9749096632003784,2163.1142578125,0
1225.8679999999986,-0.0023714201524853706,-0.0192297101020813,-3.8139809475978836e-05,0.0,0.0,0.0,0.0,-0.0007650980842299759,0.002402486512437463,-0.002353536430746317,1.0004663467407227,0.0,0.0,0.0,-11.971372604370117,6.035032749176025,0.974949061870575,2166.842041015625,0
1235.768,-0.0023467920254915953,-0.019248874858021736,-3.7169313145568594e-05,0.0,0.0,0.0,0.0,0.0010182103142142296,-0.0008293360588140786,0.0009455048711970448,1.0004156827926636,0.0,0.0,0.0,-11.958795547485352,6.023608207702637,0.9688205718994141,2164.565673828125,0
1245.6399999999994,-0.0023822940420359373,-0.01926933042705059,-1.2971161595487501e-05,0.0,0.0,0.0,0.0,0.002276899293065071,-0.006095947232097387,-4.402956983540207e-05,0.997893750667572,0.0,0.0,0.0,-11.974842071533203,6.021125793457031,0.9700536131858826,2167.47021484375,0
1255.5279999999984,-0.002357881050556898,-0.019290337339043617,-8.925263500714209e-06,0.0,0.0,0.0,0.0,-9.17165289138211e-06,0.0007035192102193832,0.00034144779783673584,0.9983262419700623,0.0,0.0,0.0,-11.963518142700195,6.018002510070801,0.9813130497932434,2165.42041015625,0
1265.4169999999995,-0.002344744047150016,-0.01926305890083313,-1.5124481251405086e-05,0.0,0.0,0.0,0.0,0.002171147847548127,-0.0018746400019153953,0.003062519244849682,1.0004396438598633,0.0,0.0,0.0,-11.977598190307617,6.025228023529053,0.9902400374412537,2167.968994140625,0
1275.2999999999993,-0.002322290325537324,-0.01928548328578472,-1.4360447494254913e-05,0.0,0.0,0.0,0.0,0.0015294079203158617,-0.0009583812206983566,-0.00018517088028602302,0.9998648762702942,0.0,0.0,0.0,-11.963994026184082,6.022576332092285,0.9978709816932678,2165.506591796875,0
1285.191999999999,-0.0022904251236468554,-0.01924354024231434,-6.017454325046856e-06,0.0,0.0,0.0,0.0,0.00017812538135331124,0.004284952767193317,1.5433321095770225e-05,1.0006968975067139,0.0,0.0,0.0,-11.960123062133789,6.037286758422852,1.0038520097732544,2164.805908203125,0
1295.0779999999995,-0.0022651758044958115,-0.019266486167907715,-4.317848834034521e-06,0.0,0.0,0.0,0.0,-0.0012860957067459822,-0.00443292735144496,0.00045724830124527216,1.000718593597412,0.0,0.0,0.0,-11.948460578918457,6.030272960662842,0.9932734966278076,2162.695068359375,0
1304.9609999999993,-0.002253834391012788,-0.0192752406001091,1.6672935089445673e-05,0.0,0.0,0.0,0.0,0.0013181231915950775,-0.002611507661640644,0.0004964543622918427,0.997995138168335,0.0,0.0,0.0,-11.94554328918457,6.029421806335449,0.9909051656723022,2162.167236328125,0
1314.8439999999991,-0.0022322211880236864,-0.01930154487490654,2.0946075892425142e-05,0.0,0.0,0.0,0.0,0.0011697937734425068,0.0018181477207690477,0.0006878917920403183,0.9984469413757324,0.0,0.0,0.0,-11.933613777160645,6.027018070220947,1.004006266593933,2160.0078125,0
1324.7420000000002,-0.002187501173466444,-0.01931610517203808,2.7175085506314645e-06,0.0,0.0,0.0,0.0,0.00044594419887289405,-0.0069007258862257,0.001751293078996241,1.0001193284988403,0.0,0.0,0.0,-11.92911148071289,6.032503128051758,1.0170565843582153,2159.193115234375,0
1334.6269999999986,-0.0021604723297059536,-0.01934599131345749,2.6893360427493462e-06,0.0,0.0,0.0,0.0,-0.0006052320823073387,0.003394544357433915,-0.0010864119976758957,0.9983392953872681,0.0,0.0,0.0,-11.917047500610352,6.026378154754639,1.0264182090759277,2157.00927734375,0
1344.5029999999988,-0.002121915575116873,-0.01930796541273594,1.22341480164323e-05,0.0,0.0,0.0,0.0,0.00024111832317430526,-0.007015684153884649,-0.0013541431399062276,0.9990329742431641,0.0,0.0,0.0,-11.916001319885254,6.0458807945251465,1.0327486991882324,2156.820068359375,0
1354.3939999999984,-0.002090818714350462,-0.0193378496915102,1.1123662261525169e-05,0.0,0.0,0.0,0.0,0.00010201674012932926,-0.00470482325181365,0.004223372787237167,0.9994235038757324,0.0,0.0,0.0,-11.904006958007812,6.039008140563965,1.0359745025634766,2154.649169921875,0
1364.2739999999994,-0.0020604568999260664,-0.01935749314725399,1.1901362995558884e-05,0.0,0.0,0.0,0.0,-0.0012706825509667397,-0.0005730564007535577,-0.0017419909127056599,0.9999833703041077,0.0,0.0,0.0,-11.903480529785156,6.032918453216553,1.0514415502548218,2154.5537109375,0
1374.161,-0.0020283530466258526,-0.019391603767871857,9.695758308225777e-06,0.0,0.0,0.0,0.0,0.0012588929384946823,0.000840802735183388,0.004552637226879597,1.000036597251892,0.0,0.0,0.0,-11.891407012939453,6.0306315422058105,1.0661253929138184,2152.3681640625,0
1384.0469999999987,-0.002035347977653146,-0.019352899864315987,5.7876961363945156e-05,0.0,0.0,0.0,0.0,-0.0023484877310693264,0.0006045758491382003,0.0020768744871020317,0.9985776543617249,0.0,0.0,0.0,-11.891777992248535,6.047821521759033,1.05051851272583,2152.435302734375,0
1393.932999999999,-0.002005441579967737,-0.019385281950235367,5.9295598475728184e-05,0.0,0.0,0.0,0.0,0.002287577837705612,-0.004379326477646828,-0.0005036641960032284,0.9994434118270874,0.0,0.0,0.0,-11.879321098327637,6.044611930847168,1.0513688325881958,2150.1806640625,0
1403.8179999999993,-0.001976178027689457,-0.019361166283488274,7.81708731665276e-05,0.0,0.0,0.0,0.0,0.0015722756506875157,-0.001372291473671794,-0.0026306835934519768,0.9983118176460266,0.0,0.0,0.0,-11.879790306091309,6.0599517822265625,1.0511022806167603,2150.265625,0
1413.7129999999997,-0.001946355914697051,-0.019394202157855034,7.948357233544812e-05,0.0,0.0,0.0,0.0,-0.0015343582490459085,-0.0019915185403078794,0.0017397981137037277,0.997805655002594,0.0,0.0,0.0,-11.86855411529541,6.0580525398254395,1.0573747158050537,2148.23193359375,0
1423.5909999999985,-0.0019800751470029354,-0.01939539425075054,0.0001235492673004046,0.0,0.0,0.0,0.0,0.0011137627298012376,0.0026459242217242718,-0.0027967169880867004,0.9969028830528259,0.0,0.0,0.0,-11.8670015335083,6.0593791007995605,1.0410436391830444,2147.95068359375,0
1433.4809999999998,-0.0019565883558243513,-0.01942840777337551,0.00012575283471960574,0.0,0.0,0.0,0.0,-0.004139159806072712,-0.004187221638858318,-0.001029112609103322,0.9995923042297363,0.0,0.0,0.0,-11.855360984802246,6.054120063781738,1.0357619524002075,2145.84375,0
1443.3649999999998,-0.0019755782559514046,-0.019418030977249146,0.00015933610848151147,0.0,0.0,0.0,0.0,0.00024034948728512973,0.004326566122472286,-0.001592175685800612,0.9989925026893616,0.0,0.0,0.0,-11.855887413024902,6.0630388259887695,1.0132622718811035,2145.93896484375,0
1453.25,-0.0019548386335372925,-0.019449874758720398,0.00016142104868777096,0.0,0.0,0.0,0.0,0.0008648938965052366,-0.0026747151277959347,0.0013447878882288933,0.999012291431427,0.0,0.0,0.0,-11.84437370300293,6.055881977081299,1.0138026475906372,2143.85498046875,0
1463.137999999999,-0.001971483463421464,-0.019431106746196747,0.00019333303498569876,0.0,0.0,0.0,0.0,-0.0012716376222670078,-0.0005210796371102333,0.001732944743707776,1.0009219646453857,0.0,0.0,0.0,-11.846302032470703,6.066738605499268,1.0069856643676758,2144.204345703125,0
1473.0259999999998,-0.0019557401537895203,-0.019463030621409416,0.00019703824364114553,0.0,0.0,0.0,0.0,0.0012868318008258939,0.003984577022492886,-0.0003665949043352157,0.9993257522583008,0.0,0.0,0.0,-11.834105491638184,6.060824394226074,1.0058025121688843,2141.99658203125,0
1482.914999999999,-0.0019404679769650102,-0.01949664019048214,0.00020114176732022315,0.0,0.0,0.0,0.0,-0.0024918364360928535,-0.006658860947936773,0.002331101568415761,0.9982517957687378,0.0,0.0,0.0,-11.821891784667969,6.051316261291504,1.0058037042617798,2139.7861328125,0
1492.795,-0.001925398362800479,-0.019531134516000748,0.00020468678849283606,0.0,0.0,0.0,0.0,-0.0015269628493115306,-0.002417976036667824,0.0033893564250320196,0.9990032315254211,0.0,0.0,0.0,-11.810277938842773,6.042924880981445,1.001280665397644,2137.683837890625,0
1502.6799999999985,-0.0019107540138065815,-0.019566979259252548,0.00020713901903945953,0.0,0.0,0.0,0.0,-0.0028288881294429302,-0.002909722737967968,-0.001601802883669734,0.9996520280838013,0.0,0.0,0.0,-11.798569679260254,6.038110733032227,1.0066227912902832,2135.564697265625,0
1512.566999999999,-0.0018963756738230586,-0.01960485801100731,0.00020907762518618256,0.0,0.0,0.0,0.0,0.002603564178571105,0.004325743764638901,-0.000516196247190237,1.0013045072555542,0.0,0.0,0.0,-11.786079406738281,6.036911487579346,1.0147303342819214,2133.303955078125,0
1522.4519999999993,-0.002331174910068512,-0.019406544044613838,-4.018701292807236e-05,0.0,0.0,0.0,0.0,-0.0012508347863331437,-0.002022016094997525,0.0014359155902639031,1.001147985458374,0.0,0.0,0.0,-11.809680938720703,6.065125942230225,0.9417118430137634,2137.575927734375,0
1532.3409999999985,-0.002335847821086645,-0.019433820620179176,-4.4231397623661906e-05,0.0,0.0,0.0,0.0,0.0012305682757869363,-0.003045228309929371,-0.0023972957860678434,1.002173900604248,0.0,0.0,0.0,-11.797112464904785,6.061425685882568,0.9493350982666016,2135.301025390625,0
1542.2249999999985,-0.0023650494404137135,-0.0194154754281044,-4.277587322576437e-06,0.0,0.0,0.0,0.0,-9.029264765558764e-05,0.0009362557320855558,0.005131965968757868,1.000497817993164,0.0,0.0,0.0,-11.817193984985352,6.0755133628845215,0.9448490142822266,2138.935546875,0
1552.110999999999,-0.00237125507555902,-0.019442744553089142,-2.5272247512475587e-06,0.0,0.0,0.0,0.0,0.0011159478453919291,0.0016687476309016347,0.001113828388042748,1.0015294551849365,0.0,0.0,0.0,-11.804614067077637,6.065743446350098,0.946212112903595,2136.65869140625,0
1561.9969999999994,-0.002376366639509797,-0.0194199550896883,3.2972340704873204e-05,0.0,0.0,0.0,0.0,-0.0018982086330652237,-0.0024892855435609818,-0.001559489406645298,0.9992358684539795,0.0,0.0,0.0,-11.830758094787598,6.069957733154297,0.935881495475769,2141.390869140625,0
1571.884,-0.0023821641225367785,-0.019448675215244293,3.9106846088543534e-05,0.0,0.0,0.0,0.0,9.361887350678444e-05,-0.0016896349843591452,-0.00046535450383089483,0.9978854656219482,0.0,0.0,0.0,-11.81857967376709,6.064882755279541,0.9340981245040894,2139.186279296875,0
1581.7689999999984,-0.002387536456808448,-0.019446300342679024,6.166892853798345e-05,0.0,0.0,0.0,0.0,-0.0020785685628652573,0.0031234114430844784,0.0014702209737151861,0.9968358874320984,0.0,0.0,0.0,-11.843465805053711,6.072503089904785,0.9472212195396423,2143.690673828125,0
1591.6569999999992,-0.00239229341968894,-0.019478198140859604,6.714283517794684e-05,0.0,0.0,0.0,0.0,-0.0027174935676157475,-0.0018641799688339233,-0.00037939753383398056,0.9979343414306641,0.0,0.0,0.0,-11.83082389831543,6.0689873695373535,0.938692569732666,2141.402587890625,0
1601.5429999999997,-0.0024147527292370796,-0.01945589669048786,9.926567872753367e-05,0.0,0.0,0.0,0.0,-0.002813620725646615,0.0028349892236292362,-0.001844172365963459,0.9995685815811157,0.0,0.0,0.0,-11.845901489257812,6.081207275390625,0.939271867275238,2144.1318359375,0
1611.4279999999999,-0.002419596305117011,-0.01948479749262333,0.00010218921670457348,0.0,0.0,0.0,0.0,0.0002680088800843805,-0.002753126434981823,0.0001955396874109283,1.001382827758789,0.0,0.0,0.0,-11.834394454956055,6.07616662979126,0.9274365901947021,2142.048828125,0
1621.3220000000001,-0.0024524966720491648,-0.019467903301119804,0.00013316822878550738,0.0,0.0,0.0,0.0,-0.0003913426189683378,-0.0005437138606794178,-7.202404231065884e-05,0.9998880624771118,0.0,0.0,0.0,-11.849825859069824,6.088028430938721,0.9274762272834778,2144.842041015625,0
1631.208999999999,-0.002456124871969223,-0.019494740292429924,0.0001389824756188318,0.0,0.0,0.0,0.0,0.0014461118262261152,-0.0009015334653668106,0.00036579513107426465,0.9963042140007019,0.0,0.0,0.0,-11.837124824523926,6.082581996917725,0.9238413572311401,2142.54296875,0
1641.0900000000001,-0.0024441799614578485,-0.01947416178882122,0.000175346591277048,0.0,0.0,0.0,0.0,-0.0004369744856376201,-0.0025077189784497023,0.0015680063515901566,0.9974813461303711,0.0,0.0,0.0,-11.860114097595215,6.099841117858887,0.9304425120353699,2146.7041015625,0
1650.9809999999998,-0.00244879350066185,-0.01950044557452202,0.0001813003036659211,0.0,0.0,0.0,0.0,-0.001342184143140912,0.0017948562745004892,0.002868780866265297,0.9981712102890015,0.0,0.0,0.0,-11.8485689163208,6.089641094207764,0.9293000102043152,2144.614501953125,0
1660.8649999999998,-0.002525405492633581,-0.01947304978966713,0.0002193034888477996,0.0,0.0,0.0,0.0,-0.0009798151440918446,-0.006100124213844538,0.00024821379338391125,0.998970627784729,0.0,0.0,0.0,-11.867151260375977,6.110982894897461,0.9296908378601074,2147.977783203125,0
1670.75,-0.0025297373067587614,-0.019498661160469055,0.00022404694755095989,0.0,0.0,0.0,0.0,-0.0005942766438238323,-0.0005219864542596042,-0.0031789604108780622,0.999396026134491,0.0,0.0,0.0,-11.855849266052246,6.109528541564941,0.9388518929481506,2145.93212890625,0
1680.6509999999998,-0.002519009867683053,-0.0194590762257576,0.00027569421217776835,0.0,0.0,0.0,0.0,-0.0007837357115931809,0.006520747672766447,0.00042617920553311706,0.9996950626373291,0.0,0.0,0.0,-11.876510620117188,6.1402387619018555,0.9477978944778442,2149.671875,0
1690.5289999999986,-0.0025191225577145815,-0.019481226801872253,0.00028363699675537646,0.0,0.0,0.0,0.0,0.004391709342598915,0.0013226910959929228,-0.00099573889747262,1.001113772392273,0.0,0.0,0.0,-11.865897178649902,6.127842903137207,0.9329934120178223,2147.750732421875,0
1700.411,-0.0025183483958244324,-0.01945379562675953,0.00032583551364950836,0.0,0.0,0.0,0.0,0.0018831533379852772,0.006444265600293875,-0.0006537404260598123,0.9983766078948975,0.0,0.0,0.0,-11.87850284576416,6.145087242126465,0.9398069977760315,2150.032470703125,0
1710.2889999999989,-0.002507922239601612,-0.019473912194371223,0.0003409129858482629,0.0,0.0,0.0,0.0,0.0012363201240077615,-0.0022655047941952944,0.0028673906344920397,0.997582733631134,0.0,0.0,0.0,-11.897703170776367,6.134949207305908,0.9242253303527832,2153.5078125,0
1720.182999999999,-0.0024149257224053144,-0.01925249956548214,-0.00017785339150577784,0.0,0.0,0.0,0.0,0.0008317919564433396,-0.0012358319945633411,-0.001937759923748672,0.9998351335525513,0.0,0.0,0.0,-11.895729064941406,6.182971954345703,0.9162676334381104,2153.150390625,0
1730.062,-0.0023247068747878075,-0.01930721290409565,-0.0001189693357446231,0.0,0.0,0.0,0.0,-0.004686078056693077,0.000559753505513072,0.0007193408673629165,0.999869167804718,0.0,0.0,0.0,-11.911323547363281,6.17050838470459,0.9332275390625,2155.973388671875,0
1739.9579999999987,-0.002317574108019471,-0.019274240359663963,-0.00011941414413740858,0.0,0.0,0.0,0.0,0.0011825092369690537,0.007355412468314171,-0.003135268110781908,0.9991843104362488,0.0,0.0,0.0,-11.911624908447266,6.174124240875244,0.9283900260925293,2156.02783203125,0
1749.8439999999991,-0.0023381018545478582,-0.019291426986455917,-0.00011071432527387515,0.0,0.0,0.0,0.0,-0.0013444524956867099,0.0030101179145276546,-0.00033009645994752645,0.9994121789932251,0.0,0.0,0.0,-11.925424575805664,6.1664509773254395,0.9135596752166748,2158.525634765625,0
1759.7289999999994,-0.002338683232665062,-0.019283391535282135,-0.0001014112785924226,0.0,0.0,0.0,0.0,-0.0016196835786104202,0.0030116429552435875,-0.0006056354031898081,1.0020760297775269,0.0,0.0,0.0,-11.923945426940918,6.170007228851318,0.9066334962844849,2158.258056640625,0
1769.6099999999988,-0.00228731706738472,-0.01933390647172928,-8.368012640858069e-05,0.0,0.0,0.0,0.0,0.0016021344345062971,-0.0012999838218092918,-0.0006421710713766515,1.0001757144927979,0.0,0.0,0.0,-11.935308456420898,6.164918422698975,0.9084511995315552,2160.314453125,0
1779.5,-0.0022909166291356087,-0.019330214709043503,-6.736165232723579e-05,0.0,0.0,0.0,0.0,-0.00017356665921397507,-0.004439567681401968,-0.001972893951460719,0.9991609454154968,0.0,0.0,0.0,-11.932818412780762,6.159245014190674,0.9045730233192444,2159.86376953125,0
1789.3819999999996,-0.002328176749870181,-0.019342966377735138,-6.045261034159921e-05,0.0,0.0,0.0,0.0,0.0021172764245420694,-0.004197403788566589,0.0014775176532566547,0.9973354339599609,0.0,0.0,0.0,-11.941551208496094,6.152813911437988,0.9139797687530518,2161.444580078125,0
1799.2729999999992,-0.0023669812362641096,-0.01938241720199585,-1.1801554137491621e-05,0.0,0.0,0.0,0.0,-0.002187465550377965,0.0022944121155887842,0.0006522003677673638,0.9959280490875244,0.0,0.0,0.0,-11.940369606018066,6.1442060470581055,0.9060935378074646,2161.230712890625,0
1809.1539999999986,-0.0024135170970112085,-0.019344011321663857,1.3532114280678798e-05,0.0,0.0,0.0,0.0,-0.0012625454692170024,-0.001247550593689084,0.00158083182759583,0.9986438155174255,0.0,0.0,0.0,-11.952070236206055,6.140148639678955,0.894513726234436,2163.348388671875,0
1819.0499999999993,-0.002367878332734108,-0.01928781159222126,-1.648612305871211e-05,0.0,0.0,0.0,0.0,0.0016407961957156658,-0.0027427261229604483,-0.0011332507710903883,1.0005385875701904,0.0,0.0,0.0,-11.94548225402832,6.152624130249023,0.9025325179100037,2162.156005859375,0
1828.9229999999989,-0.002435701433569193,-0.01927397958934307,-1.0356636266806163e-05,0.0,0.0,0.0,0.0,0.0014264697674661875,0.0001316858979407698,0.00029546694713644683,0.9985339641571045,0.0,0.0,0.0,-11.95413875579834,6.14911413192749,0.8931025862693787,2163.722900390625,0
1838.8269999999993,-0.002405346604064107,-0.01925521157681942,-3.937976362067275e-05,0.0,0.0,0.0,0.0,0.0020116257946938276,-0.0017925594002008438,0.002556866267696023,1.0012948513031006,0.0,0.0,0.0,-11.949336051940918,6.146854400634766,0.9021356105804443,2162.853759765625,0
1848.6970000000001,-0.002439601346850395,-0.019306093454360962,-4.6024528273846954e-05,0.0,0.0,0.0,0.0,-0.0009355921647511423,0.005021851975470781,-0.0029978114180266857,0.9998833537101746,0.0,0.0,0.0,-11.96378231048584,6.133379936218262,0.9030759334564209,2165.468505859375,0
1858.6009999999987,-0.002366849919781089,-0.019230645149946213,-0.00011175408872077242,0.0,0.0,0.0,0.0,-0.0005000100936740637,0.0023314179852604866,0.0012741565005853772,1.0006321668624878,0.0,0.0,0.0,-11.95975112915039,6.140608310699463,0.9072172045707703,2164.73876953125,0
1868.467999999999,-0.0024277823977172375,-0.019272301346063614,-0.00012696094927378,0.0,0.0,0.0,0.0,-0.0004487546975724399,-0.000478492263937369,-0.0031226191204041243,1.001263976097107,0.0,0.0,0.0,-11.975326538085938,6.138803958892822,0.9011169672012329,2167.55810546875,0
1878.3719999999994,-0.002378087490797043,-0.019242659211158752,-0.0001817109587136656,0.0,0.0,0.0,0.0,-0.0012075254926458001,-0.0012245596153661609,0.00036736243055202067,1.0002657175064087,0.0,0.0,0.0,-11.963189125061035,6.13249397277832,0.9055760502815247,2165.36083984375,0
1888.2469999999994,-0.0024815076030790806,-0.01923247054219246,-0.00019546158728189766,0.0,0.0,0.0,0.0,-0.0032515174243599176,-0.004026326816529036,0.0026757605373859406,0.9995957016944885,0.0,0.0,0.0,-11.967466354370117,6.131737232208252,0.8884439468383789,2166.135009765625,0
1898.1419999999998,-0.0024737808853387833,-0.01920856535434723,-0.00020403075905051082,0.0,0.0,0.0,0.0,0.000255961058428511,0.0013462008209899068,0.001705310307443142,0.9993239045143127,0.0,0.0,0.0,-11.962586402893066,6.139694690704346,0.9069850444793701,2165.251953125,0
1908.0139999999992,-0.00243116682395339,-0.019259672611951828,-0.00019620981765910983,0.0,0.0,0.0,0.0,-0.0022579405922442675,0.0028010192327201366,0.0007018650649115443,0.9971901774406433,0.0,0.0,0.0,-11.970407485961914,6.139098167419434,0.9241281151771545,2166.667724609375,0
1917.9069999999992,-0.0024352865293622017,-0.01925736479461193,-0.0001942158560268581,0.0,0.0,0.0,0.0,0.000801587535534054,-0.0019849997479468584,-0.0013339954894036055,0.9979588389396667,0.0,0.0,0.0,-11.96693229675293,6.13515567779541,0.9219682216644287,2166.038330078125,0
1927.7869999999984,-0.0024157536681741476,-0.019252454861998558,-0.0001750646042637527,0.0,0.0,0.0,0.0,-0.0013596155913546681,-0.004732336848974228,0.0014067802112549543,0.99964439868927,0.0,0.0,0.0,-11.97270393371582,6.135892391204834,0.9317390322685242,2167.0830078125,0
1937.6859999999997,-0.0024255472235381603,-0.019261598587036133,-0.00017080148973036557,0.0,0.0,0.0,0.0,9.355881775263697e-05,-0.00023267279902938753,0.0010555739281699061,1.0004537105560303,0.0,0.0,0.0,-11.971013069152832,6.129213809967041,0.9302558898925781,2166.77734375,0
1947.566999999999,-0.002360044978559017,-0.01928585022687912,-0.0001422678178641945,0.0,0.0,0.0,0.0,-0.002892895368859172,-0.004024853929877281,-0.004856760613620281,1.000006079673767,0.0,0.0,0.0,-11.984023094177246,6.127845764160156,0.9432992935180664,2169.1318359375,0
1957.4650000000001,-0.002364440355449915,-0.019273394718766212,-0.0001294848188990727,0.0,0.0,0.0,0.0,-0.0015176491579040885,0.003555833362042904,-0.0002791820443235338,0.9991009831428528,0.0,0.0,0.0,-11.972537994384766,6.130425930023193,0.9504321813583374,2167.052978515625,0
1967.3319999999985,-0.0023839320056140423,-0.01926853321492672,-0.00010827425285242498,0.0,0.0,0.0,0.0,0.003109885845333338,-0.0022749644704163074,-0.0001563032710691914,0.9987427592277527,0.0,0.0,0.0,-11.98508358001709,6.1347527503967285,0.9494755268096924,2169.32373046875,0
1977.2309999999998,-0.002383226528763771,-0.019266581162810326,-9.959324961528182e-05,0.0,0.0,0.0,0.0,-0.002580386120826006,0.003974547144025564,-0.0008822918753139675,0.9998147487640381,0.0,0.0,0.0,-11.973377227783203,6.128804683685303,0.9543399214744568,2167.205078125,0
1987.1039999999994,-0.002357354387640953,-0.019331753253936768,-9.418711852049455e-05,0.0,0.0,0.0,0.0,-0.0011262402404099703,-0.0025508382823318243,0.003673029597848654,0.9989975690841675,0.0,0.0,0.0,-11.978530883789062,6.12590217590332,0.9631047248840332,2168.1376953125,0
1996.9979999999996,-0.0023729740642011166,-0.019330989569425583,-6.360020051943138e-05,0.0,0.0,0.0,0.0,-0.004154460970312357,-0.0029266555793583393,-0.0006827902980148792,1.0009825229644775,0.0,0.0,0.0,-11.966348648071289,6.117823123931885,0.9719128608703613,2165.932861328125,0
2006.8739999999998,-0.0024100951850414276,-0.019323261454701424,-4.6429508074652404e-05,0.0,0.0,0.0,0.0,-0.0012142322957515717,0.002705066930502653,0.0007305384497158229,0.9999227523803711,0.0,0.0,0.0,-11.970842361450195,6.128547668457031,0.9744030237197876,2166.74609375,0
2016.7739999999994,-0.002380998572334647,-0.01928715407848358,-6.140716141089797e-05,0.0,0.0,0.0,0.0,-0.0017416204791516066,0.00028941238997504115,0.0025463872589170933,0.9972792267799377,0.0,0.0,0.0,-11.957863807678223,6.1259565353393555,0.9729646444320679,2164.39697265625,0
2026.655999999999,-0.0024146800860762596,-0.019294830039143562,-5.076783418189734e-05,0.0,0.0,0.0,0.0,0.0036689136177301407,-0.00040309809264726937,-0.000580203253775835,0.9982512593269348,0.0,0.0,0.0,-11.961713790893555,6.1265106201171875,0.9652758240699768,2165.093994140625,0
2036.545,-0.0023965672589838505,-0.019283875823020935,-5.9907688410021365e-05,0.0,0.0,0.0,0.0,-0.0013279328122735023,-0.002314511453732848,0.0012622851645573974,0.999274730682373,0.0,0.0,0.0,-11.957062721252441,6.124195575714111,0.9791570901870728,2164.252197265625,0
2046.4259999999995,-0.002410444663837552,-0.019297616556286812,-4.7625293518649414e-05,0.0,0.0,0.0,0.0,0.0014038062654435635,0.004389595706015825,-0.002624829299747944,0.9976673722267151,0.0,0.0,0.0,-11.962267875671387,6.122426986694336,0.9831346273422241,2165.1943359375,0
2056.3139999999985,-0.0023370389826595783,-0.019223708659410477,-0.00010406153160147369,0.0,0.0,0.0,0.0,0.0024847034364938736,0.002267473144456744,0.0013233827194198966,0.9985148906707764,0.0,0.0,0.0,-11.957890510559082,6.131579399108887,0.9947319626808167,2164.40185546875,0
2066.1929999999993,-0.002402764279395342,-0.019274231046438217,-0.00012498621072154492,0.0,0.0,0.0,0.0,0.0036788126453757286,0.0008606635965406895,0.0018830959452316165,0.9981499314308167,0.0,0.0,0.0,-11.965641975402832,6.120037078857422,0.9809252023696899,2165.80517578125,0
2076.092999999999,-0.0023417489137500525,-0.01922391541302204,-0.0001793652045307681,0.0,0.0,0.0,0.0,-0.0006445831386372447,-0.005288454703986645,0.0029482380487024784,0.9988110065460205,0.0,0.0,0.0,-11.961372375488281,6.121370315551758,0.9810281991958618,2165.0322265625,0
2085.964,-0.0023799994960427284,-0.019248776137828827,-0.00019655814685393125,0.0,0.0,0.0,0.0,-0.00047816222649998963,-0.003586229868233204,0.0010436098091304302,0.999688982963562,0.0,0.0,0.0,-11.963128089904785,6.1190996170043945,0.9895955920219421,2165.35009765625,0
2095.865,-0.0023491247557103634,-0.019216153770685196,-0.00022445220383815467,0.0,0.0,0.0,0.0,0.0018592883134260774,0.0044510201551020145,-0.0008911181939765811,0.9991509318351746,0.0,0.0,0.0,-11.95974063873291,6.125744819641113,0.9945624470710754,2164.737060546875,0
2105.736999999999,-0.00245156092569232,-0.019192535430192947,-0.0002427652507321909,0.0,0.0,0.0,0.0,4.2758161725942045e-05,-0.000833174679428339,0.005359813570976257,0.9989848732948303,0.0,0.0,0.0,-11.964560508728027,6.126453876495361,0.9840293526649475,2165.609130859375,0
2115.6319999999996,-0.0024223027285188437,-0.019165776669979095,-0.000276020698947832,0.0,0.0,0.0,0.0,-0.00019807397620752454,0.004507836885750294,-0.003594798967242241,1.0007407665252686,0.0,0.0,0.0,-11.959996223449707,6.126132488250732,0.9842111468315125,2164.783203125,0
2125.511999999999,-0.002403135411441326,-0.019220516085624695,-0.000292059761704877,0.0,0.0,0.0,0.0,0.002596610924229026,0.0016324842581525445,0.0009770119795575738,0.9974687099456787,0.0,0.0,0.0,-11.966778755187988,6.117434501647949,0.9924777150154114,2166.010986328125,0
2135.404999999999,-0.002419355558231473,-0.019199559465050697,-0.0002699251053854823,0.0,0.0,0.0,0.0,-0.0027673072181642056,0.0005394258769229054,3.139511318295263e-05,0.999742329120636,0.0,0.0,0.0,-11.961051940917969,6.117740154266357,0.9774618744850159,2164.974365234375,0
