timestamp,stateEstimate.x,stateEstimate.y,stateEstimate.z,controller.cmd_thrust,controller.cmd_roll,controller.cmd_pitch,controller.cmd_yaw,controller.r_roll,controller.r_pitch,controller.r_yaw,controller.accelz,controller.actuatorThrust,controller.roll,controller.pitch,controller.yaw,controller.rollRate,controller.pitchRate,controller.yawRate,controller.ctr_yaw
0.0,0.019421830773353577,0.03287564218044281,-0.00018845319573301822,0.0,0.0,0.0,0.0,0.004509489983320236,0.0024835735093802214,-0.0003170396666973829,0.9996623992919922,0.0,0.0,0.0,-61.54631805419922,2.7584736347198486,3.2450950145721436,11140.0068359375,0
9.906999999999243,0.019405316561460495,0.03292755037546158,-0.00020088364544790238,0.0,0.0,0.0,0.0,-0.00014303332136478275,-0.0006181821809150279,-0.0023912894539535046,0.998037576675415,0.0,0.0,0.0,-61.48738098144531,2.75451922416687,3.246187686920166,11129.337890625,0
19.813000000000102,0.01923397183418274,0.033020876348018646,-0.00013002842024434358,0.0,0.0,0.0,0.0,0.001715485705062747,-0.0005187122733332217,0.0011020705569535494,0.9997118711471558,0.0,0.0,0.0,-61.59208679199219,2.7738852500915527,3.227872848510742,11148.2900390625,0
29.722999999999956,0.019217681139707565,0.03308103606104851,-0.00013971047883387655,0.0,0.0,0.0,0.0,0.0004705388273578137,-0.0018880788702517748,-0.0028158952482044697,0.9996088147163391,0.0,0.0,0.0,-61.53398895263672,2.7704906463623047,3.225571632385254,11137.7744140625,0
39.634000000000015,0.01926693692803383,0.03315453231334686,-0.00012307440920267254,0.0,0.0,0.0,0.0,0.0002883926499634981,0.00873409304767847,0.0011713410494849086,0.9979164600372314,0.0,0.0,0.0,-61.6348876953125,2.802100658416748,3.2313060760498047,11156.0380859375,0
49.54700000000048,0.019251449033617973,0.033217109739780426,-0.0001319925213465467,0.0,0.0,0.0,0.0,-0.00010446184751344845,0.0008039379608817399,-0.002315786899998784,1.0010154247283936,0.0,0.0,0.0,-61.57590103149414,2.7964887619018555,3.231151819229126,11145.3603515625,0
59.451999999999316,0.01930336095392704,0.03322963789105415,-0.00019971623260062188,0.0,0.0,0.0,0.0,-0.00022473704302683473,0.0034117542672902346,-0.0020843190141022205,1.0002920627593994,0.0,0.0,0.0,-61.673927307128906,2.8206045627593994,3.2479407787323,11163.103515625,0
69.36299999999937,0.019290786236524582,0.033293191343545914,-0.00021265669784042984,0.0,0.0,0.0,0.0,-0.0010212691267952323,-0.0018402034183964133,-0.0054832082241773605,0.9988040924072266,0.0,0.0,0.0,-61.6160888671875,2.818031072616577,3.245166301727295,11152.6337890625,0
79.28199999999924,0.019338205456733704,0.03335072100162506,-0.00025318111875094473,0.0,0.0,0.0,0.0,0.00039802922401577234,-0.0013180181849747896,0.0021980181336402893,0.9997891187667847,0.0,0.0,0.0,-61.7090950012207,2.851686954498291,3.2553160190582275,11169.46875,0
89.1880000000001,0.019328778609633446,0.03341713920235634,-0.000267154275206849,0.0,0.0,0.0,0.0,-0.0022424892522394657,0.009758226573467255,-0.0019061744678765535,1.000016450881958,0.0,0.0,0.0,-61.65028762817383,2.846144676208496,3.253183603286743,11158.82421875,0
99.10200000000077,0.019334614276885986,0.03344162553548813,-0.0003388823242858052,0.0,0.0,0.0,0.0,-0.0033477754332125187,-0.0008583753951825202,-0.0008086577872745693,0.9991079568862915,0.0,0.0,0.0,-61.74181365966797,2.8675644397735596,3.27514386177063,11175.3916015625,0
109.0059999999994,0.019328827038407326,0.03350751847028732,-0.0003570395056158304,0.0,0.0,0.0,0.0,0.0005056805675849319,-0.0011099003022536635,-0.0028854787815362215,1.0006070137023926,0.0,0.0,0.0,-61.68267059326172,2.864001750946045,3.2571516036987305,11164.685546875,0
118.91799999999967,0.019423041492700577,0.03353693708777428,-0.0004240206617396325,0.0,0.0,0.0,0.0,2.457002665323671e-05,-0.0018811554182320833,-0.0014127162285149097,0.9998761415481567,0.0,0.0,0.0,-61.77174377441406,2.9011707305908203,3.3006324768066406,11180.8095703125,0
128.82999999999993,0.019421355798840523,0.03360253944993019,-0.00044525155681185424,0.0,0.0,0.0,0.0,-0.000486027478473261,-8.945661829784513e-05,0.0030959087889641523,0.9989861845970154,0.0,0.0,0.0,-61.71406936645508,2.896481513977051,3.302495002746582,11170.369140625,0
138.73999999999978,0.01945808343589306,0.03361033275723457,-0.0005318807088769972,0.0,0.0,0.0,0.0,-0.0005560514400713146,-0.0008707756642252207,-0.0011103157885372639,0.9982420206069946,0.0,0.0,0.0,-61.797752380371094,2.9155960083007812,3.3452341556549072,11185.5166015625,0
148.64799999999923,0.019459661096334457,0.03367254510521889,-0.0005586316110566258,0.0,0.0,0.0,0.0,0.0009058252908289433,0.0004064865643158555,-0.0014609318459406495,1.000229001045227,0.0,0.0,0.0,-61.73931884765625,2.9093852043151855,3.341742992401123,11174.9384765625,0
158.5589999999993,0.01948953978717327,0.03366886079311371,-0.0006562247290275991,0.0,0.0,0.0,0.0,-0.0033267326653003693,-0.0006699852528981864,-0.000961253943387419,0.9990543127059937,0.0,0.0,0.0,-61.82396697998047,2.924532890319824,3.381484270095825,11190.2607421875,0
168.47700000000077,0.01924070157110691,0.033040937036275864,0.00032036975608207285,0.0,0.0,0.0,0.0,0.00021704353275708854,0.004555059596896172,0.0006617887411266565,1.0001780986785889,0.0,0.0,0.0,-61.828651428222656,2.818779706954956,3.4997739791870117,11191.109375,0
178.3829999999998,0.01923190802335739,0.032975297421216965,0.0004311437951400876,0.0,0.0,0.0,0.0,-0.004073659423738718,0.0022498872131109238,0.0016483848448842764,0.9992020726203918,0.0,0.0,0.0,-61.908573150634766,2.853698492050171,3.53084397315979,11205.5751953125,0
188.29700000000048,0.019234826788306236,0.032998401671648026,0.0004377185832709074,0.0,0.0,0.0,0.0,0.0032027969136834145,0.0014951295452192426,0.0025831826496869326,0.9972559213638306,0.0,0.0,0.0,-61.849205017089844,2.8547885417938232,3.527824878692627,11194.8291015625,0
198.1929999999993,0.019253922626376152,0.03298052400350571,0.00046382503933273256,0.0,0.0,0.0,0.0,-0.0007940325886011124,0.0003413009690120816,0.0002893650671467185,0.9995121955871582,0.0,0.0,0.0,-61.927059173583984,2.880415678024292,3.551039457321167,11208.9208984375,0
208.10699999999997,0.019270388409495354,0.03284987062215805,0.00036702517536468804,0.0,0.0,0.0,0.0,0.0019703146535903215,0.00027598635642789304,0.00020139434491284192,0.999881386756897,0.0,0.0,0.0,-61.92707443237305,2.8739078044891357,3.5569889545440674,11208.923828125,0
218.01900000000023,0.019226117059588432,0.03284892812371254,0.0004611338081303984,0.0,0.0,0.0,0.0,-0.00017682250472716987,0.0019992494489997625,0.0035390430130064487,0.9998970031738281,0.0,0.0,0.0,-61.99946212768555,2.9041759967803955,3.56925368309021,11222.0263671875,0
227.9439999999995,0.01930423639714718,0.03280212730169296,0.00030212834826670587,0.0,0.0,0.0,0.0,-0.00064854632364586,-0.004568189848214388,-0.0005174867692403495,0.9978131651878357,0.0,0.0,0.0,-61.99228286743164,2.90095591545105,3.574690818786621,11220.7275390625,0
237.83799999999974,0.019270747900009155,0.032815951853990555,0.0003845988248940557,0.0,0.0,0.0,0.0,0.0004668260517064482,0.0006828851765021682,0.00033240101765841246,0.996757984161377,0.0,0.0,0.0,-62.05479049682617,2.925539970397949,3.5727052688598633,11232.041015625,0
247.7549999999992,0.01932089775800705,0.032721154391765594,0.00027732475427910686,0.0,0.0,0.0,0.0,-0.0018402832793071866,0.002004839014261961,4.0690687455935404e-05,0.9982019662857056,0.0,0.0,0.0,-62.05423355102539,2.9330573081970215,3.5858280658721924,11231.939453125,0
257.65600000000086,0.01929355598986149,0.03276039659976959,0.0003529149398673326,0.0,0.0,0.0,0.0,0.0016392698744311929,-0.004419074393808842,0.0005974670639261603,0.9989339709281921,0.0,0.0,0.0,-62.11274719238281,2.950650691986084,3.5833425521850586,11242.53125,0
267.5789999999997,0.01936674490571022,0.03272140026092529,0.0002425386046525091,0.0,0.0,0.0,0.0,0.0010071218712255359,-0.0013736942782998085,0.0002439146483084187,0.999174177646637,0.0,0.0,0.0,-62.10421371459961,2.956141471862793,3.598391056060791,11240.9853515625,0
277.47700000000077,0.019232260063290596,0.03281610459089279,0.00030186265939846635,0.0,0.0,0.0,0.0,2.1009949705330655e-05,-0.0023062049876898527,-0.0002294901933055371,1.0001952648162842,0.0,0.0,0.0,-62.15753936767578,2.9764018058776855,3.593191385269165,11250.6376953125,0
287.40600000000086,0.01927436701953411,0.0327000729739666,0.0002041809493675828,0.0,0.0,0.0,0.0,-0.0003955849970225245,-0.0007347971550188959,-0.0009441647562198341,0.9994763731956482,0.0,0.0,0.0,-62.14705276489258,2.9746780395507812,3.6004815101623535,11248.7392578125,0
297.2999999999993,0.019341913983225822,0.03272248059511185,0.0002896264777518809,0.0,0.0,0.0,0.0,0.0018177699530497193,0.0027630741242319345,-0.0006213090964592993,0.9983471632003784,0.0,0.0,0.0,-62.194393157958984,3.0144519805908203,3.618389368057251,11257.30859375,0
307.21800000000076,0.019354579970240593,0.0325607992708683,0.00023153229267336428,0.0,0.0,0.0,0.0,0.0020990849006921053,0.002871850738301873,-0.0002207998331869021,1.0004725456237793,0.0,0.0,0.0,-62.182823181152344,3.006058692932129,3.6261146068573,11255.2138671875,0
317.1239999999998,0.01927594467997551,0.032677602022886276,0.00032361247576773167,0.0,0.0,0.0,0.0,0.00039258209289982915,-0.0009490010561421514,-0.0006504597258754075,0.9999964237213135,0.0,0.0,0.0,-62.23098373413086,3.0334134101867676,3.615936517715454,11263.931640625,0
327.03900000000067,0.019315047189593315,0.03256973624229431,0.00025371191441081464,0.0,0.0,0.0,0.0,3.4200023947050795e-05,0.004747986327856779,-0.001255686511285603,0.9982463717460632,0.0,0.0,0.0,-62.206298828125,3.0296995639801025,3.626641273498535,11259.4638671875,0
336.9410000000007,0.01925373449921608,0.03272033855319023,0.0003705474955495447,0.0,0.0,0.0,0.0,-0.0023428043350577354,6.748099258402362e-05,-0.004812149330973625,0.9983989596366882,0.0,0.0,0.0,-62.25227355957031,3.0616509914398193,3.614257335662842,11267.78515625,0
346.86199999999917,0.01930186338722706,0.03260164335370064,0.0002889519091695547,0.0,0.0,0.0,0.0,0.0005077157402411103,-0.00079614162677899,0.0015016485704109073,0.9990173578262329,0.0,0.0,0.0,-62.23095703125,3.0655550956726074,3.6241233348846436,11263.9267578125,0
356.76300000000083,0.01927671954035759,0.032752715051174164,0.00041346807847730815,0.0,0.0,0.0,0.0,-0.0006267506396397948,0.0065987068228423595,0.0025918541941791773,1.000523328781128,0.0,0.0,0.0,-62.273155212402344,3.100986957550049,3.620204210281372,11271.5654296875,0
366.6939999999995,0.019361579790711403,0.032677747309207916,0.0002976393443532288,0.0,0.0,0.0,0.0,-7.829195237718523e-05,0.002882330445572734,-0.00020781780767720193,1.0000895261764526,0.0,0.0,0.0,-62.258548736572266,3.101952075958252,3.6189074516296387,11268.921875,0
376.58599999999933,0.019247546792030334,0.0328308567404747,0.00039301018114201725,0.0,0.0,0.0,0.0,0.0008724121726118028,0.001642627757973969,-0.0030771244782954454,0.999596357345581,0.0,0.0,0.0,-62.29826736450195,3.121798276901245,3.6021265983581543,11276.111328125,0
386.5010000000002,0.019329192116856575,0.032734524458646774,0.00027812470216304064,0.0,0.0,0.0,0.0,-0.0006601012428291142,-0.001304239733144641,0.0019129767315462232,1.0004467964172363,0.0,0.0,0.0,-62.28265380859375,3.120133638381958,3.6104745864868164,11273.28515625,0
396.41400000000067,0.01927570439875126,0.03283572942018509,0.00037042328040115535,0.0,0.0,0.0,0.0,0.0026232909876853228,-0.004823003895580769,0.0004793821135535836,0.9985572695732117,0.0,0.0,0.0,-62.3226318359375,3.1517481803894043,3.6051149368286133,11280.5205078125,0
406.3279999999995,0.01935412921011448,0.03274104371666908,0.00026870466535910964,0.0,0.0,0.0,0.0,-0.0005491694319061935,0.003962709102779627,-0.0011870615417137742,0.9995318651199341,0.0,0.0,0.0,-62.29583740234375,3.145650863647461,3.62723708152771,11275.671875,0
416.2340000000004,0.019247792661190033,0.03282758593559265,0.0003293257614132017,0.0,0.0,0.0,0.0,-0.0006286809802986681,0.001898895832709968,0.0008041705586947501,0.9988779425621033,0.0,0.0,0.0,-62.331790924072266,3.164353370666504,3.6150875091552734,11282.1787109375,0
426.1419999999998,0.01928827166557312,0.03266177326440811,0.00026317720767110586,0.0,0.0,0.0,0.0,0.0022195770870894194,0.004603155888617039,-0.0033095511607825756,0.9995312690734863,0.0,0.0,0.0,-62.30348587036133,3.154604911804199,3.630995273590088,11277.0556640625,0
436.0519999999997,0.019213000312447548,0.03280853107571602,0.00036130205262452364,0.0,0.0,0.0,0.0,0.0029762445483356714,-0.004374324344098568,-0.00399829400703311,0.9996671080589294,0.0,0.0,0.0,-62.336585998535156,3.177375316619873,3.606920003890991,11283.0458984375,0
445.96600000000035,0.0192786306142807,0.03269485384225845,0.00028634697082452476,0.0,0.0,0.0,0.0,-0.0001372747210552916,0.0012381389969959855,0.0026386978570371866,0.9982454180717468,0.0,0.0,0.0,-62.31590270996094,3.1613054275512695,3.6297402381896973,11279.302734375,0
455.8819999999996,0.019247770309448242,0.03278297185897827,0.000367707951227203,0.0,0.0,0.0,0.0,-0.0020980993285775185,0.002806460252031684,0.003529116278514266,0.9976617097854614,0.0,0.0,0.0,-62.348304748535156,3.1901233196258545,3.6241555213928223,11285.1669921875,0
465.78600000000006,0.019317790865898132,0.03268693760037422,0.00030154475825838745,0.0,0.0,0.0,0.0,-0.0026308970991522074,-0.0035457576159387827,0.00086002959869802,0.9981912970542908,0.0,0.0,0.0,-62.31956481933594,3.18406343460083,3.628509998321533,11279.96484375,0
475.6980000000003,0.019310517236590385,0.03279390558600426,0.00039652877603657544,0.0,0.0,0.0,0.0,0.003000133903697133,0.0041224840097129345,-0.0009254318429157138,1.001443862915039,0.0,0.0,0.0,-62.35032272338867,3.220604419708252,3.625450372695923,11285.5322265625,0
485.60699999999997,0.019381575286388397,0.032690390944480896,0.0003346454759594053,0.0,0.0,0.0,0.0,0.0007878125179558992,-0.00039713236037641764,0.0012338230153545737,1.0003254413604736,0.0,0.0,0.0,-62.32090377807617,3.211318016052246,3.6279447078704834,11280.208984375,0
495.5169999999998,0.01930287294089794,0.032784540206193924,0.00040324460132978857,0.0,0.0,0.0,0.0,-0.001652825390920043,0.00028582257800735533,0.0034625749103724957,0.9980403780937195,0.0,0.0,0.0,-62.35129165649414,3.2361865043640137,3.613715410232544,11285.7080078125,0
505.4269999999997,0.0194067545235157,0.03269646316766739,0.0003034780966117978,0.0,0.0,0.0,0.0,0.0026985027361661196,0.00021289996220730245,0.0016467663226649165,0.9986886978149414,0.0,0.0,0.0,-62.331966400146484,3.2370657920837402,3.62556791305542,11282.2109375,0
515.348,0.01937124878168106,0.032758038491010666,0.0003624038945417851,0.0,0.0,0.0,0.0,-0.0011206435738131404,0.00037591744330711663,-0.00011472308688098565,0.9986456632614136,0.0,0.0,0.0,-62.36489486694336,3.2540743350982666,3.621159315109253,11288.169921875,0
525.2530000000006,0.01947181113064289,0.03266765922307968,0.0002719976764637977,0.0,0.0,0.0,0.0,-0.0014804850798100233,0.001954243518412113,-0.0046942573972046375,1.0021920204162598,0.0,0.0,0.0,-62.34366989135742,3.248696804046631,3.6386704444885254,11284.328125,0
535.1679999999997,0.01935703307390213,0.03275521099567413,0.00031039415625855327,0.0,0.0,0.0,0.0,-0.0014088843017816544,0.00891199242323637,0.001315517001785338,1.0003116130828857,0.0,0.0,0.0,-62.37611770629883,3.2659225463867188,3.6278293132781982,11290.201171875,0
545.0730000000003,0.019493278115987778,0.03272303193807602,0.00019448068633209914,0.0,0.0,0.0,0.0,0.0029634025413542986,0.002984176855534315,0.0019002672052010894,0.9993483424186707,0.0,0.0,0.0,-62.34372329711914,3.2724404335021973,3.619004249572754,11284.337890625,0
554.9869999999992,0.019408926367759705,0.0328095443546772,0.00023915435303933918,0.0,0.0,0.0,0.0,0.001537553034722805,0.0002096469106618315,-0.002834195736795664,0.999297022819519,0.0,0.0,0.0,-62.377620697021484,3.2829694747924805,3.601121425628662,11290.4736328125,0
564.8940000000002,0.01953207328915596,0.032744910567998886,0.0001374024141114205,0.0,0.0,0.0,0.0,0.003325418569147587,-0.001284247380681336,-0.00010337267303839326,0.9999598264694214,0.0,0.0,0.0,-62.358489990234375,3.2848453521728516,3.61132550239563,11287.01171875,0
574.8140000000003,0.019419098272919655,0.032890189439058304,0.00019380853336770087,0.0,0.0,0.0,0.0,-0.0015706339618191123,-0.0015876239631325006,-0.00012337247608229518,1.0003142356872559,0.0,0.0,0.0,-62.39152908325195,3.301576614379883,3.5942423343658447,11292.9921875,0
584.7180000000008,0.019513370469212532,0.032783448696136475,0.00012568080273922533,0.0,0.0,0.0,0.0,-0.000628422771114856,0.0031201541423797607,0.0017797432374209166,0.9982295036315918,0.0,0.0,0.0,-62.358543395996094,3.295182943344116,3.6115705966949463,11287.0205078125,0
594.625,0.0193573459982872,0.03290366381406784,0.000157367016072385,0.0,0.0,0.0,0.0,-0.000417449715314433,-0.0009774696081876755,-0.005955378990620375,0.9982213973999023,0.0,0.0,0.0,-62.38930892944336,3.3013598918914795,3.587402820587158,11292.5888671875,0
604.5329999999994,0.01944804936647415,0.032762352377176285,7.793341501383111e-05,0.0,0.0,0.0,0.0,8.401952072745189e-05,-0.0019676045048981905,-0.0005466307047754526,0.9994081258773804,0.0,0.0,0.0,-62.355472564697266,3.286658525466919,3.6185810565948486,11286.46484375,0
614.4549999999999,0.01936054788529873,0.03289812058210373,0.00013193317863624543,0.0,0.0,0.0,0.0,-0.0011869178852066398,-0.0010028316173702478,0.004777893889695406,1.0004459619522095,0.0,0.0,0.0,-62.38594055175781,3.3075201511383057,3.6056346893310547,11291.9794921875,0
624.3559999999998,0.019425760954618454,0.032729171216487885,8.087300375336781e-05,0.0,0.0,0.0,0.0,-0.0016786133637651801,-0.0004708982305601239,-0.0007558208308182657,1.0005507469177246,0.0,0.0,0.0,-62.36471939086914,3.291754961013794,3.633254051208496,11288.138671875,0
634.268,0.01934145577251911,0.03287369757890701,0.00014584659948013723,0.0,0.0,0.0,0.0,0.004832971841096878,0.0017221602611243725,-0.0007763946778140962,1.000152826309204,0.0,0.0,0.0,-62.39630126953125,3.315101385116577,3.6115329265594482,11293.8544921875,0
644.1749999999993,0.019374988973140717,0.03266088664531708,0.0001306775666307658,0.0,0.0,0.0,0.0,-0.004562680143862963,-0.0010138392681255937,-0.0029526171274483204,1.0010454654693604,0.0,0.0,0.0,-62.3725471496582,3.281693935394287,3.637984275817871,11289.5556640625,0
654.0900000000001,0.019318629056215286,0.03282792866230011,0.00022125661780592054,0.0,0.0,0.0,0.0,0.000987643375992775,-0.001958873588591814,0.00020265774219296873,0.9979042410850525,0.0,0.0,0.0,-62.40376663208008,3.316444158554077,3.6157968044281006,11295.2060546875,0
663.9979999999996,0.01942327246069908,0.0327225923538208,0.0001489778805989772,0.0,0.0,0.0,0.0,-0.0005391588201746345,0.003361903829500079,-0.0020824566017836332,0.998611569404602,0.0,0.0,0.0,-62.37251281738281,3.3041279315948486,3.636230945587158,11289.5498046875,0
673.9069999999992,0.019344912841916084,0.03285752236843109,0.0002159762370865792,0.0,0.0,0.0,0.0,0.002732945838943124,-0.0018286475678905845,0.0010092913871631026,0.9991751909255981,0.0,0.0,0.0,-62.4059944152832,3.321974992752075,3.6051197052001953,11295.609375,0
683.8199999999997,0.019437700510025024,0.03273535147309303,0.00015694966714363545,0.0,0.0,0.0,0.0,0.0020942860282957554,-0.00022234940843190998,0.0007587441359646618,1.0002237558364868,0.0,0.0,0.0,-62.372779846191406,3.3010897636413574,3.623242139816284,11289.59765625,0
693.7340000000004,0.019370920956134796,0.03287430852651596,0.0002264021895825863,0.0,0.0,0.0,0.0,0.0008512348867952824,-0.0005480285035446286,0.0010360709857195616,1.0006595849990845,0.0,0.0,0.0,-62.402286529541016,3.3120081424713135,3.604853868484497,11294.9384765625,0
703.6470000000008,0.019428033381700516,0.03269881010055542,0.0002240866160718724,0.0,0.0,0.0,0.0,-0.0014249105006456375,-0.001170354662463069,-0.0006639032508246601,0.9977903962135315,0.0,0.0,0.0,-62.380393981933594,3.2842860221862793,3.635514497756958,11290.9755859375,0
713.5589999999993,0.019373852759599686,0.03277624025940895,0.0002754497982095927,0.0,0.0,0.0,0.0,0.00046600549831055105,-0.004706999287009239,-0.001437535509467125,0.998031497001648,0.0,0.0,0.0,-62.41353988647461,3.306591749191284,3.629897117614746,11296.974609375,0
723.4609999999993,0.019480496644973755,0.032668109983205795,0.00021372639457695186,0.0,0.0,0.0,0.0,0.0028300988487899303,-0.0024893388617783785,0.003217576304450631,0.998603343963623,0.0,0.0,0.0,-62.380592346191406,3.296152353286743,3.6576366424560547,11291.01171875,0
733.3770000000004,0.01942194625735283,0.03278475999832153,0.00028256166842766106,0.0,0.0,0.0,0.0,-0.0010138608049601316,-0.002171983476728201,0.0005993264494463801,1.000504732131958,0.0,0.0,0.0,-62.41115188598633,3.313462257385254,3.6479873657226562,11296.54296875,0
743.2749999999996,0.01949956640601158,0.0326506569981575,0.00026020497898571193,0.0,0.0,0.0,0.0,0.0005721278139390051,-0.001766833825968206,0.0004627615853678435,0.9993200302124023,0.0,0.0,0.0,-62.39158248901367,3.297023057937622,3.6731998920440674,11293.0009765625,0
753.2019999999993,0.019420720636844635,0.03276873007416725,0.00032495061168447137,0.0,0.0,0.0,0.0,-0.002041156869381666,-0.0016280304407700896,-0.0012268187711015344,1.0003663301467896,0.0,0.0,0.0,-62.41720199584961,3.3135251998901367,3.660236358642578,11297.6376953125,0
763.1000000000004,0.01950119063258171,0.03260183706879616,0.00029156336677260697,0.0,0.0,0.0,0.0,-0.005069806706160307,0.001260241842828691,0.00011732288839993998,1.0010250806808472,0.0,0.0,0.0,-62.398677825927734,3.3016324043273926,3.6839866638183594,11294.28515625,0
773.0120000000006,0.01934468373656273,0.03276559337973595,0.0003527380176819861,0.0,0.0,0.0,0.0,-0.0027881592977792025,0.0004983257385902107,-0.0008400133228860795,1.00020170211792,0.0,0.0,0.0,-62.427162170410156,3.32212495803833,3.6502435207366943,11299.44140625,0
782.9179999999997,0.019436275586485863,0.03261256963014603,0.0003123261849395931,0.0,0.0,0.0,0.0,0.0013364144833758473,0.0004724871541839093,0.0027512474916875362,1.0002495050430298,0.0,0.0,0.0,-62.39246368408203,3.312326669692993,3.6691341400146484,11293.16015625,0
792.8340000000007,0.01936483196914196,0.03270968422293663,0.00036953858216293156,0.0,0.0,0.0,0.0,0.003883072640746832,0.0021089401561766863,0.0018237094627693295,0.9990024566650391,0.0,0.0,0.0,-62.41899108886719,3.3252477645874023,3.6603808403015137,11297.9619140625,0
802.7450000000008,0.01949002407491207,0.03262989595532417,0.0003106003568973392,0.0,0.0,0.0,0.0,0.0003684028924908489,-0.0007200370891951025,-0.001429310766980052,0.997970461845398,0.0,0.0,0.0,-62.39904022216797,3.3131091594696045,3.67283296585083,11294.3515625,0
812.652,0.019388150423765182,0.03272521495819092,0.00035168760223314166,0.0,0.0,0.0,0.0,6.63045429973863e-05,-0.002383433748036623,0.0017322106286883354,1.0015546083450317,0.0,0.0,0.0,-62.42606735229492,3.321969747543335,3.659395456314087,11299.2421875,0
822.5599999999995,0.01948724500834942,0.032582852989435196,0.000311049836454913,0.0,0.0,0.0,0.0,1.0083886991196778e-05,0.0007685383316129446,0.0012760313693434,1.000949501991272,0.0,0.0,0.0,-62.392215728759766,3.3041832447052,3.6829111576080322,11293.115234375,0
832.4699999999993,0.019319860264658928,0.03275322914123535,0.00037178178899921477,0.0,0.0,0.0,0.0,-0.0012905087787657976,0.001225551008246839,-0.001933693652972579,0.9992008805274963,0.0,0.0,0.0,-62.42002868652344,3.312438726425171,3.647023916244507,11298.150390625,0
842.3809999999994,0.019440369680523872,0.03267139941453934,0.000324262713547796,0.0,0.0,0.0,0.0,-0.0014012044994160533,0.00023920045350678265,0.0014494905481114984,1.0023162364959717,0.0,0.0,0.0,-62.3878173828125,3.30832576751709,3.6571292877197266,11292.3193359375,0
852.2939999999999,0.019338378682732582,0.03280318155884743,0.00038660987047478557,0.0,0.0,0.0,0.0,0.0014285044744610786,0.003426929470151663,0.0017086792504414916,0.9999906420707703,0.0,0.0,0.0,-62.415645599365234,3.322680950164795,3.633004903793335,11297.3564453125,0
862.2019999999993,0.01948416233062744,0.03272391855716705,0.0003065149358008057,0.0,0.0,0.0,0.0,-0.002770273946225643,-0.0034785140305757523,0.0008251953986473382,0.9976145625114441,0.0,0.0,0.0,-62.37999725341797,3.3136420249938965,3.6412014961242676,11290.904296875,0
872.1129999999994,0.01936744526028633,0.03283616527915001,0.0003507352957967669,0.0,0.0,0.0,0.0,-0.003084107069298625,-0.0008811585721559823,0.0030127358622848988,0.999617338180542,0.0,0.0,0.0,-62.40717697143555,3.3279333114624023,3.632455348968506,11295.82421875,0
882.0239999999994,0.019533975049853325,0.03280732035636902,0.0002582157030701637,0.0,0.0,0.0,0.0,0.001097890199162066,-0.006223767530173063,0.0007696195389144123,1.0004833936691284,0.0,0.0,0.0,-62.37070083618164,3.3279366493225098,3.6474459171295166,11289.2216796875,0
891.9339999999993,0.01939365640282631,0.03290553018450737,0.00028121049399487674,0.0,0.0,0.0,0.0,0.002142225857824087,0.0034351202193647623,-0.0013088771374896169,0.9998860955238342,0.0,0.0,0.0,-62.3997917175293,3.332517147064209,3.651590347290039,11294.486328125,0
901.8439999999991,0.01953194849193096,0.03281838074326515,0.00020897890499327332,0.0,0.0,0.0,0.0,-0.0018713366007432342,0.0014269879320636392,0.0015278503997251391,1.001305341720581,0.0,0.0,0.0,-62.36814880371094,3.3274006843566895,3.6691384315490723,11288.7587890625,0
911.7540000000008,0.019397061318159103,0.03292953222990036,0.0002360446669626981,0.0,0.0,0.0,0.0,-0.001484713633544743,-0.0009660287760198116,-0.002247999655082822,0.9982248544692993,0.0,0.0,0.0,-62.39816665649414,3.3383851051330566,3.650512218475342,11294.1923828125,0
921.6650000000009,0.019495924934744835,0.03276858106255531,0.00019453049753792584,0.0,0.0,0.0,0.0,0.0006183333462104201,-0.0015564820496365428,0.0011105702724307775,0.9994672536849976,0.0,0.0,0.0,-62.362937927246094,3.3219563961029053,3.6765596866607666,11287.81640625,0
931.5759999999991,0.019442161545157433,0.03288896754384041,0.0002545123570598662,0.0,0.0,0.0,0.0,0.0003495472192298621,0.0010454700095579028,0.00019566815171856433,1.000160574913025,0.0,0.0,0.0,-62.39339065551758,3.342911958694458,3.668682098388672,11293.328125,0
941.4869999999992,0.01957111246883869,0.03292088955640793,0.00025058144819922745,0.0,0.0,0.0,0.0,0.00045180018059909344,0.0005208315560594201,0.0024295600596815348,1.000733494758606,0.0,0.0,0.0,-62.33424377441406,3.3338992595672607,3.660219430923462,11282.623046875,0
951.3979999999992,0.019474349915981293,0.032988980412483215,0.0002571686345618218,0.0,0.0,0.0,0.0,-0.002060437109321356,-0.0010952578159049153,0.0009411066421307623,0.9988713264465332,0.0,0.0,0.0,-62.368385314941406,3.33573317527771,3.64141845703125,11288.8017578125,0
961.3079999999991,0.019530722871422768,0.03279914706945419,0.00030066995532251894,0.0,0.0,0.0,0.0,0.0019907797686755657,0.00025837859720923007,-0.002800717717036605,0.9979206919670105,0.0,0.0,0.0,-62.348106384277344,3.306915283203125,3.6755173206329346,11285.1318359375,0
971.2189999999991,0.01946941204369068,0.03284503147006035,0.00033466776949353516,0.0,0.0,0.0,0.0,-0.0012679403880611062,-0.003496356774121523,0.0034931825939565897,1.0007376670837402,0.0,0.0,0.0,-62.3858528137207,3.3159003257751465,3.67144775390625,11291.9638671875,0
981.1350000000002,0.019555574283003807,0.03263295814394951,0.0003144396760035306,0.0,0.0,0.0,0.0,-0.0013638960663229227,0.0015593863790854812,0.0014774134615436196,0.999785840511322,0.0,0.0,0.0,-62.353668212890625,3.2950923442840576,3.7141103744506836,11286.1376953125,0
991.0390000000007,0.01945928856730461,0.03275454416871071,0.0003772237105295062,0.0,0.0,0.0,0.0,-0.0009405948803760111,0.0009625364327803254,-0.001478663645684719,1.0024151802062988,0.0,0.0,0.0,-62.38766860961914,3.3106980323791504,3.6905503273010254,11292.2919921875,0
1000.9500000000007,0.01957610249519348,0.03263147175312042,0.0003450224467087537,0.0,0.0,0.0,0.0,-0.001429846161045134,0.005710620898753405,0.0018072915263473988,1.0023666620254517,0.0,0.0,0.0,-62.361541748046875,3.2981386184692383,3.7081570625305176,11287.5634765625,0
1010.8619999999992,0.01946943625807762,0.03274966776371002,0.00040610425639897585,0.0,0.0,0.0,0.0,0.001604829914867878,0.00032238801941275597,-0.00016262981807813048,1.0020737648010254,0.0,0.0,0.0,-62.39396667480469,3.3109114170074463,3.676115036010742,11293.4326171875,0
1020.7729999999992,0.019577370956540108,0.032585594803094864,0.0003772317722905427,0.0,0.0,0.0,0.0,0.0006177191971801221,0.002917771227657795,0.002724211197346449,1.0012872219085693,0.0,0.0,0.0,-62.36433792114258,3.2938525676727295,3.6944050788879395,11288.0703125,0
1030.6820000000007,0.019436262547969818,0.03275863453745842,0.00045804138062521815,0.0,0.0,0.0,0.0,-0.0014097035164013505,-0.0016499317716807127,0.0037717062514275312,0.9989256858825684,0.0,0.0,0.0,-62.39254379272461,3.3075790405273438,3.6604361534118652,11293.1748046875,0
1040.5959999999995,0.019560212269425392,0.03264392539858818,0.0004274523234926164,0.0,0.0,0.0,0.0,-0.0013476416934281588,0.0014575101668015122,0.0037671267054975033,1.0006922483444214,0.0,0.0,0.0,-62.35948181152344,3.2962560653686523,3.6786611080169678,11287.19140625,0
1050.5110000000004,0.01936330460011959,0.03261088207364082,0.0004035214660689235,0.0,0.0,0.0,0.0,0.0031606697011739016,0.0042973109520971775,0.0014193480601534247,1.000861406326294,0.0,0.0,0.0,-62.42397689819336,3.293740749359131,3.6700844764709473,11298.8642578125,0
1060.4150000000009,0.01949124038219452,0.03263061121106148,0.0004124762490391731,0.0,0.0,0.0,0.0,0.002078280784189701,0.0003765480360016227,0.0007715474348515272,1.0001227855682373,0.0,0.0,0.0,-62.36476135253906,3.285346508026123,3.6670780181884766,11288.1455078125,0
1070.3330000000005,0.019404904916882515,0.032674629241228104,0.00037827069172635674,0.0,0.0,0.0,0.0,0.002123174024745822,0.0027141303289681673,-0.002809448866173625,0.998046338558197,0.0,0.0,0.0,-62.42404556274414,3.294869899749756,3.657703161239624,11298.8759765625,0
1080.2350000000006,0.019530750811100006,0.03269605338573456,0.00038270169170573354,0.0,0.0,0.0,0.0,-0.0011936738155782223,0.0017406112747266889,0.00231259991414845,0.9998732209205627,0.0,0.0,0.0,-62.365901947021484,3.2842185497283936,3.6503796577453613,11288.3525390625,0
1090.152,0.019452499225735664,0.03270991891622543,0.000348124245647341,0.0,0.0,0.0,0.0,0.0009565047803334892,-0.0017407038249075413,-0.0027794018387794495,0.9999865889549255,0.0,0.0,0.0,-62.42094421386719,3.2959935665130615,3.6517179012298584,11298.3154296875,0
1100.0609999999997,0.019313519820570946,0.03283827006816864,0.0003936859138775617,0.0,0.0,0.0,0.0,-0.002014985540881753,-0.003052916144952178,-1.545112900203094e-05,0.9997846484184265,0.0,0.0,0.0,-62.451454162597656,3.302097797393799,3.6289584636688232,11303.837890625,0
1109.9680000000008,0.01943874917924404,0.032705869525671005,0.00033957805135287344,0.0,0.0,0.0,0.0,-0.002106760861352086,0.001376056345179677,-0.00012073844118276611,0.998015820980072,0.0,0.0,0.0,-62.41937255859375,3.2963013648986816,3.659862756729126,11298.03125,0
1119.8790000000008,0.019324639812111855,0.0328361950814724,0.0003901634772773832,0.0,0.0,0.0,0.0,0.0035287016071379185,0.004279995337128639,-0.0012507662177085876,0.9986542463302612,0.0,0.0,0.0,-62.448368072509766,3.3085501194000244,3.636496067047119,11303.279296875,0
1129.7909999999993,0.01945832185447216,0.032709792256355286,0.0003266820858698338,0.0,0.0,0.0,0.0,0.00011984923185082152,0.0013456456363201141,-0.0027547054924070835,0.9991790652275085,0.0,0.0,0.0,-62.41427230834961,3.2914657592773438,3.6489884853363037,11297.107421875,0
1139.7029999999995,0.01930128037929535,0.0328470841050148,0.00035826058592647314,0.0,0.0,0.0,0.0,0.0011085218284279108,0.002421730197966099,-0.0012157793389633298,1.0024363994598389,0.0,0.0,0.0,-62.43902587890625,3.298189878463745,3.62026047706604,11301.587890625,0
1149.6110000000008,0.019424529746174812,0.032713666558265686,0.00030273900483734906,0.0,0.0,0.0,0.0,0.001538484706543386,0.001361202565021813,0.0015640471829101443,1.00074303150177,0.0,0.0,0.0,-62.409263610839844,3.2836856842041016,3.6401748657226562,11296.201171875,0
1159.5220000000008,0.019311871379613876,0.03283267468214035,0.0003475797129794955,0.0,0.0,0.0,0.0,-0.0024039950221776962,-0.0009374610963277519,-0.0019382636528462172,0.9991071224212646,0.0,0.0,0.0,-62.43779373168945,3.291907548904419,3.614717721939087,11301.365234375,0
1169.432999999999,0.019439494237303734,0.03285977616906166,0.0003472468815743923,0.0,0.0,0.0,0.0,-0.0015522181056439877,-0.0018573616398498416,-0.0013693219516426325,0.9965696334838867,0.0,0.0,0.0,-62.37924575805664,3.2913951873779297,3.614185333251953,11290.767578125,0
1179.3430000000008,0.019345803186297417,0.03286883607506752,0.0003354587242938578,0.0,0.0,0.0,0.0,-0.00030042341677471995,0.0035389254335314035,0.0008586695184931159,0.9984415173530579,0.0,0.0,0.0,-62.41055679321289,3.2943623065948486,3.614875316619873,11296.4345703125,0
1189.2520000000004,0.019463757053017616,0.03275842219591141,0.0002876493090298027,0.0,0.0,0.0,0.0,0.0021383727435022593,0.000614351883996278,-0.0015820524422451854,1.0006906986236572,0.0,0.0,0.0,-62.388404846191406,3.2798664569854736,3.6289854049682617,11292.42578125,0
1199.1650000000009,0.019348692148923874,0.03282304108142853,0.00030340655939653516,0.0,0.0,0.0,0.0,-0.0014187466586008668,-0.0044337990693748,0.0002790095459204167,1.0011101961135864,0.0,0.0,0.0,-62.42215347290039,3.2813143730163574,3.6109800338745117,11298.53515625,0
1209.0789999999997,0.019457774236798286,0.032687097787857056,0.0002572209923528135,0.0,0.0,0.0,0.0,0.000792399630881846,0.003941067960113287,-3.108106830040924e-05,0.9994191527366638,0.0,0.0,0.0,-62.38883590698242,3.2682456970214844,3.6343321800231934,11292.50390625,0
1218.9840000000004,0.019322270527482033,0.03283584490418434,0.0003088996745646,0.0,0.0,0.0,0.0,-0.001881832373328507,-0.002675840398296714,0.0035442430526018143,0.9981946349143982,0.0,0.0,0.0,-62.41865158081055,3.282457113265991,3.595109462738037,11297.900390625,0
1228.8970000000008,0.01939932256937027,0.03267037123441696,0.00030081585282459855,0.0,0.0,0.0,0.0,-0.0017687849467620254,-0.0028259926475584507,0.0030103775206953287,0.9999178647994995,0.0,0.0,0.0,-62.395782470703125,3.2649552822113037,3.6203689575195312,11293.76171875,0
1238.8060000000005,0.019256766885519028,0.03280581161379814,0.0003430827637203038,0.0,0.0,0.0,0.0,-0.00013200183457229286,-0.0037681502290070057,0.003946957178413868,1.0010921955108643,0.0,0.0,0.0,-62.427276611328125,3.274657964706421,3.599534749984741,11299.4609375,0
1248.7150000000001,0.019390642642974854,0.03269733861088753,0.0002695638104341924,0.0,0.0,0.0,0.0,0.002686981577426195,0.0009237740887328982,-0.0001086881966330111,1.0000029802322388,0.0,0.0,0.0,-62.395790100097656,3.2628793716430664,3.6275525093078613,11293.7626953125,0
1258.6299999999992,0.019268305972218513,0.03281781077384949,0.00030828246963210404,0.0,0.0,0.0,0.0,-0.0028997519984841347,-0.0016387319192290306,0.0016948118573054671,1.0015531778335571,0.0,0.0,0.0,-62.42498779296875,3.265209436416626,3.6042346954345703,11299.046875,0
1268.536,0.019388895481824875,0.03269592672586441,0.0002463556593284011,0.0,0.0,0.0,0.0,0.003613574430346489,0.00019603037799242884,-0.0010837793815881014,1.0019570589065552,0.0,0.0,0.0,-62.402442932128906,3.25683331489563,3.6216914653778076,11294.966796875,0
1278.4560000000001,0.019278250634670258,0.03282458335161209,0.0002931168710347265,0.0,0.0,0.0,0.0,-0.0030524609610438347,-0.0014933212660253048,0.0015611370326951146,0.9986333250999451,0.0,0.0,0.0,-62.430992126464844,3.2585179805755615,3.5999972820281982,11300.1337890625,0
1288.357,0.019388819113373756,0.03268354386091232,0.00023690229863859713,0.0,0.0,0.0,0.0,-0.0007615138310939074,-0.0014496537623926997,7.675746746826917e-05,1.0007658004760742,0.0,0.0,0.0,-62.40989303588867,3.250425338745117,3.631726026535034,11296.314453125,0
1298.2759999999998,0.019335532560944557,0.032790407538414,0.0002933973737526685,0.0,0.0,0.0,0.0,-0.0031415726989507675,0.0030109123326838017,0.0002443149860482663,0.9991885423660278,0.0,0.0,0.0,-62.441619873046875,3.272798538208008,3.618359327316284,11302.0576171875,0
1308.1800000000003,0.01944655366241932,0.03266890347003937,0.00025077155441977084,0.0,0.0,0.0,0.0,0.0015518957516178489,0.0025404556654393673,-0.002250316319987178,0.9991937279701233,0.0,0.0,0.0,-62.40938949584961,3.2613332271575928,3.638187885284424,11296.2236328125,0
1318.1029999999992,0.019313732162117958,0.032826390117406845,0.00030692253494635224,0.0,0.0,0.0,0.0,0.0012958510778844357,-0.00123347039334476,0.0006923910696059465,1.0010297298431396,0.0,0.0,0.0,-62.44306182861328,3.271411418914795,3.611295223236084,11302.318359375,0
1328.0040000000008,0.019390057772397995,0.032636743038892746,0.00028839436708949506,0.0,0.0,0.0,0.0,-0.0019981474615633488,-0.0015774855855852365,7.520667713833973e-05,0.9999276399612427,0.0,0.0,0.0,-62.41339111328125,3.2475950717926025,3.638880968093872,11296.9482421875,0
1337.9230000000007,0.01922338828444481,0.032778412103652954,0.00033088764757849276,0.0,0.0,0.0,0.0,-0.0004851030244026333,0.0016184923006221652,0.0004450279229786247,0.999474287033081,0.0,0.0,0.0,-62.44508361816406,3.25958251953125,3.615403652191162,11302.685546875,0
1347.8269999999993,0.019358661025762558,0.03268173709511757,0.0002574074605945498,0.0,0.0,0.0,0.0,-0.00011300960613880306,-0.00035459225182421505,0.0015626606764271855,0.9980728030204773,0.0,0.0,0.0,-62.4240608215332,3.2595629692077637,3.6270699501037598,11298.87890625,0
1357.7379999999994,0.019228802993893623,0.032804232090711594,0.0002988637425005436,0.0,0.0,0.0,0.0,0.0019474305445328355,-0.0015666962135583162,0.005323655903339386,0.9989541172981262,0.0,0.0,0.0,-62.45235824584961,3.268524169921875,3.614769458770752,11304.0009765625,0
1367.643,0.01935005933046341,0.03268469125032425,0.0002312891447218135,0.0,0.0,0.0,0.0,-0.0020270701497793198,0.0014096405357122421,-0.0027875234372913837,0.9987139701843262,0.0,0.0,0.0,-62.427555084228516,3.2576284408569336,3.6429085731506348,11299.51171875,0
1377.5730000000003,0.019288402050733566,0.03282256796956062,0.00029823629301972687,0.0,0.0,0.0,0.0,-0.0011564809828996658,0.00021296551858540624,-0.001605734578333795,0.9977084398269653,0.0,0.0,0.0,-62.461002349853516,3.281982421875,3.625838279724121,11305.5654296875,0
1387.4629999999997,0.019366296008229256,0.03266045078635216,0.00028046383522450924,0.0,0.0,0.0,0.0,-0.002834517974406481,-0.0006940934690646827,-0.0009265745175071061,0.9995272159576416,0.0,0.0,0.0,-62.44024658203125,3.2666587829589844,3.649168014526367,11301.80859375,0
1397.384,0.019315149635076523,0.03275993838906288,0.00033388371230103076,0.0,0.0,0.0,0.0,-0.00034473082632757723,0.006496198009699583,-0.0013154102489352226,0.9981578588485718,0.0,0.0,0.0,-62.47209548950195,3.2935774326324463,3.642007350921631,11307.57421875,0
1407.2870000000003,0.019401879981160164,0.03258413076400757,0.0003057754074689001,0.0,0.0,0.0,0.0,0.00021411004127003253,0.000909432303160429,-0.0010858882451429963,1.0000513792037964,0.0,0.0,0.0,-62.448333740234375,3.274325370788574,3.6648855209350586,11303.2734375,0
1417.2060000000001,0.01927381195127964,0.03276271000504494,0.00037368503399193287,0.0,0.0,0.0,0.0,0.00194648839533329,-0.0005445346469059587,-0.0018515449482947588,0.9981773495674133,0.0,0.0,0.0,-62.47950744628906,3.2902584075927734,3.6304569244384766,11308.9150390625,0
1427.107,0.019408002495765686,0.032629892230033875,0.0002936880337074399,0.0,0.0,0.0,0.0,0.0049555073492228985,0.0007180882967077196,0.004115833435207605,0.9974493980407715,0.0,0.0,0.0,-62.448184967041016,3.28480863571167,3.660452365875244,11303.24609375,0
1437.0319999999992,0.01930670626461506,0.0327286571264267,0.00032883178209885955,0.0,0.0,0.0,0.0,0.00033791267196647823,0.0051858993247151375,0.0023698043078184128,0.9972530007362366,0.0,0.0,0.0,-62.480716705322266,3.2893404960632324,3.6482181549072266,11309.134765625,0
1446.9279999999999,0.019462546333670616,0.03265179321169853,0.00023162092838902026,0.0,0.0,0.0,0.0,0.0003702577669173479,-0.0007482812507078052,-0.0026412704028189182,0.9982867240905762,0.0,0.0,0.0,-62.44584274291992,3.285226583480835,3.6592419147491455,11302.8212890625,0
1456.8459999999995,0.01933434046804905,0.032771892845630646,0.00025717768585309386,0.0,0.0,0.0,0.0,0.0011105698067694902,0.0008754864102229476,0.0028332846704870462,0.9993400573730469,0.0,0.0,0.0,-62.479248046875,3.2907874584198,3.633469820022583,11308.869140625,0
1466.7510000000002,0.019445907324552536,0.03266259282827377,0.0002071003254968673,0.0,0.0,0.0,0.0,-0.0006030193180777133,0.0024308946449309587,0.0009344052523374557,0.9983476996421814,0.0,0.0,0.0,-62.44672775268555,3.272005081176758,3.6482326984405518,11302.982421875,0
1476.6710000000003,0.019385017454624176,0.032796069979667664,0.0002572718367446214,0.0,0.0,0.0,0.0,0.0015236127655953169,0.0020395119208842516,-0.0033103132154792547,0.9989049434661865,0.0,0.0,0.0,-62.47629165649414,3.294247627258301,3.630937099456787,11308.3330078125,0
1486.5699999999997,0.019486863166093826,0.03265979513525963,0.00021662289509549737,0.0,0.0,0.0,0.0,-0.00139345764182508,0.0017138202674686909,0.0006608474068343639,0.9988126158714294,0.0,0.0,0.0,-62.45241165161133,3.27249813079834,3.651961326599121,11304.01171875,0
1496.4869999999992,0.019356869161128998,0.032792650163173676,0.0002444391429889947,0.0,0.0,0.0,0.0,0.0012915083207190037,-0.0013530926080420613,0.0023277522996068,0.9988420009613037,0.0,0.0,0.0,-62.479034423828125,3.2864339351654053,3.63382625579834,11308.8291015625,0
1506.3940000000002,0.01946045272052288,0.032670050859451294,0.00020338234025985003,0.0,0.0,0.0,0.0,0.002147752558812499,-0.006673337891697884,-0.001036100904457271,0.9976111054420471,0.0,0.0,0.0,-62.44550704956055,3.2670934200286865,3.6610512733459473,11302.7607421875,0
1516.3099999999995,0.019277676939964294,0.03283359482884407,0.00022770393115933985,0.0,0.0,0.0,0.0,0.0011261125328019261,0.003533372888341546,0.0008127038599923253,0.9991594552993774,0.0,0.0,0.0,-62.469383239746094,3.2683775424957275,3.6372451782226562,11307.0830078125,0
1526.2119999999995,0.019340787082910538,0.03262992575764656,0.00020790485723409802,0.0,0.0,0.0,0.0,-0.0003664134128484875,-0.00291266106069088,0.0034455033019185066,0.9997905492782593,0.0,0.0,0.0,-62.443458557128906,3.24169659614563,3.6697299480438232,11302.390625,0
1536.134,0.019230367615818977,0.03278493136167526,0.0002549458877183497,0.0,0.0,0.0,0.0,-0.00012145083746872842,0.00110339536331594,0.0026746713556349277,0.99845951795578,0.0,0.0,0.0,-62.46902847290039,3.2571778297424316,3.6544501781463623,11307.01953125,0
1546.0339999999997,0.019358262419700623,0.032689984887838364,0.00018619245383888483,0.0,0.0,0.0,0.0,-0.0005118026165291667,-0.003649368416517973,0.0009985676733776927,1.0005900859832764,0.0,0.0,0.0,-62.43524932861328,3.24922251701355,3.670886993408203,11300.904296875,0
1555.955,0.019248116761446,0.03283163905143738,0.000224500079639256,0.0,0.0,0.0,0.0,-0.002265926683321595,0.00303825200535357,0.0010489256819710135,1.0001049041748047,0.0,0.0,0.0,-62.45943832397461,3.2673025131225586,3.653973340988159,11305.2822265625,0
1565.8549999999996,0.019360247999429703,0.03271584212779999,0.00016853770648594946,0.0,0.0,0.0,0.0,0.0007088752463459969,0.0028588837012648582,-6.121286423876882e-05,1.0008338689804077,0.0,0.0,0.0,-62.42387008666992,3.2592413425445557,3.668325185775757,11298.8447265625,0
1575.7800000000007,0.019289247691631317,0.03284791111946106,0.00021758509683422744,0.0,0.0,0.0,0.0,0.004285123664885759,0.0006298734224401414,0.0034212004393339157,1.0008505582809448,0.0,0.0,0.0,-62.45027542114258,3.2788572311401367,3.6457128524780273,11303.625,0
1585.6769999999997,0.019360829144716263,0.032682307064533234,0.00020860828226432204,0.0,0.0,0.0,0.0,0.00043811791692860425,0.0014202314196154475,0.0026212262455374002,1.001076340675354,0.0,0.0,0.0,-62.427520751953125,3.245988130569458,3.6686174869537354,11299.505859375,0
1595.5939999999991,0.0193081796169281,0.032781485468149185,0.00025607767747715116,0.0,0.0,0.0,0.0,-0.0013958353083580732,-0.001491827191784978,-0.0040445453487336636,1.000020146369934,0.0,0.0,0.0,-62.45349884033203,3.2646963596343994,3.6565842628479004,11304.20703125,0
1605.4969999999994,0.019420407712459564,0.03265541046857834,0.00021046526671852916,0.0,0.0,0.0,0.0,-0.001958620036020875,-0.003852014197036624,0.0028642232064157724,0.9998932480812073,0.0,0.0,0.0,-62.43136978149414,3.2527272701263428,3.686960458755493,11300.2021484375,0
1615.4159999999993,0.01926981657743454,0.03282848000526428,0.0002586098271422088,0.0,0.0,0.0,0.0,0.0009893857641145587,0.004319044295698404,-0.002542453119531274,1.0008211135864258,0.0,0.0,0.0,-62.45722579956055,3.266148805618286,3.661672353744507,11304.8818359375,0
1625.3189999999995,0.01939772441983223,0.03273838013410568,0.00020098843378946185,0.0,0.0,0.0,0.0,-5.353446613298729e-05,-0.0004753303073812276,-0.0003696553176268935,0.9995686411857605,0.0,0.0,0.0,-62.4348258972168,3.2525832653045654,3.6727521419525146,11300.828125,0
1635.2399999999998,0.019282599911093712,0.032869577407836914,0.00024048893828876317,0.0,0.0,0.0,0.0,-0.0014143454609438777,0.002253333106637001,0.0016978675266727805,0.9998327493667603,0.0,0.0,0.0,-62.46202850341797,3.261680841445923,3.6555469036102295,11305.751953125,0
1645.1409999999996,0.01939481869339943,0.03272769972681999,0.00018658326007425785,0.0,0.0,0.0,0.0,0.002108050277456641,-0.001763971522450447,0.001744877896271646,1.0012089014053345,0.0,0.0,0.0,-62.4254264831543,3.25114369392395,3.681882858276367,11299.1259765625,0
1655.0609999999997,0.019293883815407753,0.03280132636427879,0.00020824158855248243,0.0,0.0,0.0,0.0,0.0007162355468608439,-0.0002483409771230072,0.0003683975955937058,1.0000855922698975,0.0,0.0,0.0,-62.45220184326172,3.256395101547241,3.6756322383880615,11303.97265625,0
1664.9599999999991,0.019403407350182533,0.0327007994055748,0.0001751597155816853,0.0,0.0,0.0,0.0,0.0008723397622816265,0.0061622862704098225,-0.002419164637103677,1.0001845359802246,0.0,0.0,0.0,-62.42103958129883,3.2424607276916504,3.697700262069702,11298.33203125,0
1674.8780000000006,0.019275877624750137,0.03284532576799393,0.00022133746824692935,0.0,0.0,0.0,0.0,-0.0007408326491713524,-0.0019008241361007094,0.0036872276104986668,1.000201940536499,0.0,0.0,0.0,-62.450889587402344,3.2554924488067627,3.6657323837280273,11303.7353515625,0
1684.7810000000009,0.019341617822647095,0.032670747488737106,0.00022533371520694345,0.0,0.0,0.0,0.0,-0.0012297788634896278,0.006135142408311367,-0.003795281518250704,1.000590443611145,0.0,0.0,0.0,-62.42501449584961,3.234203577041626,3.699096202850342,11299.0517578125,0
1694.7039999999997,0.019246457144618034,0.03280365467071533,0.0002822291280608624,0.0,0.0,0.0,0.0,-0.002163745230063796,-0.00013961346121504903,0.00140877696685493,0.9998420476913452,0.0,0.0,0.0,-62.456214904785156,3.2489466667175293,3.6594207286834717,11304.69921875,0
1704.6080000000002,0.019339732825756073,0.03265829756855965,0.0002579690481070429,0.0,0.0,0.0,0.0,0.002186909317970276,0.0017543291905894876,-0.00016537714691367,0.9992390275001526,0.0,0.0,0.0,-62.433990478515625,3.2402656078338623,3.6759650707244873,11300.6767578125,0
1714.5169999999998,0.019264109432697296,0.03280263766646385,0.00032816262682899833,0.0,0.0,0.0,0.0,0.00273511977866292,0.00466205133125186,0.0013961958466097713,0.9979172348976135,0.0,0.0,0.0,-62.463741302490234,3.254535675048828,3.652937412261963,11306.0615234375,0
1724.423999999999,0.019343705847859383,0.032610222697257996,0.0003060315502807498,0.0,0.0,0.0,0.0,-0.0029533507768064737,0.0005126911564730108,0.0019348928472027183,0.9994255900382996,0.0,0.0,0.0,-62.44273376464844,3.2323427200317383,3.6736106872558594,11302.2587890625,0
1734.3359999999993,0.019268739968538284,0.03270319104194641,0.00035800327896140516,0.0,0.0,0.0,0.0,-0.0010683933505788445,-0.002542016329243779,0.00016381082241423428,1.0000159740447998,0.0,0.0,0.0,-62.47380447387695,3.2517645359039307,3.664447784423828,11307.8828125,0
1744.2479999999996,0.019411364570260048,0.03262143209576607,0.00028476305305957794,0.0,0.0,0.0,0.0,-0.0026997525710612535,-0.0032267174683511257,0.0012416541576385498,1.0007623434066772,0.0,0.0,0.0,-62.44989013671875,3.247891664505005,3.6839632987976074,11303.5546875,0
1754.1579999999994,0.019332939758896828,0.03273392468690872,0.00034406385384500027,0.0,0.0,0.0,0.0,-0.0001308103819610551,4.3683066905941814e-05,-0.0012949598021805286,1.0001035928726196,0.0,0.0,0.0,-62.48126983642578,3.265920877456665,3.6705634593963623,11309.234375,0
1764.0679999999993,0.019462740048766136,0.03264269232749939,0.00029071062454022467,0.0,0.0,0.0,0.0,-0.00011003095278283581,0.004057201091200113,-0.0012406480964273214,1.001105785369873,0.0,0.0,0.0,-62.44871520996094,3.252495765686035,3.6855924129486084,11303.341796875,0
1773.9809999999998,0.019290940836071968,0.03278614580631256,0.00033245483064092696,0.0,0.0,0.0,0.0,-0.000388127111364156,-6.375700468197465e-05,-0.003377520013600588,1.0005549192428589,0.0,0.0,0.0,-62.477142333984375,3.2619943618774414,3.653532028198242,11308.4873046875,0
1783.8880000000008,0.01941419579088688,0.03267328068614006,0.0002750515122897923,0.0,0.0,0.0,0.0,0.004483398050069809,0.002080398378893733,-0.0013397358125075698,0.9989024996757507,0.0,0.0,0.0,-62.45237731933594,3.2535951137542725,3.664543628692627,11304.00390625,0
1793.798999999999,0.019305957481265068,0.03281880542635918,0.0003412076039239764,0.0,0.0,0.0,0.0,-0.004389363341033459,-0.0014055122155696154,0.0030745710246264935,0.9997833371162415,0.0,0.0,0.0,-62.478919982910156,3.2615933418273926,3.640737771987915,11308.80859375,0
1803.7090000000007,0.01941458322107792,0.03269864618778229,0.0003050432133022696,0.0,0.0,0.0,0.0,0.004434653557837009,0.002464786171913147,-0.0019402217585593462,1.00077486038208,0.0,0.0,0.0,-62.44019317626953,3.250431537628174,3.647930860519409,11301.7998046875,0
1813.6209999999992,0.019259393215179443,0.03281239792704582,0.0003416099352762103,0.0,0.0,0.0,0.0,0.000244251627009362,-0.0007194392383098602,0.00021067728812340647,1.001147747039795,0.0,0.0,0.0,-62.46704864501953,3.252821683883667,3.6209566593170166,11306.6611328125,0
1823.5319999999992,0.019384395331144333,0.03270138427615166,0.00028108988772146404,0.0,0.0,0.0,0.0,-0.0009385924786329269,0.004033906850963831,-0.0017213259125128388,0.9979546070098877,0.0,0.0,0.0,-62.43256378173828,3.243201971054077,3.6337242126464844,11300.4189453125,0
1833.4480000000003,0.019246837124228477,0.03282485902309418,0.00032661581644788384,0.0,0.0,0.0,0.0,-0.0005256269359961152,-0.001423918060027063,0.0008522177231498063,0.9973153471946716,0.0,0.0,0.0,-62.46190643310547,3.253857135772705,3.6121151447296143,11305.7294921875,0
1843.3559999999998,0.01937091536819935,0.03270765766501427,0.00026266384520567954,0.0,0.0,0.0,0.0,-0.0015961674507707357,0.002991198329254985,-0.0023340352345257998,1.0000228881835938,0.0,0.0,0.0,-62.427433013916016,3.248440980911255,3.643625020980835,11299.4892578125,0
1853.2690000000002,0.019270669668912888,0.03282967582345009,0.0003105715150013566,0.0,0.0,0.0,0.0,0.00015586920198984444,0.0005918804090470076,-0.0004408907552715391,1.0007123947143555,0.0,0.0,0.0,-62.454795837402344,3.2604451179504395,3.6193745136260986,11304.4423828125,0
1863.182999999999,0.01939166523516178,0.032712094485759735,0.00024959768052212894,0.0,0.0,0.0,0.0,-0.0024297144263982773,-0.00467488681897521,0.0007875851006247103,1.0013861656188965,0.0,0.0,0.0,-62.42930603027344,3.2473044395446777,3.626237630844116,11299.8291015625,0
1873.0900000000001,0.019245659932494164,0.0328231044113636,0.0002820225490722805,0.0,0.0,0.0,0.0,-0.0005257446900941432,-0.0016964739188551903,0.0012968319933861494,1.002521276473999,0.0,0.0,0.0,-62.45753479003906,3.262436866760254,3.614128589630127,11304.9375,0
1883.0059999999994,0.019359352067112923,0.03268563002347946,0.00022261466074269265,0.0,0.0,0.0,0.0,0.001319435308687389,0.00924163218587637,-0.0012097624130547047,1.0009546279907227,0.0,0.0,0.0,-62.43539810180664,3.253842353820801,3.647751808166504,11300.931640625,0
1892.9169999999995,0.019285231828689575,0.03282034024596214,0.0002922730636782944,0.0,0.0,0.0,0.0,0.0024436612147837877,0.001311817904934287,0.0012396515812724829,1.0014420747756958,0.0,0.0,0.0,-62.463741302490234,3.2691855430603027,3.6147620677948,11306.0615234375,0
1902.8220000000001,0.01939491555094719,0.03269030153751373,0.0002502526331227273,0.0,0.0,0.0,0.0,0.0005328216357156634,-0.0002867232833523303,0.002096862066537142,1.0000466108322144,0.0,0.0,0.0,-62.430389404296875,3.2535054683685303,3.6388816833496094,11300.0244140625,0
1912.7379999999994,0.01930522732436657,0.03276585042476654,0.0002870342577807605,0.0,0.0,0.0,0.0,0.001106100156903267,-0.0026141128037124872,0.0009816705714911222,0.9991732835769653,0.0,0.0,0.0,-62.45671463012695,3.2631118297576904,3.623570203781128,11304.7890625,0
1922.6509999999998,0.019386129453778267,0.03259824588894844,0.0002750101266428828,0.0,0.0,0.0,0.0,0.0009175328887067735,0.0007356094429269433,-0.002181725576519966,0.9991985559463501,0.0,0.0,0.0,-62.42268753051758,3.247941255569458,3.6600100994110107,11298.630859375,0
1932.557999999999,0.01928410679101944,0.03270244970917702,0.0003242068341933191,0.0,0.0,0.0,0.0,-0.0007674809312447906,-0.0009773513302206993,0.0009061897289939225,1.0005828142166138,0.0,0.0,0.0,-62.45075225830078,3.256528854370117,3.6438212394714355,11303.7099609375,0
1942.4629999999997,0.019379204139113426,0.032549239695072174,0.00029926348361186683,0.0,0.0,0.0,0.0,0.0017855409532785416,0.0061803534626960754,0.0009521003812551498,1.0000386238098145,0.0,0.0,0.0,-62.43049240112305,3.2403321266174316,3.671544075012207,11300.04296875,0
1952.375,0.019336029887199402,0.032685574144124985,0.00038197083631530404,0.0,0.0,0.0,0.0,-0.0020575877279043198,0.000619641097728163,0.001059581059962511,0.9978593587875366,0.0,0.0,0.0,-62.458885192871094,3.259263753890991,3.64823842048645,11305.1826171875,0
1962.2900000000009,0.01948111690580845,0.03259429335594177,0.0003174679877702147,0.0,0.0,0.0,0.0,0.0017496941145509481,-0.0015035488177090883,0.00015790695033501834,1.000800371170044,0.0,0.0,0.0,-62.4362907409668,3.257333755493164,3.6500606536865234,11301.09375,0
1972.1949999999997,0.01933911256492138,0.03271513059735298,0.0003633633314166218,0.0,0.0,0.0,0.0,0.00010467079846421257,0.002737714909017086,-0.0017371163703501225,0.9994774460792542,0.0,0.0,0.0,-62.46478271484375,3.2616724967956543,3.630997657775879,11306.2509765625,0
1982.1059999999998,0.019478458911180496,0.03264917433261871,0.0003143410722259432,0.0,0.0,0.0,0.0,-0.0008074450306594372,-0.00619948236271739,0.002645962405949831,0.9987261295318604,0.0,0.0,0.0,-62.44108581542969,3.2557449340820312,3.6351871490478516,11301.9609375,0
1992.0120000000006,0.01928849332034588,0.03280143067240715,0.000354546878952533,0.0,0.0,0.0,0.0,0.0054717171005904675,0.003660665126517415,-0.0003917335707228631,0.999535083770752,0.0,0.0,0.0,-62.46830749511719,3.263735055923462,3.613582134246826,11306.8876953125,0
2001.9220000000005,0.01944716088473797,0.03274137154221535,0.00027427697204984725,0.0,0.0,0.0,0.0,-0.0018175581935793161,-0.0023607327602803707,-0.0014924664283171296,0.9998424649238586,0.0,0.0,0.0,-62.435184478759766,3.256247043609619,3.6269938945770264,11300.892578125,0
2011.8330000000005,0.019287297502160072,0.03285079076886177,0.00029965818976052105,0.0,0.0,0.0,0.0,0.00026140702539123595,-0.0037801750004291534,0.004768797662109137,1.0004971027374268,0.0,0.0,0.0,-62.46417999267578,3.26180100440979,3.6083433628082275,11306.140625,0
2021.7430000000004,0.019395560026168823,0.03269651159644127,0.0002536655811127275,0.0,0.0,0.0,0.0,-0.003301177639514208,0.0016524094389751554,-0.001649658428505063,0.9989953637123108,0.0,0.0,0.0,-62.442138671875,3.246920347213745,3.634171485900879,11302.15234375,0
2031.6669999999995,0.019288942217826843,0.03282332047820091,0.00031035684514790773,0.0,0.0,0.0,0.0,-0.002909488743171096,0.002681517042219639,-0.0013986625708639622,0.9989558458328247,0.0,0.0,0.0,-62.474143981933594,3.2665069103240967,3.6157164573669434,11307.9443359375,0
2041.5660000000007,0.01941055618226528,0.03268229961395264,0.00024995399871841073,0.0,0.0,0.0,0.0,0.0010623147245496511,-0.0002639021258801222,0.002254909835755825,0.9997276663780212,0.0,0.0,0.0,-62.45276641845703,3.2544572353363037,3.642767906188965,11304.0751953125,0
2051.4760000000006,0.01931433007121086,0.032816626131534576,0.000310315954266116,0.0,0.0,0.0,0.0,-0.004324324429035187,-0.0005402245442382991,0.005218015052378178,0.9989469647407532,0.0,0.0,0.0,-62.48384475708008,3.276592969894409,3.621950626373291,11309.7001953125,0
2061.388000000001,0.019433636218309402,0.032679151743650436,0.00025622069370001554,0.0,0.0,0.0,0.0,-0.0010850138496607542,-0.0009096328867599368,-0.0015537036815658212,0.9999163746833801,0.0,0.0,0.0,-62.45356750488281,3.264996290206909,3.646594524383545,11304.220703125,0
2071.2970000000005,0.019313212484121323,0.032824818044900894,0.00031398769351653755,0.0,0.0,0.0,0.0,-0.001723393565043807,0.0030226181261241436,0.000988250132650137,1.0006476640701294,0.0,0.0,0.0,-62.48554611206055,3.2783875465393066,3.620028018951416,11310.0078125,0
2081.2119999999995,0.01946313865482807,0.032757218927145004,0.0002427885337965563,0.0,0.0,0.0,0.0,0.003488587448373437,0.001097545842640102,-0.00035774687421508133,1.0002844333648682,0.0,0.0,0.0,-62.45059585571289,3.277571201324463,3.6202242374420166,11303.681640625,0
2091.120000000001,0.019316980615258217,0.032878171652555466,0.0002789736317936331,0.0,0.0,0.0,0.0,1.3425918041320983e-05,0.00040485092904418707,0.0009281716193072498,1.0018776655197144,0.0,0.0,0.0,-62.486480712890625,3.2793829441070557,3.6015660762786865,11310.1767578125,0
2101.031000000001,0.019421296194195747,0.0327240414917469,0.0002424038393655792,0.0,0.0,0.0,0.0,-9.052085079019889e-05,-0.0012642447836697102,-0.0016891872510313988,1.0005934238433838,0.0,0.0,0.0,-62.45466613769531,3.2607362270355225,3.6239066123962402,11304.4189453125,0
2110.941999999999,0.019282955676317215,0.03284972161054611,0.0002809581928886473,0.0,0.0,0.0,0.0,-0.0023218845017254353,-0.0005266182706691325,-0.0010137757053598762,1.0011204481124878,0.0,0.0,0.0,-62.48731231689453,3.2691826820373535,3.606217384338379,11310.328125,0
2120.8500000000004,0.019394688308238983,0.03269156068563461,0.00023336292360909283,0.0,0.0,0.0,0.0,0.001581731834448874,0.003951015882194042,-0.003229205496609211,1.002028465270996,0.0,0.0,0.0,-62.463687896728516,3.2564027309417725,3.62638258934021,11306.0517578125,0
2130.7649999999994,0.019286243245005608,0.03283580765128136,0.00029034301405772567,0.0,0.0,0.0,0.0,0.0007943849195726216,0.006182257551699877,-0.00160919688642025,0.9989857077598572,0.0,0.0,0.0,-62.49126052856445,3.2678277492523193,3.598442554473877,11311.0419921875,0
2140.6710000000003,0.019367316737771034,0.0326351597905159,0.0002786715340334922,0.0,0.0,0.0,0.0,0.0001570648601045832,-0.004704887978732586,0.002362119499593973,0.9982574582099915,0.0,0.0,0.0,-62.46670913696289,3.2412757873535156,3.6177074909210205,11306.5986328125,0
2150.5879999999997,0.019298510625958443,0.03278447315096855,0.0003613571170717478,0.0,0.0,0.0,0.0,-0.003303137142211199,0.005530412774533033,0.001029651495628059,1.0007853507995605,0.0,0.0,0.0,-62.49558639526367,3.2556188106536865,3.597994327545166,11311.8251953125,0
2160.491,0.019392088055610657,0.03260331228375435,0.00034292874624952674,0.0,0.0,0.0,0.0,-0.0013403181219473481,-0.004661658313125372,0.002120468532666564,1.0006695985794067,0.0,0.0,0.0,-62.47064971923828,3.231823444366455,3.611201524734497,11307.3125,0
2170.4130000000005,0.019214998930692673,0.03278285637497902,0.0004068628477398306,0.0,0.0,0.0,0.0,0.0005474069621413946,0.0031098821200430393,-7.958134665386751e-05,1.0006163120269775,0.0,0.0,0.0,-62.496971130371094,3.244093179702759,3.587770700454712,11312.076171875,0
2180.322,0.01932697184383869,0.03261928632855415,0.0003628780832514167,0.0,0.0,0.0,0.0,-0.0005745220114476979,-0.00024270848371088505,-0.000586241134442389,0.9996784925460815,0.0,0.0,0.0,-62.47170639038086,3.22733473777771,3.6184253692626953,11307.5029296875,0
2190.2289999999994,0.01926466077566147,0.032753702253103256,0.0004471172287594527,0.0,0.0,0.0,0.0,-0.0003899107105098665,-0.0029382838401943445,0.0017618462443351746,1.0003018379211426,0.0,0.0,0.0,-62.50390625,3.244432210922241,3.604442834854126,11313.3310546875,0
