timestamp,stateEstimate.x,stateEstimate.y,stateEstimate.z,controller.cmd_thrust,controller.cmd_roll,controller.cmd_pitch,controller.cmd_yaw,controller.r_roll,controller.r_pitch,controller.r_yaw,controller.accelz,controller.actuatorThrust,controller.roll,controller.pitch,controller.yaw,controller.rollRate,controller.pitchRate,controller.yawRate,controller.ctr_yaw
0.0,0.012515350244939327,0.008608180098235607,0.009746646508574486,0.0,0.0,0.0,0.0,-0.0011174225946888328,-0.0008946106536313891,0.0029328102245926857,0.9983400702476501,0.0,0.0,0.0,35.38413619995117,1.4892693758010864,8.573942184448242,-6404.5986328125,0
9.895000000000437,0.01264273189008236,0.008675210177898407,0.009425666183233261,0.0,0.0,0.0,0.0,0.0015877016121521592,0.0008763402001932263,-0.00461047887802124,0.99749356508255,0.0,0.0,0.0,35.415157318115234,1.4476284980773926,8.599844932556152,-6410.2138671875,0
19.817000000000917,0.012623809278011322,0.008591256104409695,0.009510080330073833,0.0,0.0,0.0,0.0,-0.0018281051889061928,-0.0021293379832059145,0.002837820677086711,0.9970964789390564,0.0,0.0,0.0,35.379066467285156,1.4463359117507935,8.58687686920166,-6403.681640625,0
29.71600000000035,0.012704736553132534,0.008610214106738567,0.009381449781358242,0.0,0.0,0.0,0.0,0.0038930876180529594,0.001179204205982387,0.0002922761777881533,0.9980517029762268,0.0,0.0,0.0,35.41363525390625,1.4243758916854858,8.604547500610352,-6409.9384765625,0
39.63299999999981,0.012689962983131409,0.008526758290827274,0.009460370056331158,0.0,0.0,0.0,0.0,0.0019437993178144097,0.0012762434780597687,-0.003224253188818693,1.0007401704788208,0.0,0.0,0.0,35.37909698486328,1.4159002304077148,8.594970703125,-6403.6865234375,0
49.538000000000466,0.012768300250172615,0.008611989207565784,0.009277531877160072,0.0,0.0,0.0,0.0,-0.0016223745187744498,-0.0021787595469504595,0.0025712221395224333,1.0001438856124878,0.0,0.0,0.0,35.409141540527344,1.411138653755188,8.610295295715332,-6409.12548828125,0
59.45600000000013,0.012757179327309132,0.008531694300472736,0.009355931542813778,0.0,0.0,0.0,0.0,-0.003165450179949403,0.0015020171413198113,-0.002533474238589406,0.9990139007568359,0.0,0.0,0.0,35.37548828125,1.4140548706054688,8.602161407470703,-6403.0341796875,0
69.35900000000038,0.012829373590648174,0.008724736981093884,0.008957518264651299,0.0,0.0,0.0,0.0,0.0023799152113497257,0.0020539402030408382,-0.0007445845403708518,0.9986709952354431,0.0,0.0,0.0,35.40728759765625,1.436348795890808,8.61166763305664,-6408.78955078125,0
79.27800000000025,0.012817315757274628,0.008646388538181782,0.009031597524881363,0.0,0.0,0.0,0.0,0.0023569208569824696,-0.0010872678831219673,-6.44465399091132e-05,0.9983399510383606,0.0,0.0,0.0,35.37223815917969,1.433488130569458,8.603715896606445,-6402.44580078125,0
89.18000000000029,0.012872361578047276,0.008811368606984615,0.0086992671713233,0.0,0.0,0.0,0.0,-0.003481903113424778,-0.000818478234577924,0.005770805757492781,0.9970802664756775,0.0,0.0,0.0,35.402435302734375,1.4474387168884277,8.617218971252441,-6407.9111328125,0
99.10000000000036,0.012857764028012753,0.008733071386814117,0.008767963387072086,0.0,0.0,0.0,0.0,-0.0023532467894256115,-0.0001797694421838969,0.0018481301376596093,0.999594509601593,0.0,0.0,0.0,35.36812973022461,1.4569467306137085,8.609353065490723,-6401.7021484375,0
109.00200000000041,0.012897863052785397,0.008962475694715977,0.00832985807210207,0.0,0.0,0.0,0.0,-0.0009323111735284328,-0.004929999355226755,0.003927235025912523,0.9991198778152466,0.0,0.0,0.0,35.397884368896484,1.495516061782837,8.6066255569458,-6407.08740234375,0
118.92100000000028,0.012880077585577965,0.008885976858437061,0.008393442258238792,0.0,0.0,0.0,0.0,0.0019047275418415666,8.677529694978148e-05,0.0005955465603619814,0.9998729825019836,0.0,0.0,0.0,35.363792419433594,1.4982496500015259,8.604416847229004,-6400.91650390625,0
128.82500000000073,0.012925170361995697,0.009083238430321217,0.008136346004903316,0.0,0.0,0.0,0.0,-0.0024727927520871162,0.004596291575580835,0.0017222038004547358,1.0002347230911255,0.0,0.0,0.0,35.40581512451172,1.5289112329483032,8.621550559997559,-6408.52294921875,0
138.75500000000102,0.012903519906103611,0.009004817344248295,0.008208024315536022,0.0,0.0,0.0,0.0,8.918392268242314e-05,-0.0010225384030491114,-0.0003889371291734278,1.0005146265029907,0.0,0.0,0.0,35.37080383300781,1.5301765203475952,8.59674072265625,-6402.185546875,0
148.64700000000084,0.012949174270033836,0.009190566837787628,0.007965533062815666,0.0,0.0,0.0,0.0,-0.0005065317382104695,0.0009431538637727499,0.001452755881473422,1.0010807514190674,0.0,0.0,0.0,35.40955352783203,1.5558414459228516,8.61895751953125,-6409.19970703125,0
158.5640000000003,0.012927363626658916,0.009124924428761005,0.008033818565309048,0.0,0.0,0.0,0.0,-0.0007466426468454301,-0.0019977916963398457,-0.0019170822342857718,0.9984654188156128,0.0,0.0,0.0,35.37460708618164,1.560591697692871,8.614494323730469,-6402.8740234375,0
168.46700000000055,0.012925060465931892,0.009273293428122997,0.00787188671529293,0.0,0.0,0.0,0.0,0.0009118142770603299,0.004137393552809954,-0.00412554107606411,0.9985122680664062,0.0,0.0,0.0,35.411502838134766,1.600168228149414,8.62579345703125,-6409.55224609375,0
178.38900000000103,0.01289659459143877,0.009209606796503067,0.00794128980487585,0.0,0.0,0.0,0.0,0.0019453102722764015,0.002850206568837166,0.002551444573327899,1.000101923942566,0.0,0.0,0.0,35.37526321411133,1.5990149974822998,8.601642608642578,-6402.9931640625,0
188.29100000000108,0.012883665971457958,0.009326807223260403,0.007832814939320087,0.0,0.0,0.0,0.0,0.00025553297018632293,-0.007144536357372999,0.0014113285578787327,0.999768078327179,0.0,0.0,0.0,35.41630172729492,1.624049186706543,8.599912643432617,-6410.42138671875,0
198.20600000000013,0.012851308099925518,0.009268241934478283,0.00790429674088955,0.0,0.0,0.0,0.0,-0.0009068016079254448,-0.002397379605099559,0.001168769202195108,0.9996315836906433,0.0,0.0,0.0,35.382118225097656,1.6236895322799683,8.606009483337402,-6404.23388671875,0
208.10900000000038,0.012837307527661324,0.009382211603224277,0.00785889197140932,0.0,0.0,0.0,0.0,0.00019564016838558018,0.0004223849100526422,-0.003062437754124403,0.9998647570610046,0.0,0.0,0.0,35.419219970703125,1.658625841140747,8.61841869354248,-6410.94921875,0
218.03300000000127,0.012803264893591404,0.009328112937510014,0.007934018969535828,0.0,0.0,0.0,0.0,0.0015129364328458905,0.00010305851901648566,0.0033756843768060207,0.9978569746017456,0.0,0.0,0.0,35.3837776184082,1.6598126888275146,8.608848571777344,-6404.53466796875,0
227.9310000000005,0.012799440883100033,0.009470932185649872,0.007861156016588211,0.0,0.0,0.0,0.0,0.001762250903993845,-0.0009535150602459908,-0.0033172420226037502,0.9998995661735535,0.0,0.0,0.0,35.42217254638672,1.6928255558013916,8.620231628417969,-6411.48388671875,0
237.85100000000057,0.012760414741933346,0.009424412623047829,0.0079383235424757,0.0,0.0,0.0,0.0,-0.0011941303964704275,0.0054732454009354115,-0.00044310171506367624,1.0007686614990234,0.0,0.0,0.0,35.386470794677734,1.689949631690979,8.613797187805176,-6405.021484375,0
247.7520000000004,0.012797487899661064,0.009638777002692223,0.007612492423504591,0.0,0.0,0.0,0.0,-0.0024379349779337645,-0.0014675675192847848,-0.0011665342608466744,0.9982558488845825,0.0,0.0,0.0,35.41669845581055,1.7052077054977417,8.611992835998535,-6410.4921875,0
257.6720000000005,0.0127567108720541,0.009598566219210625,0.007688508834689856,0.0,0.0,0.0,0.0,0.0031960045453161,-0.0016549028223380446,-0.0025527379475533962,0.999123215675354,0.0,0.0,0.0,35.381038665771484,1.7121039628982544,8.60708999633789,-6404.0380859375,0
267.5789999999997,0.012758148834109306,0.00968203879892826,0.007640603929758072,0.0,0.0,0.0,0.0,0.0023877599742263556,0.005563138052821159,-0.0024680665228515863,0.9990705251693726,0.0,0.0,0.0,35.415340423583984,1.7225627899169922,8.620213508605957,-6410.24755859375,0
277.4970000000012,0.012714965268969536,0.00964535865932703,0.007716324180364609,0.0,0.0,0.0,0.0,-0.0004252748331055045,-0.0003874206158798188,0.002280598506331444,0.9982590079307556,0.0,0.0,0.0,35.3798828125,1.7273914813995361,8.598219871520996,-6403.82958984375,0
287.39500000000044,0.012735027819871902,0.009724725969135761,0.0076416474767029285,0.0,0.0,0.0,0.0,-0.0027439307887107134,0.006136941723525524,0.004184292163699865,0.9971170425415039,0.0,0.0,0.0,35.414485931396484,1.725957989692688,8.612401962280273,-6410.09228515625,0
297.3180000000011,0.012691384181380272,0.009690624661743641,0.0077151465229690075,0.0,0.0,0.0,0.0,-0.0010795675916597247,-0.004177523776888847,-0.0009551855619065464,1.0002862215042114,0.0,0.0,0.0,35.37959289550781,1.7309123277664185,8.587151527404785,-6403.7763671875,0
307.22000000000116,0.012745545245707035,0.009709665551781654,0.00770172756165266,0.0,0.0,0.0,0.0,-0.0012997642625123262,-0.001790164620615542,0.002970648929476738,1.0012716054916382,0.0,0.0,0.0,35.41147232055664,1.702748417854309,8.621453285217285,-6409.54638671875,0
317.15099999999984,0.01270713098347187,0.009674637578427792,0.0077751995995640755,0.0,0.0,0.0,0.0,0.0009608048712834716,-0.001936272718012333,-0.001253220485523343,0.998228907585144,0.0,0.0,0.0,35.377559661865234,1.7048977613449097,8.615241050720215,-6403.40869140625,0
327.03900000000067,0.012770166620612144,0.009666360914707184,0.007769009564071894,0.0,0.0,0.0,0.0,-0.001704110880382359,0.0037725577130913734,0.0021130049135535955,0.9990946054458618,0.0,0.0,0.0,35.4166259765625,1.662938117980957,8.6395902633667,-6410.47998046875,0
336.9549999999999,0.01273651048541069,0.0096272062510252,0.007841910235583782,0.0,0.0,0.0,0.0,-0.0009644221281632781,0.004038224462419748,-0.0014818264171481133,0.9994363784790039,0.0,0.0,0.0,35.382713317871094,1.664196252822876,8.621529579162598,-6404.34130859375,0
346.8580000000002,0.012789071537554264,0.009658495895564556,0.00779366958886385,0.0,0.0,0.0,0.0,0.001742493361234665,-0.0017015940975397825,-0.001564602367579937,0.999675989151001,0.0,0.0,0.0,35.41804122924805,1.6393320560455322,8.626646995544434,-6410.73583984375,0
356.78000000000065,0.01275820005685091,0.009620683267712593,0.007866323925554752,0.0,0.0,0.0,0.0,-0.003504249732941389,-0.0005081694689579308,-0.0001138213265221566,0.9992395043373108,0.0,0.0,0.0,35.38315963745117,1.6336849927902222,8.616355895996094,-6404.421875,0
366.6800000000003,0.012838969938457012,0.009746963158249855,0.007561907637864351,0.0,0.0,0.0,0.0,0.00018984745838679373,-0.00155794364400208,0.00047185076982714236,1.0007140636444092,0.0,0.0,0.0,35.41355895996094,1.6110187768936157,8.634725570678711,-6409.9248046875,0
376.60000000000036,0.012810098938643932,0.009706703945994377,0.0076309433206915855,0.0,0.0,0.0,0.0,-0.0010569571750238538,0.001067201024852693,-0.003930228296667337,1.0004591941833496,0.0,0.0,0.0,35.379520416259766,1.6107863187789917,8.62935733795166,-6403.76416015625,0
386.5030000000006,0.012861011549830437,0.009730463847517967,0.0075346059165894985,0.0,0.0,0.0,0.0,-0.004831990227103233,0.003298084484413266,0.0014927729498595,0.999382734298706,0.0,0.0,0.0,35.41783142089844,1.5846222639083862,8.642231941223145,-6410.697265625,0
396.4250000000011,0.012832727283239365,0.009686650708317757,0.007603584788739681,0.0,0.0,0.0,0.0,0.0028569118585437536,-0.005994521081447601,-0.0006517870351672173,0.9971131682395935,0.0,0.0,0.0,35.3836784362793,1.5960544347763062,8.626583099365234,-6404.51611328125,0
406.32800000000134,0.012921860441565514,0.009704257361590862,0.007492414675652981,0.0,0.0,0.0,0.0,0.001346280099824071,-0.0008766353712417185,0.0012264190008863807,0.997605562210083,0.0,0.0,0.0,35.42295455932617,1.5517922639846802,8.6572847366333,-6411.625,0
416.2489999999998,0.012898669578135014,0.009657704271376133,0.007556556724011898,0.0,0.0,0.0,0.0,0.0013952301815152168,-0.0025887570809572935,0.0017047697911038995,0.9981894493103027,0.0,0.0,0.0,35.3886604309082,1.5499001741409302,8.648343086242676,-6405.41845703125,0
426.15099999999984,0.012987827882170677,0.009718965739011765,0.007376411929726601,0.0,0.0,0.0,0.0,-0.0030924612656235695,-0.006995012052357197,0.0009811271447688341,0.9979671239852905,0.0,0.0,0.0,35.4263916015625,1.5181515216827393,8.672383308410645,-6412.24755859375,0
436.0650000000005,0.012970452196896076,0.009670451283454895,0.007435661740601063,0.0,0.0,0.0,0.0,-0.0016299741109833121,-0.008009402081370354,-0.0026131437625736,1.0003314018249512,0.0,0.0,0.0,35.39168167114258,1.5286890268325806,8.675640106201172,-6405.96484375,0
445.97299999999996,0.013048156164586544,0.009781349450349808,0.007163659203797579,0.0,0.0,0.0,0.0,-0.001990844728425145,0.0030394005589187145,-0.0017657884163782,0.9983811974525452,0.0,0.0,0.0,35.42198181152344,1.5260807275772095,8.693360328674316,-6411.44921875,0
455.88900000000103,0.013034585863351822,0.009732970036566257,0.00721906591206789,0.0,0.0,0.0,0.0,-0.0006642629741691053,-0.0002799319045152515,0.001353794359602034,0.9987114071846008,0.0,0.0,0.0,35.38739776611328,1.533237099647522,8.677873611450195,-6405.18896484375,0
465.7950000000001,0.013095388188958168,0.009749213233590126,0.007072790060192347,0.0,0.0,0.0,0.0,0.0037966507952660322,2.9701799576287158e-05,-0.00010189999738940969,0.9980724453926086,0.0,0.0,0.0,35.425567626953125,1.506066918373108,8.686493873596191,-6412.09814453125,0
475.70700000000033,0.013085495680570602,0.009699606336653233,0.007123216055333614,0.0,0.0,0.0,0.0,0.00037750782212242484,0.0026007278356701136,0.0029123437125235796,0.9985732436180115,0.0,0.0,0.0,35.39045333862305,1.497657299041748,8.672913551330566,-6405.74267578125,0
485.616,0.013149691745638847,0.009799805469810963,0.006856612861156464,0.0,0.0,0.0,0.0,0.0022704284638166428,0.0013179227244108915,0.0017864139517769217,0.9998853802680969,0.0,0.0,0.0,35.42319107055664,1.4899189472198486,8.664789199829102,-6411.66748046875,0
495.53100000000086,0.013141188770532608,0.009750692173838615,0.006902999244630337,0.0,0.0,0.0,0.0,0.000807970471214503,0.005582298152148724,0.0013819483574479818,0.9989923238754272,0.0,0.0,0.0,35.387611389160156,1.4878153800964355,8.650970458984375,-6405.22802734375,0
505.4400000000005,0.013201488181948662,0.009847116656601429,0.006664333865046501,0.0,0.0,0.0,0.0,0.0033376822248101234,0.00013601782848127186,0.004656228236854076,0.9987905621528625,0.0,0.0,0.0,35.426753997802734,1.4786797761917114,8.644448280334473,-6412.31298828125,0
515.3540000000012,0.013194032944738865,0.009796631522476673,0.006707772612571716,0.0,0.0,0.0,0.0,-0.0012236747425049543,-0.0033300549257546663,0.0007638665265403688,0.999556303024292,0.0,0.0,0.0,35.39338302612305,1.4738088846206665,8.63239574432373,-6406.27294921875,0
525.2540000000008,0.013261696323752403,0.009892710484564304,0.006540767382830381,0.0,0.0,0.0,0.0,-0.0025383152533322573,0.002662594197317958,-0.003185929963365197,0.9995017647743225,0.0,0.0,0.0,35.42966079711914,1.4744242429733276,8.655549049377441,-6412.83935546875,0
535.1680000000015,0.013256925158202648,0.009843002073466778,0.006583996117115021,0.0,0.0,0.0,0.0,-0.000131200096802786,-0.0047118160873651505,0.0014820325886830688,1.0002168416976929,0.0,0.0,0.0,35.3939323425293,1.475868582725525,8.642180442810059,-6406.3720703125,0
545.0820000000003,0.013328814879059792,0.010041256435215473,0.0061805834993720055,0.0,0.0,0.0,0.0,-0.0013518969062715769,-0.0004904032684862614,-0.0005393588216975331,0.997758150100708,0.0,0.0,0.0,35.425315856933594,1.4861268997192383,8.65043830871582,-6412.05224609375,0
554.9840000000004,0.013323282822966576,0.009993578307330608,0.006220549810677767,0.0,0.0,0.0,0.0,0.00036843211273662746,0.0021890914067626,0.00035324899363331497,0.9983828067779541,0.0,0.0,0.0,35.39087677001953,1.4916648864746094,8.646533966064453,-6405.81884765625,0
564.9050000000007,0.013360431417822838,0.010169141925871372,0.005926118697971106,0.0,0.0,0.0,0.0,0.0008396347984671593,0.00678936718031764,0.0008237161673605442,0.9990125298500061,0.0,0.0,0.0,35.424041748046875,1.5112292766571045,8.646903038024902,-6411.82177734375,0
574.8060000000005,0.013353731483221054,0.010125558823347092,0.005962590221315622,0.0,0.0,0.0,0.0,-0.003194465534761548,0.0026386671233922243,0.0031580401118844748,0.9981741905212402,0.0,0.0,0.0,35.389713287353516,1.5123623609542847,8.62260627746582,-6405.6083984375,0
584.7300000000014,0.01337598729878664,0.0103734340518713,0.005580713506788015,0.0,0.0,0.0,0.0,0.002321765758097172,0.001093874336220324,-0.000886260240804404,0.9995229840278625,0.0,0.0,0.0,35.419376373291016,1.5631909370422363,8.60555362701416,-6410.9775390625,0
594.6260000000002,0.013362509198486805,0.010336027480661869,0.005614329129457474,0.0,0.0,0.0,0.0,-0.0027240742929279804,-0.0022484862711280584,-0.0015496880514547229,1.0000063180923462,0.0,0.0,0.0,35.384300231933594,1.5614070892333984,8.592129707336426,-6404.62841796875,0
604.5490000000009,0.01337670348584652,0.010468965396285057,0.005535946227610111,0.0,0.0,0.0,0.0,0.003133200341835618,0.001818472403101623,0.002997525967657566,1.0008658170700073,0.0,0.0,0.0,35.423160552978516,1.5955753326416016,8.612900733947754,-6411.66259765625,0
614.4480000000003,0.01335791777819395,0.010435822419822216,0.00557410903275013,0.0,0.0,0.0,0.0,-0.0005258043529465795,0.0029061883687973022,-0.002094426192343235,0.9997594952583313,0.0,0.0,0.0,35.389339447021484,1.5917588472366333,8.60302734375,-6405.54052734375,0
624.3690000000006,0.013323553837835789,0.010520115494728088,0.0055848644115030766,0.0,0.0,0.0,0.0,0.0028817106503993273,0.000576887046918273,-0.0006240537622943521,0.9993873238563538,0.0,0.0,0.0,35.42462921142578,1.6297369003295898,8.604386329650879,-6411.9287109375,0
634.2710000000006,0.013299734331667423,0.010491161607205868,0.005627402104437351,0.0,0.0,0.0,0.0,-0.0007792582036927342,0.0009129606769420207,0.0006900068838149309,0.9985389113426208,0.0,0.0,0.0,35.389808654785156,1.6255635023117065,8.595757484436035,-6405.6259765625,0
644.1930000000011,0.013281035237014294,0.010607092641294003,0.005615652073174715,0.0,0.0,0.0,0.0,-0.0003963767958339304,-6.407721230061725e-05,-0.0020878685172647238,0.9983135461807251,0.0,0.0,0.0,35.4270133972168,1.6609563827514648,8.601226806640625,-6412.35986328125,0
654.0910000000003,0.013252158649265766,0.01058434508740902,0.005660181399434805,0.0,0.0,0.0,0.0,0.00023471665917895734,0.0014069898752495646,0.0009384567383676767,0.9993301033973694,0.0,0.0,0.0,35.39164733886719,1.6638038158416748,8.590777397155762,-6405.95849609375,0
664.0130000000008,0.013230384327471256,0.010682890191674232,0.005691311322152615,0.0,0.0,0.0,0.0,0.0008344558882527053,-0.0019523781957104802,-0.0010727191111072898,1.0006083250045776,0.0,0.0,0.0,35.434383392333984,1.6894586086273193,8.599955558776855,-6413.6943359375,0
673.9160000000011,0.01320013776421547,0.010666661895811558,0.005739172920584679,0.0,0.0,0.0,0.0,0.0032179569825530052,0.006334665231406689,-0.0022623720578849316,1.0008985996246338,0.0,0.0,0.0,35.39922332763672,1.6929309368133545,8.592066764831543,-6407.330078125,0
683.8370000000014,0.013160607777535915,0.010711363516747952,0.0058208550326526165,0.0,0.0,0.0,0.0,6.872721860418096e-05,-0.0008749866974540055,0.0006435364484786987,1.0010368824005127,0.0,0.0,0.0,35.44088363647461,1.706548810005188,8.583006858825684,-6414.87060546875,0
693.7350000000006,0.013127866201102734,0.010698436759412289,0.00587432598695159,0.0,0.0,0.0,0.0,-0.0006526461220346391,0.0008042254485189915,0.001824786770157516,1.0006718635559082,0.0,0.0,0.0,35.40715408325195,1.7059680223464966,8.581470489501953,-6408.76513671875,0
703.6610000000001,0.01312196534126997,0.010790625587105751,0.005848560947924852,0.0,0.0,0.0,0.0,-0.0023640217259526253,-0.005254070740193129,0.0014453028561547399,1.0021108388900757,0.0,0.0,0.0,35.44718933105469,1.7197139263153076,8.589184761047363,-6416.01171875,0
713.5540000000001,0.013084273785352707,0.010780583135783672,0.005906619597226381,0.0,0.0,0.0,0.0,0.0006469605141319335,-0.0008812227752059698,0.0011154948733747005,0.9981825947761536,0.0,0.0,0.0,35.412261962890625,1.7222293615341187,8.588760375976562,-6409.68994140625,0
723.4710000000014,0.013114403001964092,0.010811652056872845,0.005927647929638624,0.0,0.0,0.0,0.0,0.00037230277666822076,-0.0012620214838534594,-0.0006774686626158655,0.9985772371292114,0.0,0.0,0.0,35.45171356201172,1.7039841413497925,8.610555648803711,-6416.83056640625,0
733.3820000000014,0.013078177347779274,0.010804831050336361,0.005986205767840147,0.0,0.0,0.0,0.0,-0.0020653929095715284,0.0017012727912515402,-0.001336354180239141,0.9982693195343018,0.0,0.0,0.0,35.41696548461914,1.7078790664672852,8.609649658203125,-6410.54150390625,0
743.2990000000009,0.013155583292245865,0.010775032453238964,0.0060035111382603645,0.0,0.0,0.0,0.0,-0.0026365427765995264,-0.0016489006811752915,0.0016266326420009136,0.9995013475418091,0.0,0.0,0.0,35.453125,1.6586132049560547,8.635464668273926,-6417.08642578125,0
753.1980000000003,0.013126174919307232,0.010762804187834263,0.0060598887503147125,0.0,0.0,0.0,0.0,0.0023373402655124664,0.005163269117474556,-0.00018588108650874346,0.9992156028747559,0.0,0.0,0.0,35.41943359375,1.6655488014221191,8.630309104919434,-6410.98828125,0
763.1140000000014,0.013184954412281513,0.010682808235287666,0.006130835972726345,0.0,0.0,0.0,0.0,0.0053407251834869385,-0.0004931290168315172,-0.0005166508490219712,0.9996963739395142,0.0,0.0,0.0,35.460880279541016,1.6063783168792725,8.634073257446289,-6418.48974609375,0
773.0190000000002,0.013161206617951393,0.01066325232386589,0.0061861248686909676,0.0,0.0,0.0,0.0,-0.0016588721191510558,0.003603249089792371,-0.0006099211750552058,0.9996432065963745,0.0,0.0,0.0,35.4259033203125,1.5979366302490234,8.61974048614502,-6412.15869140625,0
782.9390000000003,0.01321555208414793,0.010610230267047882,0.006209501996636391,0.0,0.0,0.0,0.0,-0.00035039562499150634,0.00028657892835326493,0.0014278539456427097,0.9993343949317932,0.0,0.0,0.0,35.46664047241211,1.5567703247070312,8.626399040222168,-6419.53271484375,0
792.8400000000001,0.013198720291256905,0.010583700612187386,0.006263607647269964,0.0,0.0,0.0,0.0,-0.0002526281459722668,0.006009211298078299,-0.001776942634023726,1.0000137090682983,0.0,0.0,0.0,35.43196487426758,1.5542298555374146,8.620359420776367,-6413.25634765625,0
802.764000000001,0.013250182382762432,0.010529212653636932,0.0062599205411970615,0.0,0.0,0.0,0.0,-0.0008600066648796201,-0.0013455814914777875,-0.0011343496153131127,1.0007641315460205,0.0,0.0,0.0,35.468605041503906,1.5098170042037964,8.618928909301758,-6419.8876953125,0
812.6620000000003,0.01323983445763588,0.010495568625628948,0.0063131083734333515,0.0,0.0,0.0,0.0,-0.0012921663001179695,-0.002735393587499857,0.0011218589497730136,1.000711441040039,0.0,0.0,0.0,35.433834075927734,1.5151022672653198,8.607029914855957,-6413.59423828125,0
822.5820000000003,0.01328822411596775,0.0104367071762681,0.006231679115444422,0.0,0.0,0.0,0.0,-0.0015775570645928383,-0.0033261370845139027,-0.0008461521356366575,0.9998007416725159,0.0,0.0,0.0,35.47311019897461,1.473339557647705,8.60708999633789,-6420.70361328125,0
832.4840000000004,0.013279125094413757,0.010395077988505363,0.006282932590693235,0.0,0.0,0.0,0.0,-0.0012542438926175237,-0.004218147136271,0.0022521098144352436,1.0016287565231323,0.0,0.0,0.0,35.4376106262207,1.4790843725204468,8.603395462036133,-6414.27783203125,0
842.3990000000013,0.013323396444320679,0.010387361980974674,0.006166484672576189,0.0,0.0,0.0,0.0,-0.0005446723662316799,0.0023083812557160854,-0.003738716710358858,1.0006588697433472,0.0,0.0,0.0,35.47694396972656,1.4553989171981812,8.60261058807373,-6421.3974609375,0
852.3040000000001,0.01331570465117693,0.010338953696191311,0.0062174489721655846,0.0,0.0,0.0,0.0,-0.00045829874579794705,-9.215194950229488e-06,7.302577432710677e-05,0.9979272484779358,0.0,0.0,0.0,35.44048309326172,1.4584523439407349,8.587606430053711,-6414.7978515625,0
862.2170000000006,0.013342197984457016,0.010293830186128616,0.006121331360191107,0.0,0.0,0.0,0.0,-0.0007513403543271124,0.00439497223123908,0.0023699766024947166,0.9980208277702332,0.0,0.0,0.0,35.47821807861328,1.4293338060379028,8.577011108398438,-6421.62744140625,0
872.1270000000004,0.013333783484995365,0.010236930102109909,0.0061674220487475395,0.0,0.0,0.0,0.0,0.0023573623038828373,0.000195929198525846,-0.0025637950748205185,1.0000593662261963,0.0,0.0,0.0,35.44392013549805,1.4295494556427002,8.561492919921875,-6415.419921875,0
882.0380000000005,0.013338376767933369,0.010195179842412472,0.006112552247941494,0.0,0.0,0.0,0.0,-0.0013176352949813008,0.0022231750190258026,-0.0009473899262957275,0.9985927939414978,0.0,0.0,0.0,35.475948333740234,1.4114028215408325,8.548016548156738,-6421.216796875,0
891.9470000000001,0.013328658416867256,0.01013267319649458,0.006155914627015591,0.0,0.0,0.0,0.0,0.001035824534483254,0.0020008909050375223,0.0009909727377817035,0.9988991618156433,0.0,0.0,0.0,35.441104888916016,1.4179757833480835,8.5393705368042,-6414.91015625,0
901.8649999999998,0.013359167613089085,0.010184436105191708,0.00598425418138504,0.0,0.0,0.0,0.0,-1.1035086572519504e-05,-0.0011326773092150688,0.00039780675433576107,0.9995251297950745,0.0,0.0,0.0,35.47599411010742,1.4140377044677734,8.534943580627441,-6421.22509765625,0
911.7690000000002,0.013347997330129147,0.010120071470737457,0.006025048904120922,0.0,0.0,0.0,0.0,0.002295290818437934,0.004515659064054489,-0.0023753694258630276,1.0007197856903076,0.0,0.0,0.0,35.44152069091797,1.416974663734436,8.525869369506836,-6414.9853515625,0
921.6800000000003,0.013373813591897488,0.01020110584795475,0.005817660130560398,0.0,0.0,0.0,0.0,0.000959053635597229,0.001073329709470272,0.0014540833653882146,1.000553011894226,0.0,0.0,0.0,35.467498779296875,1.4240506887435913,8.508877754211426,-6419.6875,0
931.6000000000004,0.013387040235102177,0.010303601622581482,0.005549916066229343,0.0,0.0,0.0,0.0,0.00017130908963736147,-0.0006715038907714188,0.0020142951980233192,0.9998719692230225,0.0,0.0,0.0,35.495426177978516,1.439285397529602,8.49087142944336,-6424.74267578125,0
941.5010000000002,0.013371026143431664,0.01023745909333229,0.005588458850979805,0.0,0.0,0.0,0.0,0.0020927160512655973,-0.0013235114747658372,0.002062827115878463,0.9985669851303101,0.0,0.0,0.0,35.461002349853516,1.443560004234314,8.49132251739502,-6418.51171875,0
951.4130000000005,0.013405736535787582,0.010330156423151493,0.005417777691036463,0.0,0.0,0.0,0.0,-0.00022780633298680186,0.0037614447064697742,0.004871097393333912,1.0013726949691772,0.0,0.0,0.0,35.49623489379883,1.4582136869430542,8.507515907287598,-6424.88916015625,0
961.3230000000003,0.013388033024966717,0.010265504941344261,0.005456423386931419,0.0,0.0,0.0,0.0,0.0008761539938859642,1.3256930287752766e-05,-0.0011915918439626694,1.001346230506897,0.0,0.0,0.0,35.461788177490234,1.460343599319458,8.493098258972168,-6418.65380859375,0
971.2340000000004,0.013422367163002491,0.010366439819335938,0.005305879283696413,0.0,0.0,0.0,0.0,0.0005173564422875643,0.002528128679841757,0.0005088564939796925,0.9981939792633057,0.0,0.0,0.0,35.49713897705078,1.47835111618042,8.504670143127441,-6425.052734375,0
981.1440000000002,0.01340334489941597,0.01030510850250721,0.0053468989208340645,0.0,0.0,0.0,0.0,0.00019370565132703632,-0.0010902750073000789,-0.0004800744354724884,0.9990124106407166,0.0,0.0,0.0,35.462249755859375,1.4794304370880127,8.491016387939453,-6418.73779296875,0
991.0560000000005,0.013408656232059002,0.010454037226736546,0.005110306665301323,0.0,0.0,0.0,0.0,0.0010350897209718823,-0.003631137777119875,-0.002684566890820861,0.9996670484542847,0.0,0.0,0.0,35.486785888671875,1.5140604972839355,8.493865966796875,-6423.17919921875,0
1000.9670000000006,0.01338345929980278,0.010395978577435017,0.005150274373590946,0.0,0.0,0.0,0.0,0.0006649740389548242,-0.0015789868775755167,0.002711254870519042,1.0006572008132935,0.0,0.0,0.0,35.45165252685547,1.5200018882751465,8.492805480957031,-6416.81982421875,0
1010.8770000000004,0.01339747104793787,0.010660777799785137,0.004794692154973745,0.0,0.0,0.0,0.0,3.352643034304492e-05,-0.0034100066404789686,0.0020639928989112377,0.9999282360076904,0.0,0.0,0.0,35.48240280151367,1.5753741264343262,8.50048542022705,-6422.3857421875,0
1020.7860000000001,0.013366213999688625,0.01061001606285572,0.004836755804717541,0.0,0.0,0.0,0.0,-0.002373509109020233,0.003614363493397832,0.006831625942140818,1.0003864765167236,0.0,0.0,0.0,35.44746017456055,1.5741326808929443,8.490678787231445,-6416.06005859375,0
1030.7020000000011,0.013398492708802223,0.010860648937523365,0.0044437432661652565,0.0,0.0,0.0,0.0,-0.0005979545530863106,0.0015785753494128585,-0.0005655413842760026,0.9992480278015137,0.0,0.0,0.0,35.47957992553711,1.6142808198928833,8.486144065856934,-6421.87451171875,0
1040.6180000000004,0.013363119214773178,0.010814720764756203,0.0044854432344436646,0.0,0.0,0.0,0.0,-0.0005462515400722623,0.00028776595718227327,-0.0034983158111572266,1.000747561454773,0.0,0.0,0.0,35.44364547729492,1.6094820499420166,8.474503517150879,-6415.37060546875,0
1050.5210000000006,0.013371634297072887,0.01091813575476408,0.004475231748074293,0.0,0.0,0.0,0.0,0.003283006837591529,0.0005121896974742413,-0.0010355717968195677,0.9998384118080139,0.0,0.0,0.0,35.47970962524414,1.63289213180542,8.496541023254395,-6421.89794921875,0
1060.429,0.013333424925804138,0.01088026911020279,0.004522677045315504,0.0,0.0,0.0,0.0,-0.0020804821979254484,-0.004182187374681234,0.00044428225373849273,0.9993459582328796,0.0,0.0,0.0,35.44510269165039,1.6266748905181885,8.490683555603027,-6415.6337890625,0
1070.3410000000003,0.01336786337196827,0.01110311783850193,0.0042301928624510765,0.0,0.0,0.0,0.0,-0.002685174811631441,-0.0012138690799474716,-0.0024766677524894476,0.9988280534744263,0.0,0.0,0.0,35.47932434082031,1.6570391654968262,8.524964332580566,-6421.82861328125,0
1080.2510000000002,0.013327059336006641,0.011073792353272438,0.0042778183706104755,0.0,0.0,0.0,0.0,-0.0003359536931384355,-0.0029993231873959303,0.003129303688183427,1.0004606246948242,0.0,0.0,0.0,35.44405746459961,1.6627897024154663,8.5195894241333,-6415.44482421875,0
1090.1630000000005,0.013326695188879967,0.011154740117490292,0.0042943465523421764,0.0,0.0,0.0,0.0,-0.0005934558575972915,0.006634142715483904,-0.00673263194039464,0.9993891716003418,0.0,0.0,0.0,35.480987548828125,1.6855560541152954,8.544535636901855,-6422.12890625,0
1100.0720000000001,0.013286064378917217,0.011130809783935547,0.004346189089119434,0.0,0.0,0.0,0.0,-0.0003316579677630216,0.0017081139376387,-0.0019548137206584215,1.0023503303527832,0.0,0.0,0.0,35.444766998291016,1.6881675720214844,8.52222728729248,-6415.5732421875,0
1109.9899999999998,0.01332186721265316,0.011201287619769573,0.00440595718100667,0.0,0.0,0.0,0.0,-0.0007784090121276677,0.0025261330883949995,-0.006438204552978277,0.9978927373886108,0.0,0.0,0.0,35.48224639892578,1.689233660697937,8.563429832458496,-6422.357421875,0
1119.8940000000002,0.013286049477756023,0.011178153567016125,0.00446444284170866,0.0,0.0,0.0,0.0,-0.00038686496554873884,-0.0021359198726713657,-0.00018556645954959095,0.9978765845298767,0.0,0.0,0.0,35.44607162475586,1.6909663677215576,8.55599308013916,-6415.80908203125,0
1129.8050000000003,0.013330141082406044,0.011227108538150787,0.00451648561283946,0.0,0.0,0.0,0.0,0.0013821827014908195,-0.002364577492699027,-0.001347698038443923,1.0000718832015991,0.0,0.0,0.0,35.486534118652344,1.6778703927993774,8.59616470336914,-6423.13330078125,0
1139.7150000000001,0.013298546895384789,0.011205056682229042,0.004576347768306732,0.0,0.0,0.0,0.0,-0.0013006534427404404,0.0005382046801969409,-0.004133213311433792,0.9984362125396729,0.0,0.0,0.0,35.45149230957031,1.6713920831680298,8.58578872680664,-6416.791015625,0
1149.6270000000004,0.013345548883080482,0.011299345642328262,0.004401728976517916,0.0,0.0,0.0,0.0,-0.0016978493658825755,-0.00093133031623438,-0.0012691356241703033,0.9981778264045715,0.0,0.0,0.0,35.483863830566406,1.6593358516693115,8.596620559692383,-6422.64990234375,0
1159.536,0.013315100222826004,0.011275557801127434,0.0044585405848920345,0.0,0.0,0.0,0.0,0.0018936455016955733,0.0016549781430512667,0.002162272110581398,0.9977480173110962,0.0,0.0,0.0,35.448944091796875,1.6651835441589355,8.596739768981934,-6416.3291015625,0
1169.4500000000007,0.01332168374210596,0.011232860386371613,0.004631282761693001,0.0,0.0,0.0,0.0,-0.0026111360639333725,-0.005661464296281338,0.0012641259236261249,1.0013502836227417,0.0,0.0,0.0,35.48524475097656,1.646761417388916,8.619586944580078,-6422.89990234375,0
1179.3610000000008,0.013291575945913792,0.011208071373403072,0.004689873196184635,0.0,0.0,0.0,0.0,-0.00035122083500027657,-0.0029299159068614244,-0.000397979689296335,0.9987037181854248,0.0,0.0,0.0,35.45034408569336,1.6559561491012573,8.627031326293945,-6416.5830078125,0
1189.2720000000008,0.01331910490989685,0.011136663146317005,0.004819333553314209,0.0,0.0,0.0,0.0,0.0017031815368682146,0.0033445670269429684,-0.001684347982518375,0.9987179636955261,0.0,0.0,0.0,35.490909576416016,1.619060754776001,8.645644187927246,-6423.9248046875,0
1199.188,0.013294151984155178,0.011107992380857468,0.004878540989011526,0.0,0.0,0.0,0.0,-6.453525566030294e-05,-0.0005949106998741627,0.0014526783488690853,0.9984183311462402,0.0,0.0,0.0,35.4559211730957,1.6148384809494019,8.622207641601562,-6417.591796875,0
1209.0910000000003,0.013356338255107403,0.011152242310345173,0.004705960862338543,0.0,0.0,0.0,0.0,4.006435119663365e-05,-0.00111767731141299,-0.0014503817074000835,1.0000419616699219,0.0,0.0,0.0,35.49010467529297,1.5755366086959839,8.628778457641602,-6423.77880859375,0
1219.0010000000002,0.013334821909666061,0.011118694208562374,0.004760803654789925,0.0,0.0,0.0,0.0,-0.00219179829582572,0.0017562146531417966,-2.8821408704970963e-05,0.9991037249565125,0.0,0.0,0.0,35.45479965209961,1.5756298303604126,8.618330955505371,-6417.38916015625,0
1228.916000000001,0.013400163501501083,0.011154732666909695,0.004585419315844774,0.0,0.0,0.0,0.0,-0.0007108437712304294,-0.002329156268388033,0.0042418730445206165,0.999923586845398,0.0,0.0,0.0,35.482398986816406,1.5458444356918335,8.62122631072998,-6422.384765625,0
1238.8270000000011,0.013380915857851505,0.0111160259693861,0.004637399222701788,0.0,0.0,0.0,0.0,0.001252484624274075,0.0014953981153666973,0.0031788209453225136,1.0009825229644775,0.0,0.0,0.0,35.448455810546875,1.5474762916564941,8.619688987731934,-6416.24072265625,0
1248.7350000000006,0.013477949425578117,0.011153600178658962,0.004445104394108057,0.0,0.0,0.0,0.0,-0.002103384118527174,0.0029269647784531116,0.002840278670191765,0.9999473094940186,0.0,0.0,0.0,35.4820671081543,1.501285433769226,8.633737564086914,-6422.32470703125,0
1258.6440000000002,0.013464109972119331,0.011110304854810238,0.004495478235185146,0.0,0.0,0.0,0.0,0.0014681274769827724,0.0018880603602156043,-0.002048394177109003,0.9989762306213379,0.0,0.0,0.0,35.44734191894531,1.5077824592590332,8.623170852661133,-6416.0390625,0
1268.5550000000003,0.013524217531085014,0.0110663753002882,0.0044386922381818295,0.0,0.0,0.0,0.0,0.00023630200303159654,0.001783085404895246,-0.0015270923031494021,0.9975983500480652,0.0,0.0,0.0,35.48330307006836,1.4603980779647827,8.630117416381836,-6422.54833984375,0
1278.4650000000001,0.013514836318790913,0.011017980054020882,0.004485756158828735,0.0,0.0,0.0,0.0,-0.00220061419531703,-0.0013974104076623917,2.816845335473772e-05,0.996798038482666,0.0,0.0,0.0,35.44816589355469,1.460450291633606,8.619352340698242,-6416.1884765625,0
1288.3760000000002,0.013561015948653221,0.011017498560249805,0.004362683277577162,0.0,0.0,0.0,0.0,0.001335485023446381,-0.002819684101268649,-0.0007333264802582562,0.999456524848938,0.0,0.0,0.0,35.477996826171875,1.4401196241378784,8.617630004882812,-6421.58837890625,0
1298.2870000000003,0.013555938377976418,0.010962826199829578,0.004403111059218645,0.0,0.0,0.0,0.0,-0.003050725208595395,0.000322074192808941,0.0008115399396046996,1.000319004058838,0.0,0.0,0.0,35.442962646484375,1.4433879852294922,8.611520767211914,-6415.24658203125,0
1308.1970000000001,0.013605531305074692,0.011047636158764362,0.004103960003703833,0.0,0.0,0.0,0.0,-0.001365962321870029,0.0033816329669207335,-7.770626689307392e-05,0.9993941783905029,0.0,0.0,0.0,35.47303009033203,1.4438503980636597,8.601318359375,-6420.68896484375,0
1318.1110000000008,0.013600251637399197,0.010990669950842857,0.004140631295740604,0.0,0.0,0.0,0.0,0.00044836386223323643,0.0016440413892269135,-0.003240673802793026,0.998796284198761,0.0,0.0,0.0,35.43855667114258,1.444821834564209,8.584757804870605,-6414.44921875,0
1328.0190000000002,0.013639387674629688,0.011045766063034534,0.004045106936246157,0.0,0.0,0.0,0.0,-0.0006158245378173888,0.0023611928336322308,-0.001921872841194272,0.9983790516853333,0.0,0.0,0.0,35.47328567504883,1.4494094848632812,8.592100143432617,-6420.7353515625,0
1337.929,0.013632685877382755,0.010989201255142689,0.004081375896930695,0.0,0.0,0.0,0.0,-0.0013253487413749099,0.004383488558232784,-0.0020036359783262014,0.9988450407981873,0.0,0.0,0.0,35.438148498535156,1.4526617527008057,8.580972671508789,-6414.37548828125,0
1347.8469999999998,0.013670305721461773,0.011058916337788105,0.0039384625852108,0.0,0.0,0.0,0.0,0.0002773277519736439,-0.004762898664921522,0.0034252454061061144,1.0023335218429565,0.0,0.0,0.0,35.47112274169922,1.4578410387039185,8.575751304626465,-6420.34375,0
1357.7510000000002,0.013663756661117077,0.011002056300640106,0.003974180668592453,0.0,0.0,0.0,0.0,-0.0016814869595691562,0.002349177608266473,0.00024033455702010542,0.9989913702011108,0.0,0.0,0.0,35.43714904785156,1.4582170248031616,8.57557201385498,-6414.19482421875,0
1367.6620000000003,0.013688630424439907,0.011073998175561428,0.003875837894156575,0.0,0.0,0.0,0.0,0.0005013479967601597,0.0012379393447190523,0.005168143194168806,0.9991044402122498,0.0,0.0,0.0,35.47452163696289,1.4764890670776367,8.577566146850586,-6420.958984375,0
1377.58,0.013680052943527699,0.011018586345016956,0.003913613967597485,0.0,0.0,0.0,0.0,-0.0021913975942879915,-0.0010793780675157905,0.0023513741325587034,0.9978856444358826,0.0,0.0,0.0,35.441646575927734,1.4737849235534668,8.567845344543457,-6415.00830078125,0
1387.4830000000002,0.013695401139557362,0.011139404028654099,0.003810884663835168,0.0,0.0,0.0,0.0,-0.002768200123682618,0.00233855121769011,-0.0023244074545800686,0.9979820847511292,0.0,0.0,0.0,35.47868347167969,1.5084009170532227,8.580921173095703,-6421.71240234375,0
1397.398000000001,0.013683443889021873,0.01109218131750822,0.003848421387374401,0.0,0.0,0.0,0.0,0.001130006625317037,0.00108837999869138,0.0037335266824811697,0.9980697631835938,0.0,0.0,0.0,35.442996978759766,1.5131856203079224,8.567837715148926,-6415.25341796875,0
1407.304,0.013691294938325882,0.011275720782577991,0.003616013564169407,0.0,0.0,0.0,0.0,-0.002610273426398635,0.0017433055909350514,-0.0015287472633644938,0.9984725713729858,0.0,0.0,0.0,35.480953216552734,1.551331639289856,8.565549850463867,-6422.123046875,0
1417.2150000000001,0.013673746958374977,0.011236150749027729,0.003651621285825968,0.0,0.0,0.0,0.0,-0.0012123913038522005,-0.002286544069647789,0.0016687639290466905,0.9991495609283447,0.0,0.0,0.0,35.44538116455078,1.559066653251648,8.551986694335938,-6415.6845703125,0
1427.1329999999998,0.013703664764761925,0.011444698087871075,0.0033721402287483215,0.0,0.0,0.0,0.0,-0.0009494086261838675,-0.00095415732357651,0.0024142360780388117,0.9979956150054932,0.0,0.0,0.0,35.4759521484375,1.5959945917129517,8.56955623626709,-6421.21728515625,0
1437.0480000000007,0.013684146106243134,0.01141269225627184,0.0034059621393680573,0.0,0.0,0.0,0.0,-0.001575976493768394,0.0006666427361778915,-0.0005631808307953179,0.9990597367286682,0.0,0.0,0.0,35.441383361816406,1.6001741886138916,8.564681053161621,-6414.9609375,0
1446.9480000000003,0.013702377676963806,0.011510903015732765,0.0034129139967262745,0.0,0.0,0.0,0.0,0.0008642047760076821,0.002826620591804385,0.000813807884696871,1.0000500679016113,0.0,0.0,0.0,35.481075286865234,1.632536768913269,8.593525886535645,-6422.14501953125,0
1456.871000000001,0.01368262991309166,0.011487448588013649,0.003449446987360716,0.0,0.0,0.0,0.0,-0.0026226111222058535,-0.002179355127736926,-0.0011066134320572019,0.9987706542015076,0.0,0.0,0.0,35.446468353271484,1.634347915649414,8.582825660705566,-6415.880859375,0
1466.7759999999998,0.013704044744372368,0.011690659448504448,0.0032082039397209883,0.0,0.0,0.0,0.0,-0.0003713080659508705,0.00395941874012351,-0.0027720045763999224,0.9979957938194275,0.0,0.0,0.0,35.4808349609375,1.6736899614334106,8.595436096191406,-6422.10107421875,0
1476.692000000001,0.01367759145796299,0.011674280278384686,0.003244563937187195,0.0,0.0,0.0,0.0,-0.000403566169552505,0.0006780285038985312,-0.00038617345853708684,0.9969250559806824,0.0,0.0,0.0,35.44515609741211,1.6736397743225098,8.574978828430176,-6415.64404296875,0
1486.5969999999998,0.01368031557649374,0.011782199144363403,0.0032378726173192263,0.0,0.0,0.0,0.0,-3.0832500215183245e-06,0.0016019538743421435,-0.002322582295164466,0.999230682849884,0.0,0.0,0.0,35.4814567565918,1.6959545612335205,8.59270191192627,-6422.2138671875,0
1496.5160000000014,0.013650400564074516,0.011770318262279034,0.003274623304605484,0.0,0.0,0.0,0.0,0.0008648314396850765,-0.0007971596787683666,-0.002330319955945015,0.9975482821464539,0.0,0.0,0.0,35.446311950683594,1.6984789371490479,8.585492134094238,-6415.8525390625,0
1506.4189999999999,0.013693619519472122,0.011926127597689629,0.0030639786273241043,0.0,0.0,0.0,0.0,-0.0006052276585251093,0.004268476739525795,-0.0003217381308786571,0.9983196258544922,0.0,0.0,0.0,35.48128890991211,1.6989198923110962,8.60291862487793,-6422.18408203125,0
1516.335000000001,0.013667832128703594,0.01191695500165224,0.003098231041803956,0.0,0.0,0.0,0.0,-0.0009933268884196877,0.00334655842743814,0.0015944982878863811,0.999721348285675,0.0,0.0,0.0,35.445980072021484,1.702368140220642,8.58388900756836,-6415.79248046875,0
1526.241,0.013682003132998943,0.011967291124165058,0.0031099405605345964,0.0,0.0,0.0,0.0,-0.0009205479291267693,-0.0028137241024523973,0.002791193313896656,0.9971963167190552,0.0,0.0,0.0,35.485626220703125,1.7012476921081543,8.587285041809082,-6422.96875,0
1536.1580000000013,0.013657820411026478,0.011958968825638294,0.003144809976220131,0.0,0.0,0.0,0.0,0.0008082474232651293,0.0025585168041288853,-0.0022999902721494436,0.9999451041221619,0.0,0.0,0.0,35.451263427734375,1.69839608669281,8.585713386535645,-6416.7490234375,0
1546.0650000000005,0.013682669959962368,0.012064616195857525,0.0030593564733862877,0.0,0.0,0.0,0.0,-0.0018386115552857518,0.0036550697404891253,0.004024574998766184,1.000618815422058,0.0,0.0,0.0,35.48949432373047,1.705186367034912,8.5945463180542,-6423.6689453125,0
1555.987000000001,0.013658808544278145,0.012057401239871979,0.0030950827058404684,0.0,0.0,0.0,0.0,-0.0010083240922540426,-0.004664260428398848,1.2343528396741021e-05,0.9991664290428162,0.0,0.0,0.0,35.455589294433594,1.7080157995224,8.578125953674316,-6417.53173828125,0
1565.8820000000014,0.013685313984751701,0.012051508761942387,0.0031499096658080816,0.0,0.0,0.0,0.0,-0.0009818418184295297,0.001778191071934998,0.002348252572119236,0.9996576905250549,0.0,0.0,0.0,35.49489974975586,1.6889106035232544,8.605985641479492,-6424.64697265625,0
1575.8020000000015,0.013665782287716866,0.012040982022881508,0.003187356051057577,0.0,0.0,0.0,0.0,-0.003027325263246894,-0.003257972653955221,-0.0027223138604313135,0.9993157386779785,0.0,0.0,0.0,35.46110153198242,1.6915065050125122,8.602118492126465,-6418.5302734375,0
1585.7070000000003,0.013688136823475361,0.012057301588356495,0.003135307691991329,0.0,0.0,0.0,0.0,-0.001464465749450028,-0.0028363261371850967,-0.0019355708500370383,0.9995986819267273,0.0,0.0,0.0,35.49772644042969,1.6727076768875122,8.611233711242676,-6425.1591796875,0
1595.6260000000002,0.013671282678842545,0.012042426504194736,0.0031717056408524513,0.0,0.0,0.0,0.0,0.00030286400578916073,0.005112163256853819,-0.002406325889751315,0.9985569715499878,0.0,0.0,0.0,35.46253967285156,1.6816096305847168,8.607706069946289,-6418.79052734375,0
1605.5200000000004,0.01370942685753107,0.011979778297245502,0.0032595177181065083,0.0,0.0,0.0,0.0,-0.001695182523690164,-0.0005204915651120245,0.0024455501697957516,1.0009845495224,0.0,0.0,0.0,35.499778747558594,1.6449459791183472,8.617676734924316,-6425.5302734375,0
1615.4390000000003,0.013697804883122444,0.011961506679654121,0.0032958644442260265,0.0,0.0,0.0,0.0,-0.00315097370184958,-0.001166963018476963,-0.001944634597748518,0.9991784691810608,0.0,0.0,0.0,35.46503829956055,1.6476041078567505,8.611300468444824,-6419.24169921875,0
1625.3410000000003,0.013724200427532196,0.01189020462334156,0.003371416823938489,0.0,0.0,0.0,0.0,0.0014904821291565895,-0.0006989790126681328,0.0031285788863897324,1.0002186298370361,0.0,0.0,0.0,35.5052490234375,1.6187599897384644,8.624773979187012,-6426.52001953125,0
1635.2630000000008,0.013713435269892216,0.011867182329297066,0.0034080464392900467,0.0,0.0,0.0,0.0,-0.00040344736771658063,0.0012693795142695308,0.0015385615406557918,0.999423086643219,0.0,0.0,0.0,35.47034454345703,1.6153740882873535,8.619890213012695,-6420.203125,0
1645.1630000000005,0.013735930435359478,0.011815871112048626,0.0034408385399729013,0.0,0.0,0.0,0.0,0.0013566872803494334,0.003154478967189789,0.0008013647748157382,0.9985484480857849,0.0,0.0,0.0,35.50692367553711,1.5919898748397827,8.62464714050293,-6426.82373046875,0
1655.0840000000007,0.013723854906857014,0.011787563562393188,0.003476767335087061,0.0,0.0,0.0,0.0,0.00025165369152091444,-0.0011335634626448154,-0.004987693857401609,0.9979520440101624,0.0,0.0,0.0,35.473358154296875,1.5928170680999756,8.617679595947266,-6420.748046875,0
1664.9899999999998,0.013729828409850597,0.011768798343837261,0.0033861547708511353,0.0,0.0,0.0,0.0,0.0007352391257882118,0.0006222804076969624,-0.000707216328009963,0.998877763748169,0.0,0.0,0.0,35.50120544433594,1.5734899044036865,8.60104751586914,-6425.78857421875,0
1674.9050000000007,0.013717001304030418,0.011737278662621975,0.003416620194911957,0.0,0.0,0.0,0.0,0.004503055475652218,0.0029011124279350042,-0.0010863314382731915,1.0000145435333252,0.0,0.0,0.0,35.466331481933594,1.5721548795700073,8.59265422821045,-6419.47607421875,0
1684.809000000001,0.01372024230659008,0.01174505427479744,0.0032830550335347652,0.0,0.0,0.0,0.0,-0.0003211240691598505,0.003329325933009386,0.00087362015619874,1.0010533332824707,0.0,0.0,0.0,35.496559143066406,1.5480477809906006,8.566818237304688,-6424.94775390625,0
1694.7330000000002,0.013702972792088985,0.011710594408214092,0.0033107660710811615,0.0,0.0,0.0,0.0,-0.00028453825507313013,-0.0023917043581604958,0.0025985476095229387,0.9984493255615234,0.0,0.0,0.0,35.461341857910156,1.5464732646942139,8.549692153930664,-6418.5732421875,0
1704.6270000000004,0.0137132303789258,0.01168395858258009,0.003197049256414175,0.0,0.0,0.0,0.0,0.0023676177952438593,-0.00020280938770156354,-0.0039571356028318405,0.9993029832839966,0.0,0.0,0.0,35.489601135253906,1.523175835609436,8.543630599975586,-6423.68798828125,0
1714.5470000000005,0.013693983666598797,0.01164245419204235,0.0032215556129813194,0.0,0.0,0.0,0.0,-0.001573924208059907,-0.0027363940607756376,0.002602306194603443,0.9978067874908447,0.0,0.0,0.0,35.45353698730469,1.5233625173568726,8.53126049041748,-6417.16064453125,0
1724.455,0.013731840997934341,0.011591433547437191,0.0032034111209213734,0.0,0.0,0.0,0.0,-0.002841360168531537,-0.0023693537805229425,0.0012153745628893375,0.9975694417953491,0.0,0.0,0.0,35.49090576171875,1.4979023933410645,8.545134544372559,-6423.923828125,0
1734.371000000001,0.013713451102375984,0.011541275307536125,0.0032249426003545523,0.0,0.0,0.0,0.0,-0.00258956803008914,0.003709781914949417,0.0011182667221873999,0.9976025223731995,0.0,0.0,0.0,35.457054138183594,1.4989198446273804,8.53612232208252,-6417.796875,0
1744.2700000000004,0.013760781846940517,0.011548306792974472,0.003135822946205735,0.0,0.0,0.0,0.0,0.0007094800821505487,-0.0045066047459840775,0.0026885531842708588,0.9973906874656677,0.0,0.0,0.0,35.48896026611328,1.4828979969024658,8.543688774108887,-6423.57177734375,0
1754.1970000000001,0.013744845055043697,0.01149410754442215,0.0031528675463050604,0.0,0.0,0.0,0.0,-0.0007328605279326439,0.0008941282285377383,0.00037953880382701755,0.9981784820556641,0.0,0.0,0.0,35.45501708984375,1.4834247827529907,8.542266845703125,-6417.42822265625,0
1764.0920000000006,0.013796400278806686,0.011496256105601788,0.003043602453544736,0.0,0.0,0.0,0.0,0.0031714921351522207,0.0026685763150453568,0.0008162885787896812,1.0004023313522339,0.0,0.0,0.0,35.49162292480469,1.4634863138198853,8.556315422058105,-6424.05419921875,0
1774.0110000000004,0.013782922178506851,0.011439257301390171,0.003057262394577265,0.0,0.0,0.0,0.0,-0.001664021983742714,0.0010806071804836392,0.0020162395667284727,0.9991113543510437,0.0,0.0,0.0,35.45696258544922,1.4597647190093994,8.545793533325195,-6417.78076171875,0
1783.9170000000013,0.013830667361617088,0.011454829014837742,0.00302132498472929,0.0,0.0,0.0,0.0,-0.0017668867949396372,-0.0003459217550698668,0.0003481942694634199,0.9976544976234436,0.0,0.0,0.0,35.492671966552734,1.4565160274505615,8.56383991241455,-6424.244140625,0
1793.8320000000003,0.013820414431393147,0.011399038136005402,0.0030363178811967373,0.0,0.0,0.0,0.0,-0.00029082896071486175,-0.004309990908950567,-0.0038107815198600292,1.0008045434951782,0.0,0.0,0.0,35.458255767822266,1.4588350057601929,8.558807373046875,-6418.0146484375,0
1803.7420000000002,0.013835747726261616,0.011513741686940193,0.0028157448396086693,0.0,0.0,0.0,0.0,0.0013380246236920357,-0.0031496433075517416,0.0011329370317980647,0.9990694522857666,0.0,0.0,0.0,35.48689651489258,1.4877293109893799,8.561519622802734,-6423.19873046875,0
1813.6530000000002,0.013823024928569794,0.011462153866887093,0.0028294662479311228,0.0,0.0,0.0,0.0,0.00018843590805772692,0.005524683278053999,-0.002101417863741517,0.9995386004447937,0.0,0.0,0.0,35.45387268066406,1.4884337186813354,8.56029987335205,-6417.22119140625,0
1823.554,0.013853720389306545,0.011593957431614399,0.0026958498638123274,0.0,0.0,0.0,0.0,-0.0015002010622993112,-0.0014016481582075357,0.00023806678655091673,0.9996970891952515,0.0,0.0,0.0,35.48823165893555,1.5168951749801636,8.565139770507812,-6423.4404296875,0
1833.4760000000006,0.013842027634382248,0.011548265814781189,0.0027120113372802734,0.0,0.0,0.0,0.0,0.0005433668848127127,-0.0035928660072386265,0.0025131467264145613,0.9996185302734375,0.0,0.0,0.0,35.453346252441406,1.5185418128967285,8.553796768188477,-6417.1259765625,0
1843.3770000000004,0.013850657269358635,0.011737839318811893,0.0024919298011809587,0.0,0.0,0.0,0.0,0.00028787890914827585,0.000598059268668294,0.0013798126019537449,0.9999346137046814,0.0,0.0,0.0,35.48503875732422,1.5688722133636475,8.568679809570312,-6422.86181640625,0
1853.2930000000015,0.013833881355822086,0.01170030515640974,0.0025100617203861475,0.0,0.0,0.0,0.0,0.0010770593071356416,0.0017482488183304667,0.004762956872582436,0.9987173080444336,0.0,0.0,0.0,35.45086669921875,1.5737841129302979,8.560328483581543,-6416.6767578125,0
1863.2080000000005,0.013810466043651104,0.011778799816966057,0.002554922364652157,0.0,0.0,0.0,0.0,0.001569362822920084,-0.0014928089221939445,0.000600285071413964,0.9993501305580139,0.0,0.0,0.0,35.491912841796875,1.6050570011138916,8.574125289916992,-6424.1064453125,0
1873.1149999999998,0.013790066353976727,0.011748546734452248,0.002577063161879778,0.0,0.0,0.0,0.0,0.00023180991411209106,-0.0017403507372364402,0.0017776142340153456,1.0012342929840088,0.0,0.0,0.0,35.458152770996094,1.6069668531417847,8.573288917541504,-6417.99658203125,0
1883.0210000000006,0.013798387721180916,0.011984492652118206,0.0022802394814789295,0.0,0.0,0.0,0.0,0.001898211077786982,-0.0011855411576107144,-0.0023035542108118534,1.0003538131713867,0.0,0.0,0.0,35.49189376831055,1.6577293872833252,8.581624031066895,-6424.1025390625,0
1892.9310000000005,0.01377256028354168,0.011961317621171474,0.002304681343957782,0.0,0.0,0.0,0.0,-0.0034641947131603956,-0.0004523109528236091,-0.004856294486671686,0.9993125200271606,0.0,0.0,0.0,35.45745086669922,1.6634851694107056,8.56677532196045,-6417.869140625,0
1902.8400000000001,0.013780459761619568,0.012015742249786854,0.002367371926084161,0.0,0.0,0.0,0.0,0.0015753359766677022,-0.0009460487635806203,0.0013458682224154472,0.9990770816802979,0.0,0.0,0.0,35.49541091918945,1.6827709674835205,8.586065292358398,-6424.740234375,0
1912.7530000000006,0.013753264211118221,0.011995182372629642,0.002396425697952509,0.0,0.0,0.0,0.0,-0.0003591927234083414,0.0036998915020376444,0.00219520996324718,0.9987539052963257,0.0,0.0,0.0,35.4607048034668,1.6802493333816528,8.579390525817871,-6418.4580078125,0
1922.666000000001,0.013788864947855473,0.01219295896589756,0.002131766639649868,0.0,0.0,0.0,0.0,0.003484267508611083,-0.0014000388327986002,0.00035848887637257576,0.9986574053764343,0.0,0.0,0.0,35.49493408203125,1.6960116624832153,8.585938453674316,-6424.65380859375,0
1932.5840000000007,0.013759002089500427,0.012176205404102802,0.0021596946753561497,0.0,0.0,0.0,0.0,-0.001520930090919137,0.0017239280277863145,0.0010477704927325249,1.000821590423584,0.0,0.0,0.0,35.459861755371094,1.695622444152832,8.58387565612793,-6418.30517578125,0
1942.487000000001,0.013781024143099785,0.012245474383234978,0.0021944246254861355,0.0,0.0,0.0,0.0,0.0011509727919474244,-0.0015818359097465873,0.0027331295423209667,0.9975565075874329,0.0,0.0,0.0,35.496795654296875,1.7050527334213257,8.613213539123535,-6424.990234375,0
1952.4000000000015,0.013750390149652958,0.012232213281095028,0.0022263037972152233,0.0,0.0,0.0,0.0,4.669607733376324e-05,0.002147862920537591,0.0005140670109540224,0.9998904466629028,0.0,0.0,0.0,35.46255111694336,1.705225944519043,8.60566234588623,-6418.79248046875,0
1962.321,0.013737617991864681,0.0122114522382617,0.0024240990169346333,0.0,0.0,0.0,0.0,0.002682351740077138,-0.0006456324481405318,0.002729944884777069,0.9982542991638184,0.0,0.0,0.0,35.499412536621094,1.7039856910705566,8.618179321289062,-6425.4638671875,0
1972.223,0.013706191442906857,0.012199957855045795,0.002459349576383829,0.0,0.0,0.0,0.0,-0.002543411683291197,0.002933712676167488,-0.002161272568628192,0.9964942336082458,0.0,0.0,0.0,35.46363830566406,1.7043229341506958,8.614091873168945,-6418.98876953125,0
1982.1380000000008,0.013735616579651833,0.012181530706584454,0.002519340021535754,0.0,0.0,0.0,0.0,0.0016101085348054767,-0.0014393903547897935,-0.00046774439397267997,0.9999463558197021,0.0,0.0,0.0,35.49897384643555,1.6815588474273682,8.622886657714844,-6425.384765625,0
1992.0430000000015,0.013707260601222515,0.012168276123702526,0.0025530830025672913,0.0,0.0,0.0,0.0,0.004185388796031475,0.003046423429623246,0.0032007507979869843,0.9990931749343872,0.0,0.0,0.0,35.46527862548828,1.6720080375671387,8.620396614074707,-6419.28564453125,0
2001.9650000000001,0.013758358545601368,0.012274090200662613,0.00237758900038898,0.0,0.0,0.0,0.0,0.0044360351748764515,0.0006236505578272045,0.001231746980920434,0.9984050393104553,0.0,0.0,0.0,35.497379302978516,1.652159333229065,8.62810230255127,-6425.09619140625,0
2011.8680000000004,0.013730562292039394,0.012262335047125816,0.0024096891283988953,0.0,0.0,0.0,0.0,4.848007665714249e-05,-0.0010136497439816594,-0.0003752251504920423,0.9999804496765137,0.0,0.0,0.0,35.46306228637695,1.6545416116714478,8.618149757385254,-6418.884765625,0
2021.7759999999998,0.013745707459747791,0.012177248485386372,0.0025450161192566156,0.0,0.0,0.0,0.0,-0.001631809864193201,0.003047606209293008,-0.0037572416476905346,0.9975594282150269,0.0,0.0,0.0,35.49971008300781,1.609958529472351,8.628028869628906,-6425.517578125,0
2031.6800000000003,0.01372070237994194,0.012160436250269413,0.0025770878419280052,0.0,0.0,0.0,0.0,-0.0004984309198334813,0.0009103290503844619,-0.0036574394907802343,1.000842571258545,0.0,0.0,0.0,35.46467590332031,1.6177808046340942,8.613730430603027,-6419.17724609375,0
2041.6000000000004,0.013713265769183636,0.012027518823742867,0.002759642666205764,0.0,0.0,0.0,0.0,-0.0005359030910767615,0.0035667188931256533,-0.0002183472824981436,1.0008023977279663,0.0,0.0,0.0,35.498924255371094,1.5835936069488525,8.617356300354004,-6425.37548828125,0
2051.506000000001,0.013689126819372177,0.012003864161670208,0.0027923951856791973,0.0,0.0,0.0,0.0,-0.00362837384454906,0.0015083051985129714,-0.0020253199618309736,0.9991138577461243,0.0,0.0,0.0,35.463768005371094,1.5851407051086426,8.604960441589355,-6419.01220703125,0
2061.42,0.013717500492930412,0.011998917907476425,0.002723478013649583,0.0,0.0,0.0,0.0,-0.004645448178052902,-0.0032645496539771557,0.0008908470626920462,0.9978012442588806,0.0,0.0,0.0,35.4930534362793,1.5541796684265137,8.60697078704834,-6424.31298828125,0
2071.3280000000013,0.013694040477275848,0.011969126760959625,0.0027551150415092707,0.0,0.0,0.0,0.0,0.0015650129644200206,0.0002876092039514333,0.0025002367328852415,0.9991329908370972,0.0,0.0,0.0,35.458255767822266,1.5651209354400635,8.598387718200684,-6418.0146484375,0
2081.2430000000004,0.013726508244872093,0.011980447918176651,0.0026788366958498955,0.0,0.0,0.0,0.0,0.00030908919870853424,0.001097783911973238,-0.00012102239270461723,0.9998103976249695,0.0,0.0,0.0,35.48755645751953,1.5374698638916016,8.610437393188477,-6423.31787109375,0
2091.148000000001,0.013705640099942684,0.011947626248002052,0.0027082522865384817,0.0,0.0,0.0,0.0,0.0005966079770587385,0.00468627130612731,0.0027778209187090397,0.9985494017601013,0.0,0.0,0.0,35.45266342163086,1.5347938537597656,8.59558391571045,-6417.001953125,0
2101.0650000000005,0.013713360764086246,0.011854778975248337,0.002819469664245844,0.0,0.0,0.0,0.0,0.0015205605886876583,-0.0014951081248000264,9.438909910386428e-05,1.0003291368484497,0.0,0.0,0.0,35.49098587036133,1.5059528350830078,8.604066848754883,-6423.93896484375,0
2110.9710000000014,0.013693773187696934,0.011817650869488716,0.0028489776886999607,0.0,0.0,0.0,0.0,-0.0015724777476862073,-0.0005280974437482655,-0.0005606265040114522,1.001082181930542,0.0,0.0,0.0,35.45492935180664,1.5042625665664673,8.599420547485352,-6417.412109375,0
2120.888000000001,0.013685417361557484,0.011719837784767151,0.0029857465997338295,0.0,0.0,0.0,0.0,0.0015748826554045081,-0.005674412474036217,-0.00040670210728421807,1.0003119707107544,0.0,0.0,0.0,35.492637634277344,1.4867933988571167,8.603796005249023,-6424.23828125,0
2130.7870000000003,0.01366482488811016,0.011678049340844154,0.003018587827682495,0.0,0.0,0.0,0.0,-0.001527265296317637,-0.00220790458843112,-0.0005186378839425743,0.998095691204071,0.0,0.0,0.0,35.457481384277344,1.4854382276535034,8.60483455657959,-6417.875,0
2140.7030000000013,0.01368226483464241,0.01160066295415163,0.003068851074203849,0.0,0.0,0.0,0.0,-0.00037602795055136085,0.0009616310126148164,-0.0027486602775752544,0.9999247193336487,0.0,0.0,0.0,35.49083709716797,1.4536718130111694,8.614365577697754,-6423.91162109375,0
2150.613000000001,0.013664943166077137,0.011553322896361351,0.0031017116270959377,0.0,0.0,0.0,0.0,-0.0002861392858903855,0.00035458599450066686,-0.0017845433903858066,0.9995932579040527,0.0,0.0,0.0,35.455665588378906,1.4509135484695435,8.607322692871094,-6417.5458984375,0
2160.5280000000002,0.013723927550017834,0.011559431441128254,0.0030539599247276783,0.0,0.0,0.0,0.0,0.0003695678024087101,-0.002265879651531577,-0.0014538038522005081,1.000482201576233,0.0,0.0,0.0,35.49211120605469,1.4260262250900269,8.625243186950684,-6424.142578125,0
2170.4300000000003,0.013712904416024685,0.011509040370583534,0.0030876854434609413,0.0,0.0,0.0,0.0,0.0005620087031275034,-1.5404384612338617e-05,0.0005331183201633394,0.999938428401947,0.0,0.0,0.0,35.456016540527344,1.425418496131897,8.62650203704834,-6417.60986328125,0
2180.354000000001,0.013782122172415257,0.011594919487833977,0.002879501087591052,0.0,0.0,0.0,0.0,-0.00017553243378642946,-0.005183486267924309,-0.0016537343617528677,0.9993763566017151,0.0,0.0,0.0,35.485816955566406,1.4103178977966309,8.642743110656738,-6423.00341796875,0
2190.2520000000004,0.013773554936051369,0.011543807573616505,0.002913308795541525,0.0,0.0,0.0,0.0,0.0005419256049208343,0.0021671662107110023,0.0027343882247805595,0.9976034760475159,0.0,0.0,0.0,35.44994354248047,1.420390009880066,8.636181831359863,-6416.51025390625,0
