timestamp,stateEstimate.x,stateEstimate.y,stateEstimate.z,controller.cmd_thrust,controller.cmd_roll,controller.cmd_pitch,controller.cmd_yaw,controller.r_roll,controller.r_pitch,controller.r_yaw,controller.accelz,controller.actuatorThrust,controller.roll,controller.pitch,controller.yaw,controller.rollRate,controller.pitchRate,controller.yawRate,controller.ctr_yaw
0.0,-0.0011120233684778214,0.00013198361557442695,-0.000725101213902235,0.0,0.0,0.0,0.0,0.001371558173559606,-0.0019063535146415234,0.004139948170632124,0.999605119228363,0.0,0.0,0.0,0.27630624175071716,1.6355297565460205,4.997244834899902,-50.01197814941406,0
9.905000000000655,-0.0011566299945116043,0.00014175623073242605,-0.000851275457534939,0.0,0.0,0.0,0.0,-0.0021050157956779003,0.004975954536348581,-0.0015557935694232583,0.9992894530296326,0.0,0.0,0.0,0.2763233482837677,1.634783387184143,4.997234344482422,-50.01507568359375,0
19.827000000001135,-0.0012747264700010419,0.00012837426038458943,-0.0008947770693339407,0.0,0.0,0.0,0.0,-0.0015998865710571408,0.0035181802231818438,-0.0014015370979905128,1.00045645236969,0.0,0.0,0.0,0.276552677154541,1.6340711116790771,4.987618923187256,-50.05658721923828,0
29.72700000000077,-0.0013195625506341457,0.00017088277672883123,-0.0010043290676549077,0.0,0.0,0.0,0.0,-0.0007052184082567692,-0.0017914510099217296,0.0017392697045579553,0.9966338276863098,0.0,0.0,0.0,0.275900661945343,1.6274958848953247,4.982559680938721,-49.938568115234375,0
39.64500000000044,-0.0014374163001775742,0.00016005501674953848,-0.0010543923126533628,0.0,0.0,0.0,0.0,0.001796859665773809,0.0018421726999804378,-0.00016426495858468115,0.997967541217804,0.0,0.0,0.0,0.27573952078819275,1.6257410049438477,4.977036952972412,-49.90940475463867,0
49.548000000000684,-0.0015138337621465325,0.000178856062120758,-0.001142654800787568,0.0,0.0,0.0,0.0,-0.0008324731606990099,0.0007210178882814944,-0.002052787458524108,0.9985377788543701,0.0,0.0,0.0,0.2747592031955719,1.6232315301895142,4.9683966636657715,-49.73196029663086,0
59.465000000000146,-0.001636057859286666,0.00016986571426969022,-0.0011995520908385515,0.0,0.0,0.0,0.0,0.0035445354878902435,0.0016943981172516942,-0.0022341799922287464,0.9999996423721313,0.0,0.0,0.0,0.27529439330101013,1.628805160522461,4.976184368133545,-49.82883071899414,0
69.3680000000004,-0.0016692255157977343,0.00025545759126544,-0.001307068974711001,0.0,0.0,0.0,0.0,-0.0015202132053673267,-0.005068531725555658,0.0008838187204673886,1.0004115104675293,0.0,0.0,0.0,0.2746523320674896,1.666832447052002,5.000757694244385,-49.71261978149414,0
79.28800000000047,-0.0017924194689840078,0.00025319348787888885,-0.0013697519898414612,0.0,0.0,0.0,0.0,0.0018127791117876768,0.005034467671066523,-0.003022076329216361,0.9993844628334045,0.0,0.0,0.0,0.2746485471725464,1.67031991481781,4.9990363121032715,-49.71193313598633,0
89.1880000000001,-0.0018439588602632284,0.00031415559351444244,-0.0014749261317774653,0.0,0.0,0.0,0.0,-0.0008098235120996833,-0.001426525297574699,-0.004659730941057205,0.9992916584014893,0.0,0.0,0.0,0.2738259732723236,1.6722939014434814,4.989498138427734,-49.563045501708984,0
99.10900000000038,-0.0019687246531248093,0.00031780477729626,-0.0015418431721627712,0.0,0.0,0.0,0.0,-9.306258289143443e-05,0.0012351410696282983,0.0011662145843729377,0.9995784759521484,0.0,0.0,0.0,0.27148181200027466,1.6677439212799072,4.989269733428955,-49.13874816894531,0
109.01300000000083,-0.0020215308759361506,0.0003383212024345994,-0.0016685251612216234,0.0,0.0,0.0,0.0,-0.002757219597697258,-0.003139242995530367,-0.0033733348827809095,1.0001659393310547,0.0,0.0,0.0,0.27158689498901367,1.6703935861587524,4.9862446784973145,-49.15776443481445,0
118.93000000000029,-0.0021459939889609814,0.00034048076486214995,-0.0017409404972568154,0.0,0.0,0.0,0.0,0.0006709020235575736,0.006353052332997322,-0.00018897671543527395,0.9985299110412598,0.0,0.0,0.0,0.2709014415740967,1.6700170040130615,4.9916791915893555,-49.03369903564453,0
128.82999999999993,-0.002274781232699752,0.00034066897933371365,-0.001813399256207049,0.0,0.0,0.0,0.0,-0.0015278009232133627,0.0031495720613747835,-0.0018571026157587767,0.9972801804542542,0.0,0.0,0.0,0.2711794078350067,1.6682679653167725,4.972274303436279,-49.084007263183594,0
138.7520000000004,-0.0024084995966404676,0.00033874830114655197,-0.0018871885258704424,0.0,0.0,0.0,0.0,0.0007685398450121284,-0.004549580626189709,0.004743587225675583,0.999922513961792,0.0,0.0,0.0,0.27060356736183167,1.6647675037384033,4.958611011505127,-48.97978591918945,0
148.65099999999984,-0.0001800300378818065,-0.00019382609752938151,-0.00010144355474039912,0.0,0.0,0.0,0.0,-0.0004886190290562809,0.001580126117914915,0.0015492066740989685,1.0029302835464478,0.0,0.0,0.0,0.2722979784011841,1.5870131254196167,5.346741676330566,-49.28647994995117,0
158.5699999999997,-0.00021852285135537386,-0.00021887774346396327,-0.00010538162314333022,0.0,0.0,0.0,0.0,0.0026523000560700893,-0.0013538525672629476,0.004628684371709824,1.0001851320266724,0.0,0.0,0.0,0.2724611759185791,1.5822087526321411,5.331481456756592,-49.31601333618164,0
168.47199999999975,-0.00026022762176580727,-0.00024607733939774334,-0.00010740672587417066,0.0,0.0,0.0,0.0,-0.0012161702616140246,-0.0014496096409857273,-0.001405193004757166,0.9998595118522644,0.0,0.0,0.0,0.2725338935852051,1.5824087858200073,5.326718330383301,-49.32917785644531,0
178.39400000000023,-0.0003060052404180169,-0.00027532270178198814,-0.00010870283585973084,0.0,0.0,0.0,0.0,0.00043163157533854246,0.003025876125320792,-0.0004821813490707427,0.999435544013977,0.0,0.0,0.0,0.2715502977371216,1.5787022113800049,5.326293468475342,-49.151145935058594,0
188.29299999999967,-0.00016779212455730885,-0.0002484906872268766,8.972257091954816e-06,0.0,0.0,0.0,0.0,0.0012176388408988714,4.108356370124966e-05,-0.0013194277416914701,1.0007150173187256,0.0,0.0,0.0,0.27767232060432434,1.5922423601150513,5.3469367027282715,-50.25924301147461,0
198.21900000000096,-0.00021429211483336985,-0.000276377861155197,1.3945112186775077e-05,0.0,0.0,0.0,0.0,-0.0009789185132831335,0.0038437661714851856,-0.001937837922014296,0.998166561126709,0.0,0.0,0.0,0.27689728140830994,1.585105061531067,5.331872463226318,-50.118961334228516,0
208.1140000000014,-0.0001501376391388476,-0.00025725795421749353,7.293991802725941e-05,0.0,0.0,0.0,0.0,0.00035458692582324147,0.0003818606783170253,-0.0018001949647441506,0.9984187483787537,0.0,0.0,0.0,0.275873601436615,1.5865892171859741,5.325740814208984,-49.93367385864258,0
218.03300000000127,-0.00019911443814635277,-0.0002846056886482984,8.041244291234761e-05,0.0,0.0,0.0,0.0,0.0022574698086827993,0.004440137650817633,0.004289682023227215,0.9990307688713074,0.0,0.0,0.0,0.27609163522720337,1.5847662687301636,5.312943935394287,-49.97313690185547,0
227.9369999999999,-0.0001545123232062906,-0.00026579335099086165,0.0001304587785853073,0.0,0.0,0.0,0.0,-0.001852497924119234,-0.0020215478725731373,0.0021241391077637672,0.9999809861183167,0.0,0.0,0.0,0.2770392596721649,1.5814825296401978,5.317533016204834,-50.144657135009766,0
237.86000000000058,-0.0002089305780827999,-0.00029231145163066685,0.00013939115160610527,0.0,0.0,0.0,0.0,-0.00011799341882579029,0.0008409295696765184,5.4514715884579346e-05,0.9981256723403931,0.0,0.0,0.0,0.2777572274208069,1.583982229232788,5.312093257904053,-50.27460861206055,0
247.75700000000143,-0.000273326993919909,-0.0003243651590310037,0.0001485507673351094,0.0,0.0,0.0,0.0,0.0011557021643966436,0.003847213461995125,0.0020935186184942722,0.9999061822891235,0.0,0.0,0.0,0.2783929407596588,1.5819618701934814,5.298330783843994,-50.389671325683594,0
257.6800000000003,-0.0003357193781994283,-0.0003563737263903022,0.000156021022121422,0.0,0.0,0.0,0.0,-0.002562870504334569,0.0005828933790326118,-0.0013442597119137645,0.9988861083984375,0.0,0.0,0.0,0.27865129709243774,1.5760751962661743,5.289398193359375,-50.436439514160156,0
267.57600000000093,-0.00021865336748305708,-0.00034229332231916487,0.00021550673409365118,0.0,0.0,0.0,0.0,0.0009141787304542959,0.0028629302978515625,0.0003508921363390982,0.9979079365730286,0.0,0.0,0.0,0.2849794328212738,1.5913355350494385,5.323753356933594,-51.581844329833984,0
277.4989999999998,-0.0002807967539411038,-0.00037475451244972646,0.00022683324641548097,0.0,0.0,0.0,0.0,0.00022307891049422324,0.002517473651096225,-0.0012523445766419172,0.999167799949646,0.0,0.0,0.0,0.28515633940696716,1.589638590812683,5.311407089233398,-51.61386489868164,0
287.39900000000125,-0.00018860299314837903,-0.0003782901621889323,0.0002684532373677939,0.0,0.0,0.0,0.0,-0.0013386453501880169,-0.00011266306682955474,-0.0006699952064082026,0.9987757205963135,0.0,0.0,0.0,0.2848717272281647,1.5884095430374146,5.2995452880859375,-51.56234359741211,0
297.3180000000011,-0.00025004451163113117,-0.0004088204586878419,0.00028053318965248764,0.0,0.0,0.0,0.0,-0.0010399619350209832,-0.0019064858788624406,0.0031204393599182367,0.9997799396514893,0.0,0.0,0.0,0.28418824076652527,1.58716881275177,5.292121410369873,-51.438636779785156,0
307.21800000000076,-0.00015122941113077104,-0.00040987960528582335,0.0003259632794652134,0.0,0.0,0.0,0.0,2.3242617317009717e-05,0.0029934830963611603,-0.001993786310777068,1.00205659866333,0.0,0.0,0.0,0.2841147184371948,1.584420919418335,5.282489776611328,-51.425331115722656,0
317.1370000000006,-0.0002156338596250862,-0.00043957497109659016,0.00034105274244211614,0.0,0.0,0.0,0.0,-0.0001894068846013397,0.004701792262494564,-0.003047339152544737,0.9992952346801758,0.0,0.0,0.0,0.2838408648967743,1.581137776374817,5.2720112800598145,-51.375762939453125,0
327.03900000000067,-0.0002856598293874413,-0.0004717810661531985,0.0003574943111743778,0.0,0.0,0.0,0.0,0.002737949602305889,0.002151760971173644,1.9963423255831003e-05,0.9994781017303467,0.0,0.0,0.0,0.28306683897972107,1.583287239074707,5.257336616516113,-51.235660552978516,0
336.96000000000095,-0.0003600001218728721,-0.0005068205646239221,0.00037400025757960975,0.0,0.0,0.0,0.0,0.001085024792701006,-0.0031324303708970547,-0.0007524454849772155,0.998691201210022,0.0,0.0,0.0,0.28214871883392334,1.5787876844406128,5.246668815612793,-51.069480895996094,0
346.8600000000006,-0.00024509261129423976,-0.0005054538487456739,0.0004468525876291096,0.0,0.0,0.0,0.0,-0.0002867966250050813,-0.0005306443781591952,0.0022210818715393543,0.999366044998169,0.0,0.0,0.0,0.28042110800743103,1.587241530418396,5.308905601501465,-50.75677490234375,0
356.77599999999984,-0.00015840995183680207,-0.00013717549154534936,-0.0003252324531786144,0.0,0.0,0.0,0.0,0.0011637749848887324,-0.0015724378172308207,0.0021919480059295893,0.9994621276855469,0.0,0.0,0.0,0.28380313515663147,1.6639041900634766,5.330657958984375,-51.368934631347656,0
366.6800000000003,-6.613199366256595e-05,-0.00015684230311308056,-0.00024255798780359328,0.0,0.0,0.0,0.0,0.0007572561735287309,0.001938296714797616,0.0024305619299411774,0.9991248846054077,0.0,0.0,0.0,0.2843078076839447,1.6604470014572144,5.321670055389404,-51.46027755737305,0
376.59500000000116,-0.00011024464765796438,-0.00013905868399888277,-0.0003040907031390816,0.0,0.0,0.0,0.0,-0.0023787799291312695,0.0028552028816193342,-0.0006852190708741546,0.9990019798278809,0.0,0.0,0.0,0.28526636958122253,1.660504698753357,5.312518119812012,-51.63378143310547,0
386.5010000000002,-0.00010427102097310126,-8.777631592238322e-05,-0.00023888131545390934,0.0,0.0,0.0,0.0,0.0005875127972103655,0.0024361670948565006,-0.0015740379458293319,0.998299241065979,0.0,0.0,0.0,0.284841924905777,1.6559573411941528,5.298427104949951,-51.55695724487305,0
396.41899999999987,-0.0001466539833927527,-5.308538311510347e-05,-0.0002874132478609681,0.0,0.0,0.0,0.0,0.004947502166032791,0.0019156818743795156,0.0021127210929989815,0.9992130994796753,0.0,0.0,0.0,0.2903830111026764,1.6540006399154663,5.29022741317749,-52.55990219116211,0
406.3220000000001,-7.695691601838917e-05,-6.102943734731525e-05,-0.0002396528871031478,0.0,0.0,0.0,0.0,0.0028503143694251776,-0.003907001577317715,-0.003207225352525711,0.9980676770210266,0.0,0.0,0.0,0.2898313105106354,1.6481499671936035,5.279466152191162,-52.460044860839844,0
416.2350000000006,-0.00013095060421619564,-4.311403608880937e-05,-0.00027110736118629575,0.0,0.0,0.0,0.0,-0.002095224801450968,-0.002006142633035779,0.0016906007658690214,0.9992583394050598,0.0,0.0,0.0,0.29476627707481384,1.648359775543213,5.278595447540283,-53.3532829284668,0
426.14300000000003,-9.039025462698191e-05,-3.613518856582232e-05,-0.00023001925728749484,0.0,0.0,0.0,0.0,-0.0037287850864231586,0.002199945505708456,0.001547829364426434,1.000342607498169,0.0,0.0,0.0,0.2937200963497162,1.6482292413711548,5.278265953063965,-53.16392517089844,0
436.0580000000009,-0.00015007417823653668,-4.476923277252354e-05,-0.00026454735780134797,0.0,0.0,0.0,0.0,0.0019907087553292513,0.0022898137103766203,0.00237448257394135,0.9994983673095703,0.0,0.0,0.0,0.29405534267425537,1.6462688446044922,5.271274566650391,-53.22460174560547,0
445.97000000000116,-8.678679296281189e-05,-6.075466808397323e-05,-0.0002268552634632215,0.0,0.0,0.0,0.0,-0.0010256465757265687,0.0008963398868218064,0.00205206498503685,0.9998853802680969,0.0,0.0,0.0,0.2953719198703766,1.6443462371826172,5.267054080963135,-53.46290969848633,0
455.875,-0.00013869795657228678,-4.620676190825179e-05,-0.00026462163077667356,0.0,0.0,0.0,0.0,-0.0018236832693219185,0.0002052531053777784,-0.0014232156099751592,0.9974062442779541,0.0,0.0,0.0,0.29484936594963074,1.6437252759933472,5.258271217346191,-53.368324279785156,0
465.78399999999965,-9.889491047943011e-05,-3.991928679170087e-05,-0.00022418535081669688,0.0,0.0,0.0,0.0,0.0009849260095506907,0.0036005147267132998,0.0010397398145869374,0.9971535205841064,0.0,0.0,0.0,0.293972373008728,1.644446849822998,5.248742580413818,-53.2095832824707,0
475.6949999999997,-0.000196275970665738,-7.812777766957879e-05,-0.0002186966157751158,0.0,0.0,0.0,0.0,-0.0009770403848960996,-0.0027896303217858076,-0.0016308630583807826,1.0001566410064697,0.0,0.0,0.0,0.28815412521362305,1.6467572450637817,5.242868423461914,-52.15646743774414,0
485.60699999999997,-0.00011225759953958914,-9.711235907161608e-05,-0.00017120252596214414,0.0,0.0,0.0,0.0,0.0006427437765523791,0.002862578723579645,-0.00016045222582761198,0.9986732602119446,0.0,0.0,0.0,0.29454460740089417,1.6434473991394043,5.2581329345703125,-53.31315994262695,0
495.51500000000124,-0.00018731009913608432,-0.00010195244249189273,-0.00018518829892855138,0.0,0.0,0.0,0.0,0.0018734062323346734,0.004628410097211599,-0.0015345962019637227,0.9968937635421753,0.0,0.0,0.0,0.29368412494659424,1.6432472467422485,5.250461101531982,-53.15740966796875,0
505.4260000000013,-0.00012489354412537068,-0.00011237415310461074,-0.00014024446136318147,0.0,0.0,0.0,0.0,0.003720533801242709,-0.0018273756140843034,-0.0003591979912016541,0.9972397089004517,0.0,0.0,0.0,0.293763667345047,1.6394881010055542,5.237772464752197,-53.17180633544922,0
515.3360000000011,-0.0001606621954124421,-8.996659016702324e-05,-0.00020835611212532967,0.0,0.0,0.0,0.0,-0.0014694550773128867,0.00029067136347293854,-0.000974159047473222,1.0011351108551025,0.0,0.0,0.0,0.2937348783016205,1.6307553052902222,5.234902858734131,-53.166595458984375,0
525.2510000000002,-0.00010177245712839067,-9.294127085013315e-05,-0.00016510130080860108,0.0,0.0,0.0,0.0,0.00030563457403331995,0.0013437072047963738,0.001677757129073143,1.0015925168991089,0.0,0.0,0.0,0.29310333728790283,1.6246289014816284,5.232114791870117,-53.05229187011719,0
535.1570000000011,-0.00015181273920461535,-8.325927046826109e-05,-0.0002196991117671132,0.0,0.0,0.0,0.0,-0.002797252032905817,-0.0002960136334877461,-0.0014360792702063918,0.9980892539024353,0.0,0.0,0.0,0.2936200797557831,1.6245392560958862,5.218299865722656,-53.145816802978516,0
545.0680000000011,-0.00010861332702916116,-8.142245496856049e-05,-0.00017329168622381985,0.0,0.0,0.0,0.0,-0.00046830621431581676,-0.0016693237703293562,0.0020214489195495844,0.9998006820678711,0.0,0.0,0.0,0.2934110760688782,1.6276288032531738,5.220975399017334,-53.10799026489258,0
554.978000000001,-0.0001517908094683662,-3.4152577427448705e-05,-0.0002219527814304456,0.0,0.0,0.0,0.0,-0.0008483019191771746,0.00035870479769073427,-0.0015289147850126028,1.000394344329834,0.0,0.0,0.0,0.293622225522995,1.6230278015136719,5.219889163970947,-53.146209716796875,0
564.8909999999996,-0.00010407011723145843,-5.511202834895812e-05,-0.00018898822600021958,0.0,0.0,0.0,0.0,-0.002978487405925989,-0.000745993631426245,0.002926357788965106,0.9986855983734131,0.0,0.0,0.0,0.29253414273262024,1.6262987852096558,5.217156410217285,-52.949256896972656,0
574.8119999999999,-0.00011324548540869728,1.0570524864306208e-05,-0.00028456622385419905,0.0,0.0,0.0,0.0,-0.0032901852391660213,0.0029879817739129066,0.0003448807983659208,1.0005433559417725,0.0,0.0,0.0,0.2931043803691864,1.6283233165740967,5.214703559875488,-53.05247497558594,0
584.7110000000011,-7.135352643672377e-05,1.8273974546900718e-06,-0.000249121047090739,0.0,0.0,0.0,0.0,-0.0009764470742084086,0.0024996520951390266,-0.0005270823021419346,0.999613344669342,0.0,0.0,0.0,0.2935069799423218,1.6301292181015015,5.212584972381592,-53.12534713745117,0
594.6270000000004,-0.00010804935300257057,4.205215736874379e-05,-0.00031795058748684824,0.0,0.0,0.0,0.0,-0.0026459021028131247,-0.0007834299467504025,0.0006437866832129657,0.9982250332832336,0.0,0.0,0.0,0.2934175431728363,1.6312873363494873,5.210631847381592,-53.109161376953125,0
604.5339999999997,-6.178780313348398e-05,1.8215194359072484e-05,-0.0002913071366492659,0.0,0.0,0.0,0.0,0.002772298641502857,-0.00019810967205557972,0.0011296350276097655,1.000502586364746,0.0,0.0,0.0,0.2937677502632141,1.6312551498413086,5.206150054931641,-53.17254638671875,0
614.4520000000011,-0.00015536221326328814,-8.727834028832149e-06,-0.0003045329067390412,0.0,0.0,0.0,0.0,-0.0008161395089700818,0.0008156647672876716,-0.002898138714954257,0.9999515414237976,0.0,0.0,0.0,0.2933240532875061,1.6267058849334717,5.200259208679199,-53.09223937988281,0
624.3510000000006,-6.256344204302877e-05,-7.33731867512688e-05,-0.0002741799398791045,0.0,0.0,0.0,0.0,-7.079494389472529e-05,0.001690677017904818,-0.0040033417753875256,1.0001261234283447,0.0,0.0,0.0,0.2931426167488098,1.6215091943740845,5.198094367980957,-53.05939865112305,0
634.2700000000004,-8.901639375835657e-05,-1.3701358511752915e-05,-0.0003510102687869221,0.0,0.0,0.0,0.0,0.00314141483977437,0.000627405010163784,0.0006352069322019815,1.0016992092132568,0.0,0.0,0.0,0.291583776473999,1.6198397874832153,5.191147327423096,-52.77724838256836,0
644.1730000000007,-4.103371247765608e-05,-5.314662485034205e-05,-0.000322161300573498,0.0,0.0,0.0,0.0,0.00010918602492893115,0.001069219782948494,0.0021912099327892065,0.9989814162254333,0.0,0.0,0.0,0.2909059524536133,1.6111454963684082,5.187554359436035,-52.65456008911133,0
654.0900000000001,-8.322390203829855e-05,-9.489356671110727e-06,-0.00038026299444027245,0.0,0.0,0.0,0.0,-0.0011014096671715379,0.006332299672067165,-0.001518521225079894,1.0002275705337524,0.0,0.0,0.0,0.2917042374610901,1.6029027700424194,5.175866603851318,-52.79904556274414,0
663.9930000000004,-6.100640166550875e-05,-1.5609128240612336e-05,-0.0003466263588052243,0.0,0.0,0.0,0.0,0.001236753654666245,0.004045151174068451,-0.0015699093928560615,0.9998798370361328,0.0,0.0,0.0,0.29100173711776733,1.6011908054351807,5.165754795074463,-52.67189025878906,0
673.9130000000005,-0.00015128882660064846,-1.715080361464061e-05,-0.000351113936631009,0.0,0.0,0.0,0.0,-0.002687821863219142,-0.001168873393908143,0.0017025374108925462,0.9994332790374756,0.0,0.0,0.0,0.2918436825275421,1.595626950263977,5.1527204513549805,-52.824283599853516,0
683.8160000000007,-9.967094956664369e-05,-2.9024675313849002e-05,-0.0003063154872506857,0.0,0.0,0.0,0.0,-0.0008827928104437888,-0.00021689861023332924,0.003506732638925314,0.9985380172729492,0.0,0.0,0.0,0.290088951587677,1.5939429998397827,5.141401767730713,-52.50667190551758,0
693.7340000000004,-0.00021324893168639392,-8.235445420723408e-05,-0.00029358157189562917,0.0,0.0,0.0,0.0,0.0002915247459895909,-0.004248690791428089,-0.0018620097544044256,0.9986764788627625,0.0,0.0,0.0,0.29109615087509155,1.5922751426696777,5.148414611816406,-52.68898391723633,0
703.6360000000004,-0.00011385517427697778,-0.00010629543248796836,-0.00023538165260106325,0.0,0.0,0.0,0.0,-0.00018455529061611742,0.0006287271389737725,-0.0014028556179255247,1.0026963949203491,0.0,0.0,0.0,0.2897178530693054,1.597076654434204,5.144189357757568,-52.43950653076172,0
713.5510000000013,-0.000214545609196648,-0.00013739314454142004,-0.000227990560233593,0.0,0.0,0.0,0.0,-0.0008466169820167124,-0.0023583401925861835,0.002830104436725378,0.9996702075004578,0.0,0.0,0.0,0.2902378439903259,1.598352313041687,5.1488213539123535,-52.533626556396484,0
723.4549999999999,-0.00012415042147040367,-0.00013456676970236003,-0.00015407470345962793,0.0,0.0,0.0,0.0,-0.0025810953229665756,-0.0003291727334726602,0.0015141409821808338,0.9975707530975342,0.0,0.0,0.0,0.2893369197845459,1.6005436182022095,5.141324043273926,-52.37056350708008,0
733.3790000000008,-0.0001623386051505804,-8.916477236198261e-05,-0.0002021358668571338,0.0,0.0,0.0,0.0,-0.0005976414540782571,-0.0029498538933694363,-0.0003713916230481118,0.9981479048728943,0.0,0.0,0.0,0.2891109883785248,1.598182201385498,5.1280412673950195,-52.32966232299805,0
743.2820000000011,-0.00010051931167254224,-0.00011191298108315095,-0.00015020635328255594,0.0,0.0,0.0,0.0,-0.002079702215269208,0.002592930570244789,-0.0017323998035863042,1.0004388093948364,0.0,0.0,0.0,0.2891309857368469,1.5959831476211548,5.137876510620117,-52.33328628540039,0
753.1970000000001,-0.00017859238141682,-0.00010410231334390119,-0.00015471229562535882,0.0,0.0,0.0,0.0,0.0023338261526077986,0.0017394253518432379,-3.325866828163271e-06,0.999767541885376,0.0,0.0,0.0,0.2892566919326782,1.5994641780853271,5.129669189453125,-52.35603713989258,0
763.0990000000002,-0.00011992229701718315,-0.00012586337106768042,-0.0001027333564707078,0.0,0.0,0.0,0.0,-0.004593520425260067,0.001944978255778551,0.0015437849797308445,0.9999630451202393,0.0,0.0,0.0,0.2882646918296814,1.5919288396835327,5.128091812133789,-52.176483154296875,0
773.014000000001,-0.00020421652880031615,-0.0001434050645912066,-0.00010570951417321339,0.0,0.0,0.0,0.0,-0.00047273075324483216,-0.003181200474500656,-0.0010147924767807126,1.0008281469345093,0.0,0.0,0.0,0.2877959907054901,1.5947692394256592,5.116037368774414,-52.09164810180664,0
782.9200000000001,-0.00012009916099486873,-0.00014566010213457048,-3.420420398470014e-05,0.0,0.0,0.0,0.0,0.0001226263411808759,-0.0022856034338474274,-0.001116900471970439,0.9989262819290161,0.0,0.0,0.0,0.28736984729766846,1.599851131439209,5.106383323669434,-52.01451873779297,0
792.8410000000003,-0.00014078785898163915,-9.985586802940816e-05,-0.0001027801918098703,0.0,0.0,0.0,0.0,-0.0009570263791829348,-0.00040186377009376884,0.0005494260112755001,0.9991841912269592,0.0,0.0,0.0,0.2856695055961609,1.5967453718185425,5.103356838226318,-51.706748962402344,0
802.7450000000008,-7.60159527999349e-05,-0.0001588877639733255,-6.348565511871129e-05,0.0,0.0,0.0,0.0,0.0024557861033827066,0.003861319273710251,-0.0021748561412096024,0.997976541519165,0.0,0.0,0.0,0.2872840464115143,1.6017581224441528,5.106034755706787,-51.998985290527344,0
812.6560000000009,-0.00010648769239196554,-0.00011688631639117375,-0.00012570949911605567,0.0,0.0,0.0,0.0,-0.0011929698521271348,-0.0008256261353380978,-0.00041028542909771204,0.9994462132453918,0.0,0.0,0.0,0.2881045341491699,1.596258521080017,5.087778091430664,-52.147491455078125,0
822.5590000000011,-7.146731513785198e-05,-0.00015575069119222462,-9.059840522240847e-05,0.0,0.0,0.0,0.0,0.0011334049049764872,0.001899608876556158,0.0020759720355272293,1.000805377960205,0.0,0.0,0.0,0.2874295711517334,1.5947648286819458,5.077624320983887,-52.02532958984375,0
832.4800000000014,-7.469191768905148e-05,-5.0133399781771004e-05,-0.00017363327788189054,0.0,0.0,0.0,0.0,0.002184526529163122,-6.018644489813596e-05,0.0010505731916055083,1.0012067556381226,0.0,0.0,0.0,0.286560595035553,1.5828145742416382,5.065896511077881,-51.868038177490234,0
842.380000000001,5.287336080073146e-06,-0.000126755447126925,-0.00014994405501056463,0.0,0.0,0.0,0.0,-0.0005014861817471683,0.0001687341573415324,0.0016460197512060404,0.999775230884552,0.0,0.0,0.0,0.28709906339645386,1.5853326320648193,5.0540266036987305,-51.96550750732422,0
852.3140000000003,-1.5536574210273102e-05,-3.929439480998553e-05,-0.00021520888549275696,0.0,0.0,0.0,0.0,-0.0011832854943349957,0.003464073408395052,0.0016180961392819881,0.9959318041801453,0.0,0.0,0.0,0.28682196140289307,1.580338478088379,5.036849021911621,-51.915348052978516,0
862.2049999999999,-2.8050144464941695e-05,-8.370500290766358e-05,-0.00020861894881818444,0.0,0.0,0.0,0.0,-0.0013960243668407202,-6.544889765791595e-05,0.0016236224910244346,0.9977567195892334,0.0,0.0,0.0,0.2854793667793274,1.5721908807754517,5.025082588195801,-51.672332763671875,0
872.1200000000008,-9.482789027970284e-05,-4.762314711115323e-05,-0.00023793881700839847,0.0,0.0,0.0,0.0,0.003556676674634218,0.0013317472767084837,-0.0025582562666386366,0.998603105545044,0.0,0.0,0.0,0.2869831919670105,1.5731571912765503,5.02266263961792,-51.94453048706055,0
882.023000000001,-5.833371324115433e-05,-8.793720189714804e-05,-0.00022138630447443575,0.0,0.0,0.0,0.0,0.0009812068892642856,0.0037384505849331617,0.0017054660711437464,0.9994972944259644,0.0,0.0,0.0,0.2857874929904938,1.5652964115142822,5.011366367340088,-51.72810363769531,0
891.9440000000013,-0.0001283204765059054,-8.72213568072766e-05,-0.00026364397490397096,0.0,0.0,0.0,0.0,0.002456733724102378,-0.0023415929172188044,0.0007535938057117164,0.9989066123962402,0.0,0.0,0.0,0.2860022783279419,1.5623013973236084,4.989625453948975,-51.76698303222656,0
901.844000000001,-9.543706983095035e-05,-7.100051152519882e-05,-0.00022410137171391398,0.0,0.0,0.0,0.0,0.0010225605219602585,0.0007128368015401065,0.0016962887020781636,0.9983082413673401,0.0,0.0,0.0,0.28544455766677856,1.5552446842193604,4.98868989944458,-51.66603469848633,0
911.7630000000008,-0.0001622475974727422,-4.637188249034807e-05,-0.00026777255698107183,0.0,0.0,0.0,0.0,0.000910386152099818,0.0008654454140923917,0.00048797656199894845,0.9973639249801636,0.0,0.0,0.0,0.2849524915218353,1.5468372106552124,4.984301567077637,-51.576969146728516,0
921.6650000000009,-0.00010181481775362045,-5.592150773736648e-05,-0.00022804462059866637,0.0,0.0,0.0,0.0,-0.00122014619410038,0.0028450018726289272,0.001973434118553996,0.9977666735649109,0.0,0.0,0.0,0.2852116525173187,1.5478702783584595,4.981418132781982,-51.623878479003906,0
931.5830000000005,-0.00020691116515081376,-8.720310142962262e-05,-0.00023487255384679884,0.0,0.0,0.0,0.0,2.5167955755023286e-05,0.0012117871083319187,-0.0007199750398285687,0.9976977109909058,0.0,0.0,0.0,0.27767106890678406,1.5513041019439697,4.973133563995361,-50.25901794433594,0
941.4860000000008,-0.00012215507740620524,-9.108689846470952e-05,-0.00018450384959578514,0.0,0.0,0.0,0.0,-0.00012875445827376097,0.0007973702740855515,-0.0029740885365754366,0.9995312094688416,0.0,0.0,0.0,0.27712514996528625,1.5532995462417603,4.9543328285217285,-50.16019821166992,0
951.4140000000007,-0.00018178702157456428,-7.760738662909716e-05,-0.00024302193196490407,0.0,0.0,0.0,0.0,0.00648430734872818,0.0024766656570136547,0.0020219862926751375,1.0011358261108398,0.0,0.0,0.0,0.27705422043800354,1.5482597351074219,4.936822891235352,-50.14736557006836,0
961.3150000000005,-0.00011166734475409612,-7.949391147121787e-05,-0.00019617911311797798,0.0,0.0,0.0,0.0,-0.0009947806829586625,0.00039290933636948466,0.0032666774932295084,0.9992152452468872,0.0,0.0,0.0,0.27671927213668823,1.5451781749725342,4.920780658721924,-50.08674240112305,0
971.2219999999998,-0.0002187278150813654,-0.00012107879592804238,-0.0002034645585808903,0.0,0.0,0.0,0.0,-0.0017036976059898734,-0.0013432089472189546,0.0004754748661071062,0.998458206653595,0.0,0.0,0.0,0.2763255834579468,1.5372782945632935,4.9064154624938965,-50.015480041503906,0
981.1270000000004,-0.00013183130067773163,-0.00012670359865296632,-0.0001456019963370636,0.0,0.0,0.0,0.0,0.0004361855681054294,0.002348109148442745,0.001505300053395331,0.9991214275360107,0.0,0.0,0.0,0.2768026292324066,1.5342662334442139,4.904717445373535,-50.10182571411133,0
991.0429999999997,-0.00017489292076788843,-7.152157195378095e-05,-0.000206171564059332,0.0,0.0,0.0,0.0,-0.0002933590149041265,-0.0003119806060567498,0.001820930396206677,0.999900221824646,0.0,0.0,0.0,0.2768288850784302,1.5307948589324951,4.893665790557861,-50.10657501220703,0
1000.9470000000001,-0.0001173115088022314,-8.982678264146671e-05,-0.0001653124636504799,0.0,0.0,0.0,0.0,-0.0018638905603438616,-0.004667151253670454,-0.0037366352044045925,0.9984019994735718,0.0,0.0,0.0,0.27551403641700745,1.5271515846252441,4.8887152671813965,-49.868587493896484,0
1010.862000000001,-0.00020772105199284852,-9.814254735829309e-05,-0.0001789738016668707,0.0,0.0,0.0,0.0,-0.0010633907513692975,0.002516668988391757,-0.0043955096043646336,0.998641848564148,0.0,0.0,0.0,0.27543905377388,1.5318998098373413,4.87916374206543,-49.855010986328125,0
1020.768,-0.00012810755288228393,-0.00011942783021368086,-0.00012803456047549844,0.0,0.0,0.0,0.0,0.0026327951345592737,3.668498175102286e-05,0.0006670916336588562,1.0002679824829102,0.0,0.0,0.0,0.2737843990325928,1.5354374647140503,4.880738258361816,-49.55552673339844,0
1030.6800000000003,-0.0002138829731848091,-0.0001254089584108442,-0.0001494151947554201,0.0,0.0,0.0,0.0,0.003248786088079214,0.005057642702013254,-0.001094846404157579,0.9986950159072876,0.0,0.0,0.0,0.27435988187789917,1.5322614908218384,4.874049186706543,-49.65968322753906,0
1040.589,-3.8674021197948605e-05,-0.00017325658700428903,-7.854461728129536e-05,0.0,0.0,0.0,0.0,-0.0005964813753962517,-0.004709972068667412,-0.0013965127291157842,0.9989652037620544,0.0,0.0,0.0,0.2736594080924988,1.5269486904144287,4.900699615478516,-49.532894134521484,0
1050.5030000000006,-0.0001135620623244904,-0.00014987874601501971,-9.605778905097395e-05,0.0,0.0,0.0,0.0,0.00030952159431762993,-0.004759626928716898,-0.0011523154098540545,0.9986937642097473,0.0,0.0,0.0,0.27411574125289917,1.5170351266860962,4.887459754943848,-49.61549377441406,0
1060.4099999999999,-2.6672612875699997e-05,-0.00018918739806395024,-4.578582229441963e-05,0.0,0.0,0.0,0.0,0.003179447026923299,-0.002657423261553049,0.002295362763106823,0.9985041618347168,0.0,0.0,0.0,0.2737342417240143,1.5226171016693115,4.888673305511475,-49.546443939208984,0
1070.3199999999997,-0.00010283107258146629,-0.00017954909708350897,-6.297804793575779e-05,0.0,0.0,0.0,0.0,-0.0004167972656432539,0.005026375409215689,-0.002426838269457221,1.001086950302124,0.0,0.0,0.0,0.27442967891693115,1.5206016302108765,4.897136688232422,-49.67231750488281,0
1080.2300000000014,-4.5038290409138426e-05,-0.00019820570014417171,-8.685412467457354e-06,0.0,0.0,0.0,0.0,0.003918506670743227,0.0015925372717902064,0.0010094356257468462,1.002536416053772,0.0,0.0,0.0,0.2741226851940155,1.5143541097640991,4.880899429321289,-49.616756439208984,0
1090.1419999999998,-6.789787585148588e-05,-0.00012751792382914573,-8.387189882341772e-05,0.0,0.0,0.0,0.0,-0.0063971285708248615,-0.0029625273309648037,0.001943468814715743,0.999585747718811,0.0,0.0,0.0,0.27319443225860596,1.511962890625,4.877969264984131,-49.44873809814453,0
1100.0519999999997,-5.909644460189156e-05,-0.00018569295934867114,-6.24067906755954e-05,0.0,0.0,0.0,0.0,-0.0009532709373161197,0.002758837305009365,-0.002280270215123892,0.9991152882575989,0.0,0.0,0.0,0.2734317481517792,1.5034364461898804,4.867994785308838,-49.4916877746582,0
1109.9650000000001,-9.079595474759117e-05,-0.00011644601909210905,-0.00012902253365609795,0.0,0.0,0.0,0.0,-0.001871180604211986,-0.001773912226781249,0.0005441169487312436,0.9995769262313843,0.0,0.0,0.0,0.2732904255390167,1.5073227882385254,4.856375694274902,-49.46611022949219,0
1119.8730000000014,-0.0001015132074826397,-0.00012380906264297664,-9.648071136325598e-05,0.0,0.0,0.0,0.0,-0.0022524313535541296,-0.0002989417116623372,-0.0009249928407371044,1.0002458095550537,0.0,0.0,0.0,0.27325642108917236,1.5068960189819336,4.85327672958374,-49.45995330810547,0
1129.7839999999997,-0.00014619056310039014,-9.826756286201999e-05,-0.0001667944889049977,0.0,0.0,0.0,0.0,0.000644131563603878,0.0005863437545485795,0.0001208125613629818,0.9989773631095886,0.0,0.0,0.0,0.27266865968704224,1.512373685836792,4.852892875671387,-49.35356903076172,0
1139.6930000000011,-0.00012199609773233533,-0.0001151886535808444,-0.00013242031855043024,0.0,0.0,0.0,0.0,0.002713153138756752,0.0034377959091216326,0.00021236581960693002,0.9988433122634888,0.0,0.0,0.0,0.2716900706291199,1.504360318183899,4.844265460968018,-49.17644500732422,0
1149.6050000000014,-0.00016054869047366083,-3.4967590181622654e-05,-0.00019693032663781196,0.0,0.0,0.0,0.0,-0.0009750432218424976,-0.001984552713111043,0.0024165043141692877,0.998788595199585,0.0,0.0,0.0,0.27155694365501404,1.4941030740737915,4.847381591796875,-49.152347564697266,0
1159.5190000000002,-0.00010328907228540629,-6.448452040785924e-05,-0.00015802370035089552,0.0,0.0,0.0,0.0,0.0021985932253301144,0.000826375384349376,-0.002670625690370798,0.9999819993972778,0.0,0.0,0.0,0.2717060446739197,1.4965593814849854,4.843717575073242,-49.1793327331543,0
1169.429,-0.0001708501804387197,-3.887486309395172e-05,-0.0002033892524195835,0.0,0.0,0.0,0.0,-0.0014072685735300183,0.001010742038488388,-0.0010755398543551564,0.9983751773834229,0.0,0.0,0.0,0.26995301246643066,1.4903546571731567,4.8319292068481445,-48.86203384399414,0
1179.335000000001,-9.787862654775381e-05,-7.714762614341453e-05,-0.00016282207798212767,0.0,0.0,0.0,0.0,0.0013576571363955736,0.000543308793567121,0.0032684069592505693,1.0000057220458984,0.0,0.0,0.0,0.26939600706100464,1.4993175268173218,4.834255218505859,-48.76121139526367,0
1189.2450000000008,-0.00016318065172526985,-7.308128260774538e-05,-0.00021927931811660528,0.0,0.0,0.0,0.0,-6.910521915415302e-05,-0.0015788065502420068,-0.0016600036760792136,0.9995657205581665,0.0,0.0,0.0,0.2700289487838745,1.4945367574691772,4.828253269195557,-48.87577819824219,0
1199.1550000000007,-0.00011058600648539141,-7.481123611796647e-05,-0.00016803760081529617,0.0,0.0,0.0,0.0,0.00046288908924907446,-0.001328240497969091,-0.00020539917750284076,1.0016080141067505,0.0,0.0,0.0,0.2696845829486847,1.488210916519165,4.822124004364014,-48.81344223022461,0
1209.067000000001,-0.00017279437452089041,-4.8831134336069226e-05,-0.00022196274949237704,0.0,0.0,0.0,0.0,-0.0017466670833528042,-0.0029343662317842245,0.004138870630413294,0.9996241927146912,0.0,0.0,0.0,0.2692219913005829,1.4909467697143555,4.823598861694336,-48.72971725463867,0
1218.9860000000008,-0.00022204761626198888,-0.0001091935409931466,-0.00018123866175301373,0.0,0.0,0.0,0.0,0.001844970160163939,0.0021002411376684904,0.0019990287255495787,0.9980207681655884,0.0,0.0,0.0,0.26878467202186584,1.4943761825561523,4.816775321960449,-48.65056228637695,0
1228.8870000000006,-0.00017813211889006197,-4.4681295548798516e-05,-0.00022335576068144292,0.0,0.0,0.0,0.0,-0.0018640506314113736,-0.0002873587654903531,0.002573932521045208,1.0005104541778564,0.0,0.0,0.0,0.26878467202186584,1.4943761825561523,4.816775321960449,-48.65056228637695,0
1238.7970000000005,-0.00017836879123933613,-0.00014147403999231756,-0.0001821975747589022,0.0,0.0,0.0,0.0,0.0011496669612824917,0.0012618248583748937,-0.0013698358088731766,1.0017234086990356,0.0,0.0,0.0,0.2671178877353668,1.495477318763733,4.843990325927734,-48.34886932373047,0
1248.7070000000003,-0.000129879976157099,-5.2196661272319034e-05,-0.00022176746279001236,0.0,0.0,0.0,0.0,-0.003046087920665741,-0.003603078192099929,-0.001776814111508429,0.9994679689407349,0.0,0.0,0.0,0.2671178877353668,1.495477318763733,4.843990325927734,-48.34886932373047,0
1258.6180000000004,-0.0001840258191805333,-0.00014875869965180755,-0.00019216457440052181,0.0,0.0,0.0,0.0,0.0010186485014855862,0.0006264350959099829,0.0030334109906107187,0.9989786148071289,0.0,0.0,0.0,0.2662300765514374,1.4897522926330566,4.829056262969971,-48.18817901611328,0
1268.5280000000002,-0.00010247773752780631,-5.116653028380824e-06,-0.00026080867974087596,0.0,0.0,0.0,0.0,0.0020268470980226994,0.0034545715898275375,-0.0006885578623041511,0.99909907579422,0.0,0.0,0.0,0.2662300765514374,1.4897522926330566,4.829056262969971,-48.18817901611328,0
1278.4410000000007,-6.224972457857803e-05,-7.041601202217862e-05,-0.00023771474661771208,0.0,0.0,0.0,0.0,-0.00021487337653525174,0.0034418057184666395,0.0018105371855199337,0.9989143013954163,0.0,0.0,0.0,0.26612743735313416,1.4869436025619507,4.819695949554443,-48.169593811035156,0
1288.3510000000006,-0.00014321172784548253,-7.547575660282746e-05,-0.0002767111291177571,0.0,0.0,0.0,0.0,0.0017229055520147085,0.0004730749351438135,0.0021687131375074387,0.9982847571372986,0.0,0.0,0.0,0.2652629613876343,1.4796032905578613,4.810797214508057,-48.01312255859375,0
1298.2720000000008,-2.8429951271391474e-05,-0.00011673095286823809,-0.00022603911929763854,0.0,0.0,0.0,0.0,0.0006816906970925629,-0.0006734311464242637,-0.004289282485842705,0.9983536005020142,0.0,0.0,0.0,0.2654995322227478,1.4765855073928833,4.798445224761963,-48.05594253540039,0
1308.1800000000003,-6.535587453981861e-05,-5.473345299833454e-05,-0.0003005505132023245,0.0,0.0,0.0,0.0,-0.0006735895876772702,1.8321920833841432e-06,0.0021100707817822695,1.0002400875091553,0.0,0.0,0.0,0.26594799757003784,1.4682061672210693,4.779781341552734,-48.137115478515625,0
1318.0810000000001,2.1420055418275297e-05,-0.00012072321987943724,-0.00027050665812566876,0.0,0.0,0.0,0.0,0.002180611714720726,0.0012946741189807653,0.0024005556479096413,1.0008198022842407,0.0,0.0,0.0,0.2657313942909241,1.4570386409759521,4.772426605224609,-48.09790802001953,0
1327.9950000000008,-2.553335616539698e-05,-7.035236922092736e-05,-0.0003373078361619264,0.0,0.0,0.0,0.0,0.0007838589954189956,-0.0011280948529019952,0.0005086763994768262,0.9982190132141113,0.0,0.0,0.0,0.2649468779563904,1.452883005142212,4.765187740325928,-47.955909729003906,0
1337.9009999999998,2.0861931261606514e-05,-0.00011518730752868578,-0.0003098068118561059,0.0,0.0,0.0,0.0,0.001094355946406722,-0.003908973187208176,0.0015600057085976005,0.9987476468086243,0.0,0.0,0.0,0.26453012228012085,1.4457226991653442,4.759167194366455,-47.8804817199707,0
1347.8199999999997,-3.304939309600741e-05,-6.312147161224857e-05,-0.0003686428826767951,0.0,0.0,0.0,0.0,-0.002689148997887969,-0.004619472194463015,-0.002776408102363348,0.9993232488632202,0.0,0.0,0.0,0.2660883069038391,1.438258409500122,4.756861686706543,-48.162513732910156,0
1357.732,-4.5177177526056767e-05,-8.31312863738276e-05,-0.0003482514002826065,0.0,0.0,0.0,0.0,-0.00014929678582120687,-0.0005193078541196883,0.0015631710411980748,0.9996602535247803,0.0,0.0,0.0,0.2663596272468567,1.4463152885437012,4.770622253417969,-48.21162414550781,0
1367.6509999999998,-0.00014213143731467426,-0.00010707339242799208,-0.0003802121209446341,0.0,0.0,0.0,0.0,-0.0029995115473866463,-0.0031197622884064913,-0.0015972646651789546,0.9993864297866821,0.0,0.0,0.0,0.2661612927913666,1.4438928365707397,4.764891147613525,-48.17572784423828,0
1377.5439999999999,-7.051986904116347e-05,-0.0001261705911019817,-0.00033270358107984066,0.0,0.0,0.0,0.0,-0.0025684242136776447,0.0027839678805321455,0.0019267919706180692,1.000030755996704,0.0,0.0,0.0,0.2671084702014923,1.449850082397461,4.773457050323486,-48.347164154052734,0
1387.4650000000001,-0.00018762474064715207,-0.00015831385098863393,-0.0003329946775920689,0.0,0.0,0.0,0.0,-0.0007579696830362082,0.002553584985435009,-0.0012559926835820079,1.000056266784668,0.0,0.0,0.0,0.2670722007751465,1.458682894706726,4.762298107147217,-48.34059524536133,0
1397.3640000000014,-0.00012950488599017262,-0.00013001891784369946,-0.00026437253109179437,0.0,0.0,0.0,0.0,-0.002110841451212764,-0.00038883741945028305,0.0016666884766891599,0.9994210600852966,0.0,0.0,0.0,0.2668626010417938,1.4599714279174805,4.7525553703308105,-48.30266189575195,0
1407.2800000000007,-0.0002363835519645363,-0.0001348981895716861,-0.00026662906748242676,0.0,0.0,0.0,0.0,0.00027389510069042444,-0.0005739870248362422,-0.0034797661937773228,0.9994761943817139,0.0,0.0,0.0,0.26639801263809204,1.4579641819000244,4.731246471405029,-48.21857452392578,0
1417.1859999999997,-0.00017048302106559277,-8.479064126731828e-05,-0.00018037654808722436,0.0,0.0,0.0,0.0,0.00032098949304781854,-0.0008158675045706332,0.004714690614491701,1.000553011894226,0.0,0.0,0.0,0.2659229636192322,1.4601846933364868,4.729248046875,-48.13258361816406,0
1427.107,-0.000223251772695221,-3.9075646782293916e-05,-0.00023992202477529645,0.0,0.0,0.0,0.0,-0.0004408978275023401,0.003779033897444606,-0.0010390152456238866,0.9995558857917786,0.0,0.0,0.0,0.2650530934333801,1.4626110792160034,4.727204322814941,-47.97513198852539,0
1437.0070000000014,-0.00012621634232345968,-7.783914770698175e-05,-0.00018193504365626723,0.0,0.0,0.0,0.0,1.508972309238743e-05,0.0014466445427387953,-0.0015142550691962242,1.0000635385513306,0.0,0.0,0.0,0.2655589282512665,1.457455039024353,4.72817850112915,-48.06669616699219,0
1446.9220000000005,-0.00019148147839587182,-7.303395977942273e-05,-0.00023615173995494843,0.0,0.0,0.0,0.0,-0.0037579964846372604,-0.0008965793531388044,-0.002243826864287257,0.9974073171615601,0.0,0.0,0.0,0.26418164372444153,1.4561327695846558,4.704784870147705,-47.817405700683594,0
1456.8330000000005,-0.00012492929818108678,-0.00010313998063793406,-0.00018413572979625314,0.0,0.0,0.0,0.0,-0.0019368460634723306,-0.0011412739986553788,0.0012640021741390228,0.9998857975006104,0.0,0.0,0.0,0.2639473080635071,1.4591633081436157,4.704595565795898,-47.774986267089844,0
1466.7450000000008,-0.00022359986905939877,-0.00011374100722605363,-0.00019662508566398174,0.0,0.0,0.0,0.0,-0.0014190521324053407,-0.0015169200487434864,0.003069398459047079,0.99859619140625,0.0,0.0,0.0,0.26415058970451355,1.4656503200531006,4.703497409820557,-47.8117790222168,0
1476.6550000000007,-0.00013977332855574787,-0.00011919283861061558,-0.00012581993360072374,0.0,0.0,0.0,0.0,0.00315681891515851,3.17660415021237e-05,-0.0015017862897366285,0.9993510842323303,0.0,0.0,0.0,0.2643865644931793,1.4649865627288818,4.698462963104248,-47.854496002197266,0
1486.567000000001,-0.0001774316478986293,-3.443492823862471e-05,-0.00019247342424932867,0.0,0.0,0.0,0.0,0.0013164505362510681,0.003380121197551489,0.0017993507208302617,0.9996849298477173,0.0,0.0,0.0,0.26491543650627136,1.467050313949585,4.701322078704834,-47.95022201538086,0
1496.473,-0.0001067566845449619,-7.037629256956279e-05,-0.0001363084011245519,0.0,0.0,0.0,0.0,0.002487794030457735,0.005935498978942633,-0.0005879008094780147,0.9987809062004089,0.0,0.0,0.0,0.2647785246372223,1.4617416858673096,4.695006847381592,-47.92544174194336,0
1506.3829999999998,-0.00016143237007781863,-1.3210283213993534e-05,-0.00019256740051787347,0.0,0.0,0.0,0.0,-0.0029151749331504107,-0.000917782774195075,0.0009332989575341344,0.999570369720459,0.0,0.0,0.0,0.2664285898208618,1.4572250843048096,4.683090686798096,-48.2241096496582,0
1516.299000000001,-9.846458851825446e-05,-7.173026097007096e-05,-0.00014631795056629926,0.0,0.0,0.0,0.0,-0.0005067756283096969,0.0017608334310352802,-0.003166148206219077,0.9992523789405823,0.0,0.0,0.0,0.2646656036376953,1.4544117450714111,4.667708873748779,-47.90500259399414,0
1526.2060000000001,-0.00020879518706351519,-9.865919855656102e-05,-0.0001540529337944463,0.0,0.0,0.0,0.0,-0.0004931603907607496,0.003724707057699561,-0.0029969527386128902,0.9991415739059448,0.0,0.0,0.0,0.25768542289733887,1.4580415487289429,4.655949592590332,-46.64157485961914,0
1536.116,-5.812800009152852e-05,-0.00016683423018548638,-8.713089482625946e-05,0.0,0.0,0.0,0.0,0.000689205015078187,0.0035422933287918568,-0.0025643096305429935,0.9993816614151001,0.0,0.0,0.0,0.257644385099411,1.4529861211776733,4.695387363433838,-46.63414764404297,0
1546.0220000000008,-0.00014260978787206113,-0.00014468443987425417,-0.00010884476796491072,0.0,0.0,0.0,0.0,0.0003768866299651563,-0.0028750323690474033,0.0007754063117317855,0.9984555244445801,0.0,0.0,0.0,0.2563961446285248,1.4530278444290161,4.685211658477783,-46.408206939697266,0
1555.934000000001,-9.061676973942667e-05,-0.0002082990249618888,-6.661218503722921e-05,0.0,0.0,0.0,0.0,-0.003125115530565381,-0.0014044037088751793,0.00017753831343725324,0.9979465007781982,0.0,0.0,0.0,0.25620293617248535,1.4509221315383911,4.6747541427612305,-46.37323760986328,0
1565.8450000000012,-0.00016973224410321563,-0.00017775608284864575,-9.496246639173478e-05,0.0,0.0,0.0,0.0,0.0027687058318406343,0.007318191230297089,0.0002252877748105675,0.9986380338668823,0.0,0.0,0.0,0.2564239501953125,1.4468053579330444,4.680517196655273,-46.413246154785156,0
1575.764000000001,-0.00011059331882279366,-0.00022662269475404173,-4.547456046566367e-05,0.0,0.0,0.0,0.0,-0.00028426555218175054,-0.0015178810572251678,0.00026532559422776103,0.9983195662498474,0.0,0.0,0.0,0.25576266646385193,1.4495490789413452,4.671099662780762,-46.29355239868164,0
1585.666000000001,-0.0001435720914741978,-0.0001653033250477165,-0.00013531114382203668,0.0,0.0,0.0,0.0,0.0002640679886098951,0.005851625930517912,-0.0016180509701371193,1.0002734661102295,0.0,0.0,0.0,0.25704944133758545,1.4415085315704346,4.658162593841553,-46.52646255493164,0
1595.5820000000003,-5.698438690160401e-05,-0.00020848060376010835,-7.98002874944359e-05,0.0,0.0,0.0,0.0,0.003151903860270977,0.0002688643289729953,0.0007542185485363007,0.9997426271438599,0.0,0.0,0.0,0.2567274272441864,1.4399306774139404,4.643406867980957,-46.46817398071289,0
1605.4840000000004,-0.00010444087820360437,-0.00015866327157709748,-0.0001565030834171921,0.0,0.0,0.0,0.0,-0.0016290298663079739,0.003381584072485566,6.941169431229355e-06,0.9998131990432739,0.0,0.0,0.0,0.25684672594070435,1.4458301067352295,4.638071537017822,-46.489768981933594,0
1615.407000000001,-0.00010408099478809163,-0.00020470088929869235,-0.00012443348532542586,0.0,0.0,0.0,0.0,-0.0008426476269960403,-0.0027959614526480436,-0.0005892870249226689,0.9999959468841553,0.0,0.0,0.0,0.25619497895240784,1.4359983205795288,4.621617794036865,-46.371803283691406,0
1625.308000000001,-0.0001229193585459143,-0.0001334615662926808,-0.00023980120022315532,0.0,0.0,0.0,0.0,-0.0012636013561859727,0.0032020537182688713,0.00247839093208313,0.9999852776527405,0.0,0.0,0.0,0.256097674369812,1.4377418756484985,4.617762565612793,-46.35418701171875,0
1635.2260000000006,-8.391607116209343e-05,-0.0001665308664087206,-0.00019957976473961025,0.0,0.0,0.0,0.0,-0.0010550563456490636,-0.0035786430817097425,0.00037981339846737683,1.0003608465194702,0.0,0.0,0.0,0.2561037838459015,1.438944697380066,4.610974311828613,-46.355289459228516,0
1645.1310000000012,-0.000106273393612355,-7.127209391910583e-05,-0.00030459222034551203,0.0,0.0,0.0,0.0,-0.0038320403546094894,-0.00038280620356090367,-0.0010194178903475404,1.000393271446228,0.0,0.0,0.0,0.255542516708374,1.4414247274398804,4.608199596405029,-46.25370788574219,0
1655.049000000001,-8.212521788664162e-05,-8.017921936698258e-05,-0.0002621321764308959,0.0,0.0,0.0,0.0,-0.00042779717477969825,0.0010018300963565707,-0.0012288185534998775,0.9991579651832581,0.0,0.0,0.0,0.2543410360813141,1.4427036046981812,4.607039451599121,-46.036231994628906,0
1664.955,-0.00018024556629825383,-7.099784852471203e-05,-0.0002920068218372762,0.0,0.0,0.0,0.0,0.004591743461787701,0.001368817174807191,-0.0019532982259988785,0.9992108345031738,0.0,0.0,0.0,0.2539134621620178,1.4453693628311157,4.596691608428955,-45.958839416503906,0
1674.8630000000012,-9.97272290987894e-05,-0.00012314188643358648,-0.0002468193997628987,0.0,0.0,0.0,0.0,-0.004310757853090763,-0.0046851602382957935,0.0011160630965605378,0.9998621940612793,0.0,0.0,0.0,0.25327613949775696,1.4420585632324219,4.595308780670166,-45.84348678588867,0
1684.7749999999996,-0.0001419702748535201,-5.018824231228791e-05,-0.00033854309003800154,0.0,0.0,0.0,0.0,-0.0006851106882095337,-0.002761571668088436,0.0025963273365050554,0.998749852180481,0.0,0.0,0.0,0.25297078490257263,1.44275963306427,4.59348726272583,-45.7882194519043,0
1694.6850000000013,-0.00010677020327420905,-6.081407263991423e-05,-0.00029102445114403963,0.0,0.0,0.0,0.0,0.0010972613235935569,0.002815097803249955,-0.0006766124861314893,1.0014210939407349,0.0,0.0,0.0,0.25431719422340393,1.4438560009002686,4.597964286804199,-46.031917572021484,0
1704.5950000000012,-0.00020994491933379322,-6.186040991451591e-05,-0.00032406451646238565,0.0,0.0,0.0,0.0,-0.0016682046698406339,-0.00039155688136816025,0.002415493130683899,1.0010892152786255,0.0,0.0,0.0,0.25424322485923767,1.4412541389465332,4.590512752532959,-46.01852798461914,0
1714.5079999999998,-0.00011797951447078958,-8.00643174443394e-05,-0.0002617224818095565,0.0,0.0,0.0,0.0,-0.0023136662784963846,0.0032590562477707863,-0.006958372890949249,0.9996464252471924,0.0,0.0,0.0,0.2529245615005493,1.4345629215240479,4.570827484130859,-45.779850006103516,0
1724.4210000000003,-0.0002549823257140815,-8.83618340594694e-05,-0.0002817514759954065,0.0,0.0,0.0,0.0,0.002804363379254937,-0.00032349140383303165,0.0019085091771557927,0.9997290372848511,0.0,0.0,0.0,0.25194698572158813,1.4369678497314453,4.552926063537598,-45.6029052734375,0
1734.3320000000003,-0.0002367085835430771,-9.545250941300765e-05,-0.0002248298842459917,0.0,0.0,0.0,0.0,0.002229292644187808,0.0004982560058124363,0.00017442528042010963,0.9992796182632446,0.0,0.0,0.0,0.25382426381111145,1.4343024492263794,4.548588752746582,-45.94269561767578,0
1744.2420000000002,-0.00033465883461758494,-7.460592314600945e-05,-0.0002683326893020421,0.0,0.0,0.0,0.0,-0.0024488302879035473,-0.003749462077394128,0.00010293618106516078,1.000223994255066,0.0,0.0,0.0,0.2541443109512329,1.4252334833145142,4.546125411987305,-46.00062561035156,0
1754.1530000000002,-0.0002459476236253977,-0.00011194754188181832,-0.00020411417062859982,0.0,0.0,0.0,0.0,0.0001454044395359233,-0.0029937431681901217,-0.0014066831208765507,0.9989957809448242,0.0,0.0,0.0,0.25494489073753357,1.4240846633911133,4.545603275299072,-46.14553451538086,0
1764.0650000000005,-0.00033780132071115077,-8.918391540646553e-05,-0.00025518896291032434,0.0,0.0,0.0,0.0,-0.0012848037295043468,2.122182741004508e-05,0.001986379735171795,0.9989940524101257,0.0,0.0,0.0,0.2555150091648102,1.4278433322906494,4.556280612945557,-46.24872589111328,0
1773.9800000000014,-0.00024531740928068757,-0.00011406939302105457,-0.0001823314232751727,0.0,0.0,0.0,0.0,-0.004709314089268446,-0.0035885022953152657,2.7393705750000663e-05,0.9991279244422913,0.0,0.0,0.0,0.25510671734809875,1.4296256303787231,4.5869035720825195,-46.17482376098633,0
1783.889000000001,-0.00034555845195427537,-0.00010230237967334688,-0.00022630405146628618,0.0,0.0,0.0,0.0,-0.00040410165092907846,-0.001415506936609745,-0.00048087522736750543,0.998421847820282,0.0,0.0,0.0,0.2542771100997925,1.4337002038955688,4.585168838500977,-46.024662017822266,0
1793.7970000000005,-0.0002568004420027137,-0.00018202171486336738,-0.0001758908765623346,0.0,0.0,0.0,0.0,-0.0022506078239530325,0.00048321785288862884,0.003739622887223959,0.9985477328300476,0.0,0.0,0.0,0.25603488087654114,1.4266972541809082,4.62298583984375,-46.34282302856445,0
1803.7070000000003,-0.0003321664407849312,-0.00014846758858766407,-0.00024848166503943503,0.0,0.0,0.0,0.0,0.0008131588692776859,-0.0028603319078683853,-0.0018444429151713848,0.9979968070983887,0.0,0.0,0.0,0.25616344809532166,1.4271637201309204,4.626932621002197,-46.3660888671875,0
1813.6260000000002,-0.0002511623897589743,-0.00020437895727809519,-0.00018679385539144278,0.0,0.0,0.0,0.0,-0.0023818507324904203,0.0013057111063972116,-0.0032001303043216467,1.0002714395523071,0.0,0.0,0.0,0.25658172369003296,1.424789309501648,4.677127361297607,-46.44180679321289,0
1823.5310000000009,-0.0002804205287247896,-7.02063407516107e-05,-0.0002953102521132678,0.0,0.0,0.0,0.0,0.0006431508809328079,0.0009305058629252017,-0.000671507092192769,0.9983501434326172,0.0,0.0,0.0,0.25578799843788147,1.4267710447311401,4.669262409210205,-46.29813766479492,0
1833.4390000000003,-0.00021957523131277412,-0.0001473995071137324,-0.0002620206505525857,0.0,0.0,0.0,0.0,-0.0032954453490674496,-0.003262198530137539,0.000945339968893677,0.9980033040046692,0.0,0.0,0.0,0.2553287446498871,1.4271681308746338,4.664154529571533,-46.21501159667969,0
1843.3540000000012,-0.0003504274063743651,-0.00014318598550744355,-0.0002684467181097716,0.0,0.0,0.0,0.0,3.2272771932184696e-05,-0.001343046547845006,-0.004373775329440832,1.000177264213562,0.0,0.0,0.0,0.2564927041530609,1.4305843114852905,4.668055534362793,-46.425689697265625,0
1853.2610000000004,-0.0002020948304561898,-0.00020263383339624852,-0.00020050800230819732,0.0,0.0,0.0,0.0,-0.003843730315566063,0.0018990077078342438,0.0012552376138046384,1.0006135702133179,0.0,0.0,0.0,0.25774091482162476,1.4291430711746216,4.712541103363037,-46.651615142822266,0
1863.17,-0.0003143465146422386,-0.00018365794676356018,-0.0002209933300036937,0.0,0.0,0.0,0.0,-0.0014542355202138424,0.002347018802538514,0.0014703732449561357,1.0009199380874634,0.0,0.0,0.0,0.2571352422237396,1.436498999595642,4.7051897048950195,-46.5419921875,0
1873.0699999999997,-0.0001910650753416121,-0.0002233280538348481,-0.0001407894305884838,0.0,0.0,0.0,0.0,0.001854404341429472,-0.0005253719864413142,-0.0002613598480820656,1.0011656284332275,0.0,0.0,0.0,0.2569962441921234,1.4377049207687378,4.728055953979492,-46.5168342590332,0
1882.9899999999998,-0.0002589744981378317,-0.00016505917301401496,-0.00020397696061991155,0.0,0.0,0.0,0.0,0.0007708463817834854,0.002428791020065546,-0.001972166122868657,0.9975377321243286,0.0,0.0,0.0,0.2576207220554352,1.4306387901306152,4.72960901260376,-46.629859924316406,0
1892.8919999999998,-0.00017421127995476127,-0.00020621744624804705,-0.00013518663763534278,0.0,0.0,0.0,0.0,0.0033830199390649796,-0.003004112048074603,0.0012719063088297844,0.9983884692192078,0.0,0.0,0.0,0.25608494877815247,1.430307149887085,4.718837738037109,-46.35188293457031,0
1902.8109999999997,-0.0002047330344794318,-0.0001130907767219469,-0.00024282577214762568,0.0,0.0,0.0,0.0,-0.00012456582044251263,-0.002393447794020176,0.0016490325797349215,1.0001331567764282,0.0,0.0,0.0,0.2561776638031006,1.4225430488586426,4.713189125061035,-46.3686637878418,0
1912.710000000001,-0.00021831784397363663,-0.00012479412544053048,-0.000197156477952376,0.0,0.0,0.0,0.0,0.0011067163432016969,0.0016938019543886185,-0.001430431380867958,0.9994702935218811,0.0,0.0,0.0,0.2566721439361572,1.4193038940429688,4.708632946014404,-46.458168029785156,0
1922.6329999999998,-0.0003073575207963586,-8.530823106411844e-05,-0.00024166736693587154,0.0,0.0,0.0,0.0,0.0019153965404257178,0.004005583468824625,-0.000860198400914669,0.9990251660346985,0.0,0.0,0.0,0.2558886706829071,1.4146610498428345,4.699806213378906,-46.31635665893555,0
1932.5290000000005,-0.0002511752536520362,-0.00012761216203216463,-0.0001866572129074484,0.0,0.0,0.0,0.0,0.0014521089615300298,0.0024127548094838858,0.0021645701490342617,0.9986537098884583,0.0,0.0,0.0,0.25551652908325195,1.4112106561660767,4.689592361450195,-46.249000549316406,0
1942.4590000000007,-0.0003251755842939019,-6.720214878441766e-05,-0.0002500612463336438,0.0,0.0,0.0,0.0,0.0011838377686217427,0.0008041972760111094,0.0006638881750404835,0.9989314079284668,0.0,0.0,0.0,0.2555825114250183,1.4068163633346558,4.685451984405518,-46.26094436645508,0
1952.348,-0.000324831111356616,-9.251704614143819e-05,-0.00020564354781527072,0.0,0.0,0.0,0.0,-0.0006255061598494649,-8.501107367919758e-05,-0.0016863554483279586,0.9997093081474304,0.0,0.0,0.0,0.2549888789653778,1.4005987644195557,4.675820350646973,-46.15349578857422,0
1962.2759999999998,-0.00040912150871008635,-6.391153874574229e-05,-0.00027661287458613515,0.0,0.0,0.0,0.0,0.004931754898279905,-0.0008074252400547266,0.0012515576090663671,0.9984038472175598,0.0,0.0,0.0,0.25388243794441223,1.4006359577178955,4.6684346199035645,-45.95322799682617,0
1972.174000000001,-0.00034864022745750844,-7.996117346920073e-05,-0.00020983366994187236,0.0,0.0,0.0,0.0,-0.0031022692564874887,-0.005363095551729202,0.0037270274478942156,0.9983195662498474,0.0,0.0,0.0,0.25445955991744995,1.3950587511062622,4.666316032409668,-46.05768585205078,0
1982.0870000000014,-0.00043773907236754894,-7.706983888056129e-05,-0.0002883738197851926,0.0,0.0,0.0,0.0,-0.00038357870653271675,0.002642346080392599,0.000732314947526902,0.9987881779670715,0.0,0.0,0.0,0.2491534948348999,1.4068868160247803,4.677607536315918,-45.09728240966797,0
1992.0,-0.0003598059993237257,-7.643237768206745e-05,-0.00021139001182746142,0.0,0.0,0.0,0.0,-0.0009261264931410551,-0.0018693064339458942,0.00042055302765220404,0.9981683492660522,0.0,0.0,0.0,0.24972395598888397,1.4005522727966309,4.673802375793457,-45.200531005859375,0
2001.9179999999997,-0.0004873542347922921,-0.00010982093226630241,-0.0002421519166091457,0.0,0.0,0.0,0.0,-0.0029258099384605885,0.0026604365557432175,0.0033334719482809305,0.9989597201347351,0.0,0.0,0.0,0.2562428414821625,1.4031697511672974,4.671300411224365,-46.380462646484375,0
2011.8109999999997,-0.0003007512423209846,-0.0001602353440830484,-0.00015251041622832417,0.0,0.0,0.0,0.0,-0.0011586304754018784,-0.00013728317571803927,0.0015315288910642266,0.9969232082366943,0.0,0.0,0.0,0.25911688804626465,1.4056525230407715,4.7081098556518555,-46.90067672729492,0
2021.7270000000008,-0.0003714093181770295,-0.00013367172505240887,-0.0002426073042443022,0.0,0.0,0.0,0.0,-0.00016067211981862783,0.0009457520209252834,-0.000776860979385674,0.997564435005188,0.0,0.0,0.0,0.26019176840782166,1.4088621139526367,4.70933723449707,-47.09522247314453,0
2031.6320000000014,-0.00019133840396534652,-0.00019838774460367858,-0.00016329585923813283,0.0,0.0,0.0,0.0,0.0008086939924396574,0.0020322008058428764,0.0030404014978557825,1.0012949705123901,0.0,0.0,0.0,0.25940951704978943,1.4055813550949097,4.750397682189941,-46.95363998413086,0
2041.5519999999997,-0.0002593404788058251,-0.00012436523684300482,-0.00023549211618956178,0.0,0.0,0.0,0.0,0.0009523747721686959,-0.0001500270882388577,0.0029737548902630806,1.0007257461547852,0.0,0.0,0.0,0.2595917880535126,1.4022846221923828,4.740658760070801,-46.986629486083984,0
2051.4539999999997,-0.00013000921171624213,-0.00020600634161382914,-0.0001794905838323757,0.0,0.0,0.0,0.0,-0.001053807558491826,-0.001427840325050056,0.00177339359652251,1.002266764640808,0.0,0.0,0.0,0.25483617186546326,1.39754056930542,4.776614189147949,-46.125858306884766,0
2061.3730000000014,-0.00021389746689237654,-0.00016753464296925813,-0.00023071240866556764,0.0,0.0,0.0,0.0,-0.0008899068343453109,0.007083258591592312,-0.002578179817646742,1.000212550163269,0.0,0.0,0.0,0.25541171431541443,1.3936759233474731,4.772163391113281,-46.23003005981445,0
2071.2749999999996,-0.00016622760449536145,-0.00018017354886978865,-0.00016622459224890918,0.0,0.0,0.0,0.0,5.827765926369466e-05,-0.0019014924764633179,0.0001433303696103394,0.9981391429901123,0.0,0.0,0.0,0.25424858927726746,1.3981801271438599,4.755036354064941,-46.01949691772461,0
2081.1940000000013,-0.00024857159587554634,-0.0001498223136877641,-0.00022007832012604922,0.0,0.0,0.0,0.0,-0.0005438690423034132,-0.004492494277656078,0.0019798639696091413,0.9971111416816711,0.0,0.0,0.0,0.25414976477622986,1.4006502628326416,4.756471157073975,-46.001609802246094,0
2091.1000000000004,-0.00023211156076285988,-0.00016160853556357324,-0.00016529161075595766,0.0,0.0,0.0,0.0,0.0015436805551871657,0.003002455225214362,0.00222295755520463,0.998932957649231,0.0,0.0,0.0,0.25477135181427,1.4044097661972046,4.764628887176514,-46.1141242980957,0
2101.0190000000002,-0.0003452646196819842,-0.00013936404138803482,-0.00018151610856875777,0.0,0.0,0.0,0.0,-0.004266062751412392,0.003205647924914956,-0.001051856204867363,1.0010582208633423,0.0,0.0,0.0,0.2555445730686188,1.3978643417358398,4.759298324584961,-46.25407409667969,0
