timestamp,stateEstimate.x,stateEstimate.y,stateEstimate.z,controller.cmd_thrust,controller.cmd_roll,controller.cmd_pitch,controller.cmd_yaw,controller.r_roll,controller.r_pitch,controller.r_yaw,controller.accelz,controller.actuatorThrust,controller.roll,controller.pitch,controller.yaw,controller.rollRate,controller.pitchRate,controller.yawRate,controller.ctr_yaw
0.0,0.010410389862954617,-0.011873425915837288,-0.00032728243968449533,0.0,0.0,0.0,0.0,-0.0008988464251160622,0.00010160757665289566,0.00652104988694191,1.0009262561798096,0.0,0.0,0.0,-13.59505558013916,4.594738960266113,1.4887120723724365,2460.73193359375,0
9.88299999999981,0.010434150695800781,-0.011908130720257759,-0.00032037709024734795,0.0,0.0,0.0,0.0,0.0010240166448056698,-0.0035680753644555807,-0.0015600074548274279,1.0000650882720947,0.0,0.0,0.0,-13.614861488342285,4.5951666831970215,1.4887239933013916,2464.317138671875,0
19.75500000000102,0.010425490327179432,-0.011899400502443314,-0.0003068744554184377,0.0,0.0,0.0,0.0,-0.0033647026866674423,-0.0024251332506537437,0.00019248014723416418,0.9981355667114258,0.0,0.0,0.0,-13.59412956237793,4.594494342803955,1.5024784803390503,2460.564208984375,0
29.648000000001048,0.010411172173917294,-0.011923437006771564,-0.00030452851206064224,0.0,0.0,0.0,0.0,-0.003129680873826146,0.0023451896850019693,-0.0002954379888251424,0.999393880367279,0.0,0.0,0.0,-13.616061210632324,4.5953474044799805,1.5050944089889526,2464.5341796875,0
39.52900000000045,0.010416957549750805,-0.011868934147059917,-0.00028463357011787593,0.0,0.0,0.0,0.0,-0.0010805634083226323,-0.0035042446106672287,0.000926943845115602,0.9981805086135864,0.0,0.0,0.0,-13.59320068359375,4.60837459564209,1.4899400472640991,2460.396240234375,0
49.42000000000007,0.010448746383190155,-0.011936343275010586,-0.00029767618980258703,0.0,0.0,0.0,0.0,0.0004505853576119989,0.001259247655980289,0.0008813344174996018,0.9987479448318481,0.0,0.0,0.0,-13.614893913269043,4.599883556365967,1.4961268901824951,2464.3232421875,0
59.30000000000109,0.010485448874533176,-0.011865952983498573,-0.0003213386225979775,0.0,0.0,0.0,0.0,-0.0014683594927191734,-0.004762481898069382,-0.003213318297639489,0.9990336298942566,0.0,0.0,0.0,-13.590299606323242,4.612168788909912,1.4958078861236572,2459.87109375,0
69.19300000000112,0.010459464974701405,-0.011891212314367294,-0.00033112059463746846,0.0,0.0,0.0,0.0,-0.0009945472702383995,0.0017711916007101536,0.001630675862543285,1.000863790512085,0.0,0.0,0.0,-13.612872123718262,4.614306926727295,1.4995733499526978,2463.95703125,0
79.07200000000012,0.010468306951224804,-0.011827490292489529,-0.0003120986220892519,0.0,0.0,0.0,0.0,-0.0010156272910535336,0.001789430738426745,-0.0015654191374778748,0.9994553327560425,0.0,0.0,0.0,-13.588789939880371,4.625700950622559,1.488794207572937,2459.597900390625,0
88.96800000000076,0.01044990960508585,-0.011865869164466858,-0.0003283994738012552,0.0,0.0,0.0,0.0,0.0010658546816557646,0.0021967829670757055,0.0006226477562449872,1.0004312992095947,0.0,0.0,0.0,-13.610696792602539,4.620790004730225,1.4787205457687378,2463.563232421875,0
98.84100000000035,0.010474365204572678,-0.011810610070824623,-0.0003444580652285367,0.0,0.0,0.0,0.0,0.0012962487526237965,-0.003428114578127861,-0.00019949139095842838,1.0003252029418945,0.0,0.0,0.0,-13.588289260864258,4.634212970733643,1.478140950202942,2459.50732421875,0
108.7390000000014,0.010494435206055641,-0.011877085082232952,-0.000364531297236681,0.0,0.0,0.0,0.0,-0.002255222527310252,-0.0030206036753952503,-0.0004573865153361112,0.9995883703231812,0.0,0.0,0.0,-13.610339164733887,4.62362813949585,1.4833441972732544,2463.49853515625,0
118.6140000000014,0.01048511452972889,-0.011840402148663998,-0.0003280908858869225,0.0,0.0,0.0,0.0,0.0010409943060949445,0.0020876701455563307,-0.0032732023391872644,0.9996153712272644,0.0,0.0,0.0,-13.596576690673828,4.629893779754639,1.4908393621444702,2461.00732421875,0
128.50600000000122,0.010469147004187107,-0.011897295713424683,-0.000352813076460734,0.0,0.0,0.0,0.0,0.0025744519662111998,-0.003472613636404276,0.000261213950579986,1.0001646280288696,0.0,0.0,0.0,-13.615793228149414,4.624220848083496,1.4834038019180298,2464.48583984375,0
138.39199999999983,0.01044420339167118,-0.011902295053005219,-0.00031405495246872306,0.0,0.0,0.0,0.0,-0.00044005224481225014,0.0009961531031876802,-0.0008298084721900523,0.9980641007423401,0.0,0.0,0.0,-13.591979026794434,4.619613170623779,1.4805681705474854,2460.175048828125,0
148.27900000000045,0.010391952469944954,-0.011937228962779045,-0.0003337521047797054,0.0,0.0,0.0,0.0,0.0016462246421724558,-0.0013518440537154675,0.0030292642768472433,0.9976825714111328,0.0,0.0,0.0,-13.616839408874512,4.61612606048584,1.4736188650131226,2464.675048828125,0
158.15600000000086,0.010357875376939774,-0.011926189996302128,-0.00027687818510457873,0.0,0.0,0.0,0.0,-0.0020666916389018297,-0.0019625648856163025,0.0008149858913384378,0.9982361197471619,0.0,0.0,0.0,-13.591840744018555,4.6168341636657715,1.4706214666366577,2460.150146484375,0
168.0520000000015,0.010379978455603123,-0.011956492438912392,-0.0002593394892755896,0.0,0.0,0.0,0.0,9.112066618399695e-05,0.0028728884644806385,-0.0020629256032407284,0.9998446106910706,0.0,0.0,0.0,-13.615005493164062,4.61214542388916,1.477799654006958,2464.343017578125,0
177.9270000000015,0.010377095080912113,-0.011911259964108467,-0.00023329941905103624,0.0,0.0,0.0,0.0,0.0005505779408849776,-0.004044969566166401,0.0020157508552074432,1.0008955001831055,0.0,0.0,0.0,-13.592020034790039,4.621717929840088,1.4646207094192505,2460.182373046875,0
187.8209999999999,0.010413406416773796,-0.011978295631706715,-0.00023316743317991495,0.0,0.0,0.0,0.0,0.00038716793642379344,0.0021813714411109686,0.0009490065858699381,0.9986006617546082,0.0,0.0,0.0,-13.611699104309082,4.611169338226318,1.474269151687622,2463.74462890625,0
197.69800000000032,0.010425050742924213,-0.011944549158215523,-0.0002325089299120009,0.0,0.0,0.0,0.0,0.00042340304935351014,0.0009775233920663595,0.0009607406100258231,0.9990010261535645,0.0,0.0,0.0,-13.590962409973145,4.625406742095947,1.4624598026275635,2459.990966796875,0
207.59500000000116,0.0104350121691823,-0.012001340277493,-0.00023320862965192646,0.0,0.0,0.0,0.0,0.004231275524944067,0.0041885701939463615,-0.0007403555209748447,0.9985039830207825,0.0,0.0,0.0,-13.612001419067383,4.620502948760986,1.4616600275039673,2463.799560546875,0
217.47100000000137,0.010452772490680218,-0.011955996043980122,-0.00023367820540443063,0.0,0.0,0.0,0.0,-0.00020749031682498753,0.0028307889588177204,-0.00022880815959069878,1.001147747039795,0.0,0.0,0.0,-13.588459968566895,4.625041961669922,1.4556492567062378,2459.5380859375,0
227.3640000000014,0.010436328127980232,-0.012013258412480354,-0.00024894496891647577,0.0,0.0,0.0,0.0,0.0006754627102054656,-0.0033549731597304344,4.010976044810377e-05,1.0005195140838623,0.0,0.0,0.0,-13.607096672058105,4.6200480461120605,1.4455403089523315,2462.911376953125,0
237.2430000000004,0.010495981201529503,-0.01191826444119215,-0.0002895989455282688,0.0,0.0,0.0,0.0,-0.0011033996706828475,0.0034361472353339195,0.0022534101735800505,1.0001866817474365,0.0,0.0,0.0,-13.585098266601562,4.641589641571045,1.447748064994812,2458.9296875,0
247.13800000000083,0.010457811877131462,-0.011948008090257645,-0.00029710898525081575,0.0,0.0,0.0,0.0,-0.0006707764114253223,0.0006761457188986242,0.0018961065215989947,0.9998990297317505,0.0,0.0,0.0,-13.607275009155273,4.635884761810303,1.4332351684570312,2462.943603515625,0
257.01500000000124,0.010522307828068733,-0.011860244907438755,-0.00035763761843554676,0.0,0.0,0.0,0.0,-0.0020668557845056057,0.004979066085070372,0.0062195598147809505,0.9994874596595764,0.0,0.0,0.0,-13.584952354431152,4.658839702606201,1.4407953023910522,2458.903564453125,0
266.9160000000011,0.010463062673807144,-0.011868484318256378,-0.00036649973480962217,0.0,0.0,0.0,0.0,0.00010103642125613987,-0.00018227363761980087,-0.0012865394819527864,1.0003002882003784,0.0,0.0,0.0,-13.603320121765137,4.661204814910889,1.4181808233261108,2462.227783203125,0
276.7930000000015,0.010476180352270603,-0.011821112595498562,-0.00037074272404424846,0.0,0.0,0.0,0.0,0.0012945487396791577,-0.0034199077636003494,0.0021146053913980722,0.9999173879623413,0.0,0.0,0.0,-13.578506469726562,4.674454212188721,1.4234774112701416,2457.736572265625,0
286.6820000000007,0.010456684045493603,-0.011858629062771797,-0.0003843613085336983,0.0,0.0,0.0,0.0,0.0007486229878850281,-0.005818182602524757,-0.0020511578768491745,0.9989045262336731,0.0,0.0,0.0,-13.599471092224121,4.669375896453857,1.4342873096466064,2461.53125,0
296.5670000000009,0.010470130480825901,-0.011812287382781506,-0.0003882870078086853,0.0,0.0,0.0,0.0,-0.005031211767345667,0.00015391031047329307,-0.0009925824124366045,0.9997308254241943,0.0,0.0,0.0,-13.57677173614502,4.6801438331604,1.4369739294052124,2457.4228515625,0
306.4490000000005,0.010397940874099731,-0.011852234601974487,-0.0004285207251086831,0.0,0.0,0.0,0.0,-0.0008953851065598428,-0.002428164007142186,0.0028920259792357683,1.0004143714904785,0.0,0.0,0.0,-13.595342636108398,4.678812026977539,1.4354875087738037,2460.783935546875,0
316.32800000000134,0.010375688783824444,-0.011824429035186768,-0.00038888794369995594,0.0,0.0,0.0,0.0,-0.006433787290006876,-0.0048136948607862,0.0018801575060933828,0.9995028972625732,0.0,0.0,0.0,-13.581801414489746,4.67361307144165,1.43703031539917,2458.3330078125,0
326.21900000000096,0.010430701076984406,-0.011863959021866322,-0.00037320880801416934,0.0,0.0,0.0,0.0,-0.001748033333569765,-0.006219171453267336,0.0021291079465299845,0.9969577193260193,0.0,0.0,0.0,-13.602564811706543,4.678304672241211,1.4611262083053589,2462.09130859375,0
336.10100000000057,0.010405976325273514,-0.0118634682148695,-0.00034858405706472695,0.0,0.0,0.0,0.0,-2.6163274014834315e-05,0.0030677132308483124,0.0030694243032485247,0.9979655146598816,0.0,0.0,0.0,-13.578651428222656,4.680816650390625,1.4725068807601929,2457.7626953125,0
345.9930000000004,0.010440058074891567,-0.011921235360205173,-0.0003565842052921653,0.0,0.0,0.0,0.0,-0.0020568566396832466,-0.0016490691341459751,0.000755946384742856,1.0006698369979858,0.0,0.0,0.0,-13.597119331359863,4.669304847717285,1.4696733951568604,2461.105712890625,0
355.8720000000012,0.010417143814265728,-0.011912660673260689,-0.0003304294659756124,0.0,0.0,0.0,0.0,0.0015852658543735743,0.0030436841771006584,0.002099281642585993,0.9990944862365723,0.0,0.0,0.0,-13.576009750366211,4.674159049987793,1.4647510051727295,2457.28466796875,0
365.76800000000003,0.010388032533228397,-0.011941560544073582,-0.0003375175001565367,0.0,0.0,0.0,0.0,0.0018224928062409163,0.0016465921653434634,-0.002927671652287245,0.9995735883712769,0.0,0.0,0.0,-13.601582527160645,4.667009353637695,1.4561485052108765,2461.913330078125,0
375.64400000000023,0.010360624641180038,-0.011913208290934563,-0.00029093195917084813,0.0,0.0,0.0,0.0,-0.004255593288689852,0.004809902515262365,0.002702854573726654,0.9992881417274475,0.0,0.0,0.0,-13.580374717712402,4.667915344238281,1.4382176399230957,2458.07470703125,0
385.53499999999985,0.01044729445129633,-0.011991177685558796,-0.0002841602545231581,0.0,0.0,0.0,0.0,-0.0031260184478014708,-0.0005008698790334165,0.0034986743703484535,1.0016462802886963,0.0,0.0,0.0,-13.600491523742676,4.660679340362549,1.4430350065231323,2461.716064453125,0
395.4230000000007,0.010394761338829994,-0.012034701183438301,-0.00022661594266537577,0.0,0.0,0.0,0.0,0.0016189655289053917,0.00102225539740175,0.0017027127323672175,1.0010591745376587,0.0,0.0,0.0,-13.580827713012695,4.653878211975098,1.441327691078186,2458.15673828125,0
405.3130000000001,0.010346208699047565,-0.01206114050000906,-0.00022776739206165075,0.0,0.0,0.0,0.0,-0.00349237653426826,0.0016419198364019394,0.001374018145725131,0.9994686245918274,0.0,0.0,0.0,-13.60351276397705,4.6462554931640625,1.4419827461242676,2462.2626953125,0
415.1850000000013,0.010371187701821327,-0.011976182460784912,-0.00022194409393705428,0.0,0.0,0.0,0.0,0.00013204006245359778,-0.002565403003245592,0.002999537857249379,0.9976157546043396,0.0,0.0,0.0,-13.58115005493164,4.6719889640808105,1.4323123693466187,2458.215087890625,0
425.08500000000095,0.010361192747950554,-0.011990541592240334,-0.00021803905838169158,0.0,0.0,0.0,0.0,-0.003087462391704321,0.0032219653949141502,0.0006653290474787354,0.9992778897285461,0.0,0.0,0.0,-13.567245483398438,4.667484760284424,1.4329384565353394,2455.698486328125,0
434.96299999999974,0.010350306518375874,-0.011941091157495975,-0.00018305449339095503,0.0,0.0,0.0,0.0,0.002347416477277875,0.0047890120185911655,0.0016957042971625924,0.9982195496559143,0.0,0.0,0.0,-13.554370880126953,4.664554595947266,1.423020839691162,2453.367919921875,0
444.84900000000016,0.010374248027801514,-0.011970081366598606,-0.0001596432557562366,0.0,0.0,0.0,0.0,-0.0009141815244220197,0.0036124573089182377,-0.0006815373199060559,0.9990404844284058,0.0,0.0,0.0,-13.577584266662598,4.658361911773682,1.4226089715957642,2457.56982421875,0
454.73199999999997,0.010366655886173248,-0.011947761289775372,-0.00014495708455797285,0.0,0.0,0.0,0.0,0.0030249962583184242,0.007125583942979574,-3.3383334084646776e-05,0.9972643256187439,0.0,0.0,0.0,-13.558245658874512,4.6560235023498535,1.4132484197616577,2454.0693359375,0
464.6170000000002,0.01038148533552885,-0.012005914002656937,-0.00015247202827595174,0.0,0.0,0.0,0.0,-0.0018053980311378837,0.0012341066030785441,0.003547248663380742,1.0000922679901123,0.0,0.0,0.0,-13.576024055480957,4.648680210113525,1.4082883596420288,2457.287109375,0
514.0439999999999,0.010436370968818665,-0.011948367580771446,-0.00022737895778845996,0.0,0.0,0.0,0.0,-0.0020540235564112663,-0.0035026022233068943,-0.0008758819312788546,0.9991923570632935,0.0,0.0,0.0,-13.569783210754395,4.63723611831665,1.4136345386505127,2456.15771484375,0
523.9290000000001,0.010428739711642265,-0.011961178854107857,-0.00022686240845359862,0.0,0.0,0.0,0.0,-0.001436226419173181,-0.002337983576580882,-0.0005366276018321514,0.9995849132537842,0.0,0.0,0.0,-13.590330123901367,4.634281158447266,1.41892671585083,2459.876708984375,0
533.8140000000003,0.010435014963150024,-0.011917760595679283,-0.00023070503084454685,0.0,0.0,0.0,0.0,0.00038061203667894006,-0.0011414570035412908,0.0018738085636869073,1.0024117231369019,0.0,0.0,0.0,-13.57003116607666,4.642105579376221,1.4205068349838257,2456.20263671875,0
543.7060000000001,0.010449179448187351,-0.011968675069510937,-0.00024973746621981263,0.0,0.0,0.0,0.0,-9.332482295576483e-05,-0.0018492955714464188,0.0013439272297546268,1.0001212358474731,0.0,0.0,0.0,-13.59130573272705,4.634617328643799,1.4266331195831299,2460.05322265625,0
553.585000000001,0.010441225953400135,-0.011943486519157887,-0.00023601007706020027,0.0,0.0,0.0,0.0,0.0006898806896060705,0.006740226410329342,-0.000521096691954881,1.0014851093292236,0.0,0.0,0.0,-13.56933307647705,4.636835098266602,1.4298616647720337,2456.076171875,0
563.4880000000012,0.010416066274046898,-0.011942173354327679,-0.00022568248095922172,0.0,0.0,0.0,0.0,-0.004465019796043634,-0.0038627637550234795,-0.001350803067907691,1.0022333860397339,0.0,0.0,0.0,-13.592305183410645,4.6347246170043945,1.415256142616272,2460.234130859375,0
573.3590000000004,0.010384848341345787,-0.01193275861442089,-0.0001787403889466077,0.0,0.0,0.0,0.0,0.0009315716451965272,-0.00020135664090048522,-0.0007146815187297761,0.998753547668457,0.0,0.0,0.0,-13.57286548614502,4.640584945678711,1.4207043647766113,2456.7158203125,0
583.2430000000004,0.010342567227780819,-0.011964884586632252,-0.00018988231022376567,0.0,0.0,0.0,0.0,3.352038038428873e-05,-0.00015412353968713433,0.0008255948778241873,0.9987935423851013,0.0,0.0,0.0,-13.597018241882324,4.631110191345215,1.4211859703063965,2461.087158203125,0
593.1280000000006,0.010333050042390823,-0.011932889930903912,-0.00016065181989688426,0.0,0.0,0.0,0.0,-0.0012571720872074366,0.0009513009572401643,0.001811582362279296,0.9995734691619873,0.0,0.0,0.0,-13.575973510742188,4.633369445800781,1.4196768999099731,2457.278076171875,0
603.0169999999998,0.010382590815424919,-0.012001805007457733,-0.00016532972222194076,0.0,0.0,0.0,0.0,-0.0003934234846383333,-0.002996760653331876,0.0008417982026003301,0.9995036721229553,0.0,0.0,0.0,-13.595087051391602,4.6258416175842285,1.4356701374053955,2460.737548828125,0
612.9060000000009,0.01039597112685442,-0.011938031762838364,-0.0001535403571324423,0.0,0.0,0.0,0.0,-0.0014713560231029987,0.0023001853842288256,0.0029619515407830477,0.9985241889953613,0.0,0.0,0.0,-13.574841499328613,4.639777660369873,1.4450095891952515,2457.0732421875,0
622.7880000000005,0.010413655079901218,-0.01199675165116787,-0.00016717273683752865,0.0,0.0,0.0,0.0,-4.3075542635051534e-05,-0.0040821051225066185,0.004091043025255203,1.0002195835113525,0.0,0.0,0.0,-13.593501091003418,4.635400772094727,1.4492297172546387,2460.45068359375,0
632.6730000000007,0.01044065784662962,-0.011941134929656982,-0.00017908142763189971,0.0,0.0,0.0,0.0,-0.002447240287438035,0.000630949973128736,-0.0033528252970427275,0.9989378452301025,0.0,0.0,0.0,-13.570693969726562,4.640506744384766,1.46381676197052,2456.322509765625,0
642.5580000000009,0.010438179597258568,-0.011952272616326809,-0.00017921978724189103,0.0,0.0,0.0,0.0,-0.0026274695992469788,-0.0007384412456303835,-0.0017039274098351598,0.9994210004806519,0.0,0.0,0.0,-13.557429313659668,4.639626979827881,1.4575896263122559,2453.921630859375,0
652.4430000000011,0.01045981328934431,-0.011896518059074879,-0.00018416799139231443,0.0,0.0,0.0,0.0,-0.0012603240320459008,0.0005237959558144212,0.0014511827612295747,0.9998741149902344,0.0,0.0,0.0,-13.537583351135254,4.649397373199463,1.4644443988800049,2450.32958984375,0
662.3289999999997,0.010426514782011509,-0.011926514096558094,-0.00020855430921074003,0.0,0.0,0.0,0.0,0.0008390436414629221,3.505791028146632e-05,0.0010255066445097327,0.9986426830291748,0.0,0.0,0.0,-13.560497283935547,4.648414611816406,1.4541678428649902,2454.47705078125,0
672.2150000000001,0.010482164099812508,-0.01183919608592987,-0.00025068168179132044,0.0,0.0,0.0,0.0,0.003343906020745635,0.006489999126642942,-0.0008164694881998003,1.0014642477035522,0.0,0.0,0.0,-13.540313720703125,4.662502288818359,1.4502183198928833,2450.823974609375,0
682.107,0.010467257350683212,-0.011886903084814548,-0.00028256996301934123,0.0,0.0,0.0,0.0,0.002189443912357092,0.005126953125,0.0026893778704106808,1.0016037225723267,0.0,0.0,0.0,-13.562633514404297,4.646439552307129,1.4387874603271484,2454.863525390625,0
691.9880000000012,0.010477366857230663,-0.011825011111795902,-0.000270125427050516,0.0,0.0,0.0,0.0,-0.00041476008482277393,0.0002512347127776593,0.000148718201671727,0.9993872046470642,0.0,0.0,0.0,-13.539584159851074,4.654491901397705,1.4257086515426636,2450.69189453125,0
701.8739999999998,0.01046820729970932,-0.011841603554785252,-0.00027647201204672456,0.0,0.0,0.0,0.0,-0.0023373784497380257,-0.005266373045742512,0.0008402984240092337,1.0003196001052856,0.0,0.0,0.0,-13.563467025756836,4.648414134979248,1.4234488010406494,2455.0146484375,0
711.7570000000014,0.010449226945638657,-0.011848991736769676,-0.0002554013335611671,0.0,0.0,0.0,0.0,0.0049239713698625565,0.0034282696433365345,-0.002686231629922986,1.0012767314910889,0.0,0.0,0.0,-13.550052642822266,4.649381637573242,1.4239225387573242,2452.58642578125,0
721.643,0.01044918317347765,-0.011900038458406925,-0.00027868308825418353,0.0,0.0,0.0,0.0,0.002275940729305148,-0.0025725187733769417,0.0022799570579081774,0.9996809363365173,0.0,0.0,0.0,-13.572309494018555,4.634863376617432,1.4187614917755127,2456.614990234375,0
731.5290000000005,0.01046323124319315,-0.011833004653453827,-0.0002666004584170878,0.0,0.0,0.0,0.0,-0.0024085515178740025,-0.003534505609422922,-0.00340356701053679,0.99922114610672,0.0,0.0,0.0,-13.558503150939941,4.627933979034424,1.4173699617385864,2454.1162109375,0
741.4180000000015,0.01041460782289505,-0.011871355585753918,-0.0002998136915266514,0.0,0.0,0.0,0.0,-0.0002939818659797311,0.0035692467354238033,0.00029986153822392225,0.9996975660324097,0.0,0.0,0.0,-13.583565711975098,4.62466287612915,1.414043664932251,2458.652587890625,0
751.3000000000011,0.01042880117893219,-0.011796747334301472,-0.0002915370278060436,0.0,0.0,0.0,0.0,-0.0003021890879608691,0.0029573908541351557,-0.00265330052934587,0.9998151659965515,0.0,0.0,0.0,-13.560585975646973,4.638726234436035,1.4063082933425903,2454.492919921875,0
761.1949999999997,0.010434557683765888,-0.011844874359667301,-0.0003114880237262696,0.0,0.0,0.0,0.0,-0.001695969607681036,-0.0003418567357584834,-0.0003786312008742243,1.0000877380371094,0.0,0.0,0.0,-13.586270332336426,4.6300048828125,1.3961689472198486,2459.141845703125,0
771.0730000000003,0.010428737848997116,-0.01179427094757557,-0.00028704499709419906,0.0,0.0,0.0,0.0,0.0019495334709063172,9.885957115329802e-05,-0.0011351614957675338,0.998207688331604,0.0,0.0,0.0,-13.563422203063965,4.64434289932251,1.392730951309204,2455.006591796875,0
780.9590000000007,0.010456550866365433,-0.011841637082397938,-0.00029713966068811715,0.0,0.0,0.0,0.0,-0.0037989052943885326,0.0004764165496453643,-0.0008189063519239426,0.9987664222717285,0.0,0.0,0.0,-13.584352493286133,4.6297478675842285,1.3961222171783447,2458.794677734375,0
790.844000000001,0.010444186627864838,-0.011830336414277554,-0.0002803630195558071,0.0,0.0,0.0,0.0,-0.0007563965045846999,-0.002626066328957677,0.001281628618016839,1.000450849533081,0.0,0.0,0.0,-13.564282417297363,4.6291093826293945,1.3892090320587158,2455.162109375,0
800.7350000000006,0.010451605543494225,-0.011875856667757034,-0.00029699280275963247,0.0,0.0,0.0,0.0,0.0008092423668131232,-0.0003445461916271597,0.0024828920140862465,1.0002316236495972,0.0,0.0,0.0,-13.587210655212402,4.619741916656494,1.3973743915557861,2459.31201171875,0
810.616,0.010496695525944233,-0.011793382465839386,-0.0003276731295045465,0.0,0.0,0.0,0.0,-0.0030293199233710766,0.0074467905797064304,-0.0010020640911534429,0.9981237649917603,0.0,0.0,0.0,-13.563806533813477,4.629973888397217,1.3975263833999634,2455.075927734375,0
820.5010000000002,0.010415208525955677,-0.011829829774796963,-0.00037566135870292783,0.0,0.0,0.0,0.0,0.00177656055893749,0.002611313946545124,0.0003091332910116762,1.0010777711868286,0.0,0.0,0.0,-13.584044456481934,4.621462821960449,1.372481346130371,2458.739013671875,0
830.3870000000006,0.010402723215520382,-0.01179556269198656,-0.0003456364502198994,0.0,0.0,0.0,0.0,0.0027802130207419395,0.0016525916289538145,-0.0013928362168371677,1.0003622770309448,0.0,0.0,0.0,-13.562185287475586,4.62593936920166,1.3573840856552124,2454.782470703125,0
840.2780000000002,0.01045896951109171,-0.011849483475089073,-0.00034956986200995743,0.0,0.0,0.0,0.0,-0.0009575759759172797,0.0038635011296719313,-0.0007557496428489685,1.0022375583648682,0.0,0.0,0.0,-13.584980964660645,4.6091766357421875,1.3569809198379517,2458.908447265625,0
850.1599999999999,0.010407566092908382,-0.011862041428685188,-0.00027417539968155324,0.0,0.0,0.0,0.0,-0.0007126334821805358,0.0004536799679044634,0.0014262625481933355,1.0016757249832153,0.0,0.0,0.0,-13.562926292419434,4.605603218078613,1.348105788230896,2454.91650390625,0
860.0520000000015,0.01048548985272646,-0.011962109245359898,-0.000289370771497488,0.0,0.0,0.0,0.0,-0.0006252009188756347,0.006074920762330294,0.0005835022311657667,0.9989583492279053,0.0,0.0,0.0,-13.58311939239502,4.591003894805908,1.3637510538101196,2458.57177734375,0
869.9330000000009,0.010462149977684021,-0.011946086771786213,-0.00023326730297412723,0.0,0.0,0.0,0.0,-0.000521691981703043,0.004109634086489677,-0.0002685004146769643,0.998280942440033,0.0,0.0,0.0,-13.56356430053711,4.590233325958252,1.3491456508636475,2455.031982421875,0
879.8240000000005,0.010516143403947353,-0.011989462189376354,-0.00021261395886540413,0.0,0.0,0.0,0.0,0.0007060180068947375,0.001344688585959375,-0.0006701406091451645,0.9995097517967224,0.0,0.0,0.0,-13.58251953125,4.587078094482422,1.3431979417800903,2458.462890625,0
889.7090000000007,0.010523201897740364,-0.011967231519520283,-0.00019914357108063996,0.0,0.0,0.0,0.0,-0.0005511428462341428,-0.0028504212386906147,0.0010210383916273713,0.998855471611023,0.0,0.0,0.0,-13.569228172302246,4.578887939453125,1.3416584730148315,2456.05712890625,0
899.5950000000012,0.010458290576934814,-0.012002655304968357,-0.00021893599478062242,0.0,0.0,0.0,0.0,7.436637679347768e-05,0.003058922942727804,-0.0004883617511950433,0.9995389580726624,0.0,0.0,0.0,-13.590187072753906,4.568927764892578,1.3338344097137451,2459.850830078125,0
909.4800000000014,0.010433361865580082,-0.011984668672084808,-0.0001616062509128824,0.0,0.0,0.0,0.0,0.0019023936474695802,7.5949587881041225e-06,-5.678554953192361e-05,0.9999029636383057,0.0,0.0,0.0,-13.570035934448242,4.569793224334717,1.322960615158081,2456.203369140625,0
919.3670000000002,0.010441445745527744,-0.012037837877869606,-0.00016266458260361105,0.0,0.0,0.0,0.0,-0.00012080965825589374,-0.00020092075283173472,0.0018144260393455625,1.0010814666748047,0.0,0.0,0.0,-13.59327220916748,4.553056240081787,1.3239988088607788,2460.4091796875,0
929.2510000000002,0.010450875386595726,-0.011986256577074528,-0.00013777900312561542,0.0,0.0,0.0,0.0,-8.789655839791521e-05,0.00524140615016222,0.00013213705096859485,1.0005159378051758,0.0,0.0,0.0,-13.578985214233398,4.5526347160339355,1.3243814706802368,2457.8232421875,0
939.139000000001,0.01040330808609724,-0.012002301402390003,-0.0001344497868558392,0.0,0.0,0.0,0.0,-0.0013855950674042106,-0.0035766283981502056,0.00045786050031892955,1.0000770092010498,0.0,0.0,0.0,-13.601876258850098,4.555026531219482,1.313797950744629,2461.966796875,0
949.0220000000008,0.010423421859741211,-0.011944753117859364,-0.00011933757923543453,0.0,0.0,0.0,0.0,-0.001410777447745204,0.0026426417753100395,-0.001368534518405795,0.9990235567092896,0.0,0.0,0.0,-13.581503868103027,4.567040920257568,1.3171591758728027,2458.279052734375,0
958.9160000000011,0.01035095565021038,-0.011998184956610203,-0.00015213977894745767,0.0,0.0,0.0,0.0,-0.0007770030060783029,-0.0026123255956918,0.00027718915953300893,0.9994828701019287,0.0,0.0,0.0,-13.60316276550293,4.558243751525879,1.3100438117980957,2462.19921875,0
968.7939999999999,0.010406110435724258,-0.01191957201808691,-0.00019056914607062936,0.0,0.0,0.0,0.0,-9.333063644589856e-05,0.007375745568424463,-0.0005604825564660132,1.0007609128952026,0.0,0.0,0.0,-13.581088066101074,4.581644058227539,1.3197802305221558,2458.2041015625,0
978.6850000000013,0.01040086429566145,-0.01193722989410162,-0.00018790533067658544,0.0,0.0,0.0,0.0,-0.00010852759442059323,0.0005772745353169739,-0.0018755755154415965,1.0000927448272705,0.0,0.0,0.0,-13.566940307617188,4.577629566192627,1.3085492849349976,2455.64306640625,0
988.5750000000007,0.010424412786960602,-0.011858345940709114,-0.00018242911028210074,0.0,0.0,0.0,0.0,-1.1415792869229335e-05,-0.0017699538730084896,8.09899065643549e-05,0.9986543655395508,0.0,0.0,0.0,-13.546154975891113,4.601942539215088,1.3095271587371826,2451.880859375,0
998.4570000000003,0.010378374718129635,-0.011916819028556347,-0.00022483232896775007,0.0,0.0,0.0,0.0,0.0023145931772887707,0.00015972639084793627,0.0013459734618663788,0.9992877840995789,0.0,0.0,0.0,-13.569926261901855,4.593958377838135,1.3028457164764404,2456.183837890625,0
1008.3550000000014,0.010402807965874672,-0.011868990957736969,-0.00023720388708170503,0.0,0.0,0.0,0.0,0.0006885216571390629,0.0004899959312751889,0.0005065600853413343,1.0000697374343872,0.0,0.0,0.0,-13.54605770111084,4.603867053985596,1.3108047246932983,2451.86328125,0
1018.232,0.01035370584577322,-0.011907245963811874,-0.0002607707283459604,0.0,0.0,0.0,0.0,0.0014591660583391786,0.0036425015423446894,-0.002393880160525441,1.0011075735092163,0.0,0.0,0.0,-13.571167945861816,4.594187259674072,1.2994765043258667,2456.408203125,0
1028.1170000000002,0.010366374626755714,-0.011866305954754353,-0.0002677199663594365,0.0,0.0,0.0,0.0,0.0008465084829367697,0.0008564756135456264,-0.002881176769733429,1.0005935430526733,0.0,0.0,0.0,-13.549468040466309,4.59533166885376,1.2867369651794434,2452.480712890625,0
1038.0070000000014,0.010322685353457928,-0.011881167069077492,-0.0002696378214750439,0.0,0.0,0.0,0.0,-0.000293835939373821,-0.002992454217746854,0.0019329643109813333,0.999380350112915,0.0,0.0,0.0,-13.572623252868652,4.589170455932617,1.277134656906128,2456.671875,0
1047.8870000000006,0.010340753942728043,-0.011840139515697956,-0.00029000037466175854,0.0,0.0,0.0,0.0,-0.001144720590673387,-0.0004748906067106873,4.795732820639387e-05,0.9989606142044067,0.0,0.0,0.0,-13.549966812133789,4.5981035232543945,1.2810535430908203,2452.57080078125,0
1057.777,0.01036708801984787,-0.011906277388334274,-0.00030214746948331594,0.0,0.0,0.0,0.0,-0.0037464217748492956,0.0032135597430169582,-0.002301204949617386,0.9978182911872864,0.0,0.0,0.0,-13.575798034667969,4.584715366363525,1.2908053398132324,2457.24658203125,0
1067.6540000000005,0.010410100221633911,-0.011832531541585922,-0.0003433623060118407,0.0,0.0,0.0,0.0,0.0013649753527715802,-0.004483054857701063,-0.0008924687281250954,1.001142978668213,0.0,0.0,0.0,-13.553662300109863,4.609018325805664,1.295311689376831,2453.239990234375,0
1077.5390000000007,0.010429601185023785,-0.011870035901665688,-0.00034262941335327923,0.0,0.0,0.0,0.0,0.00043230122537352145,0.002962361788377166,-0.000804004492238164,0.9998970627784729,0.0,0.0,0.0,-13.575984954833984,4.601172924041748,1.299176573753357,2457.280029296875,0
1087.4279999999999,0.010389544069766998,-0.011872361414134502,-0.00028668553568422794,0.0,0.0,0.0,0.0,0.0016593748005107045,-0.0006458087591454387,-0.0031610119622200727,0.9999221563339233,0.0,0.0,0.0,-13.555342674255371,4.600704669952393,1.2879104614257812,2453.5439453125,0
1097.309000000001,0.010425104759633541,-0.0119087565690279,-0.0002682518388610333,0.0,0.0,0.0,0.0,0.0006921663298271596,0.0006300730747170746,-0.0018677054904401302,0.9997974634170532,0.0,0.0,0.0,-13.58468246459961,4.591716766357422,1.2887603044509888,2458.8544921875,0
1107.2000000000007,0.010422678664326668,-0.011898367665708065,-0.00025902243214659393,0.0,0.0,0.0,0.0,0.003262696787714958,0.0021710412111133337,-0.0006247950368560851,0.9996341466903687,0.0,0.0,0.0,-13.56421184539795,4.591877460479736,1.2958108186721802,2455.149169921875,0
1117.0830000000005,0.010464679449796677,-0.011986501514911652,-0.00027582733309827745,0.0,0.0,0.0,0.0,-0.0009279706864617765,-0.002687690546736121,0.002149418229237199,0.9993165135383606,0.0,0.0,0.0,-13.584083557128906,4.575255393981934,1.296759843826294,2458.74609375,0
1126.9700000000012,0.010460236109793186,-0.01196394581347704,-0.0002574786194600165,0.0,0.0,0.0,0.0,-0.0008807803969830275,0.0018997788429260254,-0.0015208210097625852,1.0003294944763184,0.0,0.0,0.0,-13.561352729797363,4.584753036499023,1.298669457435608,2454.6318359375,0
1136.8520000000008,0.010440781712532043,-0.012009821832180023,-0.00026408489793539047,0.0,0.0,0.0,0.0,0.00047580222599208355,0.002174900844693184,-0.0022220013197511435,1.001081109046936,0.0,0.0,0.0,-13.583015441894531,4.577829360961914,1.2967668771743774,2458.552734375,0
1146.7440000000006,0.01044523436576128,-0.011979346163570881,-0.00025769785861484706,0.0,0.0,0.0,0.0,-0.0023557639215141535,0.0035519408993422985,-0.0030758692882955074,0.999441921710968,0.0,0.0,0.0,-13.56357192993164,4.582605838775635,1.2913926839828491,2455.033447265625,0
1156.6270000000004,0.010433495976030827,-0.012013494968414307,-0.0002514477528166026,0.0,0.0,0.0,0.0,0.002044164575636387,-0.0009998992318287492,0.0007411955157294869,0.9980834126472473,0.0,0.0,0.0,-13.589306831359863,4.5822834968566895,1.2915711402893066,2459.691650390625,0
1166.5130000000008,0.010446561500430107,-0.011974743567407131,-0.00025199452647939324,0.0,0.0,0.0,0.0,-0.0014420998049899936,-0.00221457751467824,0.0006363342981785536,1.0000972747802734,0.0,0.0,0.0,-13.566118240356445,4.5907182693481445,1.296412706375122,2455.494384765625,0
1176.3970000000008,0.010408301837742329,-0.011979254893958569,-0.00023990219051484019,0.0,0.0,0.0,0.0,-0.0018144069472327828,0.002490739803761244,0.001931915059685707,0.9991930723190308,0.0,0.0,0.0,-13.591002464294434,4.59393835067749,1.2949962615966797,2459.998291015625,0
1186.2830000000013,0.010382733307778835,-0.011968402191996574,-0.00019610962772276253,0.0,0.0,0.0,0.0,-0.0031433363910764456,-0.0015830020420253277,0.00200056005269289,1.0012904405593872,0.0,0.0,0.0,-13.56869888305664,4.601552963256836,1.2969025373458862,2455.96142578125,0
1196.1689999999999,0.010393524542450905,-0.012018809095025063,-0.00019284311565570533,0.0,0.0,0.0,0.0,0.000598215963691473,-2.198083711846266e-05,0.0008632697863504291,1.0019844770431519,0.0,0.0,0.0,-13.592357635498047,4.597033500671387,1.3040719032287598,2460.243896484375,0
1206.0529999999999,0.010416180826723576,-0.011967439204454422,-0.00020107616728637367,0.0,0.0,0.0,0.0,-0.001582683646120131,-0.0035989899188280106,0.0015416451497003436,0.9999335408210754,0.0,0.0,0.0,-13.569517135620117,4.607108116149902,1.302015781402588,2456.109375,0
1215.946,0.010436653159558773,-0.01203496940433979,-0.00020424886315595359,0.0,0.0,0.0,0.0,-0.0008123445441015065,-0.00224984809756279,0.0018602082272991538,0.9984678030014038,0.0,0.0,0.0,-13.591988563537598,4.5960164070129395,1.3075016736984253,2460.177001953125,0
1225.8420000000006,0.01047587301582098,-0.011938783340156078,-0.00021144558559171855,0.0,0.0,0.0,0.0,0.00013595914060715586,0.002798544941470027,0.0007708006305620074,0.9997177124023438,0.0,0.0,0.0,-13.572690963745117,4.614988327026367,1.3050916194915771,2456.683837890625,0
1235.7219999999998,0.010420911945402622,-0.011956103146076202,-0.00021222593204583973,0.0,0.0,0.0,0.0,-0.0014168675988912582,0.00034157029585912824,0.0018893118249252439,0.9995325207710266,0.0,0.0,0.0,-13.595791816711426,4.614647388458252,1.290675401687622,2460.865234375,0
1245.5950000000012,0.010434143245220184,-0.011895851232111454,-0.00020420385408215225,0.0,0.0,0.0,0.0,-0.0018207510001957417,-0.003250045934692025,-0.004284863825887442,0.9972563982009888,0.0,0.0,0.0,-13.581658363342285,4.609963893890381,1.29347562789917,2458.30712890625,0
1255.4809999999998,0.01042318157851696,-0.011957998387515545,-0.00022473442368209362,0.0,0.0,0.0,0.0,-0.0004903378430753946,-0.002486269921064377,0.0052543566562235355,0.9976665377616882,0.0,0.0,0.0,-13.606557846069336,4.598863124847412,1.3034557104110718,2462.81396484375,0
1265.3680000000004,0.010473118163645267,-0.011873974464833736,-0.0002698487660381943,0.0,0.0,0.0,0.0,-0.0016366785857826471,-0.0039601861499249935,-0.0023481203243136406,0.9967084527015686,0.0,0.0,0.0,-13.580522537231445,4.620812892913818,1.3089860677719116,2458.1015625,0
1275.2520000000004,0.010440096259117126,-0.011910518631339073,-0.000292858574539423,0.0,0.0,0.0,0.0,-0.000945239036809653,-0.002957073040306568,-0.0003649450372904539,0.9976391196250916,0.0,0.0,0.0,-13.604192733764648,4.622289657592773,1.3199037313461304,2462.385986328125,0
1285.1450000000004,0.010473149828612804,-0.011841264553368092,-0.000326377572491765,0.0,0.0,0.0,0.0,0.0008822469389997423,0.002358183031901717,-0.003391772974282503,1.0014787912368774,0.0,0.0,0.0,-13.57929801940918,4.634880065917969,1.3321930170059204,2457.880126953125,0
1295.0290000000005,0.01046406477689743,-0.011870835907757282,-0.00034141234937123954,0.0,0.0,0.0,0.0,0.00029034106410108507,0.003361632814630866,5.498935206560418e-05,1.000061273574829,0.0,0.0,0.0,-13.604536056518555,4.629336833953857,1.3231879472732544,2462.447998046875,0
1304.916000000001,0.010449672117829323,-0.011833052150905132,-0.00031599882640875876,0.0,0.0,0.0,0.0,-0.0007502968073822558,0.00067090307129547,-0.0008169047068804502,1.000754952430725,0.0,0.0,0.0,-13.590644836425781,4.627735614776611,1.308558464050293,2459.933837890625,0
1314.7970000000005,0.010464772582054138,-0.011884967796504498,-0.0003339397662784904,0.0,0.0,0.0,0.0,-0.0024207320529967546,0.0017772596329450607,-0.0021653794683516026,0.9994003176689148,0.0,0.0,0.0,-13.610074043273926,4.617903709411621,1.3077272176742554,2463.4501953125,0
1324.683000000001,0.010440255515277386,-0.011886194348335266,-0.0003111230907961726,0.0,0.0,0.0,0.0,-0.0013045364757999778,0.0020092609338462353,0.0011346800019964576,0.9986732602119446,0.0,0.0,0.0,-13.589964866638184,4.619043350219727,1.3011218309402466,2459.810546875,0
1334.567000000001,0.01047369185835123,-0.011944255791604519,-0.00032457400811836123,0.0,0.0,0.0,0.0,-0.0005334517918527126,-0.0026562523562461138,0.004724560771137476,0.9995912909507751,0.0,0.0,0.0,-13.612261772155762,4.6132893562316895,1.3074356317520142,2463.846435546875,0
1344.460000000001,0.010451329872012138,-0.011929035186767578,-0.0002960763231385499,0.0,0.0,0.0,0.0,0.001657314132899046,0.005052154418081045,-0.0014504136051982641,1.0002318620681763,0.0,0.0,0.0,-13.589641571044922,4.614017963409424,1.312402606010437,2459.751953125,0
1354.3450000000012,0.010444538667798042,-0.011978156864643097,-0.0003175248275510967,0.0,0.0,0.0,0.0,0.0010861949995160103,-0.0011748429387807846,-0.00040509901009500027,1.0014522075653076,0.0,0.0,0.0,-13.60805606842041,4.6018967628479,1.2978767156600952,2463.085205078125,0
1364.2300000000014,0.010479038581252098,-0.011896303854882717,-0.00034093300928361714,0.0,0.0,0.0,0.0,-0.0013273695949465036,0.0006160757620818913,-0.002940953243523836,0.9993816018104553,0.0,0.0,0.0,-13.585530281066895,4.616449356079102,1.2982118129730225,2459.0078125,0
1374.1100000000006,0.010445716790854931,-0.011902423575520515,-0.00034090562257915735,0.0,0.0,0.0,0.0,-0.0008868062286637723,-0.004263379145413637,0.0005139670101925731,0.9995540976524353,0.0,0.0,0.0,-13.609458923339844,4.6169633865356445,1.2960362434387207,2463.3388671875,0
1383.996000000001,0.010435447096824646,-0.011860844679176807,-0.0003171100397594273,0.0,0.0,0.0,0.0,-0.00020666194905061275,-0.005040704272687435,0.001981835113838315,0.9981769323348999,0.0,0.0,0.0,-13.58862590789795,4.624192237854004,1.3005214929580688,2459.568115234375,0
1393.8860000000004,0.010467607527971268,-0.011924834921956062,-0.0003339489921927452,0.0,0.0,0.0,0.0,0.001301088253967464,0.0009979187743738294,-0.00408202363178134,0.9979740977287292,0.0,0.0,0.0,-13.610069274902344,4.61275053024292,1.318163275718689,2463.449462890625,0
1403.768,0.010414453223347664,-0.011923727579414845,-0.00026639518910087645,0.0,0.0,0.0,0.0,-0.004102482460439205,0.0022884521167725325,0.0036209358368068933,0.99869304895401,0.0,0.0,0.0,-13.589698791503906,4.609742164611816,1.3002820014953613,2459.762451171875,0
1413.657000000001,0.010414596647024155,-0.011958496645092964,-0.00027243117801845074,0.0,0.0,0.0,0.0,0.0027759666554629803,-0.00562641816213727,-0.001869833329692483,0.9988717436790466,0.0,0.0,0.0,-13.61078929901123,4.607492446899414,1.3023062944412231,2463.579833984375,0
1423.549000000001,0.010391376912593842,-0.011922458186745644,-0.00023665606568101794,0.0,0.0,0.0,0.0,0.0010347635252401233,0.000143853816553019,-0.0031069228425621986,0.9988337159156799,0.0,0.0,0.0,-13.597463607788086,4.59503698348999,1.3107701539993286,2461.167724609375,0
1433.4300000000003,0.010375448502600193,-0.011934038251638412,-0.00024061267322394997,0.0,0.0,0.0,0.0,-0.0012983079068362713,0.00019520266505423933,0.0005799427162855864,0.998492956161499,0.0,0.0,0.0,-13.583660125732422,4.584935188293457,1.3089306354522705,2458.66943359375,0
1443.3109999999997,0.010354039259254932,-0.011883912608027458,-0.0002042471751337871,0.0,0.0,0.0,0.0,-0.0019147456623613834,-0.0018843014258891344,-0.0013094155583530664,0.9972876310348511,0.0,0.0,0.0,-13.570440292358398,4.586525917053223,1.3081305027008057,2456.276611328125,0
1453.2030000000013,0.010321980342268944,-0.011888005770742893,-0.00019491503189783543,0.0,0.0,0.0,0.0,-0.0010491673601791263,0.0044969054870307446,-0.002478663343936205,0.9995088577270508,0.0,0.0,0.0,-13.602692604064941,4.5861053466796875,1.2981597185134888,2462.114501953125,0
1463.0820000000003,0.010345477610826492,-0.011799977160990238,-0.00021065610053483397,0.0,0.0,0.0,0.0,0.0007154761697165668,-0.0015115267597138882,-0.001995835453271866,0.9995809197425842,0.0,0.0,0.0,-13.582513809204102,4.604923248291016,1.2906360626220703,2458.4619140625,0
1472.973,0.010360647924244404,-0.011856540106236935,-0.0002279067994095385,0.0,0.0,0.0,0.0,0.0022453907877206802,0.005240170285105705,0.00027133445837534964,1.0003355741500854,0.0,0.0,0.0,-13.607611656188965,4.590350151062012,1.299495816230774,2463.0048828125,0
1482.8680000000004,0.010363620705902576,-0.01181479636579752,-0.0002455884241499007,0.0,0.0,0.0,0.0,-0.0013577740173786879,-0.006462296936661005,-0.0003800407866947353,0.9990277290344238,0.0,0.0,0.0,-13.583579063415527,4.59279727935791,1.2830597162246704,2458.65478515625,0
1492.7390000000014,0.010353095829486847,-0.011838254518806934,-0.00025208538863807917,0.0,0.0,0.0,0.0,-0.0012779382523149252,-0.0024827963206917048,-0.0005654960405081511,0.9974629878997803,0.0,0.0,0.0,-13.610589027404785,4.588876247406006,1.2923561334609985,2463.543701171875,0
1502.639000000001,0.010384757071733475,-0.011754550971090794,-0.0002934281073976308,0.0,0.0,0.0,0.0,0.0025226345751434565,-0.0020558133255690336,0.0007643045391887426,1.000163197517395,0.0,0.0,0.0,-13.587971687316895,4.608520984649658,1.2959195375442505,2459.44970703125,0
1512.5169999999998,0.010448499582707882,-0.011820068582892418,-0.0003101470065303147,0.0,0.0,0.0,0.0,-0.0005878023221157491,0.007330147083848715,-0.0004658929829020053,1.0016247034072876,0.0,0.0,0.0,-13.611505508422852,4.586009502410889,1.3089931011199951,2463.709716796875,0
1522.4000000000015,0.010449786670506,-0.01177479699254036,-0.000324764521792531,0.0,0.0,0.0,0.0,0.00195516855455935,0.00023896283528301865,-0.0009088197257369757,1.0003458261489868,0.0,0.0,0.0,-13.588197708129883,4.592091083526611,1.2976691722869873,2459.490966796875,0
1532.2880000000005,0.01047914195805788,-0.011835537850856781,-0.0003479323931969702,0.0,0.0,0.0,0.0,0.0026013171300292015,-0.0018540810560807586,-0.0015616047894582152,0.9989274144172668,0.0,0.0,0.0,-13.610940933227539,4.579915523529053,1.3039300441741943,2463.607421875,0
1542.179,0.010444785468280315,-0.011803100816905499,-0.00031001761090010405,0.0,0.0,0.0,0.0,0.0005396779743023217,-0.0014737319434061646,-4.8238747694995254e-05,0.9988090395927429,0.0,0.0,0.0,-13.587780952453613,4.5794572830200195,1.3020094633102417,2459.415283203125,0
1552.0640000000003,0.01046279352158308,-0.011853438802063465,-0.00032622902654111385,0.0,0.0,0.0,0.0,-0.0006925280904397368,0.0011821006191894412,0.0005041399272158742,1.0014781951904297,0.0,0.0,0.0,-13.613531112670898,4.569642543792725,1.3164173364639282,2464.076171875,0
1561.946,0.010438504628837109,-0.011841835454106331,-0.00031376228434965014,0.0,0.0,0.0,0.0,-0.0035281276796013117,0.00016305690223816782,0.0007362510077655315,1.000167727470398,0.0,0.0,0.0,-13.590860366821289,4.5752739906311035,1.3119291067123413,2459.97265625,0
1571.826000000001,0.010445653460919857,-0.011897092685103416,-0.00033447524765506387,0.0,0.0,0.0,0.0,-0.004008729476481676,-0.000658566365018487,-0.00014515554357785732,1.0009715557098389,0.0,0.0,0.0,-13.609025955200195,4.568314075469971,1.316314935684204,2463.260498046875,0
1581.7110000000011,0.010410744696855545,-0.011885073035955429,-0.0003058700240217149,0.0,0.0,0.0,0.0,8.867328142514452e-05,0.0005386930424720049,0.001434065168723464,0.998092770576477,0.0,0.0,0.0,-13.588021278381348,4.574634552001953,1.3149714469909668,2459.458740234375,0
1591.6040000000012,0.010419243015348911,-0.011930393055081367,-0.0003138370520900935,0.0,0.0,0.0,0.0,-0.0018454324454069138,-0.002516441512852907,-0.0007525382097810507,0.9987235069274902,0.0,0.0,0.0,-13.608722686767578,4.570117473602295,1.3141158819198608,2463.205810546875,0
1601.4800000000014,0.010382349602878094,-0.01190031599253416,-0.0002708327956497669,0.0,0.0,0.0,0.0,-0.002276162151247263,-0.001997587736696005,-0.0015442430740222335,0.9981976747512817,0.0,0.0,0.0,-13.589228630065918,4.575130462646484,1.31627357006073,2459.67724609375,0
1611.371000000001,0.01042190846055746,-0.01195417158305645,-0.0002707011008169502,0.0,0.0,0.0,0.0,-0.0002942508435808122,0.004882403649389744,0.0013448926620185375,1.0000892877578735,0.0,0.0,0.0,-13.613068580627441,4.56620454788208,1.3255712985992432,2463.99267578125,0
1621.264000000001,0.010378736071288586,-0.01193852350115776,-0.00022137312043923885,0.0,0.0,0.0,0.0,0.0015172238927334547,-0.003616613568738103,0.0025014467537403107,1.002549648284912,0.0,0.0,0.0,-13.587918281555176,4.572986125946045,1.3168028593063354,2459.440185546875,0
1631.1400000000012,0.010397778823971748,-0.011986764147877693,-0.00021872828074265271,0.0,0.0,0.0,0.0,-0.001257300958968699,0.0032193968072533607,-0.003073544939979911,0.9996450543403625,0.0,0.0,0.0,-13.608062744140625,4.569944381713867,1.3364604711532593,2463.08642578125,0
1641.0220000000008,0.010402422398328781,-0.011938568204641342,-0.00022221682593226433,0.0,0.0,0.0,0.0,-0.002453900407999754,-0.005619295407086611,0.0011520039988681674,1.0000147819519043,0.0,0.0,0.0,-13.586097717285156,4.578445911407471,1.3387179374694824,2459.110595703125,0
1650.916000000001,0.01042303815484047,-0.011993120424449444,-0.00022225012071430683,0.0,0.0,0.0,0.0,-0.0008415475604124367,0.004061200190335512,-0.0009148491662926972,1.000918984413147,0.0,0.0,0.0,-13.607963562011719,4.573056221008301,1.3510627746582031,2463.068359375,0
1660.7900000000009,0.010439366102218628,-0.011930899694561958,-0.0002321375213796273,0.0,0.0,0.0,0.0,0.0005638378206640482,0.0016402920009568334,0.0038857036270201206,0.9998928904533386,0.0,0.0,0.0,-13.585881233215332,4.585070610046387,1.3452346324920654,2459.071533203125,0
1670.687,0.010350916534662247,-0.01192247960716486,-0.00022920576157048345,0.0,0.0,0.0,0.0,0.0015177923487499356,0.00021411811758298427,-0.0018387057352811098,1.0010981559753418,0.0,0.0,0.0,-13.614005088806152,4.581230163574219,1.3316043615341187,2464.162353515625,0
1680.5640000000003,0.010334153659641743,-0.01188557781279087,-0.00020081021648366004,0.0,0.0,0.0,0.0,0.0016031377017498016,4.3597265175776556e-05,0.002294359030202031,1.0013564825057983,0.0,0.0,0.0,-13.591446876525879,4.585151672363281,1.3309272527694702,2460.078857421875,0
1690.4560000000001,0.0103616239503026,-0.011950310319662094,-0.00020214442338328809,0.0,0.0,0.0,0.0,0.0009702452807687223,0.0043592737056314945,0.001500305370427668,0.9985889792442322,0.0,0.0,0.0,-13.618151664733887,4.570047855377197,1.3312257528305054,2464.912841796875,0
1700.3370000000014,0.010387719608843327,-0.011892237700521946,-0.0002251066907774657,0.0,0.0,0.0,0.0,-0.0022506362292915583,-0.005211937241256237,-0.00026229614741168916,0.9960877299308777,0.0,0.0,0.0,-13.593841552734375,4.578335762023926,1.3308045864105225,2460.51220703125,0
1710.2390000000014,0.010409154929220676,-0.01194264367222786,-0.00022589979926124215,0.0,0.0,0.0,0.0,0.0007846573134884238,-0.0013427229132503271,0.0007454698206856847,0.9982390999794006,0.0,0.0,0.0,-13.620697975158691,4.576874732971191,1.3519413471221924,2465.37353515625,0
1720.1040000000012,0.010421746410429478,-0.011893254704773426,-0.00023916285135783255,0.0,0.0,0.0,0.0,-0.005682044196873903,0.004023658111691475,-0.0014049600576981902,1.000522494316101,0.0,0.0,0.0,-13.596295356750488,4.585469722747803,1.352567434310913,2460.95654296875,0
1729.9980000000014,0.010376078076660633,-0.011938846670091152,-0.00026612606598064303,0.0,0.0,0.0,0.0,0.0011065603466704488,0.00038979933015070856,0.0006948584923520684,1.0006951093673706,0.0,0.0,0.0,-13.622178077697754,4.58822774887085,1.3430695533752441,2465.6416015625,0
1739.880000000001,0.010375886224210262,-0.011902404017746449,-0.00026780524058267474,0.0,0.0,0.0,0.0,0.0007997101056389511,-0.0034057036973536015,0.0040885028429329395,0.9982300996780396,0.0,0.0,0.0,-13.600652694702148,4.597592353820801,1.338927149772644,2461.7451171875,0
1749.7780000000002,0.010401262901723385,-0.01195168774574995,-0.00027181775658391416,0.0,0.0,0.0,0.0,0.0031381025910377502,-0.0009238770580850542,-0.0013595061609521508,0.999295175075531,0.0,0.0,0.0,-13.621317863464355,4.586305141448975,1.344645380973816,2465.48583984375,0
1759.652,0.010420535691082478,-0.01186744961887598,-0.0002786409459076822,0.0,0.0,0.0,0.0,-0.00016560652875341475,0.006374837830662727,-0.002509369282051921,1.0006886720657349,0.0,0.0,0.0,-13.601064682006836,4.599236965179443,1.3375962972640991,2461.81982421875,0
1769.5560000000005,0.010352171957492828,-0.011865811422467232,-0.0002781946677714586,0.0,0.0,0.0,0.0,-0.002877341816201806,-0.005908179096877575,-0.0011808827985078096,1.0001012086868286,0.0,0.0,0.0,-13.627936363220215,4.600676536560059,1.3176050186157227,2466.68359375,0
1779.4189999999999,0.010348323732614517,-0.011813879013061523,-0.00026952545158565044,0.0,0.0,0.0,0.0,-0.004543515387922525,0.0025053592398762703,0.0019214472267776728,1.000773549079895,0.0,0.0,0.0,-13.604157447814941,4.611614227294922,1.323582410812378,2462.379638671875,0
1789.3160000000007,0.010408897884190083,-0.011871227994561195,-0.0002621336898300797,0.0,0.0,0.0,0.0,-0.003992123529314995,0.00011670959065668285,0.003235249314457178,0.9995651841163635,0.0,0.0,0.0,-13.627676010131836,4.608485698699951,1.3336714506149292,2466.63671875,0
1799.1910000000007,0.010404583066701889,-0.011849947273731232,-0.0002622906176839024,0.0,0.0,0.0,0.0,2.13157654798124e-05,-0.0068323565647006035,0.0044121211394667625,0.9981036186218262,0.0,0.0,0.0,-13.60031795501709,4.621053218841553,1.335423231124878,2461.684326171875,0
1809.0860000000011,0.01042137760668993,-0.011912748217582703,-0.0002783167001325637,0.0,0.0,0.0,0.0,-0.0003381361602805555,-0.0017851567827165127,-0.002717364812269807,0.999272346496582,0.0,0.0,0.0,-13.62304973602295,4.610456943511963,1.3594647645950317,2465.799072265625,0
1818.9710000000014,0.010446463711559772,-0.011852758936583996,-0.00030803034314885736,0.0,0.0,0.0,0.0,-0.0015538543229922652,-0.0004583291010931134,0.00222049281001091,1.0013152360916138,0.0,0.0,0.0,-13.602023124694824,4.623435020446777,1.3619482517242432,2461.9931640625,0
1828.8630000000012,0.010475272312760353,-0.011913741007447243,-0.00032200803980231285,0.0,0.0,0.0,0.0,-0.001007148064672947,0.0032949054148048162,-0.0019280333071947098,0.998195469379425,0.0,0.0,0.0,-13.626794815063477,4.61361837387085,1.3691866397857666,2466.47705078125,0
1838.7330000000002,0.010450498200953007,-0.011901844292879105,-0.00029665330657735467,0.0,0.0,0.0,0.0,0.0015402029966935515,0.000366220367141068,0.00104421260766685,0.9986261129379272,0.0,0.0,0.0,-13.613338470458984,4.609488487243652,1.3621258735656738,2464.041259765625,0
1848.6310000000012,0.010437943041324615,-0.011912450194358826,-0.00030225233058445156,0.0,0.0,0.0,0.0,-6.767585000488907e-05,0.005040192510932684,0.0015440125716850162,1.0004726648330688,0.0,0.0,0.0,-13.600061416625977,4.599089622497559,1.357473373413086,2461.637939453125,0
1858.505000000001,0.010402373969554901,-0.011884881183505058,-0.0002486428711563349,0.0,0.0,0.0,0.0,-0.004103159531950951,0.00016695662634447217,0.0027316748164594173,0.9978727698326111,0.0,0.0,0.0,-13.58117389678955,4.604026794433594,1.333930253982544,2458.219482421875,0
1868.3990000000013,0.010426342487335205,-0.011948980391025543,-0.00025393400574103,0.0,0.0,0.0,0.0,-0.001633018720895052,0.001069475430995226,-0.0023719905875623226,0.9992498755455017,0.0,0.0,0.0,-13.60377311706543,4.598661422729492,1.3427095413208008,2462.309814453125,0
1878.2800000000007,0.010393659584224224,-0.011927341111004353,-0.00020452898752409965,0.0,0.0,0.0,0.0,0.0005341695505194366,-0.0046175564639270306,-0.0024590801913291216,0.9992533922195435,0.0,0.0,0.0,-13.58343505859375,4.604281902313232,1.3334970474243164,2458.628662109375,0
1888.1779999999999,0.010398395359516144,-0.011984367854893208,-0.00021481336443684995,0.0,0.0,0.0,0.0,0.0006815794622525573,0.005509768612682819,-0.0013257918180897832,1.000153660774231,0.0,0.0,0.0,-13.60429573059082,4.595653533935547,1.3399088382720947,2462.404296875,0
1898.0510000000013,0.010377313010394573,-0.01197526603937149,-0.00019238567620050162,0.0,0.0,0.0,0.0,-0.0011439869413152337,-0.006173622328788042,0.003932020161300898,1.0009263753890991,0.0,0.0,0.0,-13.583791732788086,4.599620819091797,1.3280348777770996,2458.693115234375,0
1907.9480000000003,0.010360545478761196,-0.011994941160082817,-0.00019093601440545171,0.0,0.0,0.0,0.0,-0.0016699332045391202,-0.004606988746672869,0.0006979001336731017,0.99868243932724,0.0,0.0,0.0,-13.569588661193848,4.598564624786377,1.3410855531692505,2456.122314453125,0
1917.8220000000001,0.01034610252827406,-0.01193778496235609,-0.0001512696035206318,0.0,0.0,0.0,0.0,-0.00031656280043534935,-0.006528242491185665,-0.0032599715050309896,0.997902512550354,0.0,0.0,0.0,-13.548457145690918,4.618552207946777,1.3451652526855469,2452.297607421875,0
1927.714,0.01041458174586296,-0.012032072059810162,-0.0001456159952795133,0.0,0.0,0.0,0.0,-6.372724601533264e-05,0.001194670214317739,0.0006880012806504965,0.9979736804962158,0.0,0.0,0.0,-13.574555397033691,4.606977462768555,1.3703655004501343,2457.021484375,0
1937.5910000000003,0.010426830500364304,-0.011962980031967163,-0.00013156684872228652,0.0,0.0,0.0,0.0,-0.0026280214078724384,0.0013316144468262792,0.0014384042005985975,0.9989393353462219,0.0,0.0,0.0,-13.553092002868652,4.62448263168335,1.361648440361023,2453.13671875,0
1947.496000000001,0.010479656979441643,-0.012028004042804241,-0.0001252424845006317,0.0,0.0,0.0,0.0,-0.00018829540931619704,0.004611355252563953,-0.0020205338951200247,1.0003907680511475,0.0,0.0,0.0,-13.576966285705566,4.617807865142822,1.3580917119979858,2457.4580078125,0
1957.362000000001,0.010517342016100883,-0.011928646825253963,-0.00013729435158893466,0.0,0.0,0.0,0.0,0.00040215483750216663,0.003332889173179865,0.0008682781481184065,1.0009703636169434,0.0,0.0,0.0,-13.557480812072754,4.641232013702393,1.3474698066711426,2453.93115234375,0
1967.2560000000012,0.0104365898296237,-0.01196721475571394,-0.00017358230252284557,0.0,0.0,0.0,0.0,-0.0014130303170531988,-0.0033050375059247017,0.0002740782801993191,1.000644326210022,0.0,0.0,0.0,-13.583123207092285,4.632678031921387,1.3373749256134033,2458.572265625,0
1977.134,0.010494261980056763,-0.011868548579514027,-0.00022795579570811242,0.0,0.0,0.0,0.0,-0.0010274683590978384,-0.009382321499288082,0.005233455449342728,1.001783013343811,0.0,0.0,0.0,-13.559379577636719,4.6599202156066895,1.3463605642318726,2454.274658203125,0
1987.0280000000002,0.010416197590529919,-0.011890928260982037,-0.0002547741460148245,0.0,0.0,0.0,0.0,0.0012169757392257452,0.00493965670466423,0.0006838119588792324,0.9995550513267517,0.0,0.0,0.0,-13.591948509216309,4.651782989501953,1.3571540117263794,2460.169677734375,0
1996.9060000000009,0.01049653347581625,-0.01175380777567625,-0.0003306407597847283,0.0,0.0,0.0,0.0,-0.0020926562137901783,0.0027096641715615988,0.0019318766426295042,1.0010944604873657,0.0,0.0,0.0,-13.568479537963867,4.676407337188721,1.358475685119629,2455.921630859375,0
2006.804,0.01040973886847496,-0.011750404722988605,-0.0003530799876898527,0.0,0.0,0.0,0.0,-0.0035195702221244574,-0.0019546656403690577,0.002147909952327609,1.0007685422897339,0.0,0.0,0.0,-13.597160339355469,4.675337791442871,1.3491801023483276,2461.113037109375,0
2016.6770000000015,0.010413083247840405,-0.011711637489497662,-0.0003693320322781801,0.0,0.0,0.0,0.0,0.0003788472095038742,-0.005010460969060659,-0.002402836224064231,0.999782919883728,0.0,0.0,0.0,-13.575851440429688,4.685474395751953,1.3555022478103638,2457.256103515625,0
2026.5720000000001,0.010372250340878963,-0.011720866896212101,-0.00038335975841619074,0.0,0.0,0.0,0.0,0.0006497606518678367,0.007450336590409279,0.0010099097853526473,1.0012779235839844,0.0,0.0,0.0,-13.604408264160156,4.687700271606445,1.3598644733428955,2462.4248046875,0
2036.4520000000011,0.01036879699677229,-0.011695382185280323,-0.0003969433601014316,0.0,0.0,0.0,0.0,0.0021146766375750303,0.0034815494436770678,-0.0007571055903099477,1.0022286176681519,0.0,0.0,0.0,-13.58178997039795,4.686422348022461,1.3455398082733154,2458.330810546875,0
2046.3450000000012,0.010425283573567867,-0.011751547455787659,-0.0004060441569890827,0.0,0.0,0.0,0.0,0.000281902146525681,0.000759631919208914,-0.0021034199744462967,1.001300573348999,0.0,0.0,0.0,-13.610896110534668,4.673739910125732,1.3501828908920288,2463.599365234375,0
2056.2260000000006,0.010414217598736286,-0.011752627789974213,-0.00041174161015078425,0.0,0.0,0.0,0.0,0.0015139743918552995,0.0025844122283160686,0.0015484116738662124,1.0019445419311523,0.0,0.0,0.0,-13.59782886505127,4.668793201446533,1.3525482416152954,2461.23388671875,0
2066.120000000001,0.010500972159206867,-0.011812809854745865,-0.0004352322139311582,0.0,0.0,0.0,0.0,0.0019114534370601177,0.002549831522628665,0.0007705157622694969,1.0014816522598267,0.0,0.0,0.0,-13.621492385864258,4.655879974365234,1.3622910976409912,2465.517333984375,0
2075.991,0.010402396321296692,-0.01187897752970457,-0.0002956378448288888,0.0,0.0,0.0,0.0,-0.0002616372366901487,0.0030842372216284275,-0.00040392985101789236,1.0008227825164795,0.0,0.0,0.0,-13.595726013183594,4.634784698486328,1.3422383069992065,2460.853515625,0
2085.885,0.010503269731998444,-0.011926999315619469,-0.0002651230897754431,0.0,0.0,0.0,0.0,-0.0007914435700513422,7.054990419419482e-05,0.00027805750141851604,0.9993728995323181,0.0,0.0,0.0,-13.618791580200195,4.626195907592773,1.354485034942627,2465.0283203125,0
2095.764000000001,0.010472134687006474,-0.011907407082617283,-0.00019490841077640653,0.0,0.0,0.0,0.0,-0.0022871382534503937,-0.001219078665599227,-0.004028134513646364,0.9998482465744019,0.0,0.0,0.0,-13.597118377685547,4.629610061645508,1.3454997539520264,2461.10546875,0
2105.657000000001,0.010514652356505394,-0.011948898434638977,-0.00017352736904285848,0.0,0.0,0.0,0.0,0.0015564122004434466,0.0018258261261507869,-0.0010394316632300615,0.9989307522773743,0.0,0.0,0.0,-13.622013092041016,4.628824234008789,1.3539037704467773,2465.61181640625,0
2115.5340000000015,0.010496414266526699,-0.011916225776076317,-0.0001149362069554627,0.0,0.0,0.0,0.0,0.0010376825230196118,-0.0008118536206893623,0.0019377131247892976,0.9999412298202515,0.0,0.0,0.0,-13.600053787231445,4.628358364105225,1.334250807762146,2461.63671875,0
2125.434000000001,0.010478445328772068,-0.011973797343671322,-0.00012869514466729015,0.0,0.0,0.0,0.0,-0.0020636527333408594,-0.004569408483803272,-0.0009481353336013854,0.9981585144996643,0.0,0.0,0.0,-13.624361991882324,4.618412017822266,1.34160315990448,2466.03662109375,0
2135.3060000000005,0.010425781831145287,-0.01199073065072298,-4.485759563976899e-05,0.0,0.0,0.0,0.0,0.0015552127733826637,0.0050882939249277115,1.867037281044759e-05,0.9989944696426392,0.0,0.0,0.0,-13.600347518920898,4.614850044250488,1.3502171039581299,2461.689697265625,0
2145.202000000001,0.010415758937597275,-0.012000057846307755,-2.6108442398253828e-05,0.0,0.0,0.0,0.0,9.752232290338725e-05,-0.005367754027247429,0.0018210051348432899,0.999099612236023,0.0,0.0,0.0,-13.586472511291504,4.609827041625977,1.353492021560669,2459.178466796875,0
2155.0780000000013,0.010420471429824829,-0.01194337010383606,9.45583451539278e-07,0.0,0.0,0.0,0.0,0.0003502649487927556,-0.0021694465540349483,-5.9234251239104196e-05,1.001044750213623,0.0,0.0,0.0,-13.567028045654297,4.622206687927246,1.3605705499649048,2455.658935546875,0
2164.9710000000014,0.010379926301538944,-0.011979324743151665,-9.655432222643867e-06,0.0,0.0,0.0,0.0,0.0008847361314110458,0.001448758994229138,-0.0016250349581241608,1.000174880027771,0.0,0.0,0.0,-13.59477710723877,4.607642650604248,1.3523720502853394,2460.681640625,0
2174.849,0.010403616353869438,-0.0118997348472476,-6.101490725995973e-06,0.0,0.0,0.0,0.0,-0.0014791948487982154,-0.0032759355381131172,-0.0019313247175887227,1.0018508434295654,0.0,0.0,0.0,-13.572973251342773,4.621477127075195,1.359372854232788,2456.735107421875,0
2184.749,0.010376439429819584,-0.011951517313718796,-1.981210516532883e-05,0.0,0.0,0.0,0.0,0.002120518358424306,-0.0024974404368549585,0.002226427663117647,1.0018798112869263,0.0,0.0,0.0,-13.601669311523438,4.613626956939697,1.3590947389602661,2461.92919921875,0
