timestamp,stateEstimate.x,stateEstimate.y,stateEstimate.z,controller.cmd_thrust,controller.cmd_roll,controller.cmd_pitch,controller.cmd_yaw,controller.r_roll,controller.r_pitch,controller.r_yaw,controller.accelz,controller.actuatorThrust,controller.roll,controller.pitch,controller.yaw,controller.rollRate,controller.pitchRate,controller.yawRate,controller.ctr_yaw
0.0,0.028160804882645607,-0.026162074878811836,-3.947181539842859e-05,0.0,0.0,0.0,0.0,0.00045831731404177845,0.0009163958602584898,0.00042391629540361464,1.0005427598953247,0.0,0.0,0.0,-13.652510643005371,4.5570902824401855,-0.7441052198410034,2471.131591796875,0
9.881000000001222,0.028144193813204765,-0.026030052453279495,4.278995038475841e-05,0.0,0.0,0.0,0.0,0.0010146397398784757,0.0035541041288524866,-0.00111541454680264,0.999804675579071,0.0,0.0,0.0,-13.628056526184082,4.58178186416626,-0.7581570744514465,2466.705322265625,0
19.764000000001033,0.028236567974090576,-0.02618390880525112,2.3162707293522544e-05,0.0,0.0,0.0,0.0,0.0005609097424894571,-0.00046527519589290023,0.0007216106751002371,1.0019837617874146,0.0,0.0,0.0,-13.661026954650879,4.553607940673828,-0.7460552453994751,2472.673095703125,0
29.648000000001048,0.02822868898510933,-0.02604762092232704,0.00010715079406509176,0.0,0.0,0.0,0.0,0.0010502187069505453,-0.005445411894470453,-0.0027271651197224855,1.0011999607086182,0.0,0.0,0.0,-13.63557243347168,4.577725887298584,-0.7623236775398254,2468.06591796875,0
39.548000000000684,0.02824852243065834,-0.026168743148446083,8.738945325603709e-05,0.0,0.0,0.0,0.0,0.0004020638589281589,0.0035710150841623545,0.000531169876921922,1.001091718673706,0.0,0.0,0.0,-13.66705322265625,4.557131290435791,-0.7428549528121948,2473.763671875,0
49.42000000000007,0.028233015909790993,-0.026069195941090584,0.00016682267596479505,0.0,0.0,0.0,0.0,-0.0030921034049242735,-0.0025991201400756836,-0.0007909144042059779,0.9991316199302673,0.0,0.0,0.0,-13.641944885253906,4.567915916442871,-0.7521902918815613,2469.21923828125,0
59.31000000000131,0.02826053835451603,-0.026221103966236115,0.0001315457047894597,0.0,0.0,0.0,0.0,-0.0008229189552366734,-0.0017200630391016603,-0.0010817019501700997,0.9985526204109192,0.0,0.0,0.0,-13.673789978027344,4.541292190551758,-0.7382512092590332,2474.983154296875,0
69.19000000000051,0.02830660343170166,-0.026049191132187843,0.00015769447782076895,0.0,0.0,0.0,0.0,0.0023756034206598997,0.001759708276949823,-0.0022134478203952312,1.0014325380325317,0.0,0.0,0.0,-13.650230407714844,4.574328422546387,-0.7354573607444763,2470.71875,0
79.10000000000036,0.028285158798098564,-0.026199180632829666,9.452871017856523e-05,0.0,0.0,0.0,0.0,0.001743368455208838,0.002015573438256979,0.0019643385894596577,1.0011985301971436,0.0,0.0,0.0,-13.668458938598633,4.548302173614502,-0.7224328517913818,2474.018310546875,0
88.96200000000135,0.0283166766166687,-0.026042945683002472,0.00012638591579161584,0.0,0.0,0.0,0.0,-0.0009394651278853416,0.0016439511673524976,-0.0008925689035095274,0.9993067979812622,0.0,0.0,0.0,-13.64733600616455,4.572997093200684,-0.7313852310180664,2470.195068359375,0
98.86100000000079,0.028296833857893944,-0.0261746346950531,7.551280577899888e-05,0.0,0.0,0.0,0.0,0.00018336251378059387,0.0011358913034200668,0.0006467133644036949,1.0014958381652832,0.0,0.0,0.0,-13.671523094177246,4.550431251525879,-0.7343687415122986,2474.57275390625,0
108.73300000000017,0.02831990458071232,-0.026029234752058983,0.00011035855277441442,0.0,0.0,0.0,0.0,0.0006917808786965907,-0.004177726339548826,-0.0006512862746603787,1.0018311738967896,0.0,0.0,0.0,-13.646223068237305,4.579452991485596,-0.7389324307441711,2469.99365234375,0
118.62900000000081,0.028268156573176384,-0.02612064778804779,7.462283247150481e-05,0.0,0.0,0.0,0.0,0.0016171608585864305,0.004339549224823713,0.0023732755798846483,0.9995161294937134,0.0,0.0,0.0,-13.675362586975098,4.560287952423096,-0.7321670651435852,2475.26806640625,0
128.50400000000081,0.02828441560268402,-0.025987612083554268,0.00011040633398806676,0.0,0.0,0.0,0.0,0.00030607267399318516,0.002627587877213955,-0.00032157645910046995,0.9976187348365784,0.0,0.0,0.0,-13.650806427001953,4.582108020782471,-0.7352302074432373,2470.822998046875,0
138.39900000000125,0.02824503369629383,-0.026107143610715866,5.4982101573841646e-05,0.0,0.0,0.0,0.0,0.0018544512568041682,0.003746533766388893,0.0029796301387250423,0.9982251524925232,0.0,0.0,0.0,-13.677626609802246,4.557243347167969,-0.7326006293296814,2475.677490234375,0
148.27700000000004,0.028264550492167473,-0.025964397937059402,8.498910756316036e-05,0.0,0.0,0.0,0.0,-0.0025461760815232992,-0.006282413378357887,0.003911045845597982,0.9982890486717224,0.0,0.0,0.0,-13.654027938842773,4.5856194496154785,-0.7402649521827698,2471.40625,0
158.1690000000017,0.028241390362381935,-0.026078497990965843,3.463773100520484e-05,0.0,0.0,0.0,0.0,0.000338965532137081,0.006318730302155018,-0.00030187441734597087,0.9986910223960876,0.0,0.0,0.0,-13.682703971862793,4.559528350830078,-0.7451223731040955,2476.596435546875,0
168.04800000000068,0.028237735852599144,-0.025956930592656136,7.815608842065558e-05,0.0,0.0,0.0,0.0,-0.0020743596833199263,-0.0012948373332619667,0.001973271369934082,1.0020071268081665,0.0,0.0,0.0,-13.659736633300781,4.587887763977051,-0.7500980496406555,2472.439697265625,0
177.94200000000092,0.0282265804708004,-0.02607196755707264,2.7339428925188258e-05,0.0,0.0,0.0,0.0,-0.0003372896171640605,-0.00041416881140321493,2.9168873879825696e-05,1.0000959634780884,0.0,0.0,0.0,-13.678183555603027,4.561368942260742,-0.7524411082267761,2475.7783203125,0
187.82700000000114,0.028221875429153442,-0.02594701759517193,6.669564754702151e-05,0.0,0.0,0.0,0.0,-0.0005784268723800778,0.002414923859760165,-0.003684141905978322,0.9983946084976196,0.0,0.0,0.0,-13.651915550231934,4.584294319152832,-0.7679456472396851,2471.02392578125,0
197.71200000000135,0.028220463544130325,-0.026041191071271896,3.5837503673974425e-05,0.0,0.0,0.0,0.0,1.2159285688539967e-05,0.006588691845536232,0.0003097482258453965,1.0009952783584595,0.0,0.0,0.0,-13.674604415893555,4.564296722412109,-0.7594611048698425,2475.130615234375,0
207.59000000000015,0.028218315914273262,-0.02590935118496418,7.640472904313356e-05,0.0,0.0,0.0,0.0,-0.0008776049362495542,0.0018771728500723839,0.0026300735771656036,1.0021048784255981,0.0,0.0,0.0,-13.648292541503906,4.587533950805664,-0.7742778658866882,2470.3681640625,0
217.48400000000038,0.028233623132109642,-0.026035387068986893,2.602331733214669e-05,0.0,0.0,0.0,0.0,0.0005127796321175992,-0.0016031617997214198,-0.0007464573718607426,1.0024083852767944,0.0,0.0,0.0,-13.665430068969727,4.563723564147949,-0.7662765383720398,2473.47021484375,0
227.362000000001,0.02822321094572544,-0.025915779173374176,7.183861453086138e-05,0.0,0.0,0.0,0.0,0.00270731165073812,-0.003805877175182104,-0.0010634970385581255,1.0008312463760376,0.0,0.0,0.0,-13.639764785766602,4.588396072387695,-0.7787643074989319,2468.824462890625,0
237.26300000000083,0.028225703164935112,-0.02603418193757534,2.7122323444928043e-05,0.0,0.0,0.0,0.0,-5.266852167551406e-05,0.0003865604230668396,6.980625585129019e-06,1.0001529455184937,0.0,0.0,0.0,-13.657212257385254,4.564505100250244,-0.767322838306427,2471.982666015625,0
247.13300000000163,0.02818060852587223,-0.025936918333172798,0.00011550873023224995,0.0,0.0,0.0,0.0,-0.0011167395859956741,0.0035475785844027996,0.0022681201808154583,0.9994705319404602,0.0,0.0,0.0,-13.632017135620117,4.5858635902404785,-0.7635374665260315,2467.422119140625,0
257.02600000000166,0.028231102973222733,-0.02609243616461754,7.048135012155399e-05,0.0,0.0,0.0,0.0,0.002980229677632451,-0.0009665965335443616,0.004040862433612347,0.9971277713775635,0.0,0.0,0.0,-13.655003547668457,4.557094097137451,-0.7461236119270325,2471.582763671875,0
266.90400000000045,0.028239278122782707,-0.02594730816781521,0.00010621974797686562,0.0,0.0,0.0,0.0,-0.0017132642678916454,0.005503654479980469,-0.00049571756972,0.9999276399612427,0.0,0.0,0.0,-13.630250930786133,4.584039211273193,-0.7519367337226868,2467.1025390625,0
276.7990000000009,0.028244532644748688,-0.026077426970005035,5.687695011147298e-05,0.0,0.0,0.0,0.0,-0.0018078509019687772,0.0023870887234807014,0.0011505314614623785,1.0023192167282104,0.0,0.0,0.0,-13.651342391967773,4.559831619262695,-0.7451311945915222,2470.920166015625,0
286.6750000000011,0.02823346108198166,-0.02598649263381958,9.278679499402642e-05,0.0,0.0,0.0,0.0,-0.001940565649420023,0.003775621997192502,-0.0008739191689528525,0.9998335242271423,0.0,0.0,0.0,-13.628019332885742,4.5795698165893555,-0.7641943097114563,2466.69873046875,0
296.5680000000011,0.028201639652252197,-0.026089714840054512,5.194032928557135e-05,0.0,0.0,0.0,0.0,-0.0014731896808370948,0.0008617319981567562,0.0025897608138620853,0.9982995390892029,0.0,0.0,0.0,-13.657617568969727,4.561954498291016,-0.7678368091583252,2472.05615234375,0
306.4470000000001,0.028200019150972366,-0.025988420471549034,8.144937601173297e-05,0.0,0.0,0.0,0.0,2.971125468320679e-05,5.2719373343279585e-05,0.0003829968336503953,0.9992272257804871,0.0,0.0,0.0,-13.633954048156738,4.580996036529541,-0.7752400040626526,2467.772705078125,0
316.34000000000015,0.028289666399359703,-0.026137547567486763,4.811812686966732e-05,0.0,0.0,0.0,0.0,0.0028729208279401064,-1.6579624571022578e-05,0.0017504059942439198,1.0010875463485718,0.0,0.0,0.0,-13.651678085327148,4.566701889038086,-0.7373982071876526,2470.98095703125,0
326.21800000000076,0.02829279936850071,-0.026005156338214874,8.991944196168333e-05,0.0,0.0,0.0,0.0,0.0009664061944931746,-0.0033446361776441336,-0.001899154158309102,1.001136064529419,0.0,0.0,0.0,-13.627096176147461,4.595045566558838,-0.7507738471031189,2466.53173828125,0
336.112000000001,0.028257716447114944,-0.026105059310793877,4.2312865843996406e-05,0.0,0.0,0.0,0.0,-0.003950327634811401,-0.002168424194678664,0.0010981564410030842,1.0007941722869873,0.0,0.0,0.0,-13.650406837463379,4.574460983276367,-0.7467712163925171,2470.750732421875,0
345.9930000000004,0.02826455608010292,-0.02597181312739849,7.91026177466847e-05,0.0,0.0,0.0,0.0,0.0014152362709864974,0.0010784791084006429,0.005308257415890694,1.0000503063201904,0.0,0.0,0.0,-13.629659652709961,4.594636917114258,-0.735200047492981,2466.99560546875,0
355.884,0.028258346021175385,-0.02608971670269966,2.9011209335294552e-05,0.0,0.0,0.0,0.0,-0.0020144619047641754,-0.0019625872373580933,0.0008007439319044352,0.999514102935791,0.0,0.0,0.0,-13.652239799499512,4.580895900726318,-0.7204865217208862,2471.08251953125,0
365.76700000000164,0.0283126849681139,-0.025899004191160202,2.5422208636882715e-05,0.0,0.0,0.0,0.0,-0.0019987875130027533,0.007227163761854172,0.0002706775558181107,0.9990987777709961,0.0,0.0,0.0,-13.627717018127441,4.614857196807861,-0.7176109552383423,2466.64404296875,0
375.65500000000065,0.028287367895245552,-0.026006551459431648,-3.426190960453823e-05,0.0,0.0,0.0,0.0,0.000425968028139323,-0.0037248381413519382,-0.0021137308795005083,0.9982305765151978,0.0,0.0,0.0,-13.648866653442383,4.5940260887146,-0.7190762758255005,2470.47216796875,0
385.5350000000017,0.02826332300901413,-0.025908488780260086,2.7761070668930188e-05,0.0,0.0,0.0,0.0,0.0002803569659590721,0.0010953880846500397,-0.0027314021717756987,1.001658320426941,0.0,0.0,0.0,-13.622296333312988,4.613490104675293,-0.7292904853820801,2465.6630859375,0
395.4310000000005,0.028221992775797844,-0.026023952290415764,-4.232804349157959e-05,0.0,0.0,0.0,0.0,0.003285026177763939,0.0007213187636807561,0.00413851160556078,1.0017025470733643,0.0,0.0,0.0,-13.648452758789062,4.580626010894775,-0.7302091121673584,2470.39697265625,0
405.3110000000015,0.02826237678527832,-0.025843817740678787,-4.159915624768473e-05,0.0,0.0,0.0,0.0,-0.0008369361166842282,0.0003213933086954057,-0.0007014424772933125,0.9988446831703186,0.0,0.0,0.0,-13.629176139831543,4.608331680297852,-0.7457183599472046,2466.908203125,0
415.20400000000154,0.028240665793418884,-0.025846516713500023,-4.304247340769507e-05,0.0,0.0,0.0,0.0,0.00343452300876379,-0.005670915823429823,0.0003332379856146872,1.000052809715271,0.0,0.0,0.0,-13.614852905273438,4.6076812744140625,-0.7443405389785767,2464.315673828125,0
425.0750000000007,0.028188113123178482,-0.025776293128728867,4.4584914576262236e-05,0.0,0.0,0.0,0.0,0.002846379531547427,0.00018412711506243795,0.00278772902674973,1.0006290674209595,0.0,0.0,0.0,-13.593314170837402,4.618434906005859,-0.7558571696281433,2460.416748046875,0
434.96800000000076,0.02826034277677536,-0.025921296328306198,5.064705874247011e-06,0.0,0.0,0.0,0.0,-0.0015453497180715203,0.002451669191941619,-0.0012316525680944324,0.9989306926727295,0.0,0.0,0.0,-13.615971565246582,4.583467960357666,-0.7220689058303833,2464.51806640625,0
444.85000000000036,0.028191454708576202,-0.025889182463288307,0.00011598159471759573,0.0,0.0,0.0,0.0,-6.955931894481182e-05,-0.0044291066005826,0.0004101686645299196,0.9978269338607788,0.0,0.0,0.0,-13.589563369750977,4.583255767822266,-0.7329006791114807,2459.73779296875,0
454.7420000000002,0.028190527111291885,-0.026026658713817596,5.380921356845647e-05,0.0,0.0,0.0,0.0,0.0002233338018413633,0.0014047661097720265,-0.001362493960186839,0.9991171956062317,0.0,0.0,0.0,-13.615400314331055,4.555340766906738,-0.7204086780548096,2464.41455078125,0
464.6180000000004,0.02815992571413517,-0.025923170149326324,0.00014200119767338037,0.0,0.0,0.0,0.0,-0.0015680849319323897,-0.0008373096352443099,-0.0008796799229457974,1.002702236175537,0.0,0.0,0.0,-13.590517044067383,4.577181339263916,-0.7221531867980957,2459.91064453125,0
514.0550000000003,0.02829522080719471,-0.026159467175602913,5.078432513982989e-05,0.0,0.0,0.0,0.0,0.0002447670849505812,0.001948004006408155,-0.0014870763989165425,0.9997239708900452,0.0,0.0,0.0,-13.620012283325195,4.533804416656494,-0.6858258247375488,2465.249267578125,0
523.9340000000011,0.02836119756102562,-0.025957921519875526,4.984773840988055e-05,0.0,0.0,0.0,0.0,-0.0014524691505357623,0.002821287140250206,-0.00024473911616951227,0.9996882677078247,0.0,0.0,0.0,-13.599621772766113,4.5812249183654785,-0.682286262512207,2461.558349609375,0
533.8260000000009,0.028334366157650948,-0.026075851172208786,-7.150279543566285e-06,0.0,0.0,0.0,0.0,0.0011862717801705003,-0.0037323434371501207,-0.0026244816835969687,1.000008225440979,0.0,0.0,0.0,-13.635833740234375,4.5548319816589355,-0.6921402812004089,2468.113037109375,0
543.7040000000015,0.028369251638650894,-0.025904735550284386,1.703631096461322e-05,0.0,0.0,0.0,0.0,-0.002338885562494397,-0.0012428873451426625,0.0002002409310080111,0.9983612895011902,0.0,0.0,0.0,-13.612894058227539,4.585727214813232,-0.692171573638916,2463.9609375,0
553.5990000000002,0.028307445347309113,-0.026013432070612907,-5.638011862174608e-05,0.0,0.0,0.0,0.0,0.001449656207114458,0.001756798941642046,-0.002614893950521946,0.9984751343727112,0.0,0.0,0.0,-13.632771492004395,4.558243274688721,-0.688353955745697,2467.558837890625,0
563.4740000000002,0.028276819735765457,-0.02593439258635044,1.2555703506222926e-05,0.0,0.0,0.0,0.0,0.0021196119487285614,0.0027867911849170923,0.00018470357463229448,1.0002295970916748,0.0,0.0,0.0,-13.610193252563477,4.571580410003662,-0.6932345032691956,2463.471923828125,0
573.3690000000006,0.0283020231872797,-0.026068734005093575,-4.5107779442332685e-05,0.0,0.0,0.0,0.0,0.00024686058168299496,0.0024310678709298372,0.002877210034057498,0.9996311068534851,0.0,0.0,0.0,-13.637164115905762,4.542377471923828,-0.6870757937431335,2468.353759765625,0
583.246000000001,0.028292963281273842,-0.025956109166145325,1.3918624972575344e-05,0.0,0.0,0.0,0.0,-0.0020616501569747925,-0.0023261564783751965,0.0012214548187330365,0.9997017979621887,0.0,0.0,0.0,-13.613341331481934,4.558980464935303,-0.7023891806602478,2464.0419921875,0
593.139000000001,0.028228824958205223,-0.026077214628458023,-6.48397472104989e-05,0.0,0.0,0.0,0.0,0.0016619357047602534,-0.0014316996093839407,-0.0014490112662315369,0.9999691843986511,0.0,0.0,0.0,-13.645054817199707,4.540608882904053,-0.6979700326919556,2469.781982421875,0
603.018,0.028229091316461563,-0.02596239559352398,-2.0977817257517017e-05,0.0,0.0,0.0,0.0,-0.0026436331681907177,-0.006389045622199774,-0.0014114276273176074,1.0013444423675537,0.0,0.0,0.0,-13.622035026550293,4.561633110046387,-0.6994064450263977,2465.615478515625,0
612.9140000000007,0.028269091621041298,-0.026084229350090027,-6.199939525686204e-05,0.0,0.0,0.0,0.0,0.0025703338906168938,0.0037955252919346094,0.0003787845198530704,1.0003410577774048,0.0,0.0,0.0,-13.657862663269043,4.547878742218018,-0.6659072637557983,2472.1005859375,0
622.8000000000011,0.028265180066227913,-0.025962747633457184,-7.961298251757398e-06,0.0,0.0,0.0,0.0,-0.0011056504445150495,0.0031761827412992716,0.0014132518554106355,1.0000451803207397,0.0,0.0,0.0,-13.633549690246582,4.570141315460205,-0.6660095453262329,2467.69970703125,0
632.6840000000011,0.028210509568452835,-0.02608487941324711,-8.565091411583126e-05,0.0,0.0,0.0,0.0,-0.0004869284457527101,-0.004533607047051191,-0.0011768481926992536,1.0002987384796143,0.0,0.0,0.0,-13.660984992980957,4.540310859680176,-0.6737749576568604,2472.665283203125,0
642.5650000000005,0.028200430795550346,-0.025968220084905624,-2.67567447735928e-05,0.0,0.0,0.0,0.0,0.0028205905109643936,0.0006363946595229208,-0.0012111725518479943,1.0005829334259033,0.0,0.0,0.0,-13.63693618774414,4.560963153839111,-0.6687494516372681,2468.3125,0
652.4540000000015,0.028203396126627922,-0.02607555314898491,-7.056123286020011e-05,0.0,0.0,0.0,0.0,0.0019081815844401717,0.006313353776931763,-0.0005368220736272633,0.99897301197052,0.0,0.0,0.0,-13.65783977508545,4.539209365844727,-0.6543542146682739,2472.09619140625,0
662.3310000000001,0.028161367401480675,-0.026002179831266403,1.8156031728722155e-05,0.0,0.0,0.0,0.0,-0.000419210409745574,0.0008854013285599649,0.0005014041671529412,0.9990624785423279,0.0,0.0,0.0,-13.630621910095215,4.552018642425537,-0.6733815670013428,2467.169677734375,0
672.2250000000004,0.028246808797121048,-0.026143720373511314,-1.2227646948304027e-05,0.0,0.0,0.0,0.0,-0.0007257985998876393,-0.0008108447073027492,-0.0018220583442598581,0.9990195035934448,0.0,0.0,0.0,-13.65125560760498,4.529012680053711,-0.6734880805015564,2470.904296875,0
682.1020000000008,0.028256146237254143,-0.026018431410193443,3.341754563734867e-05,0.0,0.0,0.0,0.0,0.0010992847383022308,-0.001982408342882991,0.0006187026156112552,1.0002853870391846,0.0,0.0,0.0,-13.636595726013184,4.524682521820068,-0.6682339906692505,2468.2509765625,0
692.0010000000002,0.028259152546525,-0.02612479031085968,-6.2783587964077014e-06,0.0,0.0,0.0,0.0,0.0009597968310117722,5.77501195948571e-05,0.0032965911086648703,0.9985082745552063,0.0,0.0,0.0,-13.659549713134766,4.502134323120117,-0.6663207411766052,2472.405517578125,0
701.8760000000002,0.028253108263015747,-0.02602396160364151,4.65422090201173e-05,0.0,0.0,0.0,0.0,7.673646177863702e-05,-0.0015456362161785364,-0.0001316601992584765,1.0003881454467773,0.0,0.0,0.0,-13.633828163146973,4.5285186767578125,-0.6647126078605652,2467.75,0
711.7670000000016,0.02825106680393219,-0.02612585946917534,8.023576810956001e-06,0.0,0.0,0.0,0.0,0.002533305436372757,-0.006673194468021393,-0.0017963513964787126,1.0009713172912598,0.0,0.0,0.0,-13.653387069702148,4.502252578735352,-0.6600516438484192,2471.290283203125,0
721.6470000000008,0.02821126952767372,-0.026054691523313522,9.595571464160457e-05,0.0,0.0,0.0,0.0,0.0002525834133848548,3.29265785694588e-05,0.0005327368853613734,1.0003135204315186,0.0,0.0,0.0,-13.6286039352417,4.5133771896362305,-0.6747938394546509,2466.8046875,0
731.5380000000005,0.028218744322657585,-0.026158899068832397,6.549270619871095e-05,0.0,0.0,0.0,0.0,-0.0016618127701804042,-0.0011248734081164002,0.001340486342087388,1.0002955198287964,0.0,0.0,0.0,-13.65170669555664,4.491169452667236,-0.6650803089141846,2470.986083984375,0
741.4180000000015,0.028207596391439438,-0.026052352041006088,0.00013730536738876253,0.0,0.0,0.0,0.0,0.0030606919899582863,0.00018199671467300504,0.0007891918066889048,1.001785397529602,0.0,0.0,0.0,-13.62678050994873,4.516651153564453,-0.6734165549278259,2466.474609375,0
751.3250000000007,0.028247011825442314,-0.026200026273727417,9.160446643363684e-05,0.0,0.0,0.0,0.0,0.00011913747584912926,-0.0008250067476183176,0.002482345327734947,1.0004932880401611,0.0,0.0,0.0,-13.644720077514648,4.489585876464844,-0.6577853560447693,2469.7216796875,0
761.1880000000001,0.028289474546909332,-0.026029789820313454,0.00012089270603610203,0.0,0.0,0.0,0.0,0.0015713544562458992,-0.004624152556061745,-0.0007575940690003335,1.0002528429031372,0.0,0.0,0.0,-13.618847846984863,4.528675079345703,-0.6499241590499878,2465.038818359375,0
771.0820000000003,0.0282917357981205,-0.02616703510284424,6.594668957404792e-05,0.0,0.0,0.0,0.0,0.0019266433082520962,0.006597122643142939,-0.0008900618413463235,0.9994242191314697,0.0,0.0,0.0,-13.637160301208496,4.500686168670654,-0.6452391743659973,2468.353271484375,0
780.9590000000007,0.028320031240582466,-0.026021331548690796,0.00010854253923753276,0.0,0.0,0.0,0.0,-0.00040106032975018024,0.0007940593059174716,0.0019407360814511776,1.0009393692016602,0.0,0.0,0.0,-13.611078262329102,4.525928497314453,-0.6568689346313477,2463.63232421875,0
790.853000000001,0.02826192043721676,-0.026114948093891144,5.81305539526511e-05,0.0,0.0,0.0,0.0,-0.003108499338850379,0.004401435609906912,-0.0007225421722978354,1.0013574361801147,0.0,0.0,0.0,-13.63598346710205,4.496729373931885,-0.6719176173210144,2468.14013671875,0
800.7310000000016,0.02828144282102585,-0.025988776236772537,0.0001008070248644799,0.0,0.0,0.0,0.0,0.0013126131379976869,-0.000634829280897975,0.0030599881429225206,0.9996185898780823,0.0,0.0,0.0,-13.611533164978027,4.523841381072998,-0.6815683245658875,2463.714599609375,0
810.6290000000008,0.02826458029448986,-0.02609735168516636,5.573577800532803e-05,0.0,0.0,0.0,0.0,-0.00025764471502043307,-0.001540982280857861,0.0007649178151041269,0.9985436201095581,0.0,0.0,0.0,-13.632280349731445,4.506332874298096,-0.6801431775093079,2467.469970703125,0
820.514000000001,0.028284266591072083,-0.025969525799155235,9.465669427299872e-05,0.0,0.0,0.0,0.0,-0.001838754746131599,0.0005755051970481873,0.0020929803140461445,0.9996891021728516,0.0,0.0,0.0,-13.607244491577148,4.534535884857178,-0.683013916015625,2462.938232421875,0
830.3950000000004,0.028256434947252274,-0.026071354746818542,5.0027447286993265e-05,0.0,0.0,0.0,0.0,-0.0030938738491386175,-0.0006799488328397274,-0.0015798644162714481,0.9992893934249878,0.0,0.0,0.0,-13.629316329956055,4.520044326782227,-0.6742033362388611,2466.933349609375,0
840.277,0.028269851580262184,-0.02594374679028988,9.131555270869285e-05,0.0,0.0,0.0,0.0,0.0036936216056346893,0.0014508271124213934,-0.0023747715167701244,0.9988764524459839,0.0,0.0,0.0,-13.605278968811035,4.547467231750488,-0.6785725951194763,2462.582275390625,0
850.1800000000003,0.028241384774446487,-0.026042969897389412,4.7239525883924216e-05,0.0,0.0,0.0,0.0,0.0005656787543557584,0.005667896941304207,-0.003328501246869564,1.0005085468292236,0.0,0.0,0.0,-13.628060340881348,4.528091907501221,-0.6865659356117249,2466.7060546875,0
860.0450000000001,0.028252193704247475,-0.025914866477251053,8.146819891408086e-05,0.0,0.0,0.0,0.0,-0.0008921401458792388,0.005271783098578453,-0.002573822857812047,1.001630425453186,0.0,0.0,0.0,-13.604316711425781,4.556602954864502,-0.6975887417793274,2462.408447265625,0
869.9459999999999,0.028245842084288597,-0.026042617857456207,2.344440872548148e-05,0.0,0.0,0.0,0.0,-0.0009894771501421928,-0.0022215296048671007,0.003366346936672926,1.0011862516403198,0.0,0.0,0.0,-13.623880386352539,4.527570724487305,-0.7043512463569641,2465.94970703125,0
879.8170000000009,0.02824714034795761,-0.02593420445919037,6.195650348672643e-05,0.0,0.0,0.0,0.0,-0.0027573949191719294,0.001235254225321114,0.00012878960114903748,0.9991934299468994,0.0,0.0,0.0,-13.601263999938965,4.549886703491211,-0.7058296203613281,2461.85595703125,0
889.7110000000011,0.028216203674674034,-0.026077214628458023,-1.2177807548141573e-05,0.0,0.0,0.0,0.0,-0.00132395897526294,0.004806764889508486,0.0028835684061050415,0.9985677599906921,0.0,0.0,0.0,-13.619863510131836,4.5270490646362305,-0.6964805126190186,2465.22265625,0
899.5880000000016,0.028207501396536827,-0.025998659431934357,2.5658231606939808e-05,0.0,0.0,0.0,0.0,0.0011803077068179846,0.0016129608266055584,0.0008215580019168556,1.0003256797790527,0.0,0.0,0.0,-13.59776496887207,4.544733047485352,-0.7133350372314453,2461.22265625,0
909.4810000000016,0.028258608654141426,-0.026139579713344574,-1.990822966035921e-05,0.0,0.0,0.0,0.0,-0.0017998125404119492,0.0026131276972591877,-0.004113473929464817,0.9984433054924011,0.0,0.0,0.0,-13.61948013305664,4.512686252593994,-0.7139704823493958,2465.153076171875,0
919.3600000000006,0.02826719544827938,-0.026004645973443985,2.2953952793614008e-05,0.0,0.0,0.0,0.0,0.0006522522890008986,-0.002857890445739031,-0.0018835552036762238,0.9977388978004456,0.0,0.0,0.0,-13.592792510986328,4.541097164154053,-0.7249336242675781,2460.322265625,0
929.2620000000006,0.02822653204202652,-0.026126349344849586,-2.7009667974198237e-05,0.0,0.0,0.0,0.0,0.002714393427595496,-0.00024335815396625549,-0.0005221095634624362,0.999808132648468,0.0,0.0,0.0,-13.603920936584473,4.519980430603027,-0.7139639854431152,2462.336669921875,0
939.130000000001,0.028275921940803528,-0.025963665917515755,-1.672918733675033e-05,0.0,0.0,0.0,0.0,0.004407398868352175,0.0005009503220207989,0.003903884207829833,0.9993987083435059,0.0,0.0,0.0,-13.593667984008789,4.555014610290527,-0.7149753570556641,2460.480712890625,0
949.0240000000013,0.028279274702072144,-0.026116572320461273,-7.914056914160028e-05,0.0,0.0,0.0,0.0,-0.00041236032848246396,-0.0010792999528348446,-0.0024198698811233044,0.9995421171188354,0.0,0.0,0.0,-13.60083293914795,4.5117292404174805,-0.7023162841796875,2461.777587890625,0
958.902,0.028316659852862358,-0.025961505249142647,-5.5017702834447846e-05,0.0,0.0,0.0,0.0,-1.1261741747148335e-05,-0.0023889257572591305,0.0007952306186780334,0.998956024646759,0.0,0.0,0.0,-13.588367462158203,4.544717788696289,-0.7046736478805542,2459.521484375,0
968.7960000000003,0.028267379850149155,-0.02613888680934906,-0.0001592170010553673,0.0,0.0,0.0,0.0,0.00247425539419055,0.004335947334766388,0.002972905058413744,0.9979790449142456,0.0,0.0,0.0,-13.609638214111328,4.514768123626709,-0.6860548853874207,2463.371337890625,0
978.6740000000009,0.028268156573176384,-0.026000620797276497,-8.765800157561898e-05,0.0,0.0,0.0,0.0,-0.003052280517295003,-0.0037392100784927607,0.00041055286419577897,1.0016225576400757,0.0,0.0,0.0,-13.60069751739502,4.543406963348389,-0.6938295960426331,2461.75341796875,0
988.5720000000001,0.028224868699908257,-0.026044003665447235,-0.00010567205026745796,0.0,0.0,0.0,0.0,0.0027870414778590202,0.001266973908059299,0.0013022699858993292,1.002495288848877,0.0,0.0,0.0,-13.572305679321289,4.533787250518799,-0.7018547058105469,2456.6142578125,0
998.4450000000015,0.028211558237671852,-0.02591126784682274,-1.631274790270254e-05,0.0,0.0,0.0,0.0,0.001020672032609582,0.0013591808965429664,3.480446321191266e-05,1.0016299486160278,0.0,0.0,0.0,-13.562249183654785,4.5661797523498535,-0.7140144109725952,2454.794189453125,0
1008.3389999999999,0.02820385806262493,-0.026053536683321,-5.954756124992855e-05,0.0,0.0,0.0,0.0,-0.0024750742595642805,5.009137385059148e-05,-0.002629850758239627,1.0014938116073608,0.0,0.0,0.0,-13.568306922912598,4.533214092254639,-0.6962195634841919,2455.890625,0
1018.2200000000012,0.028170088306069374,-0.025975482538342476,3.648554047686048e-05,0.0,0.0,0.0,0.0,0.0007348879589699209,0.0025898776948451996,-0.0019075924064964056,0.9994184374809265,0.0,0.0,0.0,-13.557169914245605,4.549942970275879,-0.7074940800666809,2453.874755859375,0
1028.1140000000014,0.02818288654088974,-0.026129579171538353,1.21800276247086e-05,0.0,0.0,0.0,0.0,-0.0024903679732233286,0.001578672556206584,0.0010021127527579665,0.9979258179664612,0.0,0.0,0.0,-13.567509651184082,4.527329444885254,-0.6915863156318665,2455.74609375,0
1037.987000000001,0.02821085788309574,-0.02598164603114128,5.0241589633515105e-05,0.0,0.0,0.0,0.0,-0.0031132742296904325,-0.001030588522553444,0.0013616625219583511,0.9990701079368591,0.0,0.0,0.0,-13.567509651184082,4.527329444885254,-0.6915863156318665,2455.74609375,0
1047.889000000001,0.028155803680419922,-0.026138849556446075,-4.269498276698869e-06,0.0,0.0,0.0,0.0,0.00018870417261496186,0.002921311417594552,0.0011638274881988764,1.0005035400390625,0.0,0.0,0.0,-13.588972091674805,4.489500045776367,-0.6846754550933838,2459.631103515625,0
1057.7600000000002,0.0281978789716959,-0.025968804955482483,2.194257831433788e-05,0.0,0.0,0.0,0.0,-0.002429740969091654,-0.002967202803120017,0.0003584552323445678,1.001932978630066,0.0,0.0,0.0,-13.576260566711426,4.525657653808594,-0.6872577667236328,2457.330078125,0
1067.6540000000005,0.028139814734458923,-0.026128338649868965,-4.123678445466794e-05,0.0,0.0,0.0,0.0,0.001166354981251061,-0.00013948291598353535,0.00017368275439366698,0.9995947480201721,0.0,0.0,0.0,-13.596834182739258,4.495855331420898,-0.6799716949462891,2461.053955078125,0
1077.5300000000007,0.028124121949076653,-0.026027703657746315,3.620466304710135e-05,0.0,0.0,0.0,0.0,-0.0008316419553011656,0.0012803742429241538,0.0039555588737130165,0.9993991851806641,0.0,0.0,0.0,-13.58838939666748,4.515836238861084,-0.6879917979240417,2459.525390625,0
1087.429,0.02815408818423748,-0.026184547692537308,2.479693284840323e-05,0.0,0.0,0.0,0.0,-0.0004484157543629408,-0.0015495836269110441,-0.0003163302899338305,1.0015614032745361,0.0,0.0,0.0,-13.605785369873047,4.498335361480713,-0.6615394353866577,2462.67431640625,0
1097.3020000000015,0.02820379100739956,-0.026000715792179108,4.587281364365481e-05,0.0,0.0,0.0,0.0,0.0016988019924610853,0.001917388872243464,0.002483246847987175,1.0007349252700806,0.0,0.0,0.0,-13.5966796875,4.536640167236328,-0.6640166640281677,2461.02587890625,0
1107.205,0.02819940075278282,-0.026140859350562096,2.7765412596636452e-05,0.0,0.0,0.0,0.0,-0.0016258517280220985,0.004345824476331472,0.0015255243051797152,1.0004844665527344,0.0,0.0,0.0,-13.608707427978516,4.5179123878479,-0.6483613848686218,2463.203125,0
1117.0780000000013,0.028242267668247223,-0.02596605010330677,5.418318323791027e-05,0.0,0.0,0.0,0.0,-0.0004500203940551728,-0.0020318373572081327,-0.00019290541240479797,1.0017892122268677,0.0,0.0,0.0,-13.598694801330566,4.554026126861572,-0.6512534618377686,2461.390869140625,0
1126.9680000000008,0.028171157464385033,-0.026119740679860115,9.805353329284117e-08,0.0,0.0,0.0,0.0,-0.0002756250323727727,0.0011547639733180404,0.0030891753267496824,1.001965880393982,0.0,0.0,0.0,-13.621252059936523,4.533886432647705,-0.6478691697120667,2465.473876953125,0
1136.844000000001,0.028197553008794785,-0.02597425878047943,3.6353463656269014e-05,0.0,0.0,0.0,0.0,0.00024347197904717177,-0.003949316684156656,0.0015910683432593942,1.0012452602386475,0.0,0.0,0.0,-13.611032485961914,4.564156532287598,-0.6516498327255249,2463.624267578125,0
1146.7490000000016,0.028210120275616646,-0.026136647909879684,1.208659159601666e-05,0.0,0.0,0.0,0.0,0.0027883779257535934,-0.00010164846753468737,-0.0024768344592303038,1.0022422075271606,0.0,0.0,0.0,-13.616546630859375,4.534189224243164,-0.6281067728996277,2464.6220703125,0
1156.616,0.02823798917233944,-0.02598699927330017,4.862805508309975e-05,0.0,0.0,0.0,0.0,-0.0012698948848992586,-0.0031980748753994703,-0.0020035142078995705,1.0005813837051392,0.0,0.0,0.0,-13.607989311218262,4.5652666091918945,-0.6320357918739319,2463.072998046875,0
1166.518,0.02825298346579075,-0.026155874133110046,1.8321952666155994e-05,0.0,0.0,0.0,0.0,0.003793344832956791,0.0016742281150072813,0.0022505768574774265,1.0012948513031006,0.0,0.0,0.0,-13.621179580688477,4.534398078918457,-0.6075626015663147,2465.460693359375,0
1176.393,0.028276413679122925,-0.026005350053310394,6.182622018968686e-05,0.0,0.0,0.0,0.0,0.0015178072499111295,0.004935536999255419,0.000821098277810961,0.9996806979179382,0.0,0.0,0.0,-13.612215042114258,4.565769672393799,-0.6122248768806458,2463.838134765625,0
1186.286,0.02826440893113613,-0.02617323026061058,2.1002959329052828e-05,0.0,0.0,0.0,0.0,-0.0019233962520956993,-0.002593922195956111,-0.0006950938841328025,0.999652087688446,0.0,0.0,0.0,-13.621119499206543,4.5262885093688965,-0.6161734461784363,2465.449951171875,0
1196.1590000000015,0.02829112857580185,-0.026018178090453148,6.180499622132629e-05,0.0,0.0,0.0,0.0,0.003312097629532218,0.007534409407526255,0.005395873449742794,1.0010031461715698,0.0,0.0,0.0,-13.610424041748047,4.558828830718994,-0.6204607486724854,2463.513916015625,0
1206.0690000000013,0.028188759461045265,-0.026145216077566147,1.2457820048439316e-05,0.0,0.0,0.0,0.0,0.003621004056185484,0.0011741078924387693,-0.0015802562702447176,1.0039148330688477,0.0,0.0,0.0,-13.629251480102539,4.517239570617676,-0.6504450440406799,2466.921875,0
1215.9300000000003,0.028217798098921776,-0.025984907522797585,5.273353599477559e-05,0.0,0.0,0.0,0.0,-0.0024193949066102505,-0.002208197023719549,0.0018618779722601175,1.0016157627105713,0.0,0.0,0.0,-13.61616325378418,4.550772666931152,-0.6545418500900269,2464.552978515625,0
1225.83,0.028247985988855362,-0.02613295242190361,3.576809831429273e-05,0.0,0.0,0.0,0.0,0.00209724809974432,-8.719541801838204e-05,0.0017405289690941572,1.0040221214294434,0.0,0.0,0.0,-13.629755020141602,4.524041175842285,-0.6390053033828735,2467.0126953125,0
1235.701000000001,0.028273966163396835,-0.025974104180932045,8.008388249436393e-05,0.0,0.0,0.0,0.0,-0.005231065209954977,-0.0025532448198646307,0.0021202843636274338,1.0024559497833252,0.0,0.0,0.0,-13.61479377746582,4.557197570800781,-0.6434088349342346,2464.3046875,0
1245.5960000000014,0.02826717495918274,-0.026095107197761536,7.08352163201198e-05,0.0,0.0,0.0,0.0,-0.0008087569149211049,0.0020347735844552517,0.0029404968954622746,1.0011850595474243,0.0,0.0,0.0,-13.621684074401855,4.530394077301025,-0.620877742767334,2465.55224609375,0
1255.473,0.02829340659081936,-0.025955108925700188,0.00010430166003061458,0.0,0.0,0.0,0.0,0.00208059954456985,-0.004213280510157347,0.001008442253805697,1.0015788078308105,0.0,0.0,0.0,-13.609777450561523,4.56007194519043,-0.6242519617080688,2463.396728515625,0
1265.3780000000006,0.0281833428889513,-0.026084719225764275,5.272276030154899e-05,0.0,0.0,0.0,0.0,0.0013315050164237618,-0.0029011007864028215,-0.0003219853388145566,0.9981377124786377,0.0,0.0,0.0,-13.63189697265625,4.527032852172852,-0.6210206151008606,2467.400390625,0
1275.2440000000006,0.028217317536473274,-0.025930169969797134,8.193957182811573e-05,0.0,0.0,0.0,0.0,-0.002142371376976371,0.0023228884674608707,-0.0009230103460140526,0.9979668259620667,0.0,0.0,0.0,-13.620628356933594,4.559883117675781,-0.6240476965904236,2465.361083984375,0
1285.143,0.02818593569099903,-0.025943927466869354,0.0001192094714497216,0.0,0.0,0.0,0.0,-0.000912517833057791,0.0025808343198150396,0.0020647544879466295,0.9987548589706421,0.0,0.0,0.0,-13.594326972961426,4.551758289337158,-0.6282138228416443,2460.60009765625,0
1295.018,0.02819490060210228,-0.025822186842560768,0.00016704625159036368,0.0,0.0,0.0,0.0,0.0008341734646819532,0.00391989853233099,-0.00048750994028523564,1.0032724142074585,0.0,0.0,0.0,-13.585200309753418,4.58317756652832,-0.6329689621925354,2458.9482421875,0
1304.916000000001,0.028140340000391006,-0.025960277765989304,0.00010754472168628126,0.0,0.0,0.0,0.0,-0.0010382219916209579,-0.0013156123459339142,0.0014761567581444979,1.0009440183639526,0.0,0.0,0.0,-13.607860565185547,4.544867515563965,-0.645412266254425,2463.0498046875,0
1314.7870000000003,0.028194662183523178,-0.0258262287825346,9.716096974443644e-05,0.0,0.0,0.0,0.0,0.002854036632925272,-0.0010150172747671604,-0.001070329686626792,1.0010300874710083,0.0,0.0,0.0,-13.596707344055176,4.578667163848877,-0.641829788684845,2461.031005859375,0
1324.6810000000005,0.028203491121530533,-0.025990799069404602,4.081986844539642e-05,0.0,0.0,0.0,0.0,-0.001549253356643021,-0.0002934474323410541,-0.001205758424475789,1.000905156135559,0.0,0.0,0.0,-13.606507301330566,4.537225723266602,-0.6160001158714294,2462.804931640625,0
1334.559000000001,0.028268517926335335,-0.02580478973686695,4.219937545713037e-05,0.0,0.0,0.0,0.0,-0.0033406030852347612,-0.0065014418214559555,-0.0011262728367000818,1.0005710124969482,0.0,0.0,0.0,-13.595403671264648,4.579368591308594,-0.615465521812439,2460.795166015625,0
1344.4590000000007,0.028232764452695847,-0.025806710124015808,6.476898852270097e-05,0.0,0.0,0.0,0.0,-0.0007952696178108454,0.002661307342350483,0.0005751960561610758,1.0002450942993164,0.0,0.0,0.0,-13.568462371826172,4.571483612060547,-0.603570818901062,2455.918701171875,0
1354.3310000000001,0.028208822011947632,-0.0257452093064785,0.00013801657769363374,0.0,0.0,0.0,0.0,0.0026311769615858793,0.0022634731139987707,-0.0017838305793702602,1.000925898551941,0.0,0.0,0.0,-13.559880256652832,4.58531379699707,-0.6143226623535156,2454.365478515625,0
1364.2250000000004,0.028226250782608986,-0.02598632127046585,2.8874381314381026e-05,0.0,0.0,0.0,0.0,0.002161255106329918,0.0022997839841991663,9.05493798200041e-05,0.9997950196266174,0.0,0.0,0.0,-13.580869674682617,4.5270209312438965,-0.5924767851829529,2458.164306640625,0
1374.1060000000016,0.028230881318449974,-0.025876542553305626,8.445078856311738e-05,0.0,0.0,0.0,0.0,0.0014191477093845606,0.0014740900369361043,0.002073876792564988,1.0002700090408325,0.0,0.0,0.0,-13.580869674682617,4.5270209312438965,-0.5924767851829529,2458.164306640625,0
1383.9980000000014,0.02827162854373455,-0.02606063336133957,3.2019328500609845e-05,0.0,0.0,0.0,0.0,-0.0015581382904201746,0.004954362753778696,-0.0026717374566942453,1.0000827312469482,0.0,0.0,0.0,-13.594438552856445,4.486522674560547,-0.5964410305023193,2460.620361328125,0
1393.8720000000012,0.028268011286854744,-0.025982268154621124,8.002063987078145e-05,0.0,0.0,0.0,0.0,0.001481944345869124,0.003880151314660907,0.000915324897505343,1.0016419887542725,0.0,0.0,0.0,-13.586931228637695,4.503302097320557,-0.6013567447662354,2459.261474609375,0
1403.7720000000008,0.02826680801808834,-0.026142694056034088,3.814036608673632e-05,0.0,0.0,0.0,0.0,-0.0021326933056116104,-0.003179093124344945,0.0024510284420102835,1.0001713037490845,0.0,0.0,0.0,-13.59763240814209,4.468432903289795,-0.6203112006187439,2461.1982421875,0
1413.6440000000002,0.028240319341421127,-0.02604864537715912,0.00012907780183013529,0.0,0.0,0.0,0.0,0.004810232203453779,0.0012424931628629565,-0.001029633218422532,1.000071406364441,0.0,0.0,0.0,-13.58186149597168,4.486743450164795,-0.6291729807853699,2458.343994140625,0
1423.5380000000005,0.02825828827917576,-0.026197737082839012,0.00011807520786533132,0.0,0.0,0.0,0.0,0.0008206889033317566,0.004205858800560236,-0.00024738669162616134,1.00200355052948,0.0,0.0,0.0,-13.593060493469238,4.453255653381348,-0.6344555616378784,2460.370849609375,0
1433.4170000000013,0.028305647894740105,-0.02601698599755764,0.0001410445402143523,0.0,0.0,0.0,0.0,-0.0029963527340441942,0.0014458788791671395,0.0009889616630971432,1.0009046792984009,0.0,0.0,0.0,-13.582430839538574,4.490635871887207,-0.6371710896492004,2458.447021484375,0
1443.309000000001,0.028257625177502632,-0.02618349902331829,8.986953616840765e-05,0.0,0.0,0.0,0.0,-0.002125578001141548,0.0015122140757739544,-0.0006326092989183962,1.0028207302093506,0.0,0.0,0.0,-13.595937728881836,4.456690311431885,-0.6394678950309753,2460.891845703125,0
1453.1870000000017,0.028301462531089783,-0.02601124532520771,0.00011354609159752727,0.0,0.0,0.0,0.0,0.0006718621589243412,0.0031161524821072817,0.002819039626047015,1.0006047487258911,0.0,0.0,0.0,-13.588662147521973,4.4923882484436035,-0.642412006855011,2459.57470703125,0
1463.089,0.028264105319976807,-0.026176225394010544,7.089401333360001e-05,0.0,0.0,0.0,0.0,-7.990158337634057e-05,0.004084174986928701,-0.0013987672282382846,0.9985234141349792,0.0,0.0,0.0,-13.608419418334961,4.46400260925293,-0.641394853591919,2463.151123046875,0
1472.9680000000008,0.0282956101000309,-0.02602073736488819,0.00010469347762409598,0.0,0.0,0.0,0.0,-0.00041781971231102943,0.0022209605667740107,0.002914588898420334,0.9992969632148743,0.0,0.0,0.0,-13.598027229309082,4.496520042419434,-0.6450873017311096,2461.269775390625,0
1482.8540000000012,0.028304284438490868,-0.02615814469754696,6.599292100872844e-05,0.0,0.0,0.0,0.0,0.0005495540681295097,0.0019746331963688135,-0.0027463329024612904,1.0022406578063965,0.0,0.0,0.0,-13.636934280395508,4.470946788787842,-0.6404662728309631,2468.312255859375,0
1492.7290000000012,0.028317520394921303,-0.02601410448551178,0.00011049659224227071,0.0,0.0,0.0,0.0,0.00031357762054540217,-0.0031888179946690798,0.0010902027133852243,1.001766562461853,0.0,0.0,0.0,-13.61118221282959,4.497945308685303,-0.647459864616394,2463.651123046875,0
1502.6230000000014,0.02829205058515072,-0.026143230497837067,5.637109643430449e-05,0.0,0.0,0.0,0.0,0.00033334281761199236,0.0029629177879542112,-0.0009829025948420167,0.9983409643173218,0.0,0.0,0.0,-13.632822036743164,4.471948623657227,-0.6414863467216492,2467.56787109375,0
1512.5030000000006,0.02826208434998989,-0.026056718081235886,0.00013620023673865944,0.0,0.0,0.0,0.0,0.0005075270310044289,0.000800162204541266,-0.00021447680774144828,0.9992440938949585,0.0,0.0,0.0,-13.604569435119629,4.489209175109863,-0.6658194661140442,2462.453857421875,0
1522.4010000000017,0.028239475563168526,-0.026076098904013634,0.00015078730939421803,0.0,0.0,0.0,0.0,0.0038726504426449537,0.0017915787175297737,0.00012372186756692827,0.9993218183517456,0.0,0.0,0.0,-13.589445114135742,4.484537124633789,-0.6690475940704346,2459.716552734375,0
1532.2810000000009,0.028242353349924088,-0.025933625176548958,0.0002038547390839085,0.0,0.0,0.0,0.0,0.0022061639465391636,0.005436431150883436,0.0025834597181528807,0.9998654723167419,0.0,0.0,0.0,-13.565030097961426,4.517155170440674,-0.6765824556350708,2455.29736328125,0
1542.1690000000017,0.028274767100811005,-0.02610408142209053,0.0001373746490571648,0.0,0.0,0.0,0.0,0.001328011741861701,-0.00032924165134318173,-0.0029493109323084354,1.0022670030593872,0.0,0.0,0.0,-13.592351913452148,4.481150150299072,-0.660240888595581,2460.24267578125,0
1552.0480000000007,0.028296712785959244,-0.0259610153734684,0.00017088136519305408,0.0,0.0,0.0,0.0,0.00045377714559435844,0.00027706343098543584,-0.0025475220754742622,1.0019289255142212,0.0,0.0,0.0,-13.56923770904541,4.519461154937744,-0.6666035056114197,2456.05908203125,0
1561.9430000000011,0.028276987373828888,-0.025971749797463417,0.00018439310952089727,0.0,0.0,0.0,0.0,-0.0014177492121234536,-0.0051724170334637165,-0.001642716582864523,1.0018330812454224,0.0,0.0,0.0,-13.556672096252441,4.511075019836426,-0.6614314317703247,2453.78466796875,0
1571.8160000000007,0.028270553797483444,-0.025852106511592865,0.0002457035589031875,0.0,0.0,0.0,0.0,0.00296181533485651,-0.001088233315385878,-0.0015518132131546736,0.9987817406654358,0.0,0.0,0.0,-13.535175323486328,4.541570663452148,-0.6547518372535706,2449.8935546875,0
1581.7210000000014,0.02821529284119606,-0.026017995551228523,0.00013111077714711428,0.0,0.0,0.0,0.0,0.003066169796511531,0.001155781326815486,0.0003415005630813539,1.0001277923583984,0.0,0.0,0.0,-13.562623977661133,4.501668930053711,-0.6479721665382385,2454.86181640625,0
1591.5950000000012,0.02822585590183735,-0.02589123137295246,0.0001654784136917442,0.0,0.0,0.0,0.0,-0.0016944119706749916,-0.0027768665459007025,-0.0020777119789272547,1.0002418756484985,0.0,0.0,0.0,-13.539496421813965,4.5284857749938965,-0.6566582322120667,2450.676025390625,0
1601.4840000000004,0.02814403921365738,-0.026002921164035797,9.555338328937069e-05,0.0,0.0,0.0,0.0,-0.0007653716020286083,-0.004960638005286455,-0.0010743184247985482,0.9990662336349487,0.0,0.0,0.0,-13.579728126525879,4.5022125244140625,-0.6473134160041809,2457.957763671875,0
1611.3590000000004,0.028109904378652573,-0.02591673657298088,0.0001642831921344623,0.0,0.0,0.0,0.0,0.0018600624753162265,0.00950000248849392,-0.0027314340695738792,1.0007833242416382,0.0,0.0,0.0,-13.553622245788574,4.5186543464660645,-0.6535205841064453,2453.232666015625,0
1621.255000000001,0.0281943641602993,-0.02607102505862713,0.00012865549069829285,0.0,0.0,0.0,0.0,0.0014383282978087664,-7.712971273576841e-05,-0.0015551652759313583,1.001784324645996,0.0,0.0,0.0,-13.580547332763672,4.492181301116943,-0.6450454592704773,2458.106201171875,0
1631.1320000000014,0.028204355388879776,-0.025947753340005875,0.0001547356223454699,0.0,0.0,0.0,0.0,0.000764699128922075,-0.005325678735971451,0.0020891809836030006,1.0027995109558105,0.0,0.0,0.0,-13.558992385864258,4.515250205993652,-0.6538939476013184,2454.20458984375,0
1641.0300000000007,0.028124844655394554,-0.02604859508574009,9.79420801741071e-05,0.0,0.0,0.0,0.0,0.002558918436989188,0.002127160783857107,-0.0016266156453639269,1.0009511709213257,0.0,0.0,0.0,-13.596253395080566,4.487737655639648,-0.6547771692276001,2460.948974609375,0
1650.907000000001,0.028151845559477806,-0.025908108800649643,0.00010655850201146677,0.0,0.0,0.0,0.0,-0.0010676603997126222,0.002482060343027115,9.092260734178126e-05,1.0016813278198242,0.0,0.0,0.0,-13.5740385055542,4.516471862792969,-0.6393200159072876,2456.927978515625,0
1660.799000000001,0.028209157288074493,-0.026047294959425926,7.035610906314105e-05,0.0,0.0,0.0,0.0,-0.000640774320345372,0.00258468696847558,-0.0007642989512532949,0.9988986253738403,0.0,0.0,0.0,-13.599575996398926,4.491197109222412,-0.6269011497497559,2461.550048828125,0
1670.675000000001,0.02821655012667179,-0.025925474241375923,0.0001000510310404934,0.0,0.0,0.0,0.0,0.004254003055393696,0.0028252373449504375,-0.001186099136248231,0.9991334080696106,0.0,0.0,0.0,-13.585562705993652,4.4916486740112305,-0.6302778720855713,2459.013916015625,0
1680.5680000000011,0.0282920990139246,-0.026071425527334213,6.357366510201246e-05,0.0,0.0,0.0,0.0,0.0030847666785120964,-0.006508467253297567,0.001316127018071711,1.0011284351348877,0.0,0.0,0.0,-13.613096237182617,4.467920780181885,-0.6072527766227722,2463.99755859375,0
1690.4470000000001,0.028295433148741722,-0.025944314897060394,0.00010266017488902435,0.0,0.0,0.0,0.0,-0.00197480502538383,-0.003603222779929638,0.0006273734616115689,0.9983012676239014,0.0,0.0,0.0,-13.588774681091309,4.489949703216553,-0.6200821399688721,2459.59521484375,0
1700.344000000001,0.028277859091758728,-0.02608504891395569,3.188545088050887e-05,0.0,0.0,0.0,0.0,0.0014391517033800483,-0.0004397918237373233,0.0021789008751511574,0.9977465867996216,0.0,0.0,0.0,-13.61431884765625,4.458155632019043,-0.6044926047325134,2464.21875,0
1710.2170000000006,0.028272835537791252,-0.025966987013816833,7.485332753276452e-05,0.0,0.0,0.0,0.0,-0.004069945774972439,0.002405413193628192,0.001354572712443769,1.0006641149520874,0.0,0.0,0.0,-13.590485572814941,4.482945919036865,-0.6135303378105164,2459.905029296875,0
1720.1100000000006,0.028247734531760216,-0.025979595258831978,7.732045924058184e-05,0.0,0.0,0.0,0.0,-0.000977019313722849,0.0015534275444224477,-0.000600435072556138,1.0008180141448975,0.0,0.0,0.0,-13.57789421081543,4.478982925415039,-0.6158515810966492,2457.625732421875,0
1729.9890000000014,0.028219284489750862,-0.025904839858412743,0.00012897938722744584,0.0,0.0,0.0,0.0,0.000799539324361831,-0.0037291564512997866,-0.0005203187465667725,0.9994180798530579,0.0,0.0,0.0,-13.555227279663086,4.496903419494629,-0.6090916395187378,2453.52294921875,0
1739.8850000000002,0.02821209654211998,-0.026081271469593048,3.080250462517142e-05,0.0,0.0,0.0,0.0,0.0002515421947464347,-0.002554468112066388,0.004385683685541153,0.9996595978736877,0.0,0.0,0.0,-13.598244667053223,4.45674991607666,-0.5955497026443481,2461.30908203125,0
1749.7660000000014,0.028209442272782326,-0.025952866300940514,7.49741229810752e-05,0.0,0.0,0.0,0.0,-0.0028205239214003086,0.0009253267198801041,-0.001806226558983326,0.9978366494178772,0.0,0.0,0.0,-13.574634552001953,4.486330509185791,-0.594041109085083,2457.03564453125,0
1759.657000000001,0.028200551867485046,-0.026105031371116638,-3.081634361024044e-07,0.0,0.0,0.0,0.0,-0.001265484606847167,0.0022916793823242188,-0.003504809457808733,0.9998248219490051,0.0,0.0,0.0,-13.612222671508789,4.45496129989624,-0.5776639580726624,2463.83935546875,0
1769.532000000001,0.028199873864650726,-0.02597842924296856,3.6930301575921476e-05,0.0,0.0,0.0,0.0,-0.0034775659441947937,-0.0023325374349951744,0.0013566097477450967,0.9995049834251404,0.0,0.0,0.0,-13.59273624420166,4.487186908721924,-0.5730407238006592,2460.312255859375,0
1779.4260000000013,0.02823140099644661,-0.0260909516364336,-3.9056158129824325e-06,0.0,0.0,0.0,0.0,0.000624776934273541,0.0021870937198400497,0.0015619309851899743,1.0020859241485596,0.0,0.0,0.0,-13.61658763885498,4.46608304977417,-0.5746771693229675,2464.62939453125,0
1789.3050000000003,0.028234032914042473,-0.02595745399594307,3.661443406599574e-05,0.0,0.0,0.0,0.0,0.0007172070909291506,0.00302674132399261,-0.0036479525733739138,1.001950979232788,0.0,0.0,0.0,-13.592172622680664,4.494571685791016,-0.5746832489967346,2460.210205078125,0
1799.1950000000015,0.028265561908483505,-0.026091832667589188,-1.954832987394184e-05,0.0,0.0,0.0,0.0,0.0003804802836384624,0.0014563057338818908,0.0032136121299117804,1.0002812147140503,0.0,0.0,0.0,-13.61354923248291,4.471258640289307,-0.5708996653556824,2464.079833984375,0
1809.0820000000003,0.028258973732590675,-0.02597608044743538,3.0865609005559236e-05,0.0,0.0,0.0,0.0,-0.00024932861560955644,5.4991447541397065e-05,-0.0002615546400193125,0.999087393283844,0.0,0.0,0.0,-13.589303970336914,4.49356746673584,-0.566461443901062,2459.691162109375,0
1818.9720000000016,0.028292033821344376,-0.026119159534573555,-2.6205489120911807e-05,0.0,0.0,0.0,0.0,-0.002093690913170576,-0.0017403169767931104,-0.00022613312467001379,1.0001939535140991,0.0,0.0,0.0,-13.61143970489502,4.465972423553467,-0.5625139474868774,2463.697998046875,0
1828.8500000000004,0.028257854282855988,-0.02601040154695511,6.954602577025071e-05,0.0,0.0,0.0,0.0,0.00022305136371869594,0.0005177828716114163,0.002205340890213847,1.002369999885559,0.0,0.0,0.0,-13.588547706604004,4.488787651062012,-0.5836546421051025,2459.553955078125,0
1838.7380000000012,0.028244204819202423,-0.026111334562301636,3.091014878009446e-05,0.0,0.0,0.0,0.0,0.0024380446411669254,0.003547480795532465,0.0032658115960657597,1.0007076263427734,0.0,0.0,0.0,-13.608641624450684,4.47334098815918,-0.5773691534996033,2463.19091796875,0
1848.6170000000002,0.02821487747132778,-0.026030657812952995,0.00010878057219088078,0.0,0.0,0.0,0.0,-0.0025367517955601215,0.00246661389246583,0.0016460255719721317,1.0004909038543701,0.0,0.0,0.0,-13.58466911315918,4.48633337020874,-0.58868008852005,2458.852294921875,0
1858.5110000000004,0.02819865755736828,-0.026049796491861343,0.00011947582243010402,0.0,0.0,0.0,0.0,-0.0010560768423601985,0.001740933395922184,-0.002130053471773863,0.9995472431182861,0.0,0.0,0.0,-13.57052993774414,4.4784440994262695,-0.5884381532669067,2456.292724609375,0
1868.3940000000002,0.02818433567881584,-0.026069574058055878,0.00013055629096925259,0.0,0.0,0.0,0.0,0.002543884329497814,-2.309064984729048e-05,-0.0007829556125216186,1.002830147743225,0.0,0.0,0.0,-13.556328773498535,4.474331855773926,-0.6068089008331299,2453.722412109375,0
1878.286,0.028175683692097664,-0.02590763568878174,0.00023019353102426976,0.0,0.0,0.0,0.0,-0.0001251575886271894,-0.0005208279471844435,-0.0012496378039941192,1.0016326904296875,0.0,0.0,0.0,-13.533329010009766,4.520517826080322,-0.6234254837036133,2449.559326171875,0
1888.161,0.028162773698568344,-0.025914276018738747,0.0002501297276467085,0.0,0.0,0.0,0.0,-0.0026412615552544594,-0.006619371939450502,-0.002056225435808301,1.0017074346542358,0.0,0.0,0.0,-13.519266128540039,4.52050256729126,-0.615285336971283,2447.013916015625,0
1898.0550000000003,0.028172936290502548,-0.025798458606004715,0.00029809607076458633,0.0,0.0,0.0,0.0,-0.0013970424188300967,-0.002128179417923093,0.00041743137990124524,1.0007797479629517,0.0,0.0,0.0,-13.500528335571289,4.5594587326049805,-0.6095920205116272,2443.62255859375,0
1907.9390000000003,0.028162099421024323,-0.02579781971871853,0.00032366541563533247,0.0,0.0,0.0,0.0,-0.0002805675321724266,-0.0033612435217946768,0.0006369315087795258,1.0005048513412476,0.0,0.0,0.0,-13.487380027770996,4.555615425109863,-0.5968757271766663,2441.242431640625,0
1917.8250000000007,0.028156699612736702,-0.025759035721421242,0.0003589352418202907,0.0,0.0,0.0,0.0,0.0004991702153347433,-0.000354721792973578,-0.00038943259278312325,1.00176203250885,0.0,0.0,0.0,-13.474236488342285,4.550411701202393,-0.5940560102462769,2438.863525390625,0
1927.7090000000007,0.028143202885985374,-0.02575675956904888,0.00038689401117153466,0.0,0.0,0.0,0.0,-0.0009410671191290021,-0.003472923766821623,0.0024018159601837397,1.0022671222686768,0.0,0.0,0.0,-13.459789276123047,4.54551362991333,-0.5874714851379395,2436.248779296875,0
1937.6060000000016,0.028127899393439293,-0.025755027309060097,0.0004164863785263151,0.0,0.0,0.0,0.0,-0.0027738718781620264,-0.004021943546831608,0.00032770904363133013,1.000352144241333,0.0,0.0,0.0,-13.446374893188477,4.541171550750732,-0.5774874091148376,2433.820556640625,0
1947.4740000000002,0.028112327679991722,-0.02575509063899517,0.00044780512689612806,0.0,0.0,0.0,0.0,0.000435605994425714,0.0007912981673143804,-0.00045372394379228354,0.9993123412132263,0.0,0.0,0.0,-13.43178939819336,4.5375237464904785,-0.5653978586196899,2431.1806640625,0
1957.3690000000006,0.028150931000709534,-0.025657350197434425,0.000464905722765252,0.0,0.0,0.0,0.0,-0.0019570826552808285,-0.003001146949827671,0.004267076961696148,1.0007740259170532,0.0,0.0,0.0,-13.418595314025879,4.577910423278809,-0.548042893409729,2428.79248046875,0
1967.2450000000008,0.02814166434109211,-0.025649940595030785,0.0004950491711497307,0.0,0.0,0.0,0.0,0.0007005679071880877,-0.0029529316816478968,0.004648602567613125,0.9992672801017761,0.0,0.0,0.0,-13.40503215789795,4.576510429382324,-0.5482012033462524,2426.33740234375,0
1977.139000000001,0.028170710429549217,-0.025593167170882225,0.0005056748050265014,0.0,0.0,0.0,0.0,0.005131970625370741,0.002665148815140128,-0.002609729068353772,0.9998058080673218,0.0,0.0,0.0,-13.390663146972656,4.577672481536865,-0.537095308303833,2423.736572265625,0
1987.0170000000016,0.02816621959209442,-0.0255819633603096,0.0005346045945771039,0.0,0.0,0.0,0.0,0.00158497819211334,-0.0015079264994710684,-0.0008123102015815675,1.000808596611023,0.0,0.0,0.0,-13.375553131103516,4.567681312561035,-0.5232812762260437,2421.001953125,0
1996.9140000000007,0.028178948909044266,-0.02555607631802559,0.0005476021906360984,0.0,0.0,0.0,0.0,-0.001423174631781876,-0.0035694672260433435,0.0007102277595549822,1.0014925003051758,0.0,0.0,0.0,-13.363399505615234,4.562140464782715,-0.5324080586433411,2418.8017578125,0
2006.7870000000003,0.028175819665193558,-0.02554285153746605,0.0005760295316576958,0.0,0.0,0.0,0.0,0.0010603228583931923,-0.004460417665541172,0.0003225574328098446,0.9959774613380432,0.0,0.0,0.0,-13.34995174407959,4.55703592300415,-0.5227305889129639,2416.36767578125,0
2016.688,0.028198741376399994,-0.025521637871861458,0.0005758011830039322,0.0,0.0,0.0,0.0,-0.00134185329079628,0.0015345439314842224,-0.0025634560734033585,0.9997757077217102,0.0,0.0,0.0,-13.336459159851074,4.555897235870361,-0.5197135806083679,2413.92578125,0
2026.558000000001,0.028197914361953735,-0.02550904080271721,0.0006007069605402648,0.0,0.0,0.0,0.0,0.0019244097638875246,0.0008845468400977552,0.0022795554250478745,0.9994760751724243,0.0,0.0,0.0,-13.324090003967285,4.552800178527832,-0.5254424810409546,2411.686767578125,0
2036.4570000000003,0.02820846438407898,-0.02553277276456356,0.0005862037651240826,0.0,0.0,0.0,0.0,0.0022743623703718185,-0.001176494057290256,-0.0021522301249206066,0.9990924596786499,0.0,0.0,0.0,-13.310169219970703,4.544582843780518,-0.516055703163147,2409.167236328125,0
2046.33,0.02820863388478756,-0.025527209043502808,0.0006070297094993293,0.0,0.0,0.0,0.0,0.0022024894133210182,0.006584289018064737,0.001493288204073906,0.9990673661231995,0.0,0.0,0.0,-13.29715633392334,4.543613910675049,-0.5200867056846619,2406.811767578125,0
2056.233,0.02822454459965229,-0.02553437650203705,0.0005955431261099875,0.0,0.0,0.0,0.0,-0.00017530482728034258,-0.0005340611096471548,0.002776417648419738,1.0000662803649902,0.0,0.0,0.0,-13.28874397277832,4.535484313964844,-0.5154303312301636,2405.2890625,0
2066.1020000000008,0.028226690366864204,-0.025534067302942276,0.0006124882493168116,0.0,0.0,0.0,0.0,0.00503853103145957,0.0002715386508498341,-0.0009100971510633826,0.9991494417190552,0.0,0.0,0.0,-13.276252746582031,4.5263848304748535,-0.5223106741905212,2403.028076171875,0
2075.9990000000016,0.028229275718331337,-0.025536462664604187,0.0006288758595474064,0.0,0.0,0.0,0.0,0.0001581823016749695,-0.0013896564487367868,0.002789725549519062,0.9999551177024841,0.0,0.0,0.0,-13.26342487335205,4.517927646636963,-0.5288389921188354,2400.706298828125,0
2085.872000000001,0.028231974691152573,-0.02554091438651085,0.0006448407657444477,0.0,0.0,0.0,0.0,0.0022009427193552256,-0.0016879797913134098,-0.0002546100877225399,1.0012173652648926,0.0,0.0,0.0,-13.250185012817383,4.507213115692139,-0.5268176794052124,2398.31005859375,0
2095.7760000000017,0.0282354187220335,-0.025546932592988014,0.0006610593409277499,0.0,0.0,0.0,0.0,-0.0024744030088186264,-0.0006078292499296367,0.0010956604965031147,0.9995219111442566,0.0,0.0,0.0,-13.235920906066895,4.503965377807617,-0.52439284324646,2395.727783203125,0
2105.647000000001,0.028239121660590172,-0.02555437758564949,0.0006782677373848855,0.0,0.0,0.0,0.0,-0.00027561813476495445,0.0025666472502052784,-0.0010509860003367066,1.0007692575454712,0.0,0.0,0.0,-13.222572326660156,4.496629238128662,-0.5257819890975952,2393.311767578125,0
2115.5380000000005,0.028242623433470726,-0.02556334063410759,0.0006959664751775563,0.0,0.0,0.0,0.0,-0.0010274405358359218,0.004562320187687874,0.0005280376062728465,1.00100576877594,0.0,0.0,0.0,-13.20942211151123,4.496931076049805,-0.5136395692825317,2390.931640625,0
2125.415000000001,0.028246795758605003,-0.025573382154107094,0.0007141217356547713,0.0,0.0,0.0,0.0,0.002168531995266676,-0.0026977991219609976,0.000752788910176605,0.9980382919311523,0.0,0.0,0.0,-13.196711540222168,4.488680362701416,-0.5187749266624451,2388.630859375,0
2135.3140000000003,0.028252240270376205,-0.025584228336811066,0.0007325092446990311,0.0,0.0,0.0,0.0,0.0012392116477712989,0.001683323527686298,-0.0009124508942477405,1.0003105401992798,0.0,0.0,0.0,-13.183708190917969,4.480159759521484,-0.5305076241493225,2386.277587890625,0
2145.193000000001,0.028258882462978363,-0.02559611387550831,0.0007500579813495278,0.0,0.0,0.0,0.0,-0.0005879320087842643,0.004631490912288427,0.0016439763130620122,1.001198410987854,0.0,0.0,0.0,-13.16946029663086,4.477061748504639,-0.5227478742599487,2383.69873046875,0
2155.081,0.028266675770282745,-0.02560860849916935,0.0007674471125937998,0.0,0.0,0.0,0.0,-0.0010306834010407329,0.002078932011500001,-0.0030365490820258856,1.0009517669677734,0.0,0.0,0.0,-13.15687370300293,4.474322319030762,-0.5223234295845032,2381.420166015625,0
2164.960000000001,0.028275197371840477,-0.025622330605983734,0.0007857767050154507,0.0,0.0,0.0,0.0,-0.0009023515158332884,-0.0068610841408371925,-0.002127701649442315,0.999012291431427,0.0,0.0,0.0,-13.143207550048828,4.466198921203613,-0.5340420007705688,2378.94677734375,0
2174.858,0.028284568339586258,-0.02563873492181301,0.0008050273172557354,0.0,0.0,0.0,0.0,0.00012988709204364568,0.002710905158892274,-0.0008292190614156425,0.9984919428825378,0.0,0.0,0.0,-13.130074501037598,4.4617018699646,-0.5443181991577148,2376.56982421875,0
2184.729000000001,0.028294125571846962,-0.025658003985881805,0.000823718961328268,0.0,0.0,0.0,0.0,-0.006102587096393108,-0.007306769024580717,0.0035878794733434916,0.9994438290596008,0.0,0.0,0.0,-13.117450714111328,4.4531402587890625,-0.5457553267478943,2374.284423828125,0
2194.629000000001,0.028303297236561775,-0.025679999962449074,0.0008415097836405039,0.0,0.0,0.0,0.0,-0.0010030950652435422,-0.0015289562288671732,0.003974751103669405,0.9995414614677429,0.0,0.0,0.0,-13.104453086853027,4.45033597946167,-0.5377331972122192,2371.931884765625,0
