timestamp,stateEstimate.x,stateEstimate.y,stateEstimate.z,controller.cmd_thrust,controller.cmd_roll,controller.cmd_pitch,controller.cmd_yaw,controller.r_roll,controller.r_pitch,controller.r_yaw,controller.accelz,controller.actuatorThrust,controller.roll,controller.pitch,controller.yaw,controller.rollRate,controller.pitchRate,controller.yawRate,controller.ctr_yaw
0.0,0.00022511431598104537,0.014608219265937805,-0.0005337498150765896,0.0,0.0,0.0,0.0,0.00147428538184613,-0.006799017544835806,-0.003842249047011137,0.9979874491691589,0.0,0.0,0.0,0.08400866389274597,10.009330749511719,0.879605233669281,-15.205735206604004,0
9.902000000000044,0.00016059647896327078,0.014636460691690445,-0.00047454595915041864,0.0,0.0,0.0,0.0,0.00028968200786039233,0.0038351307157427073,-0.0018358587985858321,1.0003589391708374,0.0,0.0,0.0,0.07684849947690964,10.024277687072754,0.8783435225486755,-13.909730911254883,0
19.774999999999636,0.00020533904898911715,0.01458355225622654,-0.00053577427752316,0.0,0.0,0.0,0.0,0.0031768453773111105,0.003850203938782215,0.0011664872290566564,0.9998688101768494,0.0,0.0,0.0,0.0770283043384552,10.008010864257812,0.8701530694961548,-13.942276000976562,0
29.665999999999258,0.00014975570957176387,0.01460369024425745,-0.00047459968482144177,0.0,0.0,0.0,0.0,0.001304346020333469,0.001351690967567265,0.0003749924944713712,0.996829092502594,0.0,0.0,0.0,0.07731832563877106,9.991538047790527,0.8567997217178345,-13.994771003723145,0
39.54399999999987,0.00025530546554364264,0.014630996622145176,-0.0005809780559502542,0.0,0.0,0.0,0.0,0.0006982915801927447,0.0031751880887895823,-0.004321982618421316,0.9986183047294617,0.0,0.0,0.0,0.07733884453773499,9.981130599975586,0.844946563243866,-13.998485565185547,0
49.451999999999316,0.00018545777129475027,0.014655154198408127,-0.0005323067889548838,0.0,0.0,0.0,0.0,0.0011038987431675196,-0.003520755562931299,0.0010646270820870996,0.9968164563179016,0.0,0.0,0.0,0.07634519040584564,9.967310905456543,0.8367377519607544,-13.81863021850586,0
59.31600000000071,0.0002508792094886303,0.014648493379354477,-0.0006001964211463928,0.0,0.0,0.0,0.0,-0.0014504679711535573,0.0029247102793306112,0.0005090265767648816,1.0004303455352783,0.0,0.0,0.0,0.07644366472959518,9.95454216003418,0.8410633206367493,-13.836455345153809,0
69.21500000000015,0.00023372008581645787,0.014616725966334343,-0.0005747581017203629,0.0,0.0,0.0,0.0,0.0009382780408486724,0.0019674531649798155,-0.0008310562116093934,0.9985761642456055,0.0,0.0,0.0,0.07656156271696091,9.942739486694336,0.8319452404975891,-13.857796669006348,0
79.09499999999935,0.00030834870995022357,0.014608626253902912,-0.0006557058077305555,0.0,0.0,0.0,0.0,0.0034443296026438475,0.004637980833649635,-0.0018290637526661158,0.9984444379806519,0.0,0.0,0.0,0.07623232901096344,9.931617736816406,0.8261134624481201,-13.798202514648438,0
88.99099999999999,0.00020418498024810106,0.01466169860213995,-0.0006068416405469179,0.0,0.0,0.0,0.0,0.0012007824843749404,0.0016867201775312424,-3.6298672057455406e-05,0.9987003207206726,0.0,0.0,0.0,0.07604482024908066,9.916407585144043,0.8152749538421631,-13.764263153076172,0
98.86100000000079,0.00026104861171916127,0.014632703736424446,-0.0006801207200624049,0.0,0.0,0.0,0.0,-0.0011691737454384565,-0.00047131176688708365,-0.0019237472442910075,0.9999901652336121,0.0,0.0,0.0,0.07633545994758606,9.912196159362793,0.8157700896263123,-13.816869735717773,0
108.75900000000001,0.00019639788661152124,0.014687380753457546,-0.0006152194109745324,0.0,0.0,0.0,0.0,0.0006789325852878392,0.0011198611464351416,0.0037357828114181757,0.9991239905357361,0.0,0.0,0.0,0.06867989897727966,9.935524940490723,0.804284930229187,-12.431198120117188,0
118.6309999999994,0.00025070057017728686,0.014649821445345879,-0.0006871939403936267,0.0,0.0,0.0,0.0,-0.000586562033277005,0.002677764045074582,0.003557373769581318,0.998580813407898,0.0,0.0,0.0,0.06940536946058273,9.923009872436523,0.8000336289405823,-12.56251049041748,0
128.53499999999985,0.00014285196084529161,0.01468469388782978,-0.0006513191619887948,0.0,0.0,0.0,0.0,0.001958700595423579,0.0006844413001090288,-0.0009969751117751002,0.9987233281135559,0.0,0.0,0.0,0.0700565055012703,9.912742614746094,0.7876885533332825,-12.680366516113281,0
138.40400000000045,0.0001798523881006986,0.014659464359283447,-0.0006936122663319111,0.0,0.0,0.0,0.0,0.001699799788184464,-0.0020901011303067207,0.0027328277938067913,0.9970057010650635,0.0,0.0,0.0,0.07692281901836395,9.915610313415527,0.7964291572570801,-13.92318344116211,0
148.29600000000028,0.0001876789756352082,0.014679181389510632,-0.0006209122366271913,0.0,0.0,0.0,0.0,0.00013782120367977768,4.6752997150179e-05,-0.0007159007363952696,0.9980952739715576,0.0,0.0,0.0,0.0694337859749794,9.921355247497559,0.8004662990570068,-12.567654609680176,0
158.1800000000003,0.00024880989803932607,0.014652903191745281,-0.0006944169872440398,0.0,0.0,0.0,0.0,-0.0023852605372667313,0.001922624884173274,0.0018863857258111238,0.9996666312217712,0.0,0.0,0.0,0.06884128600358963,9.907925605773926,0.7854443192481995,-12.460410118103027,0
168.07999999999993,0.00020295065769460052,0.014680875465273857,-0.0006381685379892588,0.0,0.0,0.0,0.0,0.0005361665971577168,-0.00420889537781477,0.0038966333959251642,0.9986851811408997,0.0,0.0,0.0,0.06901027262210846,9.900042533874512,0.7820327877998352,-12.490996360778809,0
177.9449999999997,0.00019479336333461106,0.014592185616493225,-0.0006362206186167896,0.0,0.0,0.0,0.0,0.001996933249756694,0.002879852196201682,0.002748059807345271,0.9982264041900635,0.0,0.0,0.0,0.07594093680381775,9.88537883758545,0.7865070104598999,-13.745460510253906,0
187.84499999999935,0.00013612909242510796,0.014603085815906525,-0.0005858818767592311,0.0,0.0,0.0,0.0,-0.0021646313834935427,-0.0036956837866455317,-0.0019879185128957033,0.9999937415122986,0.0,0.0,0.0,0.0764702633023262,9.87326717376709,0.7797548174858093,-13.841269493103027,0
197.71800000000076,0.00016826699720695615,0.014582722447812557,-0.0006072454852983356,0.0,0.0,0.0,0.0,0.0014446028508245945,0.006732667330652475,-0.0012705052504315972,0.9973809719085693,0.0,0.0,0.0,0.07565374672412872,9.865614891052246,0.7862007021903992,-13.69347858428955,0
207.6110000000008,0.00020112133643124253,0.014567047357559204,-0.0005388198769651353,0.0,0.0,0.0,0.0,0.0016481177881360054,0.004533929750323296,-0.002501212991774082,0.9992269277572632,0.0,0.0,0.0,0.07474607974290848,9.854013442993164,0.7709872722625732,-13.529190063476562,0
217.4920000000002,0.00026828618138097227,0.014566773548722267,-0.0005941443960182369,0.0,0.0,0.0,0.0,-0.0009136340231634676,-0.005287603475153446,0.0020462842658162117,0.9963037371635437,0.0,0.0,0.0,0.07487853616476059,9.838075637817383,0.7718591690063477,-13.553163528442383,0
227.3819999999996,0.0002000324457185343,0.014580507762730122,-0.0005467566079460084,0.0,0.0,0.0,0.0,-0.0009754999191500247,-0.00233008386567235,-0.002536028390750289,0.9983898997306824,0.0,0.0,0.0,0.07556921243667603,9.82976245880127,0.779414713382721,-13.678176879882812,0
385.5619999999999,0.00020234964904375374,0.014705847948789597,-0.0006655840552411973,0.0,0.0,0.0,0.0,0.0008942222339101136,0.005867708940058947,-0.0018672978039830923,1.0000284910202026,0.0,0.0,0.0,0.08957622200250626,9.766358375549316,0.7959884405136108,-16.21347427368164,0
395.4339999999993,0.0002553697268012911,0.014663434587419033,-0.00073517847340554,0.0,0.0,0.0,0.0,0.0020728770177811384,0.005486283916980028,-0.00043866958003491163,0.9981514811515808,0.0,0.0,0.0,0.09684353321790695,9.767107963562012,0.7916964888572693,-17.528871536254883,0
405.3289999999997,0.00018398805696051568,0.014669394120573997,-0.0006904888432472944,0.0,0.0,0.0,0.0,-1.0047167052107397e-05,-0.003339349292218685,0.0024950464721769094,0.9970280528068542,0.0,0.0,0.0,0.09622849524021149,9.748331069946289,0.7717838883399963,-17.417551040649414,0
415.2049999999999,0.00023209552455227822,0.014631827361881733,-0.0007535020704381168,0.0,0.0,0.0,0.0,-0.0001763895561452955,0.0034053861163556576,0.002108654472976923,0.9971383810043335,0.0,0.0,0.0,0.09687475860118866,9.742131233215332,0.7747296690940857,-17.53452491760254,0
425.09799999999996,0.0001822926424210891,0.014671550132334232,-0.0006809759070165455,0.0,0.0,0.0,0.0,-0.001228571985848248,-0.0008775900350883603,0.0011575478129088879,0.9968335628509521,0.0,0.0,0.0,0.08906141668558121,9.759408950805664,0.7664689421653748,-16.12029266357422,0
434.97899999999936,0.00023526469885837287,0.014650296419858932,-0.0007474254816770554,0.0,0.0,0.0,0.0,0.0013222969137132168,-0.004061080981045961,0.0028419734444469213,0.9982262849807739,0.0,0.0,0.0,0.08998847007751465,9.753952026367188,0.7707647085189819,-16.2880916595459,0
444.8780000000006,0.000220724570681341,0.014640639536082745,-0.0006997344898991287,0.0,0.0,0.0,0.0,-0.00014433660544455051,-0.0030862949788570404,-0.0012647099792957306,0.997850775718689,0.0,0.0,0.0,0.09050456434488297,9.74349308013916,0.7722175717353821,-16.381505966186523,0
454.7569999999996,0.00024401460541412234,0.014604413881897926,-0.0007269199704751372,0.0,0.0,0.0,0.0,0.001962508074939251,-0.0010423811618238688,-0.0009249761933460832,0.998877763748169,0.0,0.0,0.0,0.09724795818328857,9.747011184692383,0.7754859328269958,-17.602075576782227,0
464.64999999999964,0.00023291133402381092,0.014606151729822159,-0.0006649151910096407,0.0,0.0,0.0,0.0,0.00231376476585865,0.0013099353527650237,-0.0006895532715134323,1.0001254081726074,0.0,0.0,0.0,0.09012741595506668,9.752433776855469,0.7671963572502136,-16.313241958618164,0
474.52100000000064,0.0002584743779152632,0.01457217987626791,-0.0006912749959155917,0.0,0.0,0.0,0.0,0.002243796829134226,0.002648478141054511,-0.0011834284523501992,0.9991560578346252,0.0,0.0,0.0,0.0991671085357666,9.748958587646484,0.7668569684028625,-17.949445724487305,0
484.41300000000047,0.0002769293205346912,0.014582443051040173,-0.0006046771886758506,0.0,0.0,0.0,0.0,0.0022264597937464714,-0.0036225211806595325,0.0010565015254542232,0.9982369542121887,0.0,0.0,0.0,0.09110388159751892,9.764162063598633,0.7681724429130554,-16.4899845123291,0
494.29199999999946,0.0002709324180614203,0.014498010277748108,-0.0005982122384011745,0.0,0.0,0.0,0.0,0.0008574847015552223,-0.001546769984997809,0.001527346670627594,0.9996699094772339,0.0,0.0,0.0,0.09160654246807098,9.7525634765625,0.7766260504722595,-16.580965042114258,0
504.1869999999999,0.00015436881221830845,0.014518661424517632,-0.0005443997215479612,0.0,0.0,0.0,0.0,0.000357829820131883,0.0008316644234582782,-0.0015174044528976083,0.9996564388275146,0.0,0.0,0.0,0.09116990864276886,9.745915412902832,0.7801418900489807,-16.501935958862305,0
514.0630000000001,0.00016370502999052405,0.014458549208939075,-0.0005527601460926235,0.0,0.0,0.0,0.0,-0.0011062168050557375,0.0011637952411547303,0.0015456227120012045,0.9988401532173157,0.0,0.0,0.0,0.09059197455644608,9.73576831817627,0.7710719108581543,-16.397327423095703,0
523.9609999999993,0.00010955646575894207,0.01450690533965826,-0.0004503806703723967,0.0,0.0,0.0,0.0,0.0014067098964005709,-0.0016865023644641042,0.0013197032967582345,0.9996291995048523,0.0,0.0,0.0,0.09121115505695343,9.727144241333008,0.7651936411857605,-16.509401321411133,0
533.8459999999995,0.000181085619260557,0.01454283855855465,-0.0004957318305969238,0.0,0.0,0.0,0.0,0.0010872114216908813,-0.006576882675290108,0.0023627320770174265,0.9998548626899719,0.0,0.0,0.0,0.09906046837568283,9.739578247070312,0.7786924242973328,-17.93014144897461,0
543.7309999999998,0.00013646950537804514,0.01455826498568058,-0.0004092108574695885,0.0,0.0,0.0,0.0,0.0006701279198750854,0.0027210526168346405,-0.0013274579541757703,0.9996464252471924,0.0,0.0,0.0,0.10032469779253006,9.726029396057129,0.7866238355636597,-18.158967971801758,0
553.607,0.00020438479259610176,0.014568660408258438,-0.00045574666000902653,0.0,0.0,0.0,0.0,0.0004752150853164494,0.0008898500818759203,-0.0013219874817878008,0.9987584352493286,0.0,0.0,0.0,0.09987076371908188,9.719355583190918,0.7956838607788086,-18.076807022094727,0
563.5010000000002,0.00015933378017507493,0.014567602425813675,-0.0003809390473179519,0.0,0.0,0.0,0.0,-0.0033740170765668154,-0.0009910790249705315,0.001208722242154181,0.9986714720726013,0.0,0.0,0.0,0.09987907856702805,9.707275390625,0.794479489326477,-18.078311920166016,0
573.3790000000008,0.00021285034017637372,0.014527621679008007,-0.00042731917346827686,0.0,0.0,0.0,0.0,-0.0024672523140907288,-0.004531067796051502,0.00044657819671556354,0.9992548823356628,0.0,0.0,0.0,0.10033833980560303,9.703742980957031,0.8010457754135132,-18.16143798828125,0
583.2749999999996,0.0001575094647705555,0.014500349760055542,-0.0003798209654632956,0.0,0.0,0.0,0.0,0.00053981231758371,-0.007441538851708174,-0.002931134542450309,0.9979020953178406,0.0,0.0,0.0,0.10073643177747726,9.69852352142334,0.8113250732421875,-18.23349380493164,0
593.1499999999996,0.000259468361036852,0.014524624682962894,-0.00046203433885239065,0.0,0.0,0.0,0.0,-0.000896199606359005,-0.0015810629120096564,0.0026167358737438917,1.0002135038375854,0.0,0.0,0.0,0.09907401353120804,9.690917015075684,0.8259910345077515,-17.932592391967773,0
603.0409999999993,0.0001946369739016518,0.014512520283460617,-0.0004099723300896585,0.0,0.0,0.0,0.0,0.0012724457774311304,-0.0012735219206660986,-0.0003944543714169413,1.0020339488983154,0.0,0.0,0.0,0.09284403920173645,9.700037002563477,0.819047749042511,-16.804954528808594,0
612.9220000000005,0.0002442548575345427,0.014471868053078651,-0.0004452870925888419,0.0,0.0,0.0,0.0,0.0017155847745016217,-0.0005974853993393481,0.0011805440299212933,1.0008591413497925,0.0,0.0,0.0,0.09989473223686218,9.706687927246094,0.82952880859375,-18.081146240234375,0
622.8089999999993,0.0001357731525786221,0.014512459747493267,-0.0003652270825114101,0.0,0.0,0.0,0.0,-0.0008346718968823552,0.005274038761854172,-0.000455488043371588,1.0006555318832397,0.0,0.0,0.0,0.10046598315238953,9.697713851928711,0.8260454535484314,-18.18454360961914,0
632.6929999999993,0.00024191421107389033,0.014550624415278435,-0.00044386080116964877,0.0,0.0,0.0,0.0,-0.000807067146524787,-0.0022328633349388838,0.001436052960343659,0.9997851848602295,0.0,0.0,0.0,0.10013621300458908,9.691000938415527,0.8151122331619263,-18.124853134155273,0
642.5820000000003,0.00014624434697907418,0.014576660469174385,-0.0003730715252459049,0.0,0.0,0.0,0.0,0.002195159438997507,-0.003333957865834236,0.001304242410697043,0.9986095428466797,0.0,0.0,0.0,0.09357092529535294,9.705875396728516,0.800620973110199,-16.9365234375,0
652.4650000000001,0.00023523694835603237,0.014585782773792744,-0.0004439290496520698,0.0,0.0,0.0,0.0,0.0010964851826429367,0.001022677286528051,-0.0008804490207694471,0.9991016387939453,0.0,0.0,0.0,0.09340590238571167,9.696941375732422,0.8149707913398743,-16.906654357910156,0
662.3619999999992,0.00012006591714452952,0.014567446894943714,-0.0004137535870540887,0.0,0.0,0.0,0.0,0.0012748024892061949,0.0028141161892563105,-0.0008241812465712428,1.0015925168991089,0.0,0.0,0.0,0.08442885428667068,9.703421592712402,0.7825881838798523,-15.281789779663086,0
672.2379999999994,0.00024300836957991123,0.014594022184610367,-0.0005299454787746072,0.0,0.0,0.0,0.0,-5.021823744755238e-05,-0.005700823850929737,0.004805800039321184,0.9981415867805481,0.0,0.0,0.0,0.08456404507160187,9.688691139221191,0.7686132192611694,-15.306260108947754,0
682.1229999999996,0.00022149441065266728,0.014559244737029076,-0.00048025563592091203,0.0,0.0,0.0,0.0,0.0006869141943752766,0.0012333063641563058,-0.0004755476547870785,0.9981881380081177,0.0,0.0,0.0,0.07884839922189713,9.69721794128418,0.7745622396469116,-14.271717071533203,0
692.0169999999998,0.00033025594893842936,0.014574790373444557,-0.0005779610364697874,0.0,0.0,0.0,0.0,0.0020074404310435057,-0.0013211407931521535,-0.00224317261017859,1.0007116794586182,0.0,0.0,0.0,0.07951892912387848,9.681743621826172,0.7777323126792908,-14.393085479736328,0
701.9009999999998,0.00026840006466954947,0.014551563188433647,-0.0005379271460697055,0.0,0.0,0.0,0.0,-0.00012142043851781636,0.004751165863126516,0.0013947788393124938,0.9992931485176086,0.0,0.0,0.0,0.07903974503278732,9.669438362121582,0.7797719836235046,-14.306351661682129,0
711.7939999999999,0.0003588407707866281,0.01454244926571846,-0.0006216179463081062,0.0,0.0,0.0,0.0,0.00037946380325593054,0.0037467305082827806,-0.0009892594534903765,0.998625636100769,0.0,0.0,0.0,0.07908473163843155,9.657842636108398,0.7704431414604187,-14.314493179321289,0
721.6820000000007,0.0002747270045801997,0.014533375389873981,-0.0005801282823085785,0.0,0.0,0.0,0.0,0.003946506883949041,-0.0017476092325523496,-0.0015245748218148947,0.9985740780830383,0.0,0.0,0.0,0.07874393463134766,9.647207260131836,0.7612805962562561,-14.252809524536133,0
731.5519999999997,0.0003612272266764194,0.014523817226290703,-0.0006596001330763102,0.0,0.0,0.0,0.0,0.00028764421585947275,-0.0042863087728619576,0.0025660721585154533,1.000271201133728,0.0,0.0,0.0,0.07840290665626526,9.629087448120117,0.7569360136985779,-14.191081047058105,0
741.4390000000003,0.00028280075639486313,0.014529397711157799,-0.0006074285483919084,0.0,0.0,0.0,0.0,0.0002174319524783641,-0.0008175185648724437,0.0001897813635878265,1.0001696348190308,0.0,0.0,0.0,0.07912863045930862,9.613006591796875,0.7591014504432678,-14.322439193725586,0
751.3240000000005,0.0003640658687800169,0.014519852586090565,-0.0006729253800585866,0.0,0.0,0.0,0.0,-2.4391738406848162e-06,0.007801841478794813,-0.0010908691911026835,0.9980623722076416,0.0,0.0,0.0,0.07851001620292664,9.604256629943848,0.7575235366821289,-14.210468292236328,0
761.2119999999995,0.0002482804993633181,0.014543196186423302,-0.0006261342787183821,0.0,0.0,0.0,0.0,0.001581279095262289,7.356199785135686e-05,-0.00201022787950933,0.9989508390426636,0.0,0.0,0.0,0.07817303389310837,9.595290184020996,0.7374392747879028,-14.149474143981934,0
771.0939999999991,0.00025435726274736226,0.014427460730075836,-0.0006315240170806646,0.0,0.0,0.0,0.0,0.0013087632833048701,-0.00021938211284577847,-0.0025212340988218784,0.9986016154289246,0.0,0.0,0.0,0.07808073610067368,9.580177307128906,0.7306274175643921,-14.132768630981445,0
780.991,0.00025028380332514644,0.014452106319367886,-0.0005367034464143217,0.0,0.0,0.0,0.0,-0.0004214660730212927,0.006048084702342749,0.0006311247125267982,0.9989117980003357,0.0,0.0,0.0,0.07196661829948425,9.608269691467285,0.7215778827667236,-13.026101112365723,0
790.8719999999994,0.00025717844255268574,0.014333071187138557,-0.0005350427236407995,0.0,0.0,0.0,0.0,-0.002618375699967146,0.0009300315286964178,0.004729209467768669,0.9986553192138672,0.0,0.0,0.0,0.07109198719263077,9.592076301574707,0.7011309266090393,-12.867791175842285,0
800.7630000000008,0.00014621873560827225,0.014363248832523823,-0.0004293134843464941,0.0,0.0,0.0,0.0,0.0004732879751827568,0.008539164438843727,-0.004942745435982943,0.9995216727256775,0.0,0.0,0.0,0.0663330927491188,9.63729476928711,0.6837804317474365,-12.00642204284668,0
810.6409999999996,0.00014774968440178782,0.01424342766404152,-0.00041954926564358175,0.0,0.0,0.0,0.0,-0.0004774339322466403,0.002559883985668421,0.00011778176121879369,0.9974709749221802,0.0,0.0,0.0,0.0653793215751648,9.62277889251709,0.6634077429771423,-11.833786964416504,0
820.5239999999994,7.653157081222162e-05,0.014266256242990494,-0.00029823221848346293,0.0,0.0,0.0,0.0,0.0005359505885280669,-0.002404693514108658,-0.00025573381572030485,0.9976781606674194,0.0,0.0,0.0,0.06477563828229904,9.66983699798584,0.6411117911338806,-11.724519729614258,0
830.4089999999997,0.00023683284234721214,0.014386935159564018,-0.0005388202262111008,0.0,0.0,0.0,0.0,-0.0011958054965361953,0.007787358481436968,-0.00024968787329271436,0.9988958835601807,0.0,0.0,0.0,0.06663282960653305,9.726823806762695,0.6688573360443115,-12.060674667358398,0
840.2950000000001,0.00010441331687616184,0.014427144080400467,-0.0004716481198556721,0.0,0.0,0.0,0.0,-0.0004978799843229353,-0.00397224398329854,0.0013501575449481606,0.9985811114311218,0.0,0.0,0.0,0.06124138832092285,9.76039981842041,0.6375104784965515,-11.08481216430664,0
850.1849999999995,0.00019141766824759543,0.014480032958090305,-0.0005555866518989205,0.0,0.0,0.0,0.0,-6.325425783870742e-05,-0.004519420675933361,0.004196139983832836,0.9985873103141785,0.0,0.0,0.0,0.06341537088155746,9.788644790649414,0.64727383852005,-11.478307723999023,0
860.0740000000005,7.970986189320683e-05,0.014533563517034054,-0.000485610420582816,0.0,0.0,0.0,0.0,-0.0005319893825799227,0.005083001218736172,0.002504556206986308,0.9985249042510986,0.0,0.0,0.0,0.05631686747074127,9.81298542022705,0.6439615488052368,-10.193464279174805,0
869.9590000000007,0.000149989704368636,0.01453283242881298,-0.0005605185870081186,0.0,0.0,0.0,0.0,0.003163156332448125,-0.0012010688660666347,-0.0004825682262890041,0.9986363649368286,0.0,0.0,0.0,0.05675973743200302,9.802090644836426,0.6309679746627808,-10.273625373840332,0
879.8389999999999,8.199660805985332e-05,0.014557043090462685,-0.0004976813797838986,0.0,0.0,0.0,0.0,0.001326428959146142,0.002252108883112669,0.00013653187488671392,0.9985678195953369,0.0,0.0,0.0,0.0501997284591198,9.813365936279297,0.6333619952201843,-9.086250305175781,0
889.7240000000002,0.00016312755178660154,0.014581172727048397,-0.0005727099487558007,0.0,0.0,0.0,0.0,0.0006337814265862107,0.0008385736728087068,-0.0014238428557291627,1.001595377922058,0.0,0.0,0.0,0.05081704258918762,9.796841621398926,0.6288092136383057,-9.197985649108887,0
899.6100000000006,0.00015964629710651934,0.01459542103111744,-0.0004877799947280437,0.0,0.0,0.0,0.0,-0.0005843216204084456,-0.0011839731596410275,0.00379486964084208,1.001015305519104,0.0,0.0,0.0,0.05089247226715088,9.78526782989502,0.6235959529876709,-9.211639404296875,0
909.4969999999994,0.00020943967683706433,0.014561724849045277,-0.0005375503678806126,0.0,0.0,0.0,0.0,0.003395958337932825,0.002304814523085952,-3.1262719858204946e-05,0.9994306564331055,0.0,0.0,0.0,0.056998152285814285,9.7899808883667,0.635515034198761,-10.316779136657715,0
919.3819999999996,0.00014841365918982774,0.014583299867808819,-0.00046429631765931845,0.0,0.0,0.0,0.0,-0.00018993651610799134,0.003714417340233922,-0.0027760909870266914,0.9992567300796509,0.0,0.0,0.0,0.057129841297864914,9.777864456176758,0.6294753551483154,-10.340615272521973,0
929.2780000000002,0.00018945499323308468,0.014545041136443615,-0.0004979310906492174,0.0,0.0,0.0,0.0,-0.0027263620868325233,0.0026079961098730564,-0.0018372333142906427,0.9991012811660767,0.0,0.0,0.0,0.05751091614365578,9.766997337341309,0.6300827264785767,-10.409590721130371,0
939.1550000000007,0.00012511202658060938,0.014570497907698154,-0.0004209463659208268,0.0,0.0,0.0,0.0,-0.000548226700630039,-0.000152771026478149,-0.0010221450356766582,0.9969958662986755,0.0,0.0,0.0,0.057400237768888474,9.75903034210205,0.637961208820343,-10.389556884765625,0
949.0400000000009,0.00017791888967622072,0.014548259787261486,-0.0004606570000760257,0.0,0.0,0.0,0.0,0.0017605941975489259,0.004011976532638073,-0.0009243997628800571,0.99940025806427,0.0,0.0,0.0,0.06667421758174896,9.762113571166992,0.6488507390022278,-12.068166732788086,0
958.9249999999993,9.493422112427652e-05,0.014535992406308651,-0.00041388123645447195,0.0,0.0,0.0,0.0,0.0021458962000906467,0.0012734695337712765,-0.00012986070942133665,0.9990063905715942,0.0,0.0,0.0,0.0665646642446518,9.748261451721191,0.6402352452278137,-12.04833698272705,0
968.8130000000001,0.00015776208601891994,0.014517361298203468,-0.00046737436787225306,0.0,0.0,0.0,0.0,-1.0416761142550968e-05,-0.0012723312247544527,-0.0031439431477338076,0.9985045194625854,0.0,0.0,0.0,0.07293444871902466,9.748034477233887,0.6417858004570007,-13.20128059387207,0
978.7080000000005,0.00013535043399315327,0.01449064165353775,-0.00040664864354766905,0.0,0.0,0.0,0.0,0.002489456906914711,-0.00010443871724419296,-0.001828367356210947,0.9965777397155762,0.0,0.0,0.0,0.063364177942276,9.751171112060547,0.6372599005699158,-11.46904182434082,0
988.5830000000005,0.00012586684897542,0.014376678504049778,-0.0004010533739347011,0.0,0.0,0.0,0.0,-0.00017651906819082797,0.002282233675941825,-0.003972497768700123,1.0003186464309692,0.0,0.0,0.0,0.06281553953886032,9.736023902893066,0.6310037970542908,-11.36973762512207,0
998.4789999999994,6.01141327933874e-05,0.014369479380548,-0.0003258039942011237,0.0,0.0,0.0,0.0,-0.0022635047789663076,0.00233497959561646,-0.0005805518594570458,0.9997455477714539,0.0,0.0,0.0,0.055864863097667694,9.751503944396973,0.6090103983879089,-10.111650466918945,0
1008.357,0.0002121606667060405,0.01446926686912775,-0.00048591638915240765,0.0,0.0,0.0,0.0,-0.0021901847794651985,-0.001627197372727096,-0.0028707694727927446,0.9991339445114136,0.0,0.0,0.0,0.06677574664354324,9.78779411315918,0.6407832503318787,-12.086543083190918,0
1018.2440000000006,0.00019543849339243025,0.0144369350746274,-0.0004285088216420263,0.0,0.0,0.0,0.0,-0.0018054514657706022,0.0027295879554003477,0.0011786726536229253,0.998687744140625,0.0,0.0,0.0,0.06571471691131592,9.783870697021484,0.6453224420547485,-11.89449405670166,0
1028.1260000000002,0.00019058487669099122,0.014324442483484745,-0.0004259026318322867,0.0,0.0,0.0,0.0,0.000261729204794392,-0.00469414796680212,0.0007958967471495271,0.9997473955154419,0.0,0.0,0.0,0.06619025021791458,9.774853706359863,0.6353628039360046,-11.98056697845459,0
1038.0120000000006,0.00017711716645862907,0.014332969672977924,-0.0003349120379425585,0.0,0.0,0.0,0.0,-0.002606541384011507,-0.0003725023416336626,1.9778824480454205e-06,0.9987773299217224,0.0,0.0,0.0,0.06509195268154144,9.799128532409668,0.6371117234230042,-11.781773567199707,0
1047.8979999999992,0.00035370292607694864,0.01444622129201889,-0.0005398436333052814,0.0,0.0,0.0,0.0,0.004074398893862963,-0.00028694572392851114,0.0016235685907304287,0.9994704723358154,0.0,0.0,0.0,0.06864571571350098,9.845006942749023,0.6592088341712952,-12.425010681152344,0
1057.786,0.00022067443933337927,0.014460349455475807,-0.0005057378439232707,0.0,0.0,0.0,0.0,0.003555301111191511,0.0009491686942055821,-0.0012465466279536486,0.9991925954818726,0.0,0.0,0.0,0.06311912834644318,9.862578392028809,0.6425144672393799,-11.424687385559082,0
1067.6810000000005,0.0003361169947311282,0.014504891820251942,-0.0006247971905395389,0.0,0.0,0.0,0.0,-6.485381163656712e-05,-0.000994170201011002,0.0005738413310609758,0.9978101253509521,0.0,0.0,0.0,0.0629098042845726,9.851337432861328,0.6284916996955872,-11.386799812316895,0
1077.5560000000005,0.0002527640317566693,0.014506583102047443,-0.0005872868932783604,0.0,0.0,0.0,0.0,0.0020683330949395895,0.004420152865350246,0.00015751374303363264,0.9968354105949402,0.0,0.0,0.0,0.06250675022602081,9.843060493469238,0.6272881031036377,-11.31384563446045,0
1087.446,0.00034604614484123886,0.014518684707581997,-0.0006828596233390272,0.0,0.0,0.0,0.0,0.00034514840808697045,0.0004102023667655885,-0.0030308119021356106,0.9993209838867188,0.0,0.0,0.0,0.07207934558391571,9.852301597595215,0.6424883604049683,-13.046504974365234,0
1097.3279999999995,0.00022670264297630638,0.014576212503015995,-0.000629305315669626,0.0,0.0,0.0,0.0,-0.0002918338286690414,0.0009103816701099277,-0.00024500020663253963,0.9968981742858887,0.0,0.0,0.0,0.0716216117143631,9.845787048339844,0.6419971585273743,-12.963653564453125,0
1107.2199999999993,0.00027338499785400927,0.014557939022779465,-0.0006718115764670074,0.0,0.0,0.0,0.0,-7.887781248427927e-05,-0.0012254029279574752,-0.00023359546321444213,0.9988670349121094,0.0,0.0,0.0,0.07167920470237732,9.836540222167969,0.6352332830429077,-12.974078178405762,0
1117.0990000000002,0.00019529808196239173,0.014612531289458275,-0.0006026931223459542,0.0,0.0,0.0,0.0,-0.0012082246830686927,0.0018534936243668199,0.0008872412727214396,0.9985328316688538,0.0,0.0,0.0,0.06474053859710693,9.854233741760254,0.6206889152526855,-11.718165397644043,0
1126.9889999999996,0.0002396928466623649,0.014582375064492226,-0.0006471684318967164,0.0,0.0,0.0,0.0,-0.0027480863500386477,0.0007331226370297372,-1.8894081222242676e-05,0.9988080859184265,0.0,0.0,0.0,0.07292071729898453,9.863195419311523,0.6286749839782715,-13.1987943649292,0
1136.8700000000008,0.00017402014054823667,0.01463453471660614,-0.0005742325447499752,0.0,0.0,0.0,0.0,0.001701581641100347,0.001852746936492622,0.0015554435085505247,0.9985455870628357,0.0,0.0,0.0,0.06665637344121933,9.88292407989502,0.61872398853302,-12.064936637878418,0
1146.7559999999994,0.00022059718321543187,0.014610987156629562,-0.0006183373625390232,0.0,0.0,0.0,0.0,0.002850606804713607,-0.003115387400612235,-0.0006030911463312805,0.998951256275177,0.0,0.0,0.0,0.06669311225414276,9.865235328674316,0.6141507625579834,-12.071585655212402,0
1156.6450000000004,0.00017948243475984782,0.0146280936896801,-0.0005556357791647315,0.0,0.0,0.0,0.0,-0.0005388899007812142,0.00017233869584742934,-0.0006357608363032341,0.9980946779251099,0.0,0.0,0.0,0.06658484041690826,9.852189064025879,0.6148808002471924,-12.051989555358887,0
1166.5280000000002,0.00022421563335228711,0.014605588279664516,-0.000596551806665957,0.0,0.0,0.0,0.0,-0.0025241796392947435,0.001868400489911437,-0.0004432186542544514,0.9984195828437805,0.0,0.0,0.0,0.06768305599689484,9.841696739196777,0.6092032194137573,-12.250767707824707,0
1176.4140000000007,0.00015584765060339123,0.014647949486970901,-0.000526632065884769,0.0,0.0,0.0,0.0,-3.281260433141142e-05,-0.0016676954692229629,0.00013813194527756423,0.9983593821525574,0.0,0.0,0.0,0.06763628125190735,9.832866668701172,0.5979633927345276,-12.242301940917969,0
1186.299000000001,0.0002142352022929117,0.014635023660957813,-0.0005840794183313847,0.0,0.0,0.0,0.0,-0.0012324253330007195,-0.0022371471859514713,-0.0022438394371420145,0.9987248182296753,0.0,0.0,0.0,0.0767994374036789,9.838244438171387,0.6168567538261414,-13.900850296020508,0
1196.1970000000001,0.00015953191905282438,0.014663919806480408,-0.0005180591251701117,0.0,0.0,0.0,0.0,-0.0004982825485058129,-0.0016804722836241126,0.00031172085436992347,1.0005621910095215,0.0,0.0,0.0,0.07602190971374512,9.835712432861328,0.6239137649536133,-13.760115623474121,0
1206.071,0.0002228863158961758,0.014638769440352917,-0.0005837450153194368,0.0,0.0,0.0,0.0,0.0011460016248747706,-0.005767089314758778,0.0015654340386390686,1.000667691230774,0.0,0.0,0.0,0.08410188555717468,9.840080261230469,0.6352964639663696,-15.22260856628418,0
1215.9580000000005,0.00016561205848120153,0.0146687813103199,-0.0005157378036528826,0.0,0.0,0.0,0.0,0.0012091203825548291,-0.0018315326888114214,0.0025789267383515835,0.9981754422187805,0.0,0.0,0.0,0.0848340317606926,9.830792427062988,0.6462233662605286,-15.35512924194336,0
1225.8430000000008,0.0002251234109280631,0.014652001671493053,-0.0005716358427889645,0.0,0.0,0.0,0.0,0.0004534789768513292,0.0004481663927435875,-0.0021750740706920624,0.9948592782020569,0.0,0.0,0.0,0.0849529504776001,9.824724197387695,0.6551939845085144,-15.376653671264648,0
1235.7299999999996,0.00024769525043666363,0.01463304366916418,-0.0005090534104965627,0.0,0.0,0.0,0.0,0.000917889061383903,0.0026340822223573923,0.0017460121307522058,0.9971233606338501,0.0,0.0,0.0,0.08481498807668686,9.820858001708984,0.6631414890289307,-15.351682662963867,0
1245.6149999999998,0.00025549044949002564,0.014546409249305725,-0.0005236905417405069,0.0,0.0,0.0,0.0,-0.00022571999579668045,0.0050825499929487705,-0.0038790362887084484,0.9973506927490234,0.0,0.0,0.0,0.0945022702217102,9.815925598144531,0.6675348281860352,-17.105098724365234,0
1255.5069999999996,0.0002531213394831866,0.014548447914421558,-0.0004527746932581067,0.0,0.0,0.0,0.0,0.0017773748841136694,-0.0005982695729471743,-8.505213190801442e-05,0.9985396862030029,0.0,0.0,0.0,0.08819593489170074,9.825082778930664,0.6493456959724426,-15.963640213012695,0
1265.3860000000004,0.0003030316438525915,0.014505230821669102,-0.0005084604490548372,0.0,0.0,0.0,0.0,0.0006084832129999995,0.002392988884821534,-0.0028138484340161085,0.9998447895050049,0.0,0.0,0.0,0.08876369893550873,9.812848091125488,0.634590744972229,-16.06640625,0
1275.2720000000008,0.00021508523786906153,0.014498787000775337,-0.00047485899995081127,0.0,0.0,0.0,0.0,0.001099692191928625,-0.002683927770704031,0.0027101568412035704,0.9994853734970093,0.0,0.0,0.0,0.08711039274930954,9.800978660583496,0.6243820786476135,-15.767154693603516,0
1285.1579999999994,0.00020840451179537922,0.014393234625458717,-0.0004803557530976832,0.0,0.0,0.0,0.0,0.002786108525469899,0.001260405289940536,-0.0011965737212449312,0.9969255924224854,0.0,0.0,0.0,0.08735459297895432,9.78893756866455,0.6332780122756958,-15.811355590820312,0
1295.045,0.00014287984231486917,0.014407603070139885,-0.0004076639888808131,0.0,0.0,0.0,0.0,0.00034090332337655127,0.006235523149371147,-0.001877536647953093,0.9944210052490234,0.0,0.0,0.0,0.08674435317516327,9.7778959274292,0.6289547085762024,-15.700900077819824,0
1304.9300000000003,0.0002882055123336613,0.014502288773655891,-0.0005799012142233551,0.0,0.0,0.0,0.0,-0.0013693446526303887,0.0005643250187858939,0.002143646590411663,0.9977089166641235,0.0,0.0,0.0,0.08500032871961594,9.817727088928223,0.6417943835258484,-15.385229110717773,0
1314.8250000000007,0.00018853320216294378,0.014531741850078106,-0.0005334733868949115,0.0,0.0,0.0,0.0,-0.0007703012670390308,-0.0004370221577119082,-0.0011614577379077673,0.997857391834259,0.0,0.0,0.0,0.08546043187379837,9.808867454528809,0.6354461908340454,-15.468507766723633,0
1324.700999999999,0.0002545858733355999,0.0145581578835845,-0.000606994261033833,0.0,0.0,0.0,0.0,0.003181506646797061,-0.0010183564154431224,0.004940916784107685,0.9985966086387634,0.0,0.0,0.0,0.0951295718550682,9.828805923461914,0.6493605971336365,-17.218643188476562,0
1334.5869999999995,0.00017353372822981328,0.0146064767614007,-0.0005461162072606385,0.0,0.0,0.0,0.0,0.0028672218322753906,0.0033959911670535803,-0.002157089998945594,0.9987379908561707,0.0,0.0,0.0,0.08838924020528793,9.845331192016602,0.6395608186721802,-15.998627662658691,0
1344.473,0.00025498479953967035,0.014620250090956688,-0.0006479894509539008,0.0,0.0,0.0,0.0,0.0008970480412244797,0.004015070851892233,-0.00040673158946447074,0.9988723993301392,0.0,0.0,0.0,0.08827675879001617,9.833409309387207,0.6331575512886047,-15.97826862335205,0
1354.3590000000004,0.00018413954239804298,0.014656856656074524,-0.0005918343085795641,0.0,0.0,0.0,0.0,0.002834807615727186,-0.0033752978779375553,0.0008084053406491876,0.9982189536094666,0.0,0.0,0.0,0.08831827342510223,9.823568344116211,0.6216945648193359,-15.985783576965332,0
1364.2450000000008,0.0002176801353925839,0.014622109942138195,-0.0006430616485886276,0.0,0.0,0.0,0.0,0.002297612838447094,0.004365583881735802,0.00203635822981596,0.9994462132453918,0.0,0.0,0.0,0.08810434490442276,9.80761432647705,0.6288994550704956,-15.947062492370605,0
1374.1370000000006,0.0001405479561071843,0.014676142483949661,-0.0005727688549086452,0.0,0.0,0.0,0.0,0.0006089204689487815,-0.0036562506575137377,0.001236648764461279,0.9989652037620544,0.0,0.0,0.0,0.0782773420214653,9.824692726135254,0.6039667725563049,-14.168354034423828,0
1384.0159999999996,0.0001807640219340101,0.014653414487838745,-0.0006272609462030232,0.0,0.0,0.0,0.0,0.0011348029365763068,-0.0023354028817266226,3.882906457874924e-05,0.9974611401557922,0.0,0.0,0.0,0.08849691599607468,9.823979377746582,0.61988765001297,-16.018117904663086,0
1393.902,0.00012538785813376307,0.014645382761955261,-0.0005873661139048636,0.0,0.0,0.0,0.0,0.000989481108263135,0.0019473680295050144,-0.0014533154899254441,0.9996343851089478,0.0,0.0,0.0,0.07982078194618225,9.834985733032227,0.6229727864265442,-14.44771957397461,0
1403.7890000000007,0.00019911842537112534,0.014642833732068539,-0.000687541498336941,0.0,0.0,0.0,0.0,0.0019142882665619254,-0.00116826465819031,-0.002125909086316824,0.9971300363540649,0.0,0.0,0.0,0.07971392571926117,9.829902648925781,0.6217755079269409,-14.42837905883789,0
1413.6810000000005,0.00010695004311855882,0.014673037454485893,-0.0006339827668853104,0.0,0.0,0.0,0.0,0.0018053696257993579,0.00477035716176033,0.0009365296573378146,0.9949118494987488,0.0,0.0,0.0,0.07162685692310333,9.8458251953125,0.6179615259170532,-12.964603424072266,0
1423.5599999999995,0.00014167446352075785,0.014649497345089912,-0.0006915257545188069,0.0,0.0,0.0,0.0,-0.001346487901173532,-0.004008221905678511,-0.0008071191841736436,0.9988275170326233,0.0,0.0,0.0,0.07948470860719681,9.850118637084961,0.6141209602355957,-14.386890411376953,0
1433.4539999999997,0.00014978903345763683,0.01466286089271307,-0.0006127529195509851,0.0,0.0,0.0,0.0,0.00016766048793215305,-0.00370182772167027,-0.0021152792032808065,0.9979121088981628,0.0,0.0,0.0,0.07285773754119873,9.86584758758545,0.619981050491333,-13.187395095825195,0
1443.3369999999995,0.00017303531058132648,0.014623643830418587,-0.0006596483290195465,0.0,0.0,0.0,0.0,0.0006752273766323924,0.0005419212393462658,0.0005622957833111286,0.9987353086471558,0.0,0.0,0.0,0.07273943722248077,9.854388236999512,0.62519371509552,-13.165983200073242,0
1453.2180000000008,0.00015420810086652637,0.014640153385698795,-0.000584289082325995,0.0,0.0,0.0,0.0,0.001243805862031877,0.00760162016376853,-0.00023144746955949813,0.9990261197090149,0.0,0.0,0.0,0.07257585972547531,9.845452308654785,0.6167388558387756,-13.136375427246094,0
1463.1029999999992,0.00019985812832601368,0.014622284099459648,-0.00065281504066661,0.0,0.0,0.0,0.0,0.0019979136995971203,-0.0036085848696529865,0.004068972077220678,0.9984010457992554,0.0,0.0,0.0,0.08435600996017456,9.85457992553711,0.5988978743553162,-15.26860523223877,0
1472.9899999999998,0.0001654216757742688,0.01463195588439703,-0.0005876214127056301,0.0,0.0,0.0,0.0,0.000299094885122031,0.002704114653170109,0.0006723350379616022,0.9987139701843262,0.0,0.0,0.0,0.08503235131502151,9.842721939086914,0.606580913066864,-15.391024589538574,0
1482.875,0.00023574767692480236,0.01462799683213234,-0.0006798544200137258,0.0,0.0,0.0,0.0,0.0012888606870546937,-0.0032206836622208357,-0.002285012975335121,0.9969639778137207,0.0,0.0,0.0,0.08434700965881348,9.830256462097168,0.6021902561187744,-15.266976356506348,0
1492.7610000000004,0.00025883715716190636,0.014623267576098442,-0.000606596702709794,0.0,0.0,0.0,0.0,0.0015845319721847773,0.0027223043143749237,6.83290545566706e-06,0.9971605539321899,0.0,0.0,0.0,0.08346091955900192,9.819581031799316,0.6136141419410706,-15.106592178344727,0
1502.6460000000006,0.0002948674955405295,0.014595216140151024,-0.0006531068938784301,0.0,0.0,0.0,0.0,0.0009535698918625712,-0.005412181373685598,0.0010648038005456328,0.9976444244384766,0.0,0.0,0.0,0.090408094227314,9.823952674865723,0.6225886940956116,-16.364044189453125,0
1512.5329999999994,0.00028808461502194405,0.014597381465137005,-0.0005842065438628197,0.0,0.0,0.0,0.0,0.000579412211664021,0.0015224901726469398,-0.00044928494025953114,0.9999813437461853,0.0,0.0,0.0,0.07976934313774109,9.836921691894531,0.6228427290916443,-14.438409805297852,0
1522.4179999999997,0.00027582497568801045,0.014486800879240036,-0.0005967977922409773,0.0,0.0,0.0,0.0,0.00098706956487149,0.002109787194058299,0.00018973363330587745,0.9999194145202637,0.0,0.0,0.0,0.08004969358444214,9.82619571685791,0.6160474419593811,-14.489153861999512,0
1532.3109999999997,0.0002405087579973042,0.014509540982544422,-0.0005131345824338496,0.0,0.0,0.0,0.0,-0.001481435145251453,-0.0017778886249288917,0.0004249553312547505,0.9985159039497375,0.0,0.0,0.0,0.07575889676809311,9.849586486816406,0.5977376103401184,-13.712512016296387,0
1542.1900000000005,0.00031209681765176356,0.014515599235892296,-0.0006102171028032899,0.0,0.0,0.0,0.0,0.0017673461697995663,-0.0017887153662741184,0.0009953672997653484,0.9995276927947998,0.0,0.0,0.0,0.08281400799751282,9.871586799621582,0.6076086163520813,-14.989500999450684,0
1552.0769999999993,0.00024510081857442856,0.01450626365840435,-0.0005642639589495957,0.0,0.0,0.0,0.0,-0.0007130378508009017,-0.004504256881773472,0.0021725711412727833,0.9994207620620728,0.0,0.0,0.0,0.08329249173402786,9.857629776000977,0.6157410144805908,-15.076107025146484,0
1561.9609999999993,0.0003288020961917937,0.014533794485032558,-0.0006621985230594873,0.0,0.0,0.0,0.0,-0.0012018514098599553,-0.004055840894579887,0.003320450894534588,0.9986811876296997,0.0,0.0,0.0,0.08352164924144745,9.845020294189453,0.6184651255607605,-15.117584228515625,0
1571.8490000000002,0.0002322475629625842,0.01455812156200409,-0.0006097183795645833,0.0,0.0,0.0,0.0,-0.0005332097061909735,0.0004152993788011372,-0.001076099113561213,0.9983329772949219,0.0,0.0,0.0,0.08374778926372528,9.83885669708252,0.6270239949226379,-15.158517837524414,0
1581.7330000000002,0.000270854594418779,0.014553085900843143,-0.0006488712388090789,0.0,0.0,0.0,0.0,-0.0025813058018684387,-0.001870834967121482,-0.0004303448658902198,0.9998018741607666,0.0,0.0,0.0,0.09230198711156845,9.847945213317871,0.634177565574646,-16.70684242248535,0
1591.6209999999992,0.00017034770280588418,0.014604826457798481,-0.000578349397983402,0.0,0.0,0.0,0.0,0.0009191112476401031,0.001381243229843676,0.002463277895003557,0.9991157650947571,0.0,0.0,0.0,0.08509505540132523,9.873208999633789,0.6262184381484985,-15.402374267578125,0
1601.5069999999996,0.0002386374253546819,0.014607916586101055,-0.0006618950283154845,0.0,0.0,0.0,0.0,0.0010921158827841282,-0.00029915422783233225,0.003073489759117365,0.9989525079727173,0.0,0.0,0.0,0.08592827618122101,9.85969066619873,0.6211941838264465,-15.55318832397461,0
1611.393,0.00010471418499946594,0.01464927475899458,-0.0006090144743211567,0.0,0.0,0.0,0.0,0.00044781359611079097,0.001306268502958119,-0.0010798572329804301,0.9971978664398193,0.0,0.0,0.0,0.08031405508518219,9.87204360961914,0.6031769514083862,-14.537002563476562,0
1621.277,0.00014363229274749756,0.014641022309660912,-0.0006647931295447052,0.0,0.0,0.0,0.0,0.0023524235002696514,0.004952041432261467,0.00015607300156261772,0.9979909658432007,0.0,0.0,0.0,0.08945572376251221,9.87743091583252,0.6088011264801025,-16.19166374206543,0
1631.1620000000003,7.414729043375701e-05,0.014649842865765095,-0.0006079021841287613,0.0,0.0,0.0,0.0,0.0023799308110028505,0.002506545279175043,0.002323300112038851,0.9973692297935486,0.0,0.0,0.0,0.0804264098405838,9.886049270629883,0.5962732434272766,-14.557340621948242,0
1641.0480000000007,0.00011743976210709661,0.014647787436842918,-0.0006701283855363727,0.0,0.0,0.0,0.0,-0.0020410034339874983,0.00037259477539919317,-0.0012119307648390532,0.9992903470993042,0.0,0.0,0.0,0.09280890226364136,9.89040756225586,0.5972503423690796,-16.798595428466797,0
1650.9339999999993,9.113205305766314e-05,0.014622682705521584,-0.0006203406373970211,0.0,0.0,0.0,0.0,0.00263990368694067,-0.0022130305878818035,-0.0002716763410717249,0.9975103139877319,0.0,0.0,0.0,0.08629069477319717,9.895444869995117,0.5966928601264954,-15.618786811828613,0
1660.8240000000005,0.0001341435417998582,0.014617029577493668,-0.0006803608266636729,0.0,0.0,0.0,0.0,-0.0013554899487644434,0.0012147467350587249,0.0014476064825430512,0.998437225818634,0.0,0.0,0.0,0.09243913739919662,9.896507263183594,0.6164207458496094,-16.731666564941406,0
1670.7170000000006,0.00015010492643341422,0.014621220529079437,-0.0005947171594016254,0.0,0.0,0.0,0.0,0.0017300407635048032,-0.001052616978995502,0.0027803308330476284,1.0003721714019775,0.0,0.0,0.0,0.09305518120527267,9.887916564941406,0.6095468401908875,-16.843172073364258,0
1680.5959999999995,0.00017347635002806783,0.014561591669917107,-0.0006446866318583488,0.0,0.0,0.0,0.0,0.00012106339272577316,-0.0001962625829037279,-8.140927093336359e-05,1.0009105205535889,0.0,0.0,0.0,0.0930880606174469,9.877619743347168,0.6128499507904053,-16.849124908447266,0
1690.4770000000008,0.0001361597969662398,0.014591352082788944,-0.000555885024368763,0.0,0.0,0.0,0.0,0.0013448477257043123,0.003673223312944174,0.0028601903468370438,0.999934732913971,0.0,0.0,0.0,0.09236513823270798,9.869751930236816,0.6162035465240479,-16.71827507019043,0
1700.3649999999998,0.0001474195159971714,0.014540105126798153,-0.0005751988501287997,0.0,0.0,0.0,0.0,-0.0005608944920822978,0.0002778194029815495,0.0004712558875326067,0.9971323013305664,0.0,0.0,0.0,0.09957564622163773,9.867688179016113,0.6102768778800964,-18.023387908935547,0
1710.2610000000004,9.029982174979523e-05,0.014529512263834476,-0.00051600526785478,0.0,0.0,0.0,0.0,0.0009922155877575278,-0.0044884709641337395,0.0015628169057890773,0.998838484287262,0.0,0.0,0.0,0.09155557304620743,9.876245498657227,0.6001557111740112,-16.571741104125977,0
1720.1360000000004,7.116029155440629e-05,0.014423209242522717,-0.0005135796964168549,0.0,0.0,0.0,0.0,0.0005985937314108014,-0.00031860280432738364,0.003418679116293788,0.9988178014755249,0.0,0.0,0.0,0.09168317914009094,9.864503860473633,0.6088965535163879,-16.594837188720703,0
1730.0210000000006,4.4538795918924734e-05,0.014413105323910713,-0.0004372538533061743,0.0,0.0,0.0,0.0,0.0008619490545243025,-0.0013668746687471867,0.0003201163490302861,0.9971516728401184,0.0,0.0,0.0,0.08367472887039185,9.875672340393066,0.6151108741760254,-15.145292282104492,0
1739.911,0.000167960868566297,0.014506635256111622,-0.0005843212711624801,0.0,0.0,0.0,0.0,0.0002552995865698904,-0.006767467129975557,0.0009612872963771224,0.9985776543617249,0.0,0.0,0.0,0.09321988373994827,9.914907455444336,0.6490690112113953,-16.872983932495117,0
1749.795,0.0001277479314012453,0.014531710185110569,-0.0004986044368706644,0.0,0.0,0.0,0.0,0.0019428199157118797,0.005099051166325808,-0.0003844238817691803,0.9988211989402771,0.0,0.0,0.0,0.094069704413414,9.900675773620605,0.6596252918243408,-17.026805877685547,0
1759.6779999999999,0.00010761961311800405,0.014434081502258778,-0.0004970242734998465,0.0,0.0,0.0,0.0,0.0005418150103650987,0.0025598297361284494,0.005973966792225838,1.0003212690353394,0.0,0.0,0.0,0.09449063986539841,9.886514663696289,0.641363263130188,-17.102994918823242,0
1769.567000000001,0.00013290478091221303,0.014428093098104,-0.00041323257028125226,0.0,0.0,0.0,0.0,-4.2990104702766985e-06,0.0012528497027233243,-0.0015760497190058231,1.0008506774902344,0.0,0.0,0.0,0.08985070139169693,9.900444984436035,0.6344034075737,-16.263154983520508,0
1779.4500000000007,0.00030735990731045604,0.014556783251464367,-0.000658420380204916,0.0,0.0,0.0,0.0,0.00321693136356771,0.002672680653631687,0.0016715906094759703,1.0001085996627808,0.0,0.0,0.0,0.09097909182310104,9.949546813964844,0.6629458665847778,-16.467395782470703,0
1789.3349999999991,0.00017197408305946738,0.014579038135707378,-0.0006156585877761245,0.0,0.0,0.0,0.0,0.0007020856719464064,1.771940696926322e-05,0.0034222842659801245,0.99880450963974,0.0,0.0,0.0,0.08261704444885254,9.968740463256836,0.63480144739151,-14.953848838806152,0
1799.2209999999995,0.00022516539320349693,0.014562537893652916,-0.0007045741658657789,0.0,0.0,0.0,0.0,0.0030637795571237803,-0.0023383512161672115,-0.0011424460681155324,0.9985392689704895,0.0,0.0,0.0,0.08400537818670273,9.958796501159668,0.6376166939735413,-15.205140113830566,0
1809.107,0.0001709054340608418,0.014579684473574162,-0.0006350952317006886,0.0,0.0,0.0,0.0,-0.0025071119889616966,-6.615622987737879e-05,-0.0003166527021676302,0.9984515905380249,0.0,0.0,0.0,0.07673858851194382,9.959186553955078,0.6335198879241943,-13.889837265014648,0
1818.9940000000006,0.00021615676814690232,0.014568567276000977,-0.0007059345953166485,0.0,0.0,0.0,0.0,0.00028745498275384307,0.0005065568839199841,-0.0019396344432607293,0.9990095496177673,0.0,0.0,0.0,0.07691220939159393,9.952779769897461,0.625555157661438,-13.921263694763184,0
1828.8790000000008,0.00018012923828791827,0.014582560397684574,-0.0006380982231348753,0.0,0.0,0.0,0.0,-0.002493248786777258,-3.773138450924307e-05,0.002055636839941144,0.9976981282234192,0.0,0.0,0.0,0.07668369263410568,9.943023681640625,0.6250956058502197,-13.879899978637695,0
1838.7649999999994,0.00022931692365091294,0.014566933736205101,-0.0007159627275541425,0.0,0.0,0.0,0.0,0.00030059239361435175,0.0008608983480371535,0.001704589230939746,0.9955681562423706,0.0,0.0,0.0,0.0857066735625267,9.95075798034668,0.6365748643875122,-15.513079643249512,0
1848.6540000000005,0.00015199372137431055,0.014583004638552666,-0.0006638241466134787,0.0,0.0,0.0,0.0,-0.002304389839991927,-0.003577840980142355,-0.0008505132282152772,0.9983137249946594,0.0,0.0,0.0,0.07979656010866165,9.961709022521973,0.6230145692825317,-14.44333553314209,0
1858.5370000000003,0.00019661174155771732,0.014551910571753979,-0.0007459888001903892,0.0,0.0,0.0,0.0,0.0001805649808375165,-0.0007316788542084396,0.001488773850724101,0.999886691570282,0.0,0.0,0.0,0.07914326339960098,9.958553314208984,0.6331772804260254,-14.325087547302246,0
1868.4259999999995,0.00017715264402795583,0.014569554477930069,-0.0006683788378722966,0.0,0.0,0.0,0.0,0.0003584766818676144,0.001080203102901578,-0.0020438001956790686,0.9968316555023193,0.0,0.0,0.0,0.07894395291805267,9.949599266052246,0.6297683715820312,-14.28901195526123,0
1878.308000000001,0.00015793464262969792,0.014469950459897518,-0.0006786363665014505,0.0,0.0,0.0,0.0,-0.0016691667260602117,0.0028734863735735416,0.001012850902043283,0.9991778135299683,0.0,0.0,0.0,0.07928931713104248,9.936752319335938,0.6203778386116028,-14.351523399353027,0
1888.1990000000005,0.0001941043883562088,0.014455965720117092,-0.0007335147820413113,0.0,0.0,0.0,0.0,-0.00027629727264866233,0.0034908426459878683,-0.0031870980747044086,0.9991442561149597,0.0,0.0,0.0,0.08961400389671326,9.94485855102539,0.6222734451293945,-16.220312118530273,0
1898.0820000000003,0.00017590957577340305,0.014350078999996185,-0.0007480814820155501,0.0,0.0,0.0,0.0,-0.0011475317878648639,-0.0005237468867562711,-0.0004205897857900709,0.9997440576553345,0.0,0.0,0.0,0.08928896486759186,9.931246757507324,0.6189756989479065,-16.161481857299805,0
1907.9689999999991,0.00023045072157401592,0.014373457059264183,-0.0008125485619530082,0.0,0.0,0.0,0.0,0.0011899769306182861,0.0008370924042537808,-0.0038475850597023964,0.9986526966094971,0.0,0.0,0.0,0.0914136990904808,9.958009719848633,0.6408787369728088,-16.546062469482422,0
1917.8510000000006,0.00021692155860364437,0.014266632497310638,-0.0008308933465741575,0.0,0.0,0.0,0.0,-0.0033656833693385124,-0.006405498832464218,0.0012769346358254552,0.9989200830459595,0.0,0.0,0.0,0.09054633229970932,9.944184303283691,0.6380331516265869,-16.389066696166992,0
1927.7450000000008,0.0002614363911561668,0.014303747564554214,-0.0008639032021164894,0.0,0.0,0.0,0.0,0.002181822434067726,3.807114262599498e-05,0.0003148656978737563,0.9988090991973877,0.0,0.0,0.0,0.0906653106212616,9.983953475952148,0.6760836243629456,-16.410600662231445,0
1937.6260000000002,0.0002525866439100355,0.014202593825757504,-0.0008844933472573757,0.0,0.0,0.0,0.0,-0.0010678513208404183,0.0005070327897556126,-0.0014472354669123888,0.9972043037414551,0.0,0.0,0.0,0.08989055454730988,9.969237327575684,0.6778922080993652,-16.270368576049805,0
1947.5169999999998,0.00023870037693995982,0.014214405789971352,-0.0008239331655204296,0.0,0.0,0.0,0.0,-0.002995274728164077,-0.0016796328127384186,-0.0008868581498973072,0.997954785823822,0.0,0.0,0.0,0.09739221632480621,9.993443489074707,0.6777085661888123,-17.628183364868164,0
1957.3979999999992,0.00022851383255328983,0.01411038264632225,-0.0008415974443778396,0.0,0.0,0.0,0.0,-0.002854628022760153,-0.0004604734422173351,-0.00048700670595280826,0.9971110224723816,0.0,0.0,0.0,0.09755340218544006,9.988910675048828,0.6792986989021301,-17.657358169555664,0
1967.2909999999993,0.0002471196057740599,0.014177188277244568,-0.0007824121275916696,0.0,0.0,0.0,0.0,0.0009412434883415699,-0.0005175158730708063,0.0030625704675912857,1.0001353025436401,0.0,0.0,0.0,0.10747305303812027,10.044820785522461,0.6944639682769775,-19.452836990356445,0
1977.1679999999997,0.00023695602430962026,0.014074624516069889,-0.0007967113051563501,0.0,0.0,0.0,0.0,0.0012992655392736197,0.003660661866888404,-0.002813369268551469,0.9994155764579773,0.0,0.0,0.0,0.10837012529373169,10.03246021270752,0.6888747811317444,-19.61520767211914,0
1987.0640000000003,0.00027969409711658955,0.014104587957262993,-0.000784865696914494,0.0,0.0,0.0,0.0,0.0027258209884166718,-0.0019973227754235268,0.0008499230607412755,0.9974034428596497,0.0,0.0,0.0,0.11238308250904083,10.072762489318848,0.6962490081787109,-20.341562271118164,0
1996.9400000000005,0.00027518757269717753,0.014004498720169067,-0.0007992282044142485,0.0,0.0,0.0,0.0,-0.0014514293288812041,0.0014456941280514002,-0.0055611454881727695,0.999693751335144,0.0,0.0,0.0,0.11273007839918137,10.055081367492676,0.6941391825675964,-20.404367446899414,0
2006.8369999999995,0.0002885884896386415,0.014058983884751797,-0.0007221115520223975,0.0,0.0,0.0,0.0,0.002721983939409256,0.00297941523604095,0.0005256286240182817,0.9999662637710571,0.0,0.0,0.0,0.11119810491800308,10.100445747375488,0.6978097558021545,-20.127079010009766,0
2016.7129999999997,0.0002866708964575082,0.013963313773274422,-0.0007309684297069907,0.0,0.0,0.0,0.0,0.00017685411148704588,-0.00021269236458465457,-0.0011186263291165233,0.9967032074928284,0.0,0.0,0.0,0.11149077117443085,10.082889556884766,0.6895889639854431,-20.180051803588867,0
2026.6110000000008,0.0002846916613634676,0.01386346947401762,-0.0007409630343317986,0.0,0.0,0.0,0.0,0.0006715408526360989,-0.004421726800501347,-0.00014844225370325148,0.9990885257720947,0.0,0.0,0.0,0.11104705929756165,10.07408618927002,0.6937633752822876,-20.0997371673584,0
2036.4869999999992,0.0002837281790561974,0.013758494518697262,-0.0007521918741986156,0.0,0.0,0.0,0.0,-0.0020800591446459293,0.00014960873522795737,0.0023761584889143705,1.0006099939346313,0.0,0.0,0.0,0.11076255142688751,10.061453819274902,0.6979516744613647,-20.048240661621094,0
2046.3770000000004,0.0004611359036061913,0.013980329036712646,-0.0007279758574441075,0.0,0.0,0.0,0.0,-0.001424088142812252,-0.0006406628526747227,2.719527947192546e-05,0.9993659257888794,0.0,0.0,0.0,0.11187370866537094,10.170124053955078,0.7488914728164673,-20.24936294555664,0
2056.254999999999,0.0004746512568090111,0.013892421498894691,-0.0007391553372144699,0.0,0.0,0.0,0.0,0.0026788972318172455,-6.0488695453386754e-05,0.0006297653308138251,0.9989433288574219,0.0,0.0,0.0,0.11158793419599533,10.162214279174805,0.7411167621612549,-20.1976375579834,0
2066.1479999999992,0.00055403116857633,0.014044421724975109,-0.0006512767868116498,0.0,0.0,0.0,0.0,-0.0008142999140545726,-0.0045129465870559216,-0.0007413728162646294,0.9980831742286682,0.0,0.0,0.0,0.12109211087226868,10.230833053588867,0.7689064741134644,-21.91791343688965,0
2076.027,0.0005719276960007846,0.01396717969328165,-0.000658454722724855,0.0,0.0,0.0,0.0,-0.0029851568397134542,0.004360583145171404,-0.00037926636287011206,1.0001065731048584,0.0,0.0,0.0,0.12047097831964493,10.219806671142578,0.7859072685241699,-21.80548667907715,0
2085.9210000000003,0.000590416369959712,0.013884896412491798,-0.0006656435434706509,0.0,0.0,0.0,0.0,0.00023145577870309353,0.005113283637911081,0.005262255202978849,0.9986414313316345,0.0,0.0,0.0,0.11959464848041534,10.21330738067627,0.7831109762191772,-21.646867752075195,0
2095.803,0.0006102934712544084,0.013798392377793789,-0.0006728004664182663,0.0,0.0,0.0,0.0,0.00046340859262272716,-0.0036233491264283657,-0.0012844920856878161,0.9971896409988403,0.0,0.0,0.0,0.12080620229244232,10.20241928100586,0.7708768248558044,-21.86616325378418,0
2105.6980000000003,0.000631223083473742,0.013708150014281273,-0.0006812437204644084,0.0,0.0,0.0,0.0,0.00017497793305665255,0.0023858724161982536,-0.0006036563427187502,0.9989681243896484,0.0,0.0,0.0,0.12033908069133759,10.19095516204834,0.7770620584487915,-21.781612396240234,0
2115.58,0.0006509235827252269,0.013613170012831688,-0.0006909953663125634,0.0,0.0,0.0,0.0,0.0038603986613452435,-0.009331847541034222,0.004205609671771526,0.9990925788879395,0.0,0.0,0.0,0.11927074193954468,10.181373596191406,0.7772080898284912,-21.588241577148438,0
2125.4750000000004,0.0006674959440715611,0.01351328007876873,-0.0007013672729954123,0.0,0.0,0.0,0.0,0.00026445361436344683,-0.0034849129151552916,0.00014035227650310844,0.9976654648780823,0.0,0.0,0.0,0.1195865049958229,10.167327880859375,0.7949019074440002,-21.645395278930664,0
2135.3459999999995,0.0006810839986428618,0.013409602455794811,-0.0007125824922695756,0.0,0.0,0.0,0.0,-0.0007558745564892888,0.00264133233577013,-3.152030330966227e-05,0.9995158314704895,0.0,0.0,0.0,0.11911671608686447,10.16136646270752,0.7952247858047485,-21.560361862182617,0
2145.2389999999996,0.0006922046304680407,0.013303418643772602,-0.0007242183201014996,0.0,0.0,0.0,0.0,0.0011968077160418034,0.00030070592765696347,0.0022604018449783325,1.0006444454193115,0.0,0.0,0.0,0.11941009759902954,10.153741836547852,0.7885598540306091,-21.613466262817383,0
2155.115,0.0007024603546597064,0.013195497915148735,-0.0007352808024734259,0.0,0.0,0.0,0.0,0.00072175805689767,0.007847199216485023,-0.0007560739177279174,0.9989938735961914,0.0,0.0,0.0,0.11993224918842316,10.139640808105469,0.7923402786254883,-21.707975387573242,0
2165.0110000000004,0.0007133528706617653,0.01308567076921463,-0.0007459856569766998,0.0,0.0,0.0,0.0,-0.0009877934353426099,-0.005623850505799055,0.0006455648690462112,1.0013600587844849,0.0,0.0,0.0,0.11919999122619629,10.124670028686523,0.7755037546157837,-21.575437545776367,0
2174.885,0.0007245918968692422,0.01297241635620594,-0.0007559802033938468,0.0,0.0,0.0,0.0,0.001529127825051546,0.000971475150436163,0.001790764625184238,0.9983928799629211,0.0,0.0,0.0,0.11870298534631729,10.117815971374512,0.7826535701751709,-21.485475540161133,0
2184.7790000000005,0.0007347475038841367,0.012855141423642635,-0.0007657382520847023,0.0,0.0,0.0,0.0,0.0006773672066628933,9.695164044387639e-05,-0.0010367142967879772,0.9989311099052429,0.0,0.0,0.0,0.11994098126888275,10.101829528808594,0.7743645310401917,-21.709558486938477,0
2194.6579999999994,0.0007431974518112838,0.01273389346897602,-0.0007760721491649747,0.0,0.0,0.0,0.0,-5.052503638580674e-06,-0.0026114732027053833,0.0012256649788469076,1.00074303150177,0.0,0.0,0.0,0.11930602788925171,10.087288856506348,0.7707232236862183,-21.594627380371094,0
2204.5560000000005,0.0007501495420001447,0.012607661075890064,-0.0007857957389205694,0.0,0.0,0.0,0.0,-0.0021871854551136494,0.00024120348098222166,-0.0034682166296988726,0.9997919201850891,0.0,0.0,0.0,0.1198895052075386,10.077895164489746,0.7728943824768066,-21.700239181518555,0
2214.437,0.0007559747318737209,0.012476286850869656,-0.0007948433049023151,0.0,0.0,0.0,0.0,-0.0013231488410383463,-0.005854839459061623,0.0029689869843423367,0.9981648325920105,0.0,0.0,0.0,0.11850792169570923,10.068636894226074,0.7708168625831604,-21.450170516967773,0
2224.3230000000003,0.0007601930992677808,0.0123408492654562,-0.000804506242275238,0.0,0.0,0.0,0.0,0.00040799277485348284,0.006316909566521645,-0.0032051685266196728,0.9982908964157104,0.0,0.0,0.0,0.11881017684936523,10.058775901794434,0.7863894701004028,-21.504880905151367,0
2234.2000000000007,0.0007619857206009328,0.012201527133584023,-0.0008154405513778329,0.0,0.0,0.0,0.0,0.0021529183723032475,-0.004343129228800535,0.0010477022733539343,0.9984399676322937,0.0,0.0,0.0,0.11749346554279327,10.049196243286133,0.7742288112640381,-21.266550064086914,0
2244.0949999999993,0.000761825533118099,0.012057880870997906,-0.0008275520522147417,0.0,0.0,0.0,0.0,0.0029078060761094093,-0.0021798519883304834,-0.001645041280426085,0.9990131855010986,0.0,0.0,0.0,0.11750831454992294,10.034601211547852,0.7796613574028015,-21.269237518310547,0
2253.973,0.0007609384483657777,0.011910115368664265,-0.0008402874227613211,0.0,0.0,0.0,0.0,-0.0008052998455241323,0.0005917498492635787,0.0003369557380210608,1.000583291053772,0.0,0.0,0.0,0.1172972097992897,10.017129898071289,0.7787014842033386,-21.231027603149414,0
2263.870999999999,0.0007598287193104625,0.011758463457226753,-0.0008527424652129412,0.0,0.0,0.0,0.0,0.0005429174634627998,0.0034093735739588737,1.977005013031885e-05,0.999697744846344,0.0,0.0,0.0,0.11699055880308151,10.005311012268066,0.7690287232398987,-21.17552375793457,0
2273.751,0.0007579755620099604,0.011602712795138359,-0.0008646586211398244,0.0,0.0,0.0,0.0,-0.0010188400046899915,-0.0015910739311948419,-0.0009066594066098332,1.0003862380981445,0.0,0.0,0.0,0.11684274673461914,9.992246627807617,0.7544063329696655,-21.148771286010742,0
