timestamp,stateEstimate.x,stateEstimate.y,stateEstimate.z,controller.cmd_thrust,controller.cmd_roll,controller.cmd_pitch,controller.cmd_yaw,controller.r_roll,controller.r_pitch,controller.r_yaw,controller.accelz,controller.actuatorThrust,controller.roll,controller.pitch,controller.yaw,controller.rollRate,controller.pitchRate,controller.yawRate,controller.ctr_yaw
0.0,-0.01522260531783104,0.05407702550292015,-0.061382997781038284,0.0,0.0,0.0,0.0,0.0035172579810023308,0.008155177347362041,0.00045080692507326603,0.9975969195365906,0.0,0.0,0.0,7.435801029205322,3.743938446044922,6.540743350982666,-1345.894775390625,0
9.936999999999898,-0.01525938417762518,0.053923532366752625,-0.061333559453487396,0.0,0.0,0.0,0.0,0.0021734756883233786,0.0020525779109448195,-0.003665460739284754,0.9987307786941528,0.0,0.0,0.0,7.431392192840576,3.6443917751312256,6.478484630584717,-1345.0968017578125,0
19.81499999999869,-0.015058731660246849,0.05467148497700691,-0.0625552386045456,0.0,0.0,0.0,0.0,0.0010389522649347782,-0.00016516796313226223,-0.0037085849326103926,0.9993975162506104,0.0,0.0,0.0,7.423167705535889,3.637010097503662,6.470788478851318,-1343.6082763671875,0
29.737999999999374,-0.015117811039090157,0.054432108998298645,-0.06241197884082794,0.0,0.0,0.0,0.0,0.000769339210819453,-0.0032939938828349113,0.0014578822301700711,0.9992596507072449,0.0,0.0,0.0,7.414394378662109,3.5291635990142822,6.418795585632324,-1342.02001953125,0
39.638999999999214,-0.014920815825462341,0.05517030134797096,-0.06362419575452805,0.0,0.0,0.0,0.0,-0.0006325496942736208,6.223758100531995e-05,0.0022335313260555267,1.0001040697097778,0.0,0.0,0.0,7.408426761627197,3.5250933170318604,6.4279608726501465,-1340.93994140625,0
49.55699999999888,-0.015000501647591591,0.054935913532972336,-0.06337920576334,0.0,0.0,0.0,0.0,-0.0002746165555436164,0.00027417641831561923,-0.0011374972527846694,0.9985735416412354,0.0,0.0,0.0,7.41646671295166,3.443446636199951,6.3749589920043945,-1342.395263671875,0
59.461999999999534,-0.014806533232331276,0.0556679405272007,-0.06457829475402832,0.0,0.0,0.0,0.0,0.0017852198798209429,-0.0003363520372658968,0.0002634597185533494,1.0000979900360107,0.0,0.0,0.0,7.40920877456665,3.4358651638031006,6.369415283203125,-1341.0814208984375,0
69.3809999999994,-0.014883963391184807,0.05541045218706131,-0.06427142769098282,0.0,0.0,0.0,0.0,-0.0026040503289550543,0.0026073260232806206,0.0015769226010888815,0.9998316764831543,0.0,0.0,0.0,7.418017864227295,3.357940196990967,6.315298080444336,-1342.676025390625,0
79.28799999999865,-0.014693811535835266,0.05613395571708679,-0.06545491516590118,0.0,0.0,0.0,0.0,0.002809432102367282,-0.00010421948536532,-0.0001769370137481019,0.9995529055595398,0.0,0.0,0.0,7.41141414642334,3.359147787094116,6.3073883056640625,-1341.4805908203125,0
89.20799999999872,-0.014819984324276447,0.0557868555188179,-0.0650477409362793,0.0,0.0,0.0,0.0,0.0014328169636428356,0.0006102037150412798,-0.0014007349964231253,0.9990662336349487,0.0,0.0,0.0,7.421922206878662,3.2707509994506836,6.240565299987793,-1343.3826904296875,0
99.10599999999977,-0.014638431370258331,0.05650067329406738,-0.06621750444173813,0.0,0.0,0.0,0.0,-0.00015987464576028287,0.00015525186609011143,0.00015635859745088965,1.0002384185791016,0.0,0.0,0.0,7.414850234985352,3.2588884830474854,6.241366386413574,-1342.1026611328125,0
109.02899999999863,-0.014770682901144028,0.05616961419582367,-0.06575848907232285,0.0,0.0,0.0,0.0,0.0027428448665887117,0.006523472722619772,-0.002643341664224863,1.0002723932266235,0.0,0.0,0.0,7.429126262664795,3.181842803955078,6.174936771392822,-1344.6866455078125,0
118.92900000000009,-0.014594937674701214,0.05687359720468521,-0.0669112578034401,0.0,0.0,0.0,0.0,-0.0003875524562317878,-0.00017654389375820756,0.0003213018353562802,0.998512864112854,0.0,0.0,0.0,7.419891834259033,3.1711385250091553,6.151258945465088,-1343.0152587890625,0
128.84999999999854,-0.01468738541007042,0.05646347254514694,-0.06632198393344879,0.0,0.0,0.0,0.0,-0.001841696328483522,-0.0022521570790559053,0.0013483125949278474,1.0001935958862305,0.0,0.0,0.0,7.432043552398682,3.083311080932617,6.1077351570129395,-1345.2147216796875,0
138.753999999999,-0.023650359362363815,0.021373577415943146,-0.0009908353677019477,0.0,0.0,0.0,0.0,-0.00044380014878697693,-0.0017977266106754541,-0.002961071440950036,1.0005301237106323,0.0,0.0,0.0,7.445479393005371,1.677459478378296,5.517335891723633,-1347.6466064453125,0
148.67599999999948,-0.023553386330604553,0.021421829238533974,-0.0011643926845863461,0.0,0.0,0.0,0.0,0.00027715839678421617,0.0028349149506539106,-0.0039671543054282665,0.9995298385620117,0.0,0.0,0.0,7.4494547843933105,1.6609156131744385,5.517205715179443,-1348.3662109375,0
158.57799999999952,-0.02352738007903099,0.021521395072340965,-0.0013244592119008303,0.0,0.0,0.0,0.0,0.0007435503066517413,-0.0028429680969566107,-0.001151914824731648,1.0004576444625854,0.0,0.0,0.0,7.440592288970947,1.6595343351364136,5.498122215270996,-1346.761962890625,0
168.4969999999994,-0.02340852841734886,0.021565241739153862,-0.0015235434984788299,0.0,0.0,0.0,0.0,0.0012071324745193124,0.0038427775725722313,-0.001115786493755877,0.998603343963623,0.0,0.0,0.0,7.448949337005615,1.6379194259643555,5.49001407623291,-1348.274658203125,0
178.39499999999862,-0.023617710918188095,0.021271076053380966,-0.0011745078954845667,0.0,0.0,0.0,0.0,0.0007227231981232762,-0.0023567085154354572,-0.001254931092262268,0.9986690878868103,0.0,0.0,0.0,7.454904556274414,1.5678516626358032,5.464260101318359,-1349.3525390625,0
188.3119999999999,-0.023466113954782486,0.021316856145858765,-0.0012930358061566949,0.0,0.0,0.0,0.0,0.002144775353372097,0.001343370764516294,0.002878599800169468,0.9997011423110962,0.0,0.0,0.0,7.461574077606201,1.5518921613693237,5.46389627456665,-1350.5596923828125,0
198.21999999999935,-0.02343885786831379,0.021407390013337135,-0.0014367516851052642,0.0,0.0,0.0,0.0,-5.278928256302606e-06,-0.0007642621640115976,0.00021976325660943985,0.9999465942382812,0.0,0.0,0.0,7.454912185668945,1.5451223850250244,5.4643025398254395,-1349.3538818359375,0
208.14699999999903,-0.023449910804629326,0.02151351608335972,-0.001576115726493299,0.0,0.0,0.0,0.0,-0.0008830848382785916,0.0027197510935366154,-0.0012776419753208756,0.9992713928222656,0.0,0.0,0.0,7.4586873054504395,1.5550435781478882,5.467215061187744,-1350.0372314453125,0
218.04799999999886,-0.023421933874487877,0.02160538360476494,-0.001720143249258399,0.0,0.0,0.0,0.0,-0.0009627581457607448,0.0006115083233453333,0.00013141841918695718,0.9981379508972168,0.0,0.0,0.0,7.450433254241943,1.557151198387146,5.4622979164123535,-1348.5433349609375,0
227.96399999999994,-0.02342052571475506,0.021710846573114395,-0.001856258139014244,0.0,0.0,0.0,0.0,-0.0020353642757982016,0.0008826294215396047,-4.519615686149336e-06,0.9997219443321228,0.0,0.0,0.0,7.455878257751465,1.5608325004577637,5.458647727966309,-1349.5286865234375,0
237.86299999999937,-0.023388860747218132,0.021818434819579124,-0.0020158898551017046,0.0,0.0,0.0,0.0,0.0007913860026746988,0.0038079950027167797,0.0020005004480481148,1.0007702112197876,0.0,0.0,0.0,7.448770999908447,1.5553231239318848,5.445673942565918,-1348.2423095703125,0
247.78499999999985,-0.02347547374665737,0.021820111200213432,-0.0020142151042819023,0.0,0.0,0.0,0.0,-0.0033154753036797047,-0.00044985933345742524,0.00017548059986438602,0.9983207583427429,0.0,0.0,0.0,7.463441371917725,1.5571171045303345,5.436707496643066,-1350.897705078125,0
257.6909999999989,-0.02341952919960022,0.02202407270669937,-0.00230518844909966,0.0,0.0,0.0,0.0,-0.0030570095404982567,-0.002086874097585678,0.00023579111439175904,0.9988404512405396,0.0,0.0,0.0,7.449237823486328,1.5595418214797974,5.437529563903809,-1348.3267822265625,0
267.6129999999994,-0.02345758117735386,0.022018181160092354,-0.002307130489498377,0.0,0.0,0.0,0.0,0.00035553748602978885,-0.0002655730058904737,0.0011790816206485033,0.99916672706604,0.0,0.0,0.0,7.461265563964844,1.5575793981552124,5.431662559509277,-1350.50390625,0
277.5079999999998,-0.023720279335975647,0.021594764664769173,-0.0015871216310188174,0.0,0.0,0.0,0.0,-0.00496312091127038,-0.0023942026309669018,-0.0002695500443223864,0.9997982978820801,0.0,0.0,0.0,7.455270767211914,1.3876630067825317,5.353135585784912,-1349.4188232421875,0
287.4309999999987,-0.023606382310390472,0.02157590724527836,-0.0015386998420581222,0.0,0.0,0.0,0.0,0.0010476241586729884,0.001361612230539322,0.002036280231550336,1.0008125305175781,0.0,0.0,0.0,7.468189716339111,1.380930781364441,5.361705303192139,-1351.757080078125,0
297.33699999999953,-0.023582786321640015,0.021653158590197563,-0.0016314073000103235,0.0,0.0,0.0,0.0,0.0005663889460265636,-0.0019480114569887519,0.0012232039589434862,1.0000003576278687,0.0,0.0,0.0,7.4620819091796875,1.379446268081665,5.369110584259033,-1350.651611328125,0
307.2519999999986,-0.023469150066375732,0.021702580153942108,-0.0017175188986584544,0.0,0.0,0.0,0.0,0.004043299239128828,-0.003154003294184804,0.0006138508906587958,0.9994653463363647,0.0,0.0,0.0,7.453917503356934,1.3789609670639038,5.3595805168151855,-1349.173828125,0
317.15799999999945,-0.023443780839443207,0.02177441492676735,-0.0018019499257206917,0.0,0.0,0.0,0.0,-0.00014442953397519886,-0.0035109694581478834,-0.00019167699792888016,1.0019148588180542,0.0,0.0,0.0,7.446109771728516,1.3761955499649048,5.357646942138672,-1347.7606201171875,0
327.0759999999991,-0.023450884968042374,0.021814852952957153,-0.0019161069067195058,0.0,0.0,0.0,0.0,-8.29106429591775e-05,-0.002003704197704792,0.0017627483466640115,1.000871181488037,0.0,0.0,0.0,7.450470447540283,1.3706632852554321,5.356738567352295,-1348.550048828125,0
336.97599999999875,-0.023424668237566948,0.021888116374611855,-0.0020018971990793943,0.0,0.0,0.0,0.0,-0.0031683139968663454,-0.0028875567950308323,-0.0022351243533194065,0.998629093170166,0.0,0.0,0.0,7.443484306335449,1.3703688383102417,5.35426664352417,-1347.285400390625,0
346.90499999999884,-0.023422520607709885,0.021920176222920418,-0.0021243246737867594,0.0,0.0,0.0,0.0,0.0017370760906487703,-0.0006433153175748885,-0.003031435189768672,0.9985576272010803,0.0,0.0,0.0,7.449427604675293,1.3533164262771606,5.358028411865234,-1348.3612060546875,0
356.79699999999866,-0.023396525532007217,0.021992895752191544,-0.0022135674953460693,0.0,0.0,0.0,0.0,0.001819866942241788,0.0030654200818389654,-0.0011393235763534904,0.9992826581001282,0.0,0.0,0.0,7.441068172454834,1.342061161994934,5.351079940795898,-1346.84814453125,0
366.71799999999894,-0.02333422377705574,0.022034024819731712,-0.0023292372934520245,0.0,0.0,0.0,0.0,0.00013700901763513684,0.0008361139916814864,0.004116893280297518,0.999174177646637,0.0,0.0,0.0,7.450496196746826,1.3252995014190674,5.346024513244629,-1348.5545654296875,0
376.6189999999988,-0.023309998214244843,0.022105084732174873,-0.0024223453365266323,0.0,0.0,0.0,0.0,-3.453733370406553e-05,0.003140558721497655,-0.0001325605990132317,0.997992217540741,0.0,0.0,0.0,7.443620681762695,1.319626808166504,5.336145401000977,-1347.3101806640625,0
386.53799999999865,-0.023302575573325157,0.022121818736195564,-0.0025646944995969534,0.0,0.0,0.0,0.0,-0.0038825911469757557,0.0037761121056973934,-0.0019038502359762788,0.998460590839386,0.0,0.0,0.0,7.436096668243408,1.3183913230895996,5.327152729034424,-1345.9482421875,0
396.4439999999995,-0.02327752113342285,0.022191161289811134,-0.0026644112076610327,0.0,0.0,0.0,0.0,0.0011049130698665977,0.0034773072693496943,-0.0006848974153399467,0.9999843835830688,0.0,0.0,0.0,7.428725242614746,1.3149986267089844,5.315347194671631,-1344.6141357421875,0
406.369999999999,-0.023273076862096786,0.022247113287448883,-0.0027706606779247522,0.0,0.0,0.0,0.0,-0.003181340405717492,-0.003302154829725623,-0.0002267867821501568,0.9996594786643982,0.0,0.0,0.0,7.435990810394287,1.3155769109725952,5.296905994415283,-1345.9290771484375,0
416.2659999999996,-0.023249700665473938,0.022319085896015167,-0.0028720973059535027,0.0,0.0,0.0,0.0,-0.0013174822088330984,0.0006518212612718344,-0.0020257376600056887,0.9996988773345947,0.0,0.0,0.0,7.4283671379089355,1.3147610425949097,5.290225505828857,-1344.5491943359375,0
426.1919999999991,-0.023224396631121635,0.02234739251434803,-0.003005662467330694,0.0,0.0,0.0,0.0,-0.0009785034926608205,0.000898656842764467,0.002008650451898575,0.9988728165626526,0.0,0.0,0.0,7.4215216636657715,1.3132535219192505,5.289777755737305,-1343.310302734375,0
436.08699999999953,-0.02320278063416481,0.0224197618663311,-0.0031105715315788984,0.0,0.0,0.0,0.0,-0.001944408635608852,-0.002329290611669421,0.0006424884777516127,1.000066876411438,0.0,0.0,0.0,7.4134416580200195,1.3132476806640625,5.2895917892456055,-1341.8475341796875,0
446.0069999999996,-0.023180335760116577,0.02245296910405159,-0.0032405804377049208,0.0,0.0,0.0,0.0,-0.00026688972138799727,-0.0022502057254314423,-0.0014736844459548593,1.0017039775848389,0.0,0.0,0.0,7.406449317932129,1.3133339881896973,5.277702331542969,-1340.58203125,0
455.90999999999985,-0.023159325122833252,0.0225246399641037,-0.0033485384192317724,0.0,0.0,0.0,0.0,0.0011432444443926215,-0.0005485975998453796,-0.0004288426716811955,1.0004186630249023,0.0,0.0,0.0,7.399042129516602,1.3139845132827759,5.280210494995117,-1339.2413330078125,0
465.8349999999991,-0.023174945265054703,0.022586310282349586,-0.003449587384238839,0.0,0.0,0.0,0.0,0.0010212616762146354,-0.0010798771400004625,0.0006353967473842204,0.9984243512153625,0.0,0.0,0.0,7.408163547515869,1.3127663135528564,5.269471168518066,-1340.8922119140625,0
475.73299999999836,-0.023156888782978058,0.0226608719676733,-0.0035561968106776476,0.0,0.0,0.0,0.0,-9.655578469391912e-05,0.0019074613228440285,-0.0016009308164939284,0.9995706081390381,0.0,0.0,0.0,7.4011616706848145,1.3124217987060547,5.259461879730225,-1339.6248779296875,0
485.6529999999984,-0.023157350718975067,0.022722920402884483,-0.003656034590676427,0.0,0.0,0.0,0.0,-0.0009564312640577555,0.0019834067206829786,-0.0017748456448316574,0.9989275336265564,0.0,0.0,0.0,7.4071245193481445,1.3059699535369873,5.24807596206665,-1340.7042236328125,0
495.5549999999985,-0.023141922429203987,0.02280191145837307,-0.0037640943191945553,0.0,0.0,0.0,0.0,0.0016725497553125024,0.00012230298307258636,-0.0026582549326121807,0.9991893768310547,0.0,0.0,0.0,7.399716377258301,1.3102195262908936,5.240414142608643,-1339.36328125,0
505.48399999999856,-0.023127714172005653,0.02282664366066456,-0.0038904824759811163,0.0,0.0,0.0,0.0,0.0009609173866920173,0.0023931453470140696,0.005003505852073431,0.9981796741485596,0.0,0.0,0.0,7.390425682067871,1.310362696647644,5.228559494018555,-1337.6817626953125,0
515.3819999999996,-0.02311592921614647,0.022905265912413597,-0.00400332547724247,0.0,0.0,0.0,0.0,0.0011242817854508758,-0.0027682678773999214,0.0017128546023741364,0.99874347448349,0.0,0.0,0.0,7.383172988891602,1.3027018308639526,5.209549903869629,-1336.3690185546875,0
525.3009999999995,-0.023107172921299934,0.02296069823205471,-0.004106723237782717,0.0,0.0,0.0,0.0,0.0012787344167008996,0.0007064679521135986,0.00034402566961944103,0.999540388584137,0.0,0.0,0.0,7.39286994934082,1.2904713153839111,5.201047897338867,-1338.1241455078125,0
535.1999999999989,-0.023097332566976547,0.023041605949401855,-0.004221924114972353,0.0,0.0,0.0,0.0,0.0005600281874649227,0.001286944723688066,0.0028852694667875767,1.000065565109253,0.0,0.0,0.0,7.3859758377075195,1.281472086906433,5.191347122192383,-1336.8763427734375,0
545.1229999999996,-0.023078931495547295,0.02309410832822323,-0.004328278824687004,0.0,0.0,0.0,0.0,0.00040620696381665766,0.0027342569082975388,0.0019967462867498398,0.9997588396072388,0.0,0.0,0.0,7.37839937210083,1.2777689695358276,5.188795566558838,-1335.5050048828125,0
555.027,-0.023068271577358246,0.02317669801414013,-0.004444284364581108,0.0,0.0,0.0,0.0,0.0007303497986868024,0.002610162366181612,-0.0010467157699167728,1.0004056692123413,0.0,0.0,0.0,7.371726989746094,1.272706151008606,5.18223237991333,-1334.2972412109375,0
564.9429999999993,-0.023059213533997536,0.023231204599142075,-0.004541482776403427,0.0,0.0,0.0,0.0,0.0017971706110984087,-0.0011117849498987198,0.0019146620761603117,1.0007531642913818,0.0,0.0,0.0,7.381613731384277,1.2570829391479492,5.166370391845703,-1336.0867919921875,0
574.8469999999998,-0.023032860830426216,0.023400001227855682,-0.0047736819833517075,0.0,0.0,0.0,0.0,-0.0006198742194101214,-0.003541387151926756,0.00447051739320159,0.998898446559906,0.0,0.0,0.0,7.367443084716797,1.248569130897522,5.161438465118408,-1333.52197265625,0
584.7689999999984,-0.023066285997629166,0.023339804261922836,-0.0047646393068134785,0.0,0.0,0.0,0.0,-0.00046486512292176485,-0.0020079337991774082,0.00213053310289979,0.9997568130493164,0.0,0.0,0.0,7.377501010894775,1.2318450212478638,5.148684024810791,-1335.3424072265625,0
594.6719999999987,-0.023042932152748108,0.023504488170146942,-0.005000730976462364,0.0,0.0,0.0,0.0,-0.0018501518061384559,-0.00234785582870245,0.003939412999898195,1.001009464263916,0.0,0.0,0.0,7.363606929779053,1.2380021810531616,5.150594234466553,-1332.8275146484375,0
604.5839999999989,-0.023042501881718636,0.02344583533704281,-0.004979083780199289,0.0,0.0,0.0,0.0,0.0008773564477451146,0.0008951212512329221,0.00022942492796573788,1.0010637044906616,0.0,0.0,0.0,7.363606929779053,1.2380021810531616,5.150594234466553,-1332.8275146484375,0
614.491,-0.023013276979327202,0.023603757843375206,-0.00521578174084425,0.0,0.0,0.0,0.0,-0.000887715257704258,-0.0034896968863904476,-0.006258715409785509,0.9977891445159912,0.0,0.0,0.0,7.349128723144531,1.237758755683899,5.149763584136963,-1330.206787109375,0
624.4119999999984,-0.023024121299386024,0.023535799235105515,-0.005190479569137096,0.0,0.0,0.0,0.0,0.0025276895612478256,-0.0033267310354858637,-0.0005784420063719153,0.9986675977706909,0.0,0.0,0.0,7.349128723144531,1.237758755683899,5.149763584136963,-1330.206787109375,0
634.3149999999987,-0.023006325587630272,0.02362000197172165,-0.005323302932083607,0.0,0.0,0.0,0.0,-0.003322974778711796,0.0006823504227213562,0.000889953225851059,0.9983475804328918,0.0,0.0,0.0,7.340028285980225,1.241004228591919,5.154212951660156,-1328.5596923828125,0
644.241,-0.02297980524599552,0.023649053648114204,-0.005411194637417793,0.0,0.0,0.0,0.0,0.0015079048462212086,0.0006599032785743475,0.004366331733763218,0.996854305267334,0.0,0.0,0.0,7.33258581161499,1.2388503551483154,5.150491714477539,-1327.2125244140625,0
654.137999999999,-0.02296062745153904,0.02372339554131031,-0.005535093601793051,0.0,0.0,0.0,0.0,-0.0004586633003782481,0.003543274709954858,-0.0006816936656832695,0.999081552028656,0.0,0.0,0.0,7.325559139251709,1.2374674081802368,5.141951084136963,-1325.9407958984375,0
664.0619999999999,-0.022973250597715378,0.023732775822281837,-0.005614742636680603,0.0,0.0,0.0,0.0,0.0014609668869525194,-0.0006636293255724013,0.0024156339932233095,1.0014256238937378,0.0,0.0,0.0,7.336253643035889,1.2150722742080688,5.117894649505615,-1327.8765869140625,0
673.9579999999987,-0.02295524813234806,0.02380525879561901,-0.005742390640079975,0.0,0.0,0.0,0.0,0.0016612117178738117,0.0003022842574864626,0.0013301827711984515,0.9994089603424072,0.0,0.0,0.0,7.328526020050049,1.2131516933441162,5.1085662841796875,-1326.4779052734375,0
683.8849999999984,-0.022938033565878868,0.0238797627389431,-0.00586940161883831,0.0,0.0,0.0,0.0,0.0022574588656425476,0.002042226493358612,0.001083875889889896,0.9965323805809021,0.0,0.0,0.0,7.321652412414551,1.212715983390808,5.105246543884277,-1325.233642578125,0
693.7799999999988,-0.022920813411474228,0.02395593747496605,-0.005997199099510908,0.0,0.0,0.0,0.0,-0.0013481373898684978,-0.0031247015576809645,-0.001662077964283526,1.0015606880187988,0.0,0.0,0.0,7.315239906311035,1.208762764930725,5.09264612197876,-1324.0731201171875,0
703.7009999999991,-0.022903304547071457,0.024032825604081154,-0.006126685068011284,0.0,0.0,0.0,0.0,0.002810146426782012,-0.003096971893683076,0.0012213189620524645,1.0027461051940918,0.0,0.0,0.0,7.308111667633057,1.20357084274292,5.090074062347412,-1322.78271484375,0
713.601999999999,-0.022886237129569054,0.024110155180096626,-0.006255357526242733,0.0,0.0,0.0,0.0,-0.0003722175897564739,0.002603348111733794,-0.0034454234410077333,1.0003446340560913,0.0,0.0,0.0,7.3013129234313965,1.2051483392715454,5.090453147888184,-1321.5521240234375,0
723.5199999999986,-0.022869935259222984,0.024187937378883362,-0.006381730083376169,0.0,0.0,0.0,0.0,-0.0004510037833824754,0.0017698222072795033,0.0024406372103840113,0.9982402324676514,0.0,0.0,0.0,7.294780731201172,1.2053637504577637,5.087796688079834,-1320.369873046875,0
733.4249999999993,-0.022854413837194443,0.02426539547741413,-0.006507259327918291,0.0,0.0,0.0,0.0,0.0020048879086971283,0.0012372126802802086,-0.0006898569408804178,0.9989920854568481,0.0,0.0,0.0,7.286657810211182,1.2097994089126587,5.078546047210693,-1318.8995361328125,0
743.351999999999,-0.02283974550664425,0.024342160671949387,-0.006633860059082508,0.0,0.0,0.0,0.0,0.003597948234528303,0.003199205966666341,-5.81812892050948e-05,1.000523328781128,0.0,0.0,0.0,7.279160022735596,1.2116066217422485,5.072461128234863,-1317.5423583984375,0
753.2479999999996,-0.023678628727793694,0.021196015179157257,-0.001113086473196745,0.0,0.0,0.0,0.0,-0.003735994454473257,0.00025065275258384645,0.0012063448084518313,0.9986169338226318,0.0,0.0,0.0,7.293647766113281,0.9193788766860962,4.922648906707764,-1320.1646728515625,0
763.1709999999985,-0.02369115874171257,0.0211839247494936,-0.001114330138079822,0.0,0.0,0.0,0.0,-0.0013313289964571595,-0.0068497732281684875,0.0006118557066656649,0.9989268183708191,0.0,0.0,0.0,7.285861492156982,0.9171386957168579,4.906050682067871,-1318.7554931640625,0
773.0709999999999,-0.023704949766397476,0.021170053631067276,-0.0011162383016198874,0.0,0.0,0.0,0.0,0.0030447111930698156,0.0018371393671259284,-0.000431553868111223,1.0005921125411987,0.0,0.0,0.0,7.278266429901123,0.926851749420166,4.909001350402832,-1317.380615234375,0
782.9899999999998,-0.023720188066363335,0.021155020222067833,-0.0011187792988494039,0.0,0.0,0.0,0.0,-0.0017319287871941924,0.0032979201059788465,-0.00183019507676363,1.0011296272277832,0.0,0.0,0.0,7.273244380950928,0.9265910387039185,4.914416313171387,-1316.4718017578125,0
792.8909999999996,-0.02373737096786499,0.021140247583389282,-0.0011207658099010587,0.0,0.0,0.0,0.0,0.0017244142945855856,-0.001220599515363574,0.0040367827750742435,1.000758409500122,0.0,0.0,0.0,7.266873359680176,0.9219177961349487,4.904188632965088,-1315.3184814453125,0
802.8189999999995,-0.02375570312142372,0.02112549915909767,-0.0011216211132705212,0.0,0.0,0.0,0.0,-0.0017221446614712477,0.0009105288772843778,-0.0016826412174850702,1.0009390115737915,0.0,0.0,0.0,7.2595038414001465,0.9238419532775879,4.9086408615112305,-1313.984619140625,0
812.7139999999999,-0.023774275556206703,0.021109985187649727,-0.0011214916594326496,0.0,0.0,0.0,0.0,-0.00032379626645706594,-0.0003738814266398549,-0.002373727736994624,1.0003488063812256,0.0,0.0,0.0,7.251554012298584,0.9253778457641602,4.897950649261475,-1312.545654296875,0
822.6399999999994,-0.023793639615178108,0.021092882379889488,-0.001120410393923521,0.0,0.0,0.0,0.0,0.0008124557789415121,-0.0022823535837233067,0.0017664168262854218,1.0004503726959229,0.0,0.0,0.0,7.244579792022705,0.9234622716903687,4.89579439163208,-1311.283447265625,0
832.5379999999986,-0.02381345070898533,0.021074648946523666,-0.001118787215091288,0.0,0.0,0.0,0.0,-0.0001111517776735127,-0.00564291188493371,-0.002502420684322715,0.9982897043228149,0.0,0.0,0.0,7.236392021179199,0.9221724271774292,4.896623134613037,-1309.8013916015625,0
842.4679999999989,-0.023832768201828003,0.02105690911412239,-0.001116967061534524,0.0,0.0,0.0,0.0,-0.0008106959285214543,-0.005204255226999521,-0.00011032985639758408,1.0000587701797485,0.0,0.0,0.0,7.230015277862549,0.9283984899520874,4.896642208099365,-1308.647216796875,0
852.3589999999986,-0.0238519124686718,0.021039986982941628,-0.001115785213187337,0.0,0.0,0.0,0.0,-0.0007004704093560576,-0.004988343454897404,0.0013669866602867842,1.0026586055755615,0.0,0.0,0.0,7.223913192749023,0.9248127341270447,4.905942440032959,-1307.542724609375,0
862.2779999999984,-0.023872286081314087,0.021023403853178024,-0.0011144567979499698,0.0,0.0,0.0,0.0,0.0008685010252520442,0.0018050384242087603,-0.000532862322870642,1.0000154972076416,0.0,0.0,0.0,7.216113090515137,0.9263318777084351,4.90432596206665,-1306.1307373046875,0
872.1809999999987,-0.023894095793366432,0.021006811410188675,-0.0011115559609606862,0.0,0.0,0.0,0.0,0.002722472883760929,0.0013171902392059565,0.0004849462420679629,0.9972947835922241,0.0,0.0,0.0,7.209429740905762,0.9244318008422852,4.901680946350098,-1304.921142578125,0
882.0959999999995,-0.023916935548186302,0.020989689975976944,-0.001108805532567203,0.0,0.0,0.0,0.0,0.0004819921450689435,-0.0007656894740648568,-0.0037629110738635063,1.000046968460083,0.0,0.0,0.0,7.2026238441467285,0.9225475788116455,4.887450218200684,-1303.689208984375,0
892.0049999999992,-0.0239407941699028,0.02097184956073761,-0.0011075712973251939,0.0,0.0,0.0,0.0,-0.0015680133365094662,-0.0026676671113818884,-8.677324331074487e-06,1.0001790523529053,0.0,0.0,0.0,7.195301532745361,0.920659601688385,4.8861517906188965,-1302.3638916015625,0
901.9290000000001,-0.023965759202837944,0.020953651517629623,-0.0011065653525292873,0.0,0.0,0.0,0.0,0.00023968749155756086,-0.0019201587419956923,0.0007243504514917731,0.9985553622245789,0.0,0.0,0.0,7.187834739685059,0.9192137718200684,4.88780403137207,-1301.0123291015625,0
911.8309999999983,-0.02401934377849102,0.020917480811476707,-0.001105181872844696,0.0,0.0,0.0,0.0,0.0003536449803505093,-0.0006010841461829841,-0.00033107431954704225,1.0008126497268677,0.0,0.0,0.0,7.172992706298828,0.9179109930992126,4.88686466217041,-1298.325927734375,0
921.7559999999994,-0.023611873388290405,0.02094697393476963,-0.0007536329212598503,0.0,0.0,0.0,0.0,-0.0034313700161874294,0.002898204606026411,0.0005233986885286868,0.9983851313591003,0.0,0.0,0.0,7.185652256011963,0.9268262386322021,4.965908050537109,-1300.6173095703125,0
931.6479999999992,-0.02363250032067299,0.020916206762194633,-0.0007318569696508348,0.0,0.0,0.0,0.0,-0.003137686289846897,0.00020809796114917845,-0.005026141181588173,0.9996272325515747,0.0,0.0,0.0,7.171627521514893,0.9286006689071655,4.949672698974609,-1298.0787353515625,0
941.5669999999991,-0.02360926754772663,0.020960794761776924,-0.0006677623023279011,0.0,0.0,0.0,0.0,-0.002969632390886545,0.0005268254317343235,0.00030316910124383867,1.0003533363342285,0.0,0.0,0.0,7.206058979034424,0.9378674626350403,4.952980995178223,-1304.3109130859375,0
951.4779999999992,-0.02363017201423645,0.02093837410211563,-0.000642733764834702,0.0,0.0,0.0,0.0,0.00043110278784297407,0.0008292634738609195,0.0001753350079525262,0.9996473789215088,0.0,0.0,0.0,7.192261219024658,0.9405890107154846,4.947639465332031,-1301.8135986328125,0
961.396999999999,-0.023597970604896545,0.02094373293220997,-0.0006317429943010211,0.0,0.0,0.0,0.0,0.0003937994479201734,-0.00048715993762016296,-0.0006648809066973627,0.9989434480667114,0.0,0.0,0.0,7.200016975402832,0.9413740634918213,4.950353622436523,-1303.2174072265625,0
971.2979999999989,-0.023610448464751244,0.020932530984282494,-0.000617857207544148,0.0,0.0,0.0,0.0,0.00528201088309288,-0.0017111083725467324,0.0007950299186632037,0.9985313415527344,0.0,0.0,0.0,7.192529678344727,0.934173047542572,4.942198753356934,-1301.8621826171875,0
981.2169999999987,-0.023661212995648384,0.020934514701366425,-0.0005906597943976521,0.0,0.0,0.0,0.0,0.00024840893456712365,0.004024938680231571,0.001378015149384737,1.0005311965942383,0.0,0.0,0.0,7.20244026184082,0.9370710849761963,4.931674003601074,-1303.656005859375,0
991.1319999999996,-0.023673834279179573,0.020925220102071762,-0.0005787241971120238,0.0,0.0,0.0,0.0,0.0014902724651619792,-0.002345159649848938,0.0008723342907615006,1.0000048875808716,0.0,0.0,0.0,7.19620943069458,0.9295626878738403,4.927496433258057,-1302.5281982421875,0
1001.0469999999987,-0.023641439154744148,0.020944053307175636,-0.0005446128780022264,0.0,0.0,0.0,0.0,0.0014532115310430527,0.0014110011979937553,-0.0037147144321352243,0.9977639317512512,0.0,0.0,0.0,7.219357490539551,0.9344632625579834,4.929403781890869,-1306.718017578125,0
1010.9479999999985,-0.02365208975970745,0.020939406007528305,-0.0005308326217345893,0.0,0.0,0.0,0.0,0.0014251160901039839,3.289899541414343e-05,7.294329407159239e-05,0.9991946816444397,0.0,0.0,0.0,7.2119221687316895,0.9249382019042969,4.927597522735596,-1305.3721923828125,0
1020.8599999999988,-0.02363680489361286,0.020950980484485626,-0.0004979806835763156,0.0,0.0,0.0,0.0,-0.00035360039328224957,-0.003278676886111498,-0.0014709305251017213,1.0009331703186035,0.0,0.0,0.0,7.2307281494140625,0.9289637804031372,4.923840522766113,-1308.7762451171875,0
1030.7749999999996,-0.02364889159798622,0.020950838923454285,-0.00048455502837896347,0.0,0.0,0.0,0.0,0.0009462760644964874,0.0045655760914087296,-0.0025286339223384857,0.9991546869277954,0.0,0.0,0.0,7.223886013031006,0.9286399483680725,4.923353672027588,-1307.53759765625,0
1040.6779999999999,-0.023676494136452675,0.020936863496899605,-0.00046613041195087135,0.0,0.0,0.0,0.0,0.002445869380608201,-0.0009245779947377741,0.0007421204354614019,1.0009740591049194,0.0,0.0,0.0,7.244599342346191,0.9228169322013855,4.92117977142334,-1311.2869873046875,0
1050.5909999999985,-0.023690491914749146,0.020934950560331345,-0.0004522913077380508,0.0,0.0,0.0,0.0,-0.001406085561029613,-0.0020142539869993925,0.004865248687565327,1.0000674724578857,0.0,0.0,0.0,7.237565040588379,0.9240871071815491,4.916141986846924,-1310.013671875,0
1060.5019999999986,-0.02367112599313259,0.020931566134095192,-0.0004227769677527249,0.0,0.0,0.0,0.0,0.002851105062291026,-0.0028820033185184,-0.004851469770073891,1.000053882598877,0.0,0.0,0.0,7.259997367858887,0.9230334758758545,4.915310859680176,-1314.073974609375,0
1070.4189999999999,-0.023684771731495857,0.020929332822561264,-0.00040715368231758475,0.0,0.0,0.0,0.0,0.002857824321836233,0.0015116333961486816,-0.0020620780996978283,0.999721109867096,0.0,0.0,0.0,7.253299236297607,0.9228391051292419,4.91898775100708,-1312.861572265625,0
1080.3219999999983,-0.023699559271335602,0.02090906910598278,-0.0003841159341391176,0.0,0.0,0.0,0.0,-0.0017923259874805808,-0.004463498014956713,0.0013650482287630439,0.9987854361534119,0.0,0.0,0.0,7.26992654800415,0.9124855399131775,4.906022071838379,-1315.87109375,0
1090.2349999999988,-0.023713774979114532,0.020905492827296257,-0.00036867454764433205,0.0,0.0,0.0,0.0,0.001421367283910513,0.001469057402573526,-0.0006935129058547318,0.9978733062744141,0.0,0.0,0.0,7.263066291809082,0.9087061882019043,4.8963775634765625,-1314.62939453125,0
1100.1449999999986,-0.023691320791840553,0.020897159352898598,-0.0003405009629204869,0.0,0.0,0.0,0.0,-0.00018840463599190116,0.004152230452746153,-0.0014897133223712444,1.0002129077911377,0.0,0.0,0.0,7.281230449676514,0.9028955101966858,4.903839588165283,-1317.9171142578125,0
1110.0609999999997,-0.023704955354332924,0.020893331617116928,-0.0003265429986640811,0.0,0.0,0.0,0.0,-0.001959825400263071,-0.000984512036666274,0.0028456461150199175,1.0017274618148804,0.0,0.0,0.0,7.273403167724609,0.906368613243103,4.887699127197266,-1316.5003662109375,0
1119.9659999999985,-0.023691657930612564,0.020866619423031807,-0.0002895634970627725,0.0,0.0,0.0,0.0,0.0038739594165235758,0.006462865509092808,2.9265342163853347e-05,1.0008193254470825,0.0,0.0,0.0,7.293272018432617,0.8924742937088013,4.896218299865723,-1320.0966796875,0
1129.8809999999994,-0.023706886917352676,0.02086222544312477,-0.00027420109836384654,0.0,0.0,0.0,0.0,-0.0031033034902065992,0.0023796844761818647,0.001336819608695805,0.9998014569282532,0.0,0.0,0.0,7.28609037399292,0.8934093713760376,4.888958930969238,-1318.7967529296875,0
1139.7849999999999,-0.02369219809770584,0.02084212563931942,-0.00023307319497689605,0.0,0.0,0.0,0.0,-0.00048410578165203333,-0.004376075230538845,0.0023339565377682447,1.0000648498535156,0.0,0.0,0.0,7.302557945251465,0.8785092830657959,4.893879413604736,-1321.7774658203125,0
1149.7069999999985,-0.02370898611843586,0.020839402452111244,-0.0002158380812034011,0.0,0.0,0.0,0.0,0.003037752117961645,0.0014050094177946448,-0.0008688982343301177,0.9980762004852295,0.0,0.0,0.0,7.2956671714782715,0.8849510550498962,4.8845534324646,-1320.5303955078125,0
1159.616,-0.023699549958109856,0.020817849785089493,-0.00016772707749623805,0.0,0.0,0.0,0.0,0.0009801134001463652,0.0023586631286889315,0.0021443457808345556,0.9994983673095703,0.0,0.0,0.0,7.311548233032227,0.8742786049842834,4.896782398223877,-1323.40478515625,0
1169.5299999999988,-0.023713640868663788,0.02081661857664585,-0.0001505089021520689,0.0,0.0,0.0,0.0,-0.0010405182838439941,0.0015193861909210682,-0.0037258549127727747,1.000314712524414,0.0,0.0,0.0,7.303955554962158,0.8659827709197998,4.89093017578125,-1322.030517578125,0
1179.4299999999985,-0.023706583306193352,0.020785801112651825,-9.746017894940451e-05,0.0,0.0,0.0,0.0,0.003781065810471773,0.003202869789674878,0.002051328308880329,1.000749111175537,0.0,0.0,0.0,7.320624351501465,0.8579536080360413,4.890957832336426,-1325.0474853515625,0
1189.3509999999987,-0.02372101880609989,0.020786188542842865,-7.941138028400019e-05,0.0,0.0,0.0,0.0,0.0006818007095716894,0.001638362416997552,-0.007364457938820124,1.0013164281845093,0.0,0.0,0.0,7.314209938049316,0.8544063568115234,4.889781951904297,-1323.8865966796875,0
1199.2529999999988,-0.02371351234614849,0.020762860774993896,-2.427900835755281e-05,0.0,0.0,0.0,0.0,0.0015500265872105956,-0.00044942559907212853,-0.002912401221692562,0.9995957612991333,0.0,0.0,0.0,7.3247575759887695,0.8416038751602173,4.899036407470703,-1325.795654296875,0
1209.1759999999995,-0.023613344877958298,0.021220695227384567,-0.0008777805487625301,0.0,0.0,0.0,0.0,-0.003929557744413614,-0.0020385668613016605,0.0013072385918349028,0.9991423487663269,0.0,0.0,0.0,7.344090461730957,0.8789386749267578,4.9158616065979,-1329.2950439453125,0
1219.075999999999,-0.023622239008545876,0.021213557571172714,-0.0009071175009012222,0.0,0.0,0.0,0.0,-0.0014231057139113545,-0.004167397040873766,0.0007091706502251327,0.998733401298523,0.0,0.0,0.0,7.358687400817871,0.8648965358734131,4.910512924194336,-1331.9371337890625,0
1228.9959999999992,-0.023637715727090836,0.021224522963166237,-0.0009119879687204957,0.0,0.0,0.0,0.0,3.175711026415229e-05,-0.003613961162045598,0.001346545061096549,1.0007351636886597,0.0,0.0,0.0,7.350893497467041,0.862804651260376,4.903164863586426,-1330.5262451171875,0
1238.8989999999994,-0.023575017228722572,0.02122938074171543,-0.0009070070227608085,0.0,0.0,0.0,0.0,-0.00023988478642422706,-0.004053268115967512,0.002384698484092951,1.0003244876861572,0.0,0.0,0.0,7.362517356872559,0.8628658056259155,4.90814733505249,-1332.6302490234375,0
1248.821,-0.0235908143222332,0.021242789924144745,-0.0009117823792621493,0.0,0.0,0.0,0.0,-0.0016631718026474118,0.0007007357198745012,0.0014705515932291746,1.0008647441864014,0.0,0.0,0.0,7.355460166931152,0.8596363067626953,4.900298595428467,-1331.35302734375,0
1258.7209999999995,-0.02365070953965187,0.021257853135466576,-0.0009168608230538666,0.0,0.0,0.0,0.0,0.0015483793104067445,-0.005962567403912544,0.0012010264908894897,1.0006675720214844,0.0,0.0,0.0,7.36669397354126,0.8611323237419128,4.90234899520874,-1333.3863525390625,0
1268.6409999999996,-0.023670289665460587,0.02127244882285595,-0.0009199347114190459,0.0,0.0,0.0,0.0,0.002140490571036935,-0.003123912960290909,0.000750463514123112,1.001684308052063,0.0,0.0,0.0,7.360162734985352,0.8635061383247375,4.897647380828857,-1332.2042236328125,0
1278.5459999999985,-0.023660749197006226,0.021276189014315605,-0.0009314059861935675,0.0,0.0,0.0,0.0,0.000597236561588943,0.0022381176240742207,-0.0021342334803193808,0.9987459182739258,0.0,0.0,0.0,7.3736958503723145,0.8580523729324341,4.8995795249938965,-1334.653564453125,0
1288.4669999999987,-0.02370733581483364,0.02130989357829094,-0.0009354286594316363,0.0,0.0,0.0,0.0,0.00029685781919397414,-0.0013202179688960314,0.0007691173232160509,0.998437225818634,0.0,0.0,0.0,7.357783317565918,0.857962965965271,4.881407737731934,-1331.7735595703125,0
1298.3639999999996,-0.023612383753061295,0.021282214671373367,-0.0009595757583156228,0.0,0.0,0.0,0.0,0.0018455734243616462,0.0014230022206902504,-0.000786311982665211,0.9987773895263672,0.0,0.0,0.0,7.373898983001709,0.844301164150238,4.888034343719482,-1334.6904296875,0
1308.2839999999997,-0.023634599521756172,0.021297775208950043,-0.0009647944243624806,0.0,0.0,0.0,0.0,0.0002815742918755859,-0.0008211337844841182,-0.002804805524647236,0.9971268773078918,0.0,0.0,0.0,7.366672039031982,0.8393494486808777,4.88176155090332,-1333.3824462890625,0
1318.1949999999997,-0.023599183186888695,0.021288512274622917,-0.0009924672776833177,0.0,0.0,0.0,0.0,0.0007781778695061803,0.0036116165574640036,0.0016228649765253067,0.9988834261894226,0.0,0.0,0.0,7.374217510223389,0.8238769769668579,4.8800811767578125,-1334.7481689453125,0
1328.1129999999994,-0.023622779175639153,0.021303487941622734,-0.0010041052009910345,0.0,0.0,0.0,0.0,0.001251680077984929,0.000700673961546272,0.0003520096652209759,1.0000905990600586,0.0,0.0,0.0,7.366631031036377,0.8207082152366638,4.86668586730957,-1333.375,0
1338.021999999999,-0.02359234355390072,0.02130565419793129,-0.0010319661814719439,0.0,0.0,0.0,0.0,0.0017455145716667175,-0.0033129658550024033,0.0012922303285449743,0.9982573390007019,0.0,0.0,0.0,7.358907699584961,0.8122356534004211,4.859711170196533,-1331.9769287109375,0
1347.9309999999987,-0.023615263402462006,0.021319802850484848,-0.0010454596485942602,0.0,0.0,0.0,0.0,-0.0014834116445854306,-0.003113773185759783,0.00043321531848050654,0.9983254671096802,0.0,0.0,0.0,7.351244926452637,0.8018212914466858,4.856280326843262,-1330.58984375,0
1357.8469999999998,-0.023632565513253212,0.02131565287709236,-0.0010738041019067168,0.0,0.0,0.0,0.0,0.0006296617793850601,0.00593595253303647,-0.0016000084578990936,0.9997493028640747,0.0,0.0,0.0,7.3622612953186035,0.7950591444969177,4.86068868637085,-1332.583984375,0
1367.7559999999994,-0.023657631129026413,0.02132510207593441,-0.0010910379933193326,0.0,0.0,0.0,0.0,0.00010882279457291588,0.002894837409257889,0.003617578884586692,0.9998943209648132,0.0,0.0,0.0,7.353830337524414,0.789648175239563,4.845607757568359,-1331.057861328125,0
1377.6669999999995,-0.023635126650333405,0.02131849341094494,-0.001112490426748991,0.0,0.0,0.0,0.0,0.00021153944544494152,0.002630359260365367,-0.0011449892772361636,0.9993578791618347,0.0,0.0,0.0,7.363314151763916,0.7823631167411804,4.837862968444824,-1332.774658203125,0
1387.5769999999993,-0.023660851642489433,0.021324992179870605,-0.0011303357314318419,0.0,0.0,0.0,0.0,0.0011983358999714255,-0.0026931646279990673,0.003155337180942297,1.0001410245895386,0.0,0.0,0.0,7.355973243713379,0.7753201723098755,4.824241638183594,-1331.44580078125,0
1397.4829999999984,-0.023563839495182037,0.02130805514752865,-0.0011537703685462475,0.0,0.0,0.0,0.0,0.002723196055740118,0.003083938965573907,5.07866388943512e-05,0.999793291091919,0.0,0.0,0.0,7.348910808563232,0.7775321006774902,4.827171802520752,-1330.16748046875,0
1407.4069999999992,-0.02358788438141346,0.021313007920980453,-0.0011729267425835133,0.0,0.0,0.0,0.0,0.0007338657742366195,0.001505018095485866,0.0005410543526522815,1.001294732093811,0.0,0.0,0.0,7.341918468475342,0.7721648812294006,4.817026138305664,-1328.9017333984375,0
1417.3069999999989,-0.023559987545013428,0.02131771109998226,-0.0011728104436770082,0.0,0.0,0.0,0.0,0.001953552942723036,0.0023691714741289616,-0.0018017124384641647,0.9991968274116516,0.0,0.0,0.0,7.353389739990234,0.7669048309326172,4.810303211212158,-1330.9781494140625,0
1427.223,-0.023584989830851555,0.021323174238204956,-0.0011896779760718346,0.0,0.0,0.0,0.0,0.0015340202953666449,0.001282794401049614,-0.003654434811323881,0.9970998167991638,0.0,0.0,0.0,7.345413684844971,0.7648744583129883,4.8025994300842285,-1329.5345458984375,0
1437.128999999999,-0.02354917861521244,0.021306635811924934,-0.0012115970021113753,0.0,0.0,0.0,0.0,0.00145721435546875,0.0012514021946117282,0.0007250011549331248,0.9977463483810425,0.0,0.0,0.0,7.338439464569092,0.7606304287910461,4.796462535858154,-1328.2720947265625,0
1447.0509999999995,-0.02357461117208004,0.021310115233063698,-0.0012324904091656208,0.0,0.0,0.0,0.0,0.00026678721769712865,0.001339268870651722,0.0012558727758005261,0.9989494681358337,0.0,0.0,0.0,7.331743240356445,0.7598802447319031,4.791660785675049,-1327.06005859375,0
1456.9569999999985,-0.023563498631119728,0.021313082426786423,-0.0012332855258136988,0.0,0.0,0.0,0.0,-0.0019964072853326797,0.004572955425828695,-0.002519018482416868,1.0002280473709106,0.0,0.0,0.0,7.344295501708984,0.7554798126220703,4.790743350982666,-1329.33203125,0
1466.8629999999994,-0.023590318858623505,0.02131430245935917,-0.0012555263238027692,0.0,0.0,0.0,0.0,-0.000377530261175707,-0.004885104950517416,0.0036688284017145634,1.0001440048217773,0.0,0.0,0.0,7.337051868438721,0.7586496472358704,4.77821159362793,-1328.02099609375,0
1476.7779999999984,-0.023517552763223648,0.02130272053182125,-0.0012543979100883007,0.0,0.0,0.0,0.0,0.0013773670652881265,0.0019292226061224937,0.0003924502816516906,0.9989476799964905,0.0,0.0,0.0,7.330073356628418,0.7550395727157593,4.771446228027344,-1326.7579345703125,0
1486.6879999999983,-0.023544035851955414,0.02130170352756977,-0.0012750993482768536,0.0,0.0,0.0,0.0,-0.001720285159535706,-0.0017632334493100643,-0.0003583788638934493,0.9989084601402283,0.0,0.0,0.0,7.322841644287109,0.7486816048622131,4.7687249183654785,-1325.4488525390625,0
1496.6009999999987,-0.023551438003778458,0.02128201350569725,-0.0012932386016473174,0.0,0.0,0.0,0.0,-0.00016373053949791938,0.0010061095235869288,0.0011835265904664993,1.000687599182129,0.0,0.0,0.0,7.3151750564575195,0.7475488185882568,4.766720771789551,-1324.061279296875,0
1506.5079999999998,-0.023580363020300865,0.021278658881783485,-0.0013153727632015944,0.0,0.0,0.0,0.0,0.0005190449301153421,0.0020029291044920683,0.0019049013499170542,0.9998250007629395,0.0,0.0,0.0,7.308406352996826,0.7394284605979919,4.760856628417969,-1322.836181640625,0
1516.4299999999985,-0.023579318076372147,0.021307287737727165,-0.0012967349030077457,0.0,0.0,0.0,0.0,0.0008248220547102392,0.0008315035956911743,0.002801145426928997,1.0023471117019653,0.0,0.0,0.0,7.320324897766113,0.7495094537734985,4.77256965637207,-1324.993408203125,0
1526.3319999999985,-0.023610718548297882,0.02130577154457569,-0.0013136861380189657,0.0,0.0,0.0,0.0,-0.0027721254155039787,0.0026434811297804117,-0.0012124294880777597,0.9993523359298706,0.0,0.0,0.0,7.313755989074707,0.7462261319160461,4.76624870300293,-1323.804443359375,0
1536.2439999999988,-0.023601260036230087,0.02132643386721611,-0.0012885438045486808,0.0,0.0,0.0,0.0,-0.0006932828109711409,-0.0004961410886608064,-8.781101314525586e-06,0.9975716471672058,0.0,0.0,0.0,7.323572635650635,0.7565151453018188,4.778740882873535,-1325.5811767578125,0
1546.1509999999998,-0.023632343858480453,0.021326245740056038,-0.0013019863981753588,0.0,0.0,0.0,0.0,0.006735804956406355,-0.0011292268754914403,-7.989637379068881e-05,0.9995272159576416,0.0,0.0,0.0,7.316967010498047,0.7555596828460693,4.774549961090088,-1324.3856201171875,0
1556.0769999999993,-0.02364155277609825,0.021320782601833344,-0.0012924432521685958,0.0,0.0,0.0,0.0,-0.0009108420345000923,0.0054078553803265095,0.0003073026309721172,0.9991998672485352,0.0,0.0,0.0,7.328082084655762,0.7453464269638062,4.7795281410217285,-1326.3974609375,0
1565.982,-0.023671235889196396,0.021319294348359108,-0.0013067760737612844,0.0,0.0,0.0,0.0,0.0013052539434283972,-0.001020314171910286,-0.0023707454092800617,0.9992052912712097,0.0,0.0,0.0,7.321140289306641,0.7515724897384644,4.7740678787231445,-1325.1409912109375,0
1575.8869999999988,-0.023621518164873123,0.021309906616806984,-0.001266475417651236,0.0,0.0,0.0,0.0,0.0006942368345335126,-0.0017114676302298903,0.002854134188964963,1.0002034902572632,0.0,0.0,0.0,7.333500385284424,0.741802453994751,4.80046272277832,-1327.3780517578125,0
1585.7959999999985,-0.023646246641874313,0.021305037662386894,-0.0012782353442162275,0.0,0.0,0.0,0.0,0.002844578353688121,0.0014046992873772979,-0.00037213004543446004,0.9983686804771423,0.0,0.0,0.0,7.3275980949401855,0.7385169863700867,4.797537326812744,-1326.309814453125,0
1595.717999999999,-0.023609215393662453,0.02130860835313797,-0.001234765280969441,0.0,0.0,0.0,0.0,-0.00014475718489848077,-0.0012950184755027294,0.0003144259680993855,0.9994438290596008,0.0,0.0,0.0,7.338360786437988,0.7340808510780334,4.8221516609191895,-1328.2578125,0
1605.6149999999998,-0.023628734052181244,0.021301329135894775,-0.0012443209998309612,0.0,0.0,0.0,0.0,-0.0012758626835420728,0.0014003098476678133,0.0006087256479077041,0.9995054006576538,0.0,0.0,0.0,7.330565929412842,0.7260145545005798,4.8065185546875,-1326.846923828125,0
1615.5329999999994,-0.023633182048797607,0.02128177136182785,-0.0012218125630170107,0.0,0.0,0.0,0.0,-0.0019382500322535634,-0.0022275124210864305,0.002253372687846422,0.9989169836044312,0.0,0.0,0.0,7.342365741729736,0.7232148051261902,4.807402610778809,-1328.9827880859375,0
1625.4399999999987,-0.02365180291235447,0.021272409707307816,-0.0012312456965446472,0.0,0.0,0.0,0.0,0.0038298959843814373,0.005342292133718729,0.0007341549498960376,1.0002193450927734,0.0,0.0,0.0,7.334746837615967,0.7249181270599365,4.8044753074646,-1327.603759765625,0
1635.3559999999998,-0.023615598678588867,0.021268833428621292,-0.0011848874855786562,0.0,0.0,0.0,0.0,-0.0014115384547039866,0.005262448918074369,-0.001015001442283392,1.002001166343689,0.0,0.0,0.0,7.339497089385986,0.7226940989494324,4.8295793533325195,-1328.4635009765625,0
1645.259,-0.023631714284420013,0.021256012842059135,-0.0011912670452147722,0.0,0.0,0.0,0.0,0.0009426743490621448,0.0007902781944721937,0.0008736614254303277,1.003024935722351,0.0,0.0,0.0,7.332129955291748,0.7235262393951416,4.803781509399414,-1327.130126953125,0
1655.1809999999987,-0.02360464818775654,0.021240053698420525,-0.0011454150080680847,0.0,0.0,0.0,0.0,0.001474169548600912,-0.006425051484256983,0.0010724890744313598,0.9992164969444275,0.0,0.0,0.0,7.345699787139893,0.7198641896247864,4.813564300537109,-1329.586181640625,0
1665.0859999999993,-0.02361929416656494,0.021224819123744965,-0.0011449302546679974,0.0,0.0,0.0,0.0,-0.0011240598978474736,-0.0013260106788948178,-0.001613060012459755,1.0004159212112427,0.0,0.0,0.0,7.338360786437988,0.71952885389328,4.826590061187744,-1328.2578125,0
1675.0079999999998,-0.023616833612322807,0.021204877644777298,-0.0011140636634081602,0.0,0.0,0.0,0.0,-0.0010632554767653346,0.005500347353518009,-0.00248345616273582,0.9995099306106567,0.0,0.0,0.0,7.331112384796143,0.7152812480926514,4.819941520690918,-1326.9459228515625,0
1684.9049999999988,-0.02363293059170246,0.02119034342467785,-0.0011122944997623563,0.0,0.0,0.0,0.0,0.0011113756336271763,0.0036199912428855896,0.0013433163985610008,0.9988923668861389,0.0,0.0,0.0,7.324149131774902,0.7133470177650452,4.8078837394714355,-1325.6856689453125,0
1694.8269999999993,-0.02359543740749359,0.021162627264857292,-0.0010706712491810322,0.0,0.0,0.0,0.0,0.0034811492078006268,-0.0016782131278887391,0.00024109934747684747,1.0001243352890015,0.0,0.0,0.0,7.317526340484619,0.7088715434074402,4.798619747161865,-1324.48681640625,0
1704.7279999999992,-0.023683669045567513,0.020918525755405426,-0.0006899235886521637,0.0,0.0,0.0,0.0,0.003439712803810835,0.002543987473472953,0.0010900257620960474,0.9994996786117554,0.0,0.0,0.0,7.3261919021606445,0.6746059060096741,4.787383556365967,-1326.0552978515625,0
1714.655999999999,-0.02362985722720623,0.02090778574347496,-0.0006206181715242565,0.0,0.0,0.0,0.0,1.1305564839858562e-05,-0.0016735907411202788,0.0002460099058225751,0.9989917874336243,0.0,0.0,0.0,7.338850975036621,0.678983211517334,4.7716450691223145,-1328.3465576171875,0
1724.5479999999989,-0.023648016154766083,0.020885664969682693,-0.0006077726138755679,0.0,0.0,0.0,0.0,0.001815321040339768,0.0027003393042832613,-0.0017465370474383235,0.9988420009613037,0.0,0.0,0.0,7.331407070159912,0.6797003746032715,4.774901390075684,-1326.999267578125,0
1734.4699999999993,-0.023649180307984352,0.020891601219773293,-0.0005602336605079472,0.0,0.0,0.0,0.0,0.0026310395915061235,-0.0012671025469899178,0.0006759283714927733,1.0005254745483398,0.0,0.0,0.0,7.339235305786133,0.6837788820266724,4.772153854370117,-1328.4161376953125,0
1744.375,-0.023671910166740417,0.020867610350251198,-0.0005460578831844032,0.0,0.0,0.0,0.0,0.001642717164941132,0.0024741836823523045,0.003811826929450035,1.0004457235336304,0.0,0.0,0.0,7.3316826820373535,0.6865668892860413,4.762553691864014,-1327.049072265625,0
1754.2839999999997,-0.023666808381676674,0.020870167762041092,-0.0004971591988578439,0.0,0.0,0.0,0.0,0.0013310901122167706,0.0030263010412454605,-0.0031919595785439014,1.0004947185516357,0.0,0.0,0.0,7.34244441986084,0.6933630108833313,4.76456356048584,-1328.9969482421875,0
1764.1979999999985,-0.023692317306995392,0.02084655687212944,-0.0004795111599378288,0.0,0.0,0.0,0.0,-0.0027727703563869,-0.004170896485447884,-0.0014265753561630845,1.0009342432022095,0.0,0.0,0.0,7.334231853485107,0.691175639629364,4.739037990570068,-1327.510498046875,0
1774.1099999999988,-0.023739947006106377,0.020853577181696892,-0.00042673625284805894,0.0,0.0,0.0,0.0,-0.0018084411276504397,0.002595978556200862,2.0424893591552973e-05,1.0007988214492798,0.0,0.0,0.0,7.338467597961426,0.704441249370575,4.743027687072754,-1328.2772216796875,0
1784.0189999999984,-0.023680254817008972,0.020981108769774437,-0.0007187171140685678,0.0,0.0,0.0,0.0,0.0017358682816848159,-0.0004862224159296602,0.002176375826820731,0.9994122982025146,0.0,0.0,0.0,7.341229438781738,0.7393915057182312,4.746265411376953,-1328.777099609375,0
1793.932999999999,-0.023737361654639244,0.021004321053624153,-0.0007023076759651303,0.0,0.0,0.0,0.0,0.0028376253321766853,0.00304231490008533,0.0003148629912175238,0.9983838200569153,0.0,0.0,0.0,7.355015277862549,0.7460688352584839,4.734694480895996,-1331.2725830078125,0
1803.8379999999997,-0.023769928142428398,0.020992029458284378,-0.0006935942219570279,0.0,0.0,0.0,0.0,0.00155808893032372,-0.0012831746134907007,0.002631469164043665,1.0006906986236572,0.0,0.0,0.0,7.348453998565674,0.7417193651199341,4.72175407409668,-1330.084716796875,0
1813.7489999999998,-0.023769529536366463,0.021012116223573685,-0.0006526582292281091,0.0,0.0,0.0,0.0,0.0010497447801753879,-0.00292741390876472,0.0014580325223505497,1.0006698369979858,0.0,0.0,0.0,7.357653617858887,0.7410305142402649,4.718116283416748,-1331.75,0
1823.6639999999989,-0.02374432422220707,0.021070044487714767,-0.0007929150597192347,0.0,0.0,0.0,0.0,-0.0010747142368927598,-0.0013840040192008018,0.001430991687811911,1.0009121894836426,0.0,0.0,0.0,7.3661580085754395,0.7464691996574402,4.723855495452881,-1333.289306640625,0
1833.5739999999987,-0.02371314726769924,0.021048396825790405,-0.0007719426648691297,0.0,0.0,0.0,0.0,0.0001595904614077881,0.003338993526995182,-0.000779427879024297,0.9980807900428772,0.0,0.0,0.0,7.375875473022461,0.7481109499931335,4.722114086151123,-1335.048095703125,0
1843.4829999999984,-0.02374766580760479,0.02103857696056366,-0.000767648103646934,0.0,0.0,0.0,0.0,0.0007351600797846913,-0.0013182919938117266,0.0012580335605889559,0.9985073804855347,0.0,0.0,0.0,7.368119716644287,0.7508960366249084,4.715566635131836,-1333.644287109375,0
1853.3979999999992,-0.023707883432507515,0.021026792004704475,-0.0007550368318334222,0.0,0.0,0.0,0.0,-0.0032636255491524935,-0.00013490689161699265,0.0038506120909005404,0.9978567957878113,0.0,0.0,0.0,7.375052452087402,0.7491822242736816,4.7174973487854,-1334.8992919921875,0
1863.3049999999985,-0.023742111399769783,0.02101806178689003,-0.0007529258728027344,0.0,0.0,0.0,0.0,0.0018743317341431975,0.001070208614692092,-0.00219849799759686,1.001587986946106,0.0,0.0,0.0,7.36802864074707,0.7558201551437378,4.712505340576172,-1333.6278076171875,0
1873.2159999999985,-0.02364899031817913,0.021024717018008232,-0.0007300867582671344,0.0,0.0,0.0,0.0,0.000766068056691438,-0.00038461366784758866,0.0012056957930326462,1.000054121017456,0.0,0.0,0.0,7.378161907196045,0.7524551749229431,4.720344066619873,-1335.4619140625,0
1883.128999999999,-0.023681920021772385,0.021017398685216904,-0.0007264137384481728,0.0,0.0,0.0,0.0,-0.0011308087268844247,0.004682021681219339,-0.0024623756762593985,0.9995841383934021,0.0,0.0,0.0,7.370275020599365,0.7509068250656128,4.710071563720703,-1334.0345458984375,0
1893.039999999999,-0.02362988330423832,0.02102014608681202,-0.000707513012457639,0.0,0.0,0.0,0.0,-0.003225787542760372,-0.0013446988305076957,0.0031586599070578814,0.9993391633033752,0.0,0.0,0.0,7.378485679626465,0.7505700588226318,4.714751720428467,-1335.5205078125,0
1902.950999999999,-0.02366093546152115,0.021013431251049042,-0.0007028364343568683,0.0,0.0,0.0,0.0,0.0009564948850311339,-0.00022497150348499417,0.0006822242285124958,0.998992919921875,0.0,0.0,0.0,7.37128210067749,0.7530953288078308,4.711091041564941,-1334.2166748046875,0
1912.8619999999992,-0.023583801463246346,0.020985212177038193,-0.0007163584232330322,0.0,0.0,0.0,0.0,-0.0016395016573369503,0.0027436751406639814,0.001619744230993092,1.0007214546203613,0.0,0.0,0.0,7.385249137878418,0.7412717342376709,4.723650932312012,-1336.744873046875,0
1922.7729999999992,-0.023615574464201927,0.020979108288884163,-0.0007141325622797012,0.0,0.0,0.0,0.0,0.001340958522632718,8.94939003046602e-05,-0.003364414907991886,0.9996992945671082,0.0,0.0,0.0,7.37733793258667,0.7361288666725159,4.713477611541748,-1335.3128662109375,0
1932.6849999999995,-0.023545261472463608,0.02094917744398117,-0.0007303413585759699,0.0,0.0,0.0,0.0,0.004034734331071377,-0.0007647135062143207,-0.0015902474988251925,0.9993434548377991,0.0,0.0,0.0,7.3704352378845215,0.7418296933174133,4.7120585441589355,-1334.0635986328125,0
1942.5959999999995,-0.023578880354762077,0.020941490307450294,-0.000729008053895086,0.0,0.0,0.0,0.0,-0.00017365626990795135,0.0010124624241143465,-0.0024904876481741667,0.9985752105712891,0.0,0.0,0.0,7.362630367279053,0.7359237670898438,4.697242259979248,-1332.6507568359375,0
1952.5109999999986,-0.023588113486766815,0.02093750797212124,-0.0007179438835009933,0.0,0.0,0.0,0.0,-0.002522809198126197,-0.0030245392117649317,0.0011751024285331368,0.9981095790863037,0.0,0.0,0.0,7.371025562286377,0.7350966334342957,4.695925235748291,-1334.17041015625,0
1962.4179999999997,-0.02362336963415146,0.020930005237460136,-0.0007179646636359394,0.0,0.0,0.0,0.0,0.0007877681637182832,0.0015460888389497995,0.003405067604035139,0.9991293549537659,0.0,0.0,0.0,7.363363742828369,0.7340593338012695,4.6906046867370605,-1332.783447265625,0
1972.3289999999997,-0.023632032796740532,0.020956529304385185,-0.0006758301751688123,0.0,0.0,0.0,0.0,-0.001298252260312438,-0.0018282451201230288,-0.002094506286084652,0.9987272024154663,0.0,0.0,0.0,7.371357440948486,0.7501795887947083,4.693059921264648,-1334.2303466796875,0
1982.2399999999998,-0.023669224232435226,0.020949460566043854,-0.0006752048502676189,0.0,0.0,0.0,0.0,-0.001411737292073667,0.0006387773319147527,0.0005529826157726347,0.9993177056312561,0.0,0.0,0.0,7.364506721496582,0.7393495440483093,4.69006872177124,-1332.9903564453125,0
1992.152,-0.023661483079195023,0.02097179740667343,-0.0006344866706058383,0.0,0.0,0.0,0.0,-0.0010633758502081037,0.004460558295249939,-0.0021382176782935858,1.0001341104507446,0.0,0.0,0.0,7.372037887573242,0.7527133822441101,4.704744815826416,-1334.353515625,0
2002.065999999999,-0.023698555305600166,0.02096627466380596,-0.000632045732345432,0.0,0.0,0.0,0.0,-0.003482596017420292,2.2202142645255663e-05,0.0007238234975375235,0.9997243881225586,0.0,0.0,0.0,7.363896369934082,0.7518441677093506,4.691391944885254,-1332.8798828125,0
2011.9869999999992,-0.023713748902082443,0.020969383418560028,-0.0006146905361674726,0.0,0.0,0.0,0.0,0.001143138506449759,-0.0011415017070248723,-0.002286202274262905,0.9988356232643127,0.0,0.0,0.0,7.364340305328369,0.7594700455665588,4.689207077026367,-1332.960205078125,0
2021.887999999999,-0.023725753650069237,0.020984841510653496,-0.0005898996023461223,0.0,0.0,0.0,0.0,0.0009444041061215103,0.0033692712895572186,-0.003137500723823905,1.0004856586456299,0.0,0.0,0.0,7.363733291625977,0.7652163505554199,4.680821895599365,-1332.850341796875,0
2031.798999999999,-0.02376743219792843,0.020981082692742348,-0.0005847839638590813,0.0,0.0,0.0,0.0,0.00037501254701055586,0.0014558753464370966,0.0008351719006896019,0.9991516470909119,0.0,0.0,0.0,7.357069492340088,0.761626124382019,4.682326793670654,-1331.644287109375,0
2041.7099999999991,-0.023716755211353302,0.02096923254430294,-0.0005709935212507844,0.0,0.0,0.0,0.0,0.0002335101889912039,0.001797220204025507,-0.0013539203209802508,0.9976234436035156,0.0,0.0,0.0,7.349094390869141,0.7616878747940063,4.665317535400391,-1330.20068359375,0
2051.625,-0.02375948242843151,0.02096393145620823,-0.0005665360949933529,0.0,0.0,0.0,0.0,0.002940708538517356,0.00020313228014856577,0.002986062318086624,0.9990264773368835,0.0,0.0,0.0,7.342459678649902,0.762660801410675,4.6579508781433105,-1328.9998779296875,0
2061.5329999999994,-0.023734021931886673,0.02095445804297924,-0.0005521558341570199,0.0,0.0,0.0,0.0,-0.0005009708111174405,0.0005100572016090155,-0.002080210018903017,0.9997545480728149,0.0,0.0,0.0,7.340747833251953,0.755443811416626,4.664518356323242,-1328.68994140625,0
2071.450999999999,-0.023779701441526413,0.02095077373087406,-0.0005492832278832793,0.0,0.0,0.0,0.0,0.001708116033114493,-0.0005776103935204446,-0.00130512157920748,1.000136137008667,0.0,0.0,0.0,7.3341193199157715,0.7491620779037476,4.667647361755371,-1327.490234375,0
2081.3539999999994,-0.02371765673160553,0.020947005599737167,-0.0005271306727081537,0.0,0.0,0.0,0.0,-0.0034362899605184793,0.0003100185131188482,-0.0008768490515649319,0.999643862247467,0.0,0.0,0.0,7.334546089172363,0.7422872185707092,4.692343235015869,-1327.5675048828125,0
2091.268,-0.023761363700032234,0.020943831652402878,-0.0005230146925896406,0.0,0.0,0.0,0.0,0.0017951132031157613,0.0026048440486192703,0.002469092607498169,1.0007073879241943,0.0,0.0,0.0,7.328248023986816,0.7455118298530579,4.6846089363098145,-1326.427490234375,0
2101.1849999999995,-0.023677220568060875,0.02091282419860363,-0.0005049994797445834,0.0,0.0,0.0,0.0,0.0014270319370552897,0.00271473522298038,-0.0007540576043538749,0.9995763897895813,0.0,0.0,0.0,7.324234485626221,0.7278518676757812,4.71926212310791,-1325.7010498046875,0
2111.093999999999,-0.023716837167739868,0.020909445360302925,-0.0005003627738915384,0.0,0.0,0.0,0.0,0.001876471214927733,-0.0007528200512751937,-0.0016108611598610878,0.9988908767700195,0.0,0.0,0.0,7.317592620849609,0.7225019335746765,4.712890625,-1324.498779296875,0
2121.012999999999,-0.02368345856666565,0.02090608701109886,-0.00046431159717030823,0.0,0.0,0.0,0.0,0.005406495183706284,-0.004928202368319035,-0.0021987801883369684,0.9983893036842346,0.0,0.0,0.0,7.328668117523193,0.7192986011505127,4.723081111907959,-1326.5035400390625,0
2130.91,-0.023720650002360344,0.02090194635093212,-0.000458719878224656,0.0,0.0,0.0,0.0,-0.004588672891259193,0.0015394886722788215,-0.0026401840150356293,0.9992932677268982,0.0,0.0,0.0,7.3209991455078125,0.7185090780258179,4.717402458190918,-1325.115478515625,0
2140.8309999999983,-0.023728806525468826,0.02088400349020958,-0.00041332218097522855,0.0,0.0,0.0,0.0,0.00034773763036355376,0.0011348046828061342,0.00029979622922837734,0.9994505047798157,0.0,0.0,0.0,7.322844982147217,0.7110098600387573,4.725776195526123,-1325.449462890625,0
2150.7329999999984,-0.023728806525468826,0.02088400349020958,-0.00041332218097522855,0.0,0.0,0.0,0.0,0.0014964943984523416,-0.005914630368351936,0.0010604007402434945,1.000350832939148,0.0,0.0,0.0,7.322844982147217,0.7110098600387573,4.725776195526123,-1325.449462890625,0
2160.651,-0.023717517033219337,0.020864684134721756,-0.00038997308001853526,0.0,0.0,0.0,0.0,0.0005576906260102987,0.003757285652682185,0.0035120961256325245,1.002898097038269,0.0,0.0,0.0,7.316195011138916,0.7073132395744324,4.723072528839111,-1324.2459716796875,0
