timestamp,stateEstimate.x,stateEstimate.y,stateEstimate.z,controller.cmd_thrust,controller.cmd_roll,controller.cmd_pitch,controller.cmd_yaw,controller.r_roll,controller.r_pitch,controller.r_yaw,controller.accelz,controller.actuatorThrust,controller.roll,controller.pitch,controller.yaw,controller.rollRate,controller.pitchRate,controller.yawRate,controller.ctr_yaw
0.0,-1.1566626199055463e-05,-0.00012205239909235388,-0.00010713272786233574,0.0,0.0,0.0,0.0,0.000690547632984817,0.0034369025379419327,0.0034552535507827997,0.9997251033782959,0.0,0.0,0.0,0.38507819175720215,2.696629762649536,5.355860233306885,-69.69992065429688,0
9.909999999999854,-6.271167512750253e-05,-0.0001217561584780924,-8.739538316149265e-05,0.0,0.0,0.0,0.0,-0.00035660783760249615,-0.0011682549957185984,-0.0008947815513238311,0.9980584383010864,0.0,0.0,0.0,0.3861674666404724,2.7022287845611572,5.349684238433838,-69.8970718383789,0
19.82499999999891,-6.656757614109665e-05,-8.943794819060713e-05,-0.0001331663370365277,0.0,0.0,0.0,0.0,-0.002075318479910493,0.00034896336728706956,0.00038023892557248473,0.9994593262672424,0.0,0.0,0.0,0.3919390141963959,2.714205741882324,5.350630283355713,-70.94174194335938,0
29.737999999999374,-0.00012037249689456075,-0.00012685333786066622,-0.0001393945567542687,0.0,0.0,0.0,0.0,-0.0011326061794534326,-0.006826265249401331,0.0007694677915424109,0.9987717270851135,0.0,0.0,0.0,0.3911723494529724,2.7139949798583984,5.345706462860107,-70.80297088623047,0
39.65599999999904,-0.00012740108650177717,-7.66439552535303e-05,-0.00018048612400889397,0.0,0.0,0.0,0.0,-0.0028665352147072554,2.92984827865439e-06,-0.0016031524864956737,0.9994338154792786,0.0,0.0,0.0,0.39043495059013367,2.718696355819702,5.354799747467041,-70.66950225830078,0
49.5630000000001,-8.302585047204047e-05,-0.00010264659795211628,-0.00012653711019083858,0.0,0.0,0.0,0.0,0.0009507701615802944,0.0005927133606746793,0.0008970221970230341,0.9994274377822876,0.0,0.0,0.0,0.3896293044090271,2.7167322635650635,5.352305889129639,-70.52367401123047,0
59.48999999999978,-9.659514762461185e-05,-7.082298543537036e-05,-0.00015769139281474054,0.0,0.0,0.0,0.0,-0.000306547008221969,0.004230121150612831,0.00037538728793151677,0.9985562562942505,0.0,0.0,0.0,0.38954758644104004,2.7102763652801514,5.347318172454834,-70.5088882446289,0
69.38899999999921,-0.00015006237663328648,-0.00010781758464872837,-0.00016583080287091434,0.0,0.0,0.0,0.0,0.0005518149700947106,-0.002513026585802436,0.0005072489148005843,0.9993292093276978,0.0,0.0,0.0,0.389236718416214,2.7017507553100586,5.329559326171875,-70.4526138305664,0
79.3140000000003,-0.0001640982663957402,-7.304408063646406e-05,-0.00020525096624623984,0.0,0.0,0.0,0.0,-0.0030737051274627447,0.00172490905970335,-0.0017265180358663201,0.9989007711410522,0.0,0.0,0.0,0.3897124230861664,2.6949639320373535,5.31824254989624,-70.5387191772461,0
89.21299999999974,-3.3540682125021704e-06,-0.00014468716108240187,-0.00010968502465402707,0.0,0.0,0.0,0.0,-0.00034628729918040335,-0.0021700486540794373,-0.00021635628945659846,0.999347448348999,0.0,0.0,0.0,0.3861113488674164,2.6857945919036865,5.363604545593262,-69.88691711425781,0
99.14199999999983,-1.1308141438348684e-05,-0.00011019261000910774,-0.0001369006058666855,0.0,0.0,0.0,0.0,1.1955102081628866e-06,-0.002187510719522834,0.00084500148659572,0.9979662299156189,0.0,0.0,0.0,0.39288219809532166,2.703847885131836,5.359942436218262,-71.11245727539062,0
109.03499999999985,-6.511914398288354e-05,-0.00013628261513076723,-0.00014872252359054983,0.0,0.0,0.0,0.0,-0.001061402726918459,-0.0006197436596266925,0.000259342574281618,0.9971514344215393,0.0,0.0,0.0,0.3930361568927765,2.698073387145996,5.365510940551758,-71.14031982421875,0
118.95199999999932,-7.733484380878508e-05,-0.00010573622421361506,-0.00018358671513851732,0.0,0.0,0.0,0.0,-0.0008346847607754171,0.001970880664885044,0.0020180493593215942,0.9981715083122253,0.0,0.0,0.0,0.3937866985797882,2.699355125427246,5.364691257476807,-71.27616882324219,0
128.86199999999917,-3.6710680433316156e-05,-0.0001102035166695714,-0.00014072090561967343,0.0,0.0,0.0,0.0,0.0035408774856477976,0.003612167900428176,-0.003109695389866829,0.9995966553688049,0.0,0.0,0.0,0.3939221501350403,2.704638719558716,5.364374160766602,-71.30068969726562,0
138.78399999999965,-5.654722554027103e-05,-9.537072037346661e-05,-0.00017616017430555075,0.0,0.0,0.0,0.0,-0.0011306221131235361,0.0021579645108431578,0.0017857481725513935,1.0015982389450073,0.0,0.0,0.0,0.39372044801712036,2.6999013423919678,5.354963779449463,-71.2641830444336,0
148.6880000000001,-5.7530989579390734e-05,-0.0001007862010737881,-0.00014846798148937523,0.0,0.0,0.0,0.0,0.0015080514131113887,0.005537622142583132,-0.0015736405039206147,1.0031945705413818,0.0,0.0,0.0,0.39374983310699463,2.698028564453125,5.348560333251953,-71.26950073242188,0
158.60099999999875,-7.744239701423794e-05,-7.370374805759639e-05,-0.00017764030781108886,0.0,0.0,0.0,0.0,-0.00024197090533562005,-0.002790858270600438,0.0008837998029775918,0.9997038841247559,0.0,0.0,0.0,0.3935041129589081,2.693530559539795,5.334418296813965,-71.22502136230469,0
168.5079999999998,-3.570915578166023e-05,-9.430190402781591e-05,-0.0001375116262352094,0.0,0.0,0.0,0.0,0.0022388456854969263,-0.004241853021085262,0.004241493064910173,0.9980236291885376,0.0,0.0,0.0,0.3935241401195526,2.6863622665405273,5.322893142700195,-71.22864532470703,0
178.43199999999888,-6.83003818267025e-05,-9.384073928231373e-05,-0.0001584818965056911,0.0,0.0,0.0,0.0,-0.002473836997523904,-0.0035644439049065113,-0.000565758440643549,1.0014183521270752,0.0,0.0,0.0,0.39382368326187134,2.685389280319214,5.3202290534973145,-71.28287506103516,0
188.33799999999974,-0.00012792536290362477,-0.00013689848128706217,-0.0001628393802093342,0.0,0.0,0.0,0.0,-0.0010650285985320807,0.0016749862115830183,0.0013831284595653415,0.999211311340332,0.0,0.0,0.0,0.3956412971019745,2.681516408920288,5.337578296661377,-71.61186218261719,0
198.253999999999,-0.00023457538918592036,-0.00014052321785129607,-0.000158333481522277,0.0,0.0,0.0,0.0,0.00037927395896986127,-0.0026302929036319256,0.0030461903661489487,0.9982795119285583,0.0,0.0,0.0,0.39589372277259827,2.6832761764526367,5.329833030700684,-71.65754699707031,0
208.15699999999924,-0.00011611612717388198,-0.0001489397109253332,-0.0001092812090064399,0.0,0.0,0.0,0.0,0.0023554437793791294,0.003193820593878627,-0.004890880081802607,0.9995618462562561,0.0,0.0,0.0,0.39589372277259827,2.6832761764526367,5.329833030700684,-71.65754699707031,0
218.07999999999993,-0.0001688733755145222,-0.0001349612866761163,-0.00016502141079399735,0.0,0.0,0.0,0.0,-0.0020386381074786186,0.0011028321459889412,-0.0007185572758316994,0.9991222023963928,0.0,0.0,0.0,0.3935965597629547,2.67461895942688,5.315186977386475,-71.24176025390625,0
227.98199999999997,-0.0001688733755145222,-0.0001349612866761163,-0.00016502141079399735,0.0,0.0,0.0,0.0,-0.0002902262203861028,-0.008381811901926994,0.001974156592041254,0.9988098740577698,0.0,0.0,0.0,0.3935965597629547,2.67461895942688,5.315186977386475,-71.24176025390625,0
237.90499999999884,-0.00018043926684185863,-7.392124825855717e-05,-0.00020717315783258528,0.0,0.0,0.0,0.0,-0.0016156162600964308,-0.0022019767202436924,0.002139429794624448,0.9981139302253723,0.0,0.0,0.0,0.39312973618507385,2.6751458644866943,5.3153581619262695,-71.15726470947266,0
247.8089999999993,-6.0703649069182575e-05,-0.00011813310266006738,-0.00010633286001393571,0.0,0.0,0.0,0.0,-0.0022028530947864056,-0.0009783308487385511,0.00040583364898338914,0.9986330270767212,0.0,0.0,0.0,0.3948517441749573,2.6693294048309326,5.36711311340332,-71.46895599365234,0
257.7330000000002,-0.00010858213499886915,-0.00015374722715932876,-0.00011810271098511294,0.0,0.0,0.0,0.0,0.001833663322031498,-0.002173058921471238,0.0018046656623482704,0.9983808994293213,0.0,0.0,0.0,0.40322092175483704,2.679547071456909,5.375236511230469,-72.98379516601562,0
267.637999999999,-1.4803142221353482e-05,-0.00018519842706155032,-4.7007808461785316e-05,0.0,0.0,0.0,0.0,0.0015450625214725733,-0.00446956604719162,-0.0036464885342866182,0.9996445775032043,0.0,0.0,0.0,0.4024593234062195,2.675236701965332,5.373630046844482,-72.84593963623047,0
277.5560000000005,-6.676742032141192e-06,-0.00013346434570848942,-9.372385102324188e-05,0.0,0.0,0.0,0.0,-0.0010528505081310868,0.00019296788377687335,-0.00035653525264933705,1.0015764236450195,0.0,0.0,0.0,0.4021264910697937,2.673633098602295,5.374551773071289,-72.78569030761719,0
287.46099999999933,-2.8204884074511938e-05,-0.00013186778232920915,-5.206077912589535e-05,0.0,0.0,0.0,0.0,0.0005133351660333574,-0.003066489938646555,-0.002762732096016407,1.0003269910812378,0.0,0.0,0.0,0.40083709359169006,2.6619293689727783,5.370169639587402,-72.55230712890625,0
297.387999999999,-2.8063062927685678e-05,-9.265162225347012e-05,-9.549567039357498e-05,0.0,0.0,0.0,0.0,2.59740245383e-05,-0.0033124382607638836,0.0014173767995089293,0.9995072484016418,0.0,0.0,0.0,0.4012247323989868,2.6622188091278076,5.380248069763184,-72.62247467041016,0
307.28199999999924,-5.677781518897973e-05,-0.00011402068048482761,-7.022725912975147e-05,0.0,0.0,0.0,0.0,-0.003111087018623948,-0.002513082232326269,0.0018622030038386583,0.9983397722244263,0.0,0.0,0.0,0.4008898138999939,2.6589574813842773,5.383641719818115,-72.56185913085938,0
317.2079999999987,-5.916613736189902e-05,-7.404543430311605e-05,-0.0001151728502009064,0.0,0.0,0.0,0.0,0.002422437071800232,0.0005469461320899427,0.0035519327502697706,0.9980942606925964,0.0,0.0,0.0,0.4010297358036041,2.6629865169525146,5.387912273406982,-72.5871810913086,0
327.116,-5.225851418799721e-05,-9.717712964629754e-05,-8.874623745214194e-05,0.0,0.0,0.0,0.0,-0.00012147186498623341,0.0019860570318996906,-0.00040548070683144033,0.9996992349624634,0.0,0.0,0.0,0.4022056460380554,2.660776376724243,5.386244297027588,-72.80001831054688,0
337.02999999999884,-6.94301852490753e-05,-8.092615462373942e-05,-0.00012681122461799532,0.0,0.0,0.0,0.0,-0.003880675183609128,0.0019169560400769114,-0.003679921617731452,0.999990701675415,0.0,0.0,0.0,0.40218034386634827,2.6527202129364014,5.38137149810791,-72.7954330444336,0
346.9310000000005,-7.267583714565262e-05,-0.00010793442197609693,-0.00010014759754994884,0.0,0.0,0.0,0.0,0.0014635720290243626,-0.0007657564710825682,-0.003516402328386903,0.9997271299362183,0.0,0.0,0.0,0.40227505564689636,2.6553282737731934,5.377979755401611,-72.81257629394531,0
356.86199999999917,-7.827841182006523e-05,-7.323735917452723e-05,-0.00014555954840034246,0.0,0.0,0.0,0.0,0.0002542905858717859,0.0003621151263359934,0.00295900902710855,0.9984471797943115,0.0,0.0,0.0,0.4011005759239197,2.6577255725860596,5.373936653137207,-72.5999984741211,0
366.762999999999,-8.05957752163522e-05,-0.00012252421583980322,-0.00014011630264576524,0.0,0.0,0.0,0.0,0.001850317930802703,-0.0045822178944945335,0.0031713107600808144,0.9969671964645386,0.0,0.0,0.0,0.4001353979110718,2.654886245727539,5.375933647155762,-72.42530059814453,0
376.6880000000001,-0.00010904950613621622,-0.00014425799599848688,-0.00018396849918644875,0.0,0.0,0.0,0.0,-0.0019548290874809027,0.0014240462332963943,0.0012302775867283344,0.9977904558181763,0.0,0.0,0.0,0.40090787410736084,2.652010917663574,5.3730998039245605,-72.56512451171875,0
386.5829999999987,-8.400157821597531e-05,-0.0001449660921934992,-0.0001398215681547299,0.0,0.0,0.0,0.0,0.0006721121608279645,-0.0011518553365021944,-0.00019356525444891304,0.9989075064659119,0.0,0.0,0.0,0.40161702036857605,2.6442148685455322,5.374204635620117,-72.69347381591797,0
396.5029999999988,-0.00012338322994764894,-0.0001244017475983128,-0.00015232084842864424,0.0,0.0,0.0,0.0,0.0008469154709018767,-0.0011546086752787232,-0.0003506253706291318,1.0014792680740356,0.0,0.0,0.0,0.4006558656692505,2.6397182941436768,5.369580268859863,-72.51951599121094,0
406.41100000000006,-0.0001874184818007052,-0.0001740943844197318,-0.00016270099149551243,0.0,0.0,0.0,0.0,-0.002635573735460639,-0.0013783840695396066,4.834586434299126e-05,1.000191330909729,0.0,0.0,0.0,0.4007856547832489,2.642806053161621,5.368656158447266,-72.54300689697266,0
416.3289999999997,-0.00022874941350892186,-0.00017773777653928846,-0.0001872796710813418,0.0,0.0,0.0,0.0,0.0003808283945545554,-0.0030746320262551308,-0.0013103120727464557,0.9995599389076233,0.0,0.0,0.0,0.40065932273864746,2.638439178466797,5.3556904792785645,-72.52013397216797,0
426.23599999999897,-0.00013462433707900345,-0.0002090504131047055,-8.991064532892779e-05,0.0,0.0,0.0,0.0,-0.0022743104491382837,0.0006757110822945833,-0.0008438067161478102,0.9999148845672607,0.0,0.0,0.0,0.40013587474823,2.63997745513916,5.391891956329346,-72.4253921508789,0
436.14999999999964,-0.00016861659241840243,-0.0002070008049486205,-0.00010369392111897469,0.0,0.0,0.0,0.0,0.0031106455717235804,-0.002476140856742859,-0.000886776833795011,1.0001684427261353,0.0,0.0,0.0,0.399563729763031,2.6391797065734863,5.386459827423096,-72.32183837890625,0
446.0560000000005,-0.0002298843755852431,-0.00025854675914160907,-0.00010627281153574586,0.0,0.0,0.0,0.0,-0.0034268717281520367,-0.0004255916574038565,0.0013899890473112464,0.998599648475647,0.0,0.0,0.0,0.3983635902404785,2.636946439743042,5.381402015686035,-72.10459899902344,0
455.98699999999917,-0.00021253633894957602,-0.00014747964451089501,-0.0001553414185764268,0.0,0.0,0.0,0.0,-0.003134792437776923,-0.004706410225480795,0.00408186437562108,0.9973612427711487,0.0,0.0,0.0,0.39757871627807617,2.684748649597168,5.411142349243164,-71.96253967285156,0
465.8809999999994,-0.00027169729582965374,-0.0001914526364998892,-0.00016248524480033666,0.0,0.0,0.0,0.0,0.0033290463034063578,0.0005025082500651479,-0.00031076488085091114,1.0007071495056152,0.0,0.0,0.0,0.39775046706199646,2.6854333877563477,5.40311336517334,-71.9936294555664,0
475.79899999999907,-0.0002730580454226583,-0.00011206811177544296,-0.0002084396983264014,0.0,0.0,0.0,0.0,-0.0003089477540925145,-0.0063158669508993626,0.0018889942439273,0.9996201992034912,0.0,0.0,0.0,0.3971370756626129,2.72048020362854,5.429710388183594,-71.88259887695312,0
485.70600000000013,-4.0054175769910216e-05,-0.0002134052338078618,-5.077044988865964e-05,0.0,0.0,0.0,0.0,-0.0033556432463228703,-0.0025127010885626078,0.0002815491461660713,1.0003129243850708,0.0,0.0,0.0,0.39330607652664185,2.7045071125030518,5.505266189575195,-71.1891860961914,0
495.628999999999,-2.4190796466427855e-05,-0.0001539834338473156,-8.541586430510506e-05,0.0,0.0,0.0,0.0,0.0008495345246046782,0.0016161917010322213,0.0018922182498499751,1.0004531145095825,0.0,0.0,0.0,0.3933139741420746,2.7019805908203125,5.502954483032227,-71.19061279296875,0
505.52999999999884,-6.260786904022098e-05,-0.00015058564895298332,-6.030980875948444e-05,0.0,0.0,0.0,0.0,0.0013093745801597834,0.0010697009274736047,0.004437145311385393,0.9999579787254333,0.0,0.0,0.0,0.3925463557243347,2.7042758464813232,5.500865936279297,-71.05166625976562,0
515.4490000000005,-8.066404552664608e-05,-0.0001269776839762926,-0.00011083048593718559,0.0,0.0,0.0,0.0,0.000509039091411978,-0.0004160241805948317,0.0010764971375465393,0.9992392063140869,0.0,0.0,0.0,0.39839112758636475,2.7115402221679688,5.498292922973633,-72.10958862304688,0
525.3549999999996,-8.395475015277043e-05,-7.47492813388817e-05,-8.031586912693456e-05,0.0,0.0,0.0,0.0,0.0010112016461789608,0.0010302892187610269,0.0008495348738506436,0.9978298544883728,0.0,0.0,0.0,0.39839112758636475,2.7115402221679688,5.498292922973633,-72.10958862304688,0
535.2759999999998,-0.00011958909453824162,-8.101062849164009e-05,-0.00013000167382415384,0.0,0.0,0.0,0.0,-0.0012939011212438345,0.0003671474114526063,-0.0013589359587058425,0.9988604187965393,0.0,0.0,0.0,0.39970481395721436,2.7069852352142334,5.487515449523926,-72.34737396240234,0
545.1839999999993,-5.9755839174613357e-05,-8.134128438541666e-05,-0.00010729154018918052,0.0,0.0,0.0,0.0,0.003191940253600478,-0.0007155918283388019,-0.0003295091155450791,0.998932957649231,0.0,0.0,0.0,0.39970481395721436,2.7069852352142334,5.487515449523926,-72.34737396240234,0
555.0919999999987,-0.00011273950076429173,-8.89148359419778e-05,-8.897170482669026e-05,0.0,0.0,0.0,0.0,0.002582307904958725,-0.002322189277037978,-0.0007131540332920849,1.0004551410675049,0.0,0.0,0.0,0.3986869156360626,2.701451063156128,5.483274459838867,-72.16312408447266,0
565.0069999999996,-0.0001554794143885374,-0.0001248004991794005,-9.279987716581672e-05,0.0,0.0,0.0,0.0,-0.0019923890940845013,-0.00016386015340685844,-0.00017379011842422187,1.0005661249160767,0.0,0.0,0.0,0.3989386260509491,2.6941492557525635,5.475225448608398,-72.20868682861328,0
574.9259999999995,-0.0001541340898256749,-7.985448610270396e-05,-0.00012909156794194132,0.0,0.0,0.0,0.0,-0.0007493264856748283,-0.001703079673461616,0.000991593929938972,1.0006232261657715,0.0,0.0,0.0,0.39932045340538025,2.691596746444702,5.482729434967041,-72.27779388427734,0
584.8339999999989,-5.6527478591306135e-05,-0.00010758786083897576,-4.474962406675331e-05,0.0,0.0,0.0,0.0,0.0003597600443754345,0.003165385453030467,-0.0021608504466712475,0.9990507364273071,0.0,0.0,0.0,0.3990344703197479,2.6933913230895996,5.472931861877441,-72.22603607177734,0
594.7439999999988,-7.401734183076769e-05,-8.72352029546164e-05,-4.5264656364452094e-05,0.0,0.0,0.0,0.0,-0.0002055706427199766,-0.0034831613302230835,-0.005305183585733175,0.9999939203262329,0.0,0.0,0.0,0.39853203296661377,2.6872177124023438,5.468949317932129,-72.13508605957031,0
604.6599999999999,-3.1912990380078554e-05,-0.00016526860417798162,-3.4282034903299063e-05,0.0,0.0,0.0,0.0,0.00048046521260403097,-0.0020463019609451294,0.0002155711263185367,1.0016249418258667,0.0,0.0,0.0,0.3980490267276764,2.689055919647217,5.45982551574707,-72.04766845703125,0
614.5720000000001,-5.4083204304333776e-05,-0.00017899512022268027,-4.524792529991828e-05,0.0,0.0,0.0,0.0,-0.0017100617988035083,-0.0030759612563997507,0.00040184706449508667,1.0017598867416382,0.0,0.0,0.0,0.40438103675842285,2.6927073001861572,5.464870929718018,-73.19377136230469,0
624.4830000000002,-2.1061647203168832e-05,-0.00019906862871721387,-1.9153690118400846e-06,0.0,0.0,0.0,0.0,-0.0016254837391898036,-0.004438540432602167,0.0020189937204122543,1.0000604391098022,0.0,0.0,0.0,0.4051584005355835,2.6886932849884033,5.460230827331543,-73.33448028564453,0
634.3959999999988,-5.354907989385538e-05,-0.00020692373800557107,1.2687834896496497e-05,0.0,0.0,0.0,0.0,-0.0011907003354281187,-0.00419151084497571,-0.0004062546358909458,0.9987449049949646,0.0,0.0,0.0,0.40498003363609314,2.690535068511963,5.4631547927856445,-73.30218505859375,0
644.3060000000005,-0.00010293925879523158,-0.00017902161926031113,6.082611798774451e-05,0.0,0.0,0.0,0.0,0.0007189980824477971,-0.002344264183193445,0.0003273982147220522,0.9977740049362183,0.0,0.0,0.0,0.4054786264896393,2.690852165222168,5.465935230255127,-73.3924331665039,0
654.2250000000004,-8.520267874700949e-05,-0.00012763944687321782,2.6053099645650946e-05,0.0,0.0,0.0,0.0,0.002190955448895693,-0.006382152438163757,0.0010501097422093153,0.9981469511985779,0.0,0.0,0.0,0.4036150574684143,2.687739133834839,5.467079162597656,-73.05513000488281,0
664.134,-0.00012261424853932112,-0.00012079400039510801,6.353210483212024e-05,0.0,0.0,0.0,0.0,-0.00109693908598274,-0.0023104469291865826,-0.00036531779915094376,1.001196265220642,0.0,0.0,0.0,0.40347564220428467,2.6839396953582764,5.466491222381592,-73.02989196777344,0
674.0419999999995,-0.00011417819041525945,-7.541257218690589e-05,3.581520650186576e-05,0.0,0.0,0.0,0.0,0.0008591189398430288,-0.002570787677541375,0.0001574984926264733,1.0023199319839478,0.0,0.0,0.0,0.40259215235710144,2.6843361854553223,5.47404670715332,-72.86997985839844,0
683.9549999999999,-7.655762601643801e-05,-0.00012761417019646615,6.492017564596608e-05,0.0,0.0,0.0,0.0,-0.0003376885433681309,0.00243887840770185,0.0011346426326781511,0.9986798167228699,0.0,0.0,0.0,0.401953786611557,2.6801538467407227,5.461885929107666,-72.75443267822266,0
693.8709999999992,-5.1893202908104286e-05,-8.671465911902487e-05,1.5118839655769989e-05,0.0,0.0,0.0,0.0,0.004191009793430567,-0.0029451940208673477,-0.0026153107173740864,0.9990624189376831,0.0,0.0,0.0,0.40106692910194397,2.677164077758789,5.448973178863525,-72.59391784667969,0
703.7799999999988,-7.337281567743048e-05,-0.00014514129725284874,1.2191042515041772e-05,0.0,0.0,0.0,0.0,0.0002007074363064021,0.0003239042707718909,0.0005450149765238166,0.9996957778930664,0.0,0.0,0.0,0.3997681736946106,2.667715549468994,5.439631938934326,-72.35883331298828,0
713.6980000000003,-5.199709630687721e-05,-0.00010114276665262878,-4.0579569031251594e-05,0.0,0.0,0.0,0.0,-0.002036860678344965,-0.00013074721209704876,0.0007525991532020271,1.000130534172058,0.0,0.0,0.0,0.3993546962738037,2.6641619205474854,5.439876556396484,-72.28399658203125,0
723.6029999999992,-9.783735004020855e-05,-0.0001453888980904594,-4.0831026126397774e-05,0.0,0.0,0.0,0.0,0.001529795117676258,-0.001516107004135847,-0.0010277118999511003,0.9999655485153198,0.0,0.0,0.0,0.3992195129394531,2.6607367992401123,5.435649394989014,-72.25952911376953,0
733.5159999999996,-8.906229777494445e-05,-0.00010390213719801977,-8.47999908728525e-05,0.0,0.0,0.0,0.0,-0.001212580013088882,0.0005500910920090973,-0.00039089558413252234,0.9989882111549377,0.0,0.0,0.0,0.3982972502708435,2.6645724773406982,5.4314141273498535,-72.09259796142578,0
743.4290000000001,-0.00013623062113765627,-0.00014879979426041245,-8.800085925031453e-05,0.0,0.0,0.0,0.0,0.00033356796484440565,-0.002995436079800129,0.0020481846295297146,0.997998833656311,0.0,0.0,0.0,0.39858683943748474,2.6622304916381836,5.4278459548950195,-72.14500427246094,0
753.3459999999995,-0.00014237537106964737,-0.00011266813817201182,-0.00012341847468633205,0.0,0.0,0.0,0.0,-0.00398250250145793,0.00489801773801446,-0.0007508169510401785,1.0001718997955322,0.0,0.0,0.0,0.39830732345581055,2.656554937362671,5.424304485321045,-72.09442138671875,0
763.2529999999988,-6.43922157905763e-06,-0.0002097574615618214,-5.360072464100085e-05,0.0,0.0,0.0,0.0,0.0009302495163865387,-0.004877377301454544,-0.002173982560634613,0.9984736442565918,0.0,0.0,0.0,0.40139129757881165,2.6415390968322754,5.465816974639893,-72.65261840820312,0
773.1659999999993,8.124910891638137e-06,-0.00016491753922309726,-8.854280895320699e-05,0.0,0.0,0.0,0.0,-0.0001060450667864643,0.0030514185782521963,-0.0009434841340407729,0.9969654679298401,0.0,0.0,0.0,0.4004296064376831,2.6418378353118896,5.451838970184326,-72.47856140136719,0
783.0869999999995,-2.9114920835127123e-05,-0.00021149817621335387,-9.428129851585254e-05,0.0,0.0,0.0,0.0,0.0016995378537103534,0.007382398471236229,-0.0002969007764477283,0.9994577169418335,0.0,0.0,0.0,0.3994945287704468,2.641659736633301,5.44589376449585,-72.3093032836914,0
793.0,-6.130302790552378e-05,-0.0002246592630399391,-9.637271432438865e-05,0.0,0.0,0.0,0.0,-0.006402416154742241,-0.0046729459427297115,-0.0010444625513628125,0.9998195171356201,0.0,0.0,0.0,0.3986166715621948,2.636423349380493,5.431240081787109,-72.15040588378906,0
802.9040000000005,-6.977431621635333e-05,-0.00022492723655886948,-4.388482921058312e-05,0.0,0.0,0.0,0.0,-0.0028792950324714184,-0.0016985322581604123,0.004728910978883505,0.999880313873291,0.0,0.0,0.0,0.3983193635940552,2.640092372894287,5.417810916900635,-72.09658813476562,0
812.8199999999997,-9.29348825593479e-05,-0.00021755312627647072,-4.7518304199911654e-05,0.0,0.0,0.0,0.0,0.0002657866571098566,0.000582745997235179,-0.0005382065428420901,0.9993999004364014,0.0,0.0,0.0,0.3984315097332001,2.6403167247772217,5.415736198425293,-72.11688995361328,0
822.7379999999994,-1.5784939023433253e-05,-0.0002427043073112145,1.540903940622229e-05,0.0,0.0,0.0,0.0,0.00025132388691417873,-0.00023152085486799479,-0.002880915766581893,0.9987249374389648,0.0,0.0,0.0,0.3992505371570587,2.644845962524414,5.411181926727295,-72.26514434814453,0
832.6440000000002,-2.7207568564335816e-05,-0.00019588939903769642,1.5867084584897384e-05,0.0,0.0,0.0,0.0,-0.0004689722554758191,0.0010526870610192418,0.0018018371192738414,0.9990584254264832,0.0,0.0,0.0,0.39751169085502625,2.6404898166656494,5.406177997589111,-71.95040130615234,0
842.5689999999995,-7.069882121868432e-05,-0.0002408311265753582,1.6588161088293418e-05,0.0,0.0,0.0,0.0,-0.0010489309206604958,-0.002768764505162835,0.004030419047921896,1.0000343322753906,0.0,0.0,0.0,0.39713555574417114,2.6460468769073486,5.397697925567627,-71.88232421875,0
852.4639999999999,-9.691441664472222e-05,-0.00020978529937565327,-3.514698983053677e-05,0.0,0.0,0.0,0.0,-0.00024934980319812894,-0.0017453436739742756,-2.6088273443747312e-05,0.9984680414199829,0.0,0.0,0.0,0.3968265652656555,2.64220929145813,5.396045207977295,-71.8263931274414,0
862.3860000000004,-7.293650560313836e-05,-0.00016593937471043319,9.826632776821498e-06,0.0,0.0,0.0,0.0,-0.0009134035790339112,0.0024086562916636467,9.369981125928462e-05,0.9992005228996277,0.0,0.0,0.0,0.3968265652656555,2.64220929145813,5.396045207977295,-71.8263931274414,0
872.289999999999,-8.874305422068574e-06,-5.5027572670951486e-05,-9.189092816086486e-05,0.0,0.0,0.0,0.0,-0.0023636133410036564,-0.004186767619103193,0.0011996192624792457,1.0013487339019775,0.0,0.0,0.0,0.39681658148765564,2.641784906387329,5.393617630004883,-71.8245849609375,0
882.2109999999993,-5.317247268976644e-05,-9.142616909230128e-05,-0.00010114178439835086,0.0,0.0,0.0,0.0,-0.0017075809882953763,0.0009093353874050081,0.00012944964691996574,1.0001412630081177,0.0,0.0,0.0,0.3963225483894348,2.6431286334991455,5.393703460693359,-71.73517608642578,0
892.116,-7.628959428984672e-05,-7.579022349091247e-05,-0.00012143764615757391,0.0,0.0,0.0,0.0,0.00032959040254354477,0.0007959242211654782,-0.0037239158991724253,0.9979994893074036,0.0,0.0,0.0,0.3966367840766907,2.6397171020507812,5.393588066101074,-71.79205322265625,0
902.0389999999989,-1.6773727111285552e-05,-0.00016053231956902891,-0.00011435509077273309,0.0,0.0,0.0,0.0,0.0004681319696828723,-0.005095949396491051,-7.836931763449684e-05,1.000336766242981,0.0,0.0,0.0,0.39618995785713196,2.6414377689361572,5.38892126083374,-71.71116638183594,0
911.9480000000003,2.126338040397968e-05,-7.124765397747979e-05,-0.00018941600865218788,0.0,0.0,0.0,0.0,-0.0004371604591142386,-0.0017607753397896886,-0.001128533622249961,1.0012073516845703,0.0,0.0,0.0,0.3966151773929596,2.6394336223602295,5.38451623916626,-71.78813934326172,0
921.8709999999992,-8.178910775313852e-07,-0.00010418766032671556,-0.00019083272491116077,0.0,0.0,0.0,0.0,0.0022383525501936674,4.0376660763286054e-05,-0.003976007457822561,0.9993791580200195,0.0,0.0,0.0,0.3951667249202728,2.632646322250366,5.38760232925415,-71.52597045898438,0
931.7669999999998,-2.027053415076807e-05,-4.743817771668546e-05,-0.00020025692356284708,0.0,0.0,0.0,0.0,-0.0042148190550506115,0.001847235718742013,0.0003745613794308156,0.999358057975769,0.0,0.0,0.0,0.3946187496185303,2.6304545402526855,5.3876519203186035,-71.4267807006836,0
941.6890000000003,-7.042493962217122e-05,-8.383456588489935e-05,-0.00021218891197349876,0.0,0.0,0.0,0.0,0.002348243724554777,-0.0017081627156585455,-0.0011982524301856756,0.9983819723129272,0.0,0.0,0.0,0.39416444301605225,2.631103277206421,5.385303974151611,-71.34455108642578,0
951.5959999999995,-0.0001033572552842088,-6.702332029817626e-05,-0.00022965428070165217,0.0,0.0,0.0,0.0,0.001258892472833395,-0.0007319572032429278,0.0002761914802249521,1.0000345706939697,0.0,0.0,0.0,0.3950164020061493,2.6300156116485596,5.377932071685791,-71.49876403808594,0
961.5100000000002,-0.00015573350538033992,-0.00010364745685365051,-0.00024356541689485312,0.0,0.0,0.0,0.0,-0.001117357867769897,0.0001698058913461864,0.0017338311299681664,0.9995424151420593,0.0,0.0,0.0,0.39505618810653687,2.63006591796875,5.383848667144775,-71.50596618652344,0
971.4130000000005,-0.00021112369722686708,-7.658120739506558e-05,-0.00022566344705410302,0.0,0.0,0.0,0.0,-0.0011252230033278465,0.000346508517395705,0.0026571699418127537,1.0007764101028442,0.0,0.0,0.0,0.3952394127845764,2.627764940261841,5.370340824127197,-71.53912353515625,0
981.3469999999998,-9.615922317607328e-05,-0.0001258567499462515,-0.00011421888484619558,0.0,0.0,0.0,0.0,-0.0014436680357903242,-0.002767994999885559,0.00412260927259922,1.0003376007080078,0.0,0.0,0.0,0.392995685338974,2.628298044204712,5.409468650817871,-71.13299560546875,0
991.241,-0.00014852616004645824,-0.00015261508815456182,-0.00010352777462685481,0.0,0.0,0.0,0.0,0.0009140752954408526,-0.00023808774130884558,0.0011650270316749811,0.9992096424102783,0.0,0.0,0.0,0.3934975266456604,2.6274003982543945,5.407600402832031,-71.22383117675781,0
1001.1589999999997,-0.00019971431174781173,-0.00019471815903671086,-0.00010366764763602987,0.0,0.0,0.0,0.0,3.0038385375519283e-05,0.0030378091614693403,0.001727021299302578,0.9999232292175293,0.0,0.0,0.0,0.39534786343574524,2.6238415241241455,5.413225173950195,-71.55874633789062,0
1011.0630000000001,-0.0002093153598252684,-0.00012307174620218575,-0.00012110526586184278,0.0,0.0,0.0,0.0,0.0007956840563565493,0.0013624134007841349,-0.002252359874546528,1.0004464387893677,0.0,0.0,0.0,0.39546388387680054,2.612422466278076,5.401318550109863,-71.57975006103516,0
1020.9930000000004,-8.941614214563742e-05,-0.00016602964024059474,-1.0226430276816245e-05,0.0,0.0,0.0,0.0,-0.0009136275621131063,-0.001515281735919416,0.0019558705389499664,0.998103678226471,0.0,0.0,0.0,0.3959486484527588,2.603318214416504,5.397204399108887,-71.66749572753906,0
1030.887999999999,-0.00010918956832028925,-0.00017702061450108886,-3.464006294962019e-05,0.0,0.0,0.0,0.0,-0.0016637727385386825,-0.002528542187064886,0.0001785989006748423,0.9986931085586548,0.0,0.0,0.0,0.3949936330318451,2.6031644344329834,5.389411449432373,-71.49464416503906,0
1040.8109999999997,-0.00011438652290962636,-0.0002071983035420999,-1.5137497030082159e-05,0.0,0.0,0.0,0.0,0.001807170337997377,-0.0017913192277774215,0.0013741378206759691,0.999030351638794,0.0,0.0,0.0,0.3938925862312317,2.6071689128875732,5.3902716636657715,-71.29534149169922,0
1050.717999999999,-0.00012805974984075874,-0.00020705060160253197,-4.796394205186516e-05,0.0,0.0,0.0,0.0,0.0036320004146546125,0.0006411423673853278,0.0025563423987478018,0.9991141557693481,0.0,0.0,0.0,0.3941861093044281,2.604581356048584,5.376797199249268,-71.34847259521484,0
1060.6399999999994,-0.00017867388669401407,-0.000251722929533571,-4.772139072883874e-05,0.0,0.0,0.0,0.0,-0.0015331535832956433,-0.0046553900465369225,-0.0007193347555585206,0.9998812675476074,0.0,0.0,0.0,0.39448991417884827,2.5978336334228516,5.375472068786621,-71.40345001220703,0
1070.545,-0.0001862448698375374,-0.00021852653298992664,-8.749109838390723e-05,0.0,0.0,0.0,0.0,-0.0006354445940814912,-0.0021229051053524017,-0.0011967590544372797,0.9997767210006714,0.0,0.0,0.0,0.4024077355861664,2.6090493202209473,5.396395206451416,-72.83659362792969,0
1080.4629999999997,-0.0002412499743513763,-0.0002632817777339369,-9.082482574740425e-05,0.0,0.0,0.0,0.0,-0.00043700035894289613,0.0008907774463295937,-0.001854951842688024,1.0012480020523071,0.0,0.0,0.0,0.4019882380962372,2.6085307598114014,5.382718563079834,-72.76066589355469,0
1090.3629999999994,-0.00025503101642243564,-0.00021084891341160983,-0.0001324943732470274,0.0,0.0,0.0,0.0,0.00013343676982913166,-0.002792976563796401,0.0016820038435980678,1.0007599592208862,0.0,0.0,0.0,0.4066050946712494,2.6411795616149902,5.401829242706299,-73.59632873535156,0
1100.286,-0.00031241922988556325,-0.00025538861518725753,-0.00013723407755605876,0.0,0.0,0.0,0.0,0.0014559585833922029,-0.0009152331040240824,-0.0015692993765696883,0.9992456436157227,0.0,0.0,0.0,0.406888872385025,2.640887975692749,5.393910884857178,-73.64769744873047,0
1110.187,-0.0003279486845713109,-0.00018193194409832358,-0.00019048350804951042,0.0,0.0,0.0,0.0,0.00039281038334593177,-0.0012955843703821301,0.0016001820331439376,0.9981791973114014,0.0,0.0,0.0,0.40941542387008667,2.670144557952881,5.4202494621276855,-74.1050033569336,0
1120.1129999999994,-0.0003833680530078709,-0.00022381814778782427,-0.00019852952391374856,0.0,0.0,0.0,0.0,-0.002976218471303582,-5.4400293265643995e-06,0.002066198969259858,0.9992231130599976,0.0,0.0,0.0,0.40992096066474915,2.6671676635742188,5.419987201690674,-74.19650268554688,0
1130.0110000000004,-0.0004407131636980921,-0.00026842555962502956,-0.00020742414926644415,0.0,0.0,0.0,0.0,0.0013004541397094727,-0.0014136099489405751,0.0010673048673197627,0.9974233508110046,0.0,0.0,0.0,0.41028448939323425,2.665794849395752,5.4220967292785645,-74.26231384277344,0
1139.9359999999997,-0.0005007028812542558,-0.0003160207415930927,-0.0002174324035877362,0.0,0.0,0.0,0.0,0.0024448896292597055,0.002327799564227462,-0.001782644772902131,0.9981954097747803,0.0,0.0,0.0,0.41026920080184937,2.667229175567627,5.414868354797363,-74.25955200195312,0
1149.8379999999997,-0.00045039423275738955,-0.00015468384663108736,-0.00029566031298600137,0.0,0.0,0.0,0.0,-0.001178278587758541,-0.0014118289109319448,0.003697989508509636,1.0001404285430908,0.0,0.0,0.0,0.40702763199806213,2.732004165649414,5.465521812438965,-73.67282104492188,0
1159.7549999999992,-0.0005011073662899435,-0.00019154688925482333,-0.00031381731969304383,0.0,0.0,0.0,0.0,0.000911302340682596,-0.00016198960656765848,-0.00024235990713350475,0.9997789263725281,0.0,0.0,0.0,0.4079759418964386,2.7298126220703125,5.4570088386535645,-73.84445190429688,0
1169.6720000000005,-0.0004583040426950902,-8.480918768327683e-05,-0.00038493305328302085,0.0,0.0,0.0,0.0,0.0004104006220586598,0.0034970836713910103,-0.0008988631307147443,0.9982898831367493,0.0,0.0,0.0,0.4148275852203369,2.780226945877075,5.496269702911377,-75.08462524414062,0
1179.5849999999991,-0.0005031459731981158,-0.00011429939331719652,-0.0004076334007550031,0.0,0.0,0.0,0.0,0.0002702502242755145,0.001129002426750958,-0.0001392358390148729,0.9989020228385925,0.0,0.0,0.0,0.41412264108657837,2.7724344730377197,5.490721225738525,-74.95702362060547,0
1189.4930000000004,-0.00048389274161309004,-3.973861021222547e-05,-0.0004538678331300616,0.0,0.0,0.0,0.0,0.0017214823747053742,-0.0013666402082890272,3.244137769797817e-05,1.0000677108764648,0.0,0.0,0.0,0.41951438784599304,2.8132247924804688,5.507750034332275,-75.93294525146484,0
1199.4030000000002,-0.0005258604651317,-6.603705696761608e-05,-0.00048041806439869106,0.0,0.0,0.0,0.0,-0.0012173419818282127,0.0009962100302800536,0.0010024970397353172,0.9997233748435974,0.0,0.0,0.0,0.4183504283428192,2.8122334480285645,5.49669075012207,-75.72225952148438,0
1209.3240000000005,-0.0005154243553988636,-1.0592787475616205e-05,-0.0005233446136116982,0.0,0.0,0.0,0.0,0.001768821501173079,-0.0034739209804683924,-0.0027169547975063324,1.001044511795044,0.0,0.0,0.0,0.4195125997066498,2.810469388961792,5.485516548156738,-75.93260955810547,0
1219.2250000000004,-0.0005598351126536727,-3.3904321753652766e-05,-0.0005513396463356912,0.0,0.0,0.0,0.0,0.0009802711429074407,0.0016055665910243988,0.0010672799544408917,0.9981693625450134,0.0,0.0,0.0,0.4180721640586853,2.8039510250091553,5.4885687828063965,-75.67189025878906,0
1229.152,-0.000557788007427007,2.4045282771112397e-05,-0.0005865404382348061,0.0,0.0,0.0,0.0,0.0005433321930468082,0.0007529649883508682,-0.001193385454826057,1.0005525350570679,0.0,0.0,0.0,0.41820165514945984,2.7979519367218018,5.48591423034668,-75.6953353881836,0
1239.057999999999,-0.0006042186287231743,4.5474880607798696e-06,-0.0006155013106763363,0.0,0.0,0.0,0.0,0.0009879417484626174,-0.002041800646111369,-0.0004189159953966737,0.9992220997810364,0.0,0.0,0.0,0.4156860113143921,2.795882225036621,5.48945426940918,-75.23999786376953,0
1248.9759999999987,-0.0006066162022762001,6.77461430313997e-05,-0.0006438023410737514,0.0,0.0,0.0,0.0,-0.0023503147531300783,-0.002407365944236517,-0.0021929910872131586,0.9983249306678772,0.0,0.0,0.0,0.42387130856513977,2.820596218109131,5.508598327636719,-76.72154998779297,0
1258.8829999999998,-0.0006533797131851315,5.1345632527954876e-05,-0.0006741864490322769,0.0,0.0,0.0,0.0,-0.00327834184281528,0.0015130951069295406,-0.003063081530854106,1.0002926588058472,0.0,0.0,0.0,0.423427015542984,2.820348024368286,5.508206367492676,-76.6411361694336,0
1268.7919999999995,-0.0007053689332678914,9.401552233612165e-05,-0.0006742409314028919,0.0,0.0,0.0,0.0,-4.7433686631848104e-06,0.002970396773889661,-0.0010599772213026881,0.9993147850036621,0.0,0.0,0.0,0.4230932295322418,2.820744752883911,5.503355026245117,-76.5807113647461,0
1278.699999999999,-0.0007606520084664226,7.726124022156e-05,-0.0007033885922282934,0.0,0.0,0.0,0.0,-0.0021759141236543655,-0.008406322449445724,0.0003173166187480092,1.0006486177444458,0.0,0.0,0.0,0.42291122674942017,2.815086603164673,5.495254993438721,-76.54777526855469,0
1288.619999999999,-0.0008198441937565804,5.777739715995267e-05,-0.0007321872399188578,0.0,0.0,0.0,0.0,0.001389889046549797,0.0033698936458677053,-0.0014436723431572318,1.0003844499588013,0.0,0.0,0.0,0.4217997193336487,2.817017078399658,5.500046253204346,-76.34659576416016,0
1298.5239999999994,-0.0008809196297079325,3.624380406108685e-05,-0.000760250783059746,0.0,0.0,0.0,0.0,0.0017712120898067951,0.001960489898920059,8.172621164703742e-05,1.0004386901855469,0.0,0.0,0.0,0.4221862554550171,2.820507287979126,5.503910541534424,-76.41655731201172,0
1308.446,-0.0009432450751774013,1.3143811884219758e-05,-0.0007874546572566032,0.0,0.0,0.0,0.0,0.0032244198955595493,-0.0012947027571499348,0.002934099407866597,0.9990027546882629,0.0,0.0,0.0,0.4212311804294586,2.8201541900634766,5.491934299468994,-76.24368286132812,0
1318.3529999999992,-0.00016396376304328442,-0.000289595132926479,3.7147297007322777e-06,0.0,0.0,0.0,0.0,0.0004643235879484564,0.0015723617980256677,-0.00018509408982936293,0.9997352957725525,0.0,0.0,0.0,0.41981667280197144,2.784932851791382,5.617499828338623,-75.9876480102539,0
1328.2690000000002,-0.00019762526790145785,-0.00032287227804772556,7.988975994521752e-06,0.0,0.0,0.0,0.0,-0.0030149100348353386,0.0027780956588685513,0.0008364174282178283,0.9995955228805542,0.0,0.0,0.0,0.4183932840824127,2.7811505794525146,5.604706287384033,-75.73001861572266,0
1338.173999999999,-0.00023370268172584474,-0.0003579856129363179,1.2024513125652447e-05,0.0,0.0,0.0,0.0,0.002918781014159322,-0.0010579251684248447,-0.0032307596411556005,1.0005751848220825,0.0,0.0,0.0,0.41713225841522217,2.783231496810913,5.591397762298584,-75.50176239013672,0
1348.089,-0.00027214965666644275,-0.0003950238460674882,1.6025474906200543e-05,0.0,0.0,0.0,0.0,-0.0009010583162307739,0.0010273170191794634,0.002221643226221204,1.0014539957046509,0.0,0.0,0.0,0.41620275378227234,2.771982431411743,5.5838541984558105,-75.33352661132812,0
1357.9989999999998,-0.0001458251354051754,-0.0003731803735718131,0.0001647313474677503,0.0,0.0,0.0,0.0,0.0012750588357448578,0.004041892476379871,0.0024320241063833237,1.0007644891738892,0.0,0.0,0.0,0.41602081060409546,2.770094394683838,5.577955722808838,-75.30059051513672,0
1367.9220000000005,-0.00018347351578995585,-0.0004074680618941784,0.00017857539933174849,0.0,0.0,0.0,0.0,-0.0021667787805199623,-0.003609265433624387,0.001062088762409985,1.0003315210342407,0.0,0.0,0.0,0.41521894931793213,2.763895034790039,5.561965465545654,-75.15545654296875,0
1377.8220000000001,-9.445453906664625e-05,-0.0004000987682957202,0.00025903264759108424,0.0,0.0,0.0,0.0,-0.0028741341084241867,0.000511450576595962,-8.288311073556542e-05,1.0001544952392578,0.0,0.0,0.0,0.40925389528274536,2.7769784927368164,5.5830488204956055,-74.07576751708984,0
1387.7479999999996,-0.0001324176846537739,-0.0004343325272202492,0.0002783708041533828,0.0,0.0,0.0,0.0,-0.0009813442593440413,0.002699044067412615,0.0006038988940417767,1.001898169517517,0.0,0.0,0.0,0.4094982445240021,2.778581142425537,5.580257415771484,-74.1199951171875,0
1397.6459999999988,-0.00015618454199284315,-0.0004162450786679983,0.00035860470961779356,0.0,0.0,0.0,0.0,-0.0014998364495113492,-0.000757415487896651,0.0028364299796521664,1.00095534324646,0.0,0.0,0.0,0.40948209166526794,2.782508134841919,5.5690836906433105,-74.11707305908203,0
1407.571,-0.00019766129844356328,-0.0004493090382311493,0.00038470595609396696,0.0,0.0,0.0,0.0,0.0006048762588761747,0.00037756943493150175,-0.004862152971327305,0.9997862577438354,0.0,0.0,0.0,0.41012057662010193,2.775250196456909,5.5625715255737305,-74.2326431274414,0
1417.4719999999998,-0.00016628153389319777,-0.0004751157248392701,0.00042190621024928987,0.0,0.0,0.0,0.0,0.0006329347961582243,0.0007342926110140979,0.003813608782365918,0.9979139566421509,0.0,0.0,0.0,0.40896785259246826,2.76920485496521,5.558949947357178,-74.02398681640625,0
1427.3959999999988,-0.00021167847444303334,-0.0005109038902446628,0.00044933860772289336,0.0,0.0,0.0,0.0,0.0020102527923882008,-0.00346592185087502,-0.0009009567438624799,0.9973692893981934,0.0,0.0,0.0,0.41005632281303406,2.766294479370117,5.544973373413086,-74.22100067138672,0
1437.2960000000003,-0.000259764667134732,-0.0005493880016729236,0.0004749948566313833,0.0,0.0,0.0,0.0,0.001449853414669633,-0.0006596148014068604,-0.0003850038629025221,0.9975169897079468,0.0,0.0,0.0,0.41108986735343933,2.764906406402588,5.5560221672058105,-74.4080810546875,0
1447.2289999999994,-0.00031016345019452274,-0.000590174924582243,0.0004983575781807303,0.0,0.0,0.0,0.0,-0.0024368073791265488,-0.0011857663048431277,-0.00044901861110702157,1.00033700466156,0.0,0.0,0.0,0.4119224548339844,2.756570816040039,5.5548601150512695,-74.55878448486328,0
1457.1229999999996,-0.00036247464595362544,-0.0006334166973829269,0.0005203566397540271,0.0,0.0,0.0,0.0,0.003629273036494851,-0.000597282312810421,0.001185663160867989,0.999526858329773,0.0,0.0,0.0,0.41137510538101196,2.7587904930114746,5.5506510734558105,-74.459716796875,0
1467.045,-0.0004167672304902226,-0.0006794438231736422,0.0005422492977231741,0.0,0.0,0.0,0.0,0.002026607282459736,-0.0016422594198957086,-0.003917394671589136,1.0020456314086914,0.0,0.0,0.0,0.4120274782180786,2.7499353885650635,5.546234607696533,-74.57779693603516,0
1476.950999999999,-0.0002517637622077018,-0.0006833964725956321,0.0006299231317825615,0.0,0.0,0.0,0.0,0.0008416573400609195,-6.303320697043091e-05,0.0024684788659214973,1.0016509294509888,0.0,0.0,0.0,0.40607795119285583,2.757931709289551,5.60910177230835,-73.50091552734375,0
1486.8709999999992,-0.0001648260367801413,-0.0006849889759905636,0.0007080057403072715,0.0,0.0,0.0,0.0,-0.002668214263394475,-0.0011829135473817587,0.0009759114473126829,1.0028557777404785,0.0,0.0,0.0,0.40136221051216125,2.768975257873535,5.6322832107543945,-72.64735412597656,0
1496.7759999999998,-5.592620436800644e-05,-0.00029443245148286223,1.9096893083769828e-05,0.0,0.0,0.0,0.0,0.0002498353715054691,0.0013229988981038332,0.0029098144732415676,1.0020662546157837,0.0,0.0,0.0,0.41051384806632996,2.864579439163208,5.6577677726745605,-74.30382537841797,0
1506.6949999999997,-2.8250004106666893e-05,-0.0003165652451571077,7.968013233039528e-05,0.0,0.0,0.0,0.0,-0.0038741067983210087,-0.004958412144333124,0.0009401993011124432,1.0019232034683228,0.0,0.0,0.0,0.41092047095298767,2.8667359352111816,5.657664775848389,-74.37742614746094,0
1516.5959999999995,1.6724428860470653e-05,-0.00019766460172832012,-5.718769534723833e-05,0.0,0.0,0.0,0.0,-0.0027382364496588707,-0.0001453387812944129,-0.0021956446580588818,1.0000041723251343,0.0,0.0,0.0,0.4116538166999817,2.873260736465454,5.660449028015137,-74.51016235351562,0
1526.5159999999996,7.935527719382662e-06,-0.00020933842461090535,-1.371862344967667e-05,0.0,0.0,0.0,0.0,0.00276846531778574,0.0008249609963968396,-0.0005631209933198988,0.9994081258773804,0.0,0.0,0.0,0.4038614332675934,2.87104868888855,5.661201000213623,-73.0997314453125,0
1536.4220000000005,1.6562695236643776e-05,-0.00015300436643883586,-5.1212937250966206e-05,0.0,0.0,0.0,0.0,0.004836812149733305,0.00044160199468024075,0.002641890896484256,0.9987947940826416,0.0,0.0,0.0,0.4028603732585907,2.8647658824920654,5.6565260887146,-72.91852569580078,0
1546.3469999999998,-2.46721065195743e-05,-0.00017162819858640432,-3.4485205105738714e-05,0.0,0.0,0.0,0.0,-0.0035865060053765774,0.004442987497895956,0.0007864462095312774,0.9972595572471619,0.0,0.0,0.0,0.4031665325164795,2.855067729949951,5.655008316040039,-72.97394561767578,0
1556.2479999999996,-1.6556232367292978e-05,-0.00011623545287875459,-6.890438817208633e-05,0.0,0.0,0.0,0.0,-0.0009676855406723917,-0.005524583160877228,0.0010592157486826181,1.0022622346878052,0.0,0.0,0.0,0.40210670232772827,2.8532238006591797,5.636184215545654,-72.78211212158203,0
1566.1669999999995,-5.687646989827044e-05,-0.00011351834837114438,-4.295262988307513e-05,0.0,0.0,0.0,0.0,0.0003892555832862854,0.0025340321008116007,0.0020031884778290987,1.001604437828064,0.0,0.0,0.0,0.402665376663208,2.851452589035034,5.631738185882568,-72.88323211669922,0
1576.0769999999993,-5.7339511840837076e-05,-7.711482612648979e-05,-7.13549816282466e-05,0.0,0.0,0.0,0.0,-0.0003484965127427131,0.0010949760908260942,0.0031628834549337626,1.0006483793258667,0.0,0.0,0.0,0.4029107689857483,2.8457725048065186,5.628649711608887,-72.92765045166016,0
1585.9959999999992,-0.00010325014591217041,-0.00010423053026897833,-6.134454451967031e-05,0.0,0.0,0.0,0.0,-0.0002929566544480622,-0.0004801698378287256,0.0031612745951861143,0.9992420673370361,0.0,0.0,0.0,0.40327543020248413,2.839036703109741,5.625138282775879,-72.99365997314453,0
1595.8959999999988,-0.00010905817180173472,-5.9814308770000935e-05,-8.273629646282643e-05,0.0,0.0,0.0,0.0,0.002286452567204833,-0.0008441493264399469,-0.0025195314083248377,0.9985990524291992,0.0,0.0,0.0,0.40330544114112854,2.8348677158355713,5.617000579833984,-72.99908447265625,0
1605.816999999999,-0.00015571608673781157,-8.851528400555253e-05,-7.540236401837319e-05,0.0,0.0,0.0,0.0,-0.00048116937978193164,-0.0017029537120833993,0.0007969170692376792,0.9976702332496643,0.0,0.0,0.0,0.4034152626991272,2.835503578186035,5.618321418762207,-73.01897430419922,0
1615.7199999999993,-0.0001622215349925682,-4.996776988264173e-05,-0.00011564791930140927,0.0,0.0,0.0,0.0,0.0019492798019200563,-0.004133562091737986,0.0013060825876891613,0.999267041683197,0.0,0.0,0.0,0.4034079909324646,2.833966016769409,5.614423751831055,-73.01764678955078,0
1625.6540000000005,-8.512266504112631e-05,-0.00010436122101964429,-4.218110188958235e-05,0.0,0.0,0.0,0.0,0.001435807324014604,0.006635032594203949,-0.001417362131178379,0.999308705329895,0.0,0.0,0.0,0.40325236320495605,2.8389694690704346,5.620213031768799,-72.98948669433594,0
1635.5499999999993,-0.00011831221490865573,-0.00013612037582788616,-5.197220161790028e-05,0.0,0.0,0.0,0.0,-0.001002393662929535,0.0014060335233807564,0.00043632835149765015,0.9999656081199646,0.0,0.0,0.0,0.4031984806060791,2.833231210708618,5.606550216674805,-72.97972869873047,0
1645.4669999999987,-0.00011300525511614978,-0.00017369521083310246,-3.807329630944878e-05,0.0,0.0,0.0,0.0,-0.0007623929996043444,0.0017623299499973655,-0.00011797173647210002,1.0017437934875488,0.0,0.0,0.0,0.40241149067878723,2.829989433288574,5.58992862701416,-72.83727264404297,0
1655.3719999999994,-0.00011011832248186693,-0.00012451026123017073,-6.438043783418834e-05,0.0,0.0,0.0,0.0,0.0001230066700372845,-0.002354132942855358,-0.0007815620047040284,1.0011653900146484,0.0,0.0,0.0,0.40213629603385925,2.8267123699188232,5.577137470245361,-72.78746795654297,0
1665.2970000000005,-0.00015403961879201233,-0.0001607126323506236,-5.996235995553434e-05,0.0,0.0,0.0,0.0,0.00028410693630576134,0.0016255920054391026,-0.004703411366790533,1.001360297203064,0.0,0.0,0.0,0.4022948443889618,2.8286006450653076,5.571382999420166,-72.81616973876953,0
1675.2039999999997,-0.00014505600847769529,-0.00010380442108726129,-9.850148489931598e-05,0.0,0.0,0.0,0.0,0.0034584798850119114,0.0035737166181206703,-0.0018864978337660432,0.9996541142463684,0.0,0.0,0.0,0.4011087119579315,2.830812692642212,5.568025588989258,-72.60147857666016,0
1685.116,-0.00018884934252128005,-0.0001398227468598634,-9.424958989256993e-05,0.0,0.0,0.0,0.0,-0.00045643336488865316,-2.4073060558293946e-05,0.0013999106595292687,1.0007141828536987,0.0,0.0,0.0,0.40056943893432617,2.826780080795288,5.552774429321289,-72.50386810302734,0
1695.0290000000005,-0.00018732612079475075,-8.66064292495139e-05,-0.00013702061551157385,0.0,0.0,0.0,0.0,-0.0017398506170138717,0.005415884777903557,0.0018640034832060337,1.0002652406692505,0.0,0.0,0.0,0.4086378812789917,2.8491694927215576,5.564352035522461,-73.96426391601562,0
1704.9429999999993,-0.00022917120077181607,-0.00012170664558652788,-0.00013503707305062562,0.0,0.0,0.0,0.0,0.0010557062923908234,-0.002360762096941471,-0.00012473516108002514,0.9985975623130798,0.0,0.0,0.0,0.4094836413860321,2.8472065925598145,5.566163539886475,-74.11734771728516,0
1714.8529999999992,-0.00020707941439468414,-6.23430241830647e-05,-0.00021345487039070576,0.0,0.0,0.0,0.0,-0.002279610838741064,0.0038795298896729946,0.0009851128561422229,1.0004372596740723,0.0,0.0,0.0,0.40809398889541626,2.8742287158966064,5.603526592254639,-73.8658218383789,0
1724.7700000000004,-0.0002433179906802252,-9.458573185838759e-05,-0.00021858610853087157,0.0,0.0,0.0,0.0,0.001377088250592351,-0.002341117709875107,-0.0010160863166674972,1.001346468925476,0.0,0.0,0.0,0.40748274326324463,2.8782968521118164,5.594785213470459,-73.75518798828125,0
1734.67,-0.00023841354413889349,-5.1735201850533485e-05,-0.00025688804453238845,0.0,0.0,0.0,0.0,-0.001719019957818091,0.003740802640095353,0.0035676921252161264,0.9990599155426025,0.0,0.0,0.0,0.4138558804988861,2.899135112762451,5.618719577789307,-74.90873718261719,0
1744.5910000000003,-0.00027097747079096735,-8.326434181071818e-05,-0.00026371231069788337,0.0,0.0,0.0,0.0,0.00046949813258834183,0.004820121917873621,0.0010203310521319509,0.9989838600158691,0.0,0.0,0.0,0.4146571457386017,2.892122983932495,5.613376140594482,-75.05377197265625,0
1754.4989999999998,-0.00026440556393936276,-3.963230483350344e-05,-0.0002887517330236733,0.0,0.0,0.0,0.0,-0.0018400265835225582,-0.0033396179787814617,-0.00041798778693191707,1.0001583099365234,0.0,0.0,0.0,0.4135056734085083,2.8879051208496094,5.58924674987793,-74.84534454345703,0
1764.42,-0.00029626695322804153,-6.85300474287942e-05,-0.00029823940712958574,0.0,0.0,0.0,0.0,-0.003524871775880456,9.178587788483128e-05,0.004144385457038879,0.9995515942573547,0.0,0.0,0.0,0.41378286480903625,2.889580488204956,5.598116397857666,-74.89551544189453,0
1774.3179999999993,-0.00033392751356586814,-6.961320468690246e-05,-0.000284077221294865,0.0,0.0,0.0,0.0,-0.00027782650431618094,-0.0020789834670722485,0.0014799676137045026,1.001289963722229,0.0,0.0,0.0,0.41235795617103577,2.892489433288574,5.598066329956055,-74.63760375976562,0
1784.244999999999,-3.015028232766781e-05,-0.00021191519044805318,-3.195557655999437e-05,0.0,0.0,0.0,0.0,0.0007845433428883553,0.0034286947920918465,-0.002409819047898054,0.9992698431015015,0.0,0.0,0.0,0.41302546858787537,2.868102550506592,5.67350959777832,-74.7584228515625,0
1794.1450000000004,-4.6866694901837036e-05,-0.00021862293942831457,-1.7131304048234597e-05,0.0,0.0,0.0,0.0,0.002693562302738428,-0.0017311599804088473,0.002180475741624832,0.9988873600959778,0.0,0.0,0.0,0.4125470519065857,2.8658621311187744,5.66843318939209,-74.67183685302734,0
1804.063,-1.4093713616603054e-05,-0.000243235714151524,3.6344128602650017e-05,0.0,0.0,0.0,0.0,-0.001704615424387157,-0.002372091170400381,0.0012931425590068102,0.9987877011299133,0.0,0.0,0.0,0.4117579758167267,2.8608272075653076,5.656694412231445,-74.52901458740234,0
1813.967999999999,1.0576872227829881e-05,-0.00021875322272535414,-8.99809856491629e-06,0.0,0.0,0.0,0.0,0.0007579972152598202,0.001669054152444005,0.0040078661404550076,1.0015100240707397,0.0,0.0,0.0,0.41211873292922974,2.8625643253326416,5.661373615264893,-74.59430694580078,0
1823.884,-1.5291985619114712e-05,-0.0002538250118959695,-3.5621433198684826e-06,0.0,0.0,0.0,0.0,4.230058038956486e-05,-0.003964501898735762,0.001992990728467703,0.9996722936630249,0.0,0.0,0.0,0.4119311273097992,2.8583319187164307,5.664428234100342,-74.56035614013672,0
1833.7939999999999,2.095510808430845e-06,-0.0001917742774821818,-3.14690732921008e-05,0.0,0.0,0.0,0.0,-0.0011157413246110082,-0.0038836761377751827,-0.00222306908108294,0.9994476437568665,0.0,0.0,0.0,0.4112750291824341,2.853877067565918,5.6674394607543945,-74.44160461425781,0
1843.7070000000003,6.942953405086882e-06,-0.00022953595907893032,-2.003363442781847e-05,0.0,0.0,0.0,0.0,-5.756181417382322e-05,-0.00033929385244846344,0.0019015728030353785,0.9984450340270996,0.0,0.0,0.0,0.41151726245880127,2.8518948554992676,5.671463489532471,-74.48544311523438,0
1853.6180000000004,1.9915098164347e-05,-0.00022765093308407813,-6.44847605144605e-05,0.0,0.0,0.0,0.0,0.0035887504927814007,-0.0034559089690446854,-0.00012453053204808384,0.9995502233505249,0.0,0.0,0.0,0.41105130314826965,2.85048770904541,5.671780109405518,-74.4011001586914,0
1863.5419999999995,-7.349233783315867e-06,-0.0002659252204466611,-6.54010073048994e-05,0.0,0.0,0.0,0.0,-0.00140338612254709,-0.0021696824114769697,0.0003729511226993054,0.9997807145118713,0.0,0.0,0.0,0.411575049161911,2.837979555130005,5.666086673736572,-74.49591064453125,0
1873.4519999999993,1.4421452760871034e-06,-0.00020632363157346845,-8.327341492986307e-05,0.0,0.0,0.0,0.0,0.00016362759924959391,-0.0006495083798654377,0.000988864223472774,0.999710738658905,0.0,0.0,0.0,0.41121727228164673,2.835207462310791,5.671879768371582,-74.43114471435547,0
1883.3580000000002,-2.7043430236517452e-05,-0.0002441928954795003,-8.58651110320352e-05,0.0,0.0,0.0,0.0,0.004027032293379307,-0.0013318427372723818,0.002682963153347373,1.0002212524414062,0.0,0.0,0.0,0.41185471415519714,2.834848165512085,5.661846160888672,-74.54652404785156,0
1893.280999999999,-3.315837602713145e-05,-0.00018854541121982038,-0.0001026450700010173,0.0,0.0,0.0,0.0,-0.0027262347284704447,0.0013842787593603134,-0.0006362842977978289,1.000363826751709,0.0,0.0,0.0,0.4122619032859802,2.82521390914917,5.662136077880859,-74.62022399902344,0
1903.1819999999989,-6.818646215833724e-05,-0.00016719829000066966,-6.174623558763415e-05,0.0,0.0,0.0,0.0,0.00047586444998160005,-0.002248136792331934,-0.0018102144822478294,1.0005027055740356,0.0,0.0,0.0,0.4119316339492798,2.8350133895874023,5.650402545928955,-74.56044006347656,0
1913.098,-2.3745222279103473e-05,-0.00010783162724692374,-0.00014061553520150483,0.0,0.0,0.0,0.0,0.002109002089127898,-0.0020536575466394424,-0.0017918829107657075,0.9985875487327576,0.0,0.0,0.0,0.41005733609199524,2.8288166522979736,5.651240348815918,-74.22118377685547,0
1923.0079999999998,-5.506265733856708e-05,-0.0001408341049682349,-0.0001455210440326482,0.0,0.0,0.0,0.0,0.00445472402498126,0.00403955765068531,-0.001213177922181785,0.9972410202026367,0.0,0.0,0.0,0.4099055230617523,2.8233258724212646,5.652198791503906,-74.19371795654297,0
1932.9259999999995,-3.8416223105741665e-05,-5.8556041039992124e-05,-0.0001856751914601773,0.0,0.0,0.0,0.0,-0.0024255672469735146,0.0025046917144209146,-0.0007324556354433298,0.9987456202507019,0.0,0.0,0.0,0.40993067622184753,2.8065478801727295,5.64353084564209,-74.1982650756836,0
1942.8310000000001,-2.339025195396971e-05,-6.0689762904075906e-05,-0.00013954585301689804,0.0,0.0,0.0,0.0,-0.0006889986689202487,0.0004062066145706922,-0.0008091487106867135,0.9985658526420593,0.0,0.0,0.0,0.40970006585121155,2.813103437423706,5.639915943145752,-74.15652465820312,0
1952.7549999999992,-3.2823456422192976e-05,-4.7217625251505524e-05,-0.00016460972256027162,0.0,0.0,0.0,0.0,-0.0018955185078084469,-0.0027643770445138216,0.0025560648646205664,0.9997034668922424,0.0,0.0,0.0,0.4099772572517395,2.8125193119049072,5.641514778137207,-74.20669555664062,0
1962.655999999999,-5.012864858144894e-05,-8.227575017372146e-05,-0.00018077148706652224,0.0,0.0,0.0,0.0,0.0013352790847420692,0.004469137638807297,-0.0007013432332314551,0.9996699690818787,0.0,0.0,0.0,0.4087686836719513,2.8128163814544678,5.64478063583374,-73.98794555664062,0
1972.5810000000001,-4.9185702664544806e-05,-1.6344611140084453e-05,-0.00019685026200022548,0.0,0.0,0.0,0.0,0.002035290701314807,0.0022316290996968746,0.0019726979080587626,0.999060869216919,0.0,0.0,0.0,0.40773504972457886,2.814638614654541,5.631576061248779,-73.80085754394531,0
1982.4840000000004,-8.466353756375611e-05,-4.413237184053287e-05,-0.00020726521324831992,0.0,0.0,0.0,0.0,-0.00042476539965718985,0.0026252460666000843,-0.002045087981969118,0.9997184872627258,0.0,0.0,0.0,0.4080056846141815,2.8008463382720947,5.624565124511719,-73.84984588623047,0
1992.396999999999,-0.00010413823474664241,-2.502061761333607e-05,-0.0002254836290376261,0.0,0.0,0.0,0.0,0.0009653893066570163,0.002429727464914322,-0.0008177849231287837,1.0000382661819458,0.0,0.0,0.0,0.40624502301216125,2.8048689365386963,5.61385440826416,-73.5311508178711,0
2002.304,-0.0001430101110599935,-5.509686889126897e-05,-0.00023677236458752304,0.0,0.0,0.0,0.0,-0.0017385996179655194,0.00011687492224154994,0.0005899449461139739,0.9987058639526367,0.0,0.0,0.0,0.40693214535713196,2.79828143119812,5.601771831512451,-73.65552520751953,0
2012.2349999999988,-0.00018963127513416111,-4.1244435124099255e-05,-0.00021585088688880205,0.0,0.0,0.0,0.0,-0.00038426017272286117,-0.002610181225463748,-0.002629501512274146,0.9981611371040344,0.0,0.0,0.0,0.4059903919696808,2.7954471111297607,5.584544658660889,-73.48506927490234,0
2022.1299999999992,-0.00023197007249109447,-6.98076473781839e-05,-0.0002257924061268568,0.0,0.0,0.0,0.0,0.0029708289075642824,-0.002987595973536372,0.0009983251802623272,1.000515341758728,0.0,0.0,0.0,0.40637707710266113,2.7857625484466553,5.580068111419678,-73.55506134033203,0
2032.048999999999,-0.00026908781728707254,-3.8436337490566075e-05,-0.00022296255338005722,0.0,0.0,0.0,0.0,-5.477146623888984e-05,0.0057230014353990555,-0.0006494741537608206,0.9985305666923523,0.0,0.0,0.0,0.4067516028881073,2.785547971725464,5.5828046798706055,-73.62284851074219,0
2041.955,-0.00031342197326011956,-6.675014446955174e-05,-0.00023294406128115952,0.0,0.0,0.0,0.0,-0.0026940966490656137,-0.00551298912614584,0.0012821288546547294,1.0005106925964355,0.0,0.0,0.0,0.4061650335788727,2.7813878059387207,5.5676774978637695,-73.51667022705078,0
2051.877999999999,-0.0004062125226482749,-0.00012149523536209017,-0.00016432537813670933,0.0,0.0,0.0,0.0,0.00019292400975245982,-0.004768085666000843,0.00257501401938498,1.0017904043197632,0.0,0.0,0.0,0.4058825373649597,2.785576343536377,5.563539028167725,-73.46553802490234,0
2061.7780000000002,-8.137355325743556e-05,-0.00028558188932947814,8.04494702606462e-05,0.0,0.0,0.0,0.0,0.0016169020673260093,0.004214126616716385,-0.0014992821961641312,0.9983737468719482,0.0,0.0,0.0,0.40673476457595825,2.748901605606079,5.657389163970947,-73.61980438232422,0
2071.7019999999993,-0.00015089695807546377,-0.00033653504215180874,0.00015420049021486193,0.0,0.0,0.0,0.0,0.002043063286691904,0.0041887592524290085,0.003544717328622937,1.0014097690582275,0.0,0.0,0.0,0.40731167793273926,2.7477529048919678,5.648401737213135,-73.7242202758789,0
2081.602999999999,-3.653533349279314e-05,-0.0003585869271773845,0.0002617616846691817,0.0,0.0,0.0,0.0,-0.00246242294088006,-0.003845118684694171,-0.0005642601172439754,0.998324453830719,0.0,0.0,0.0,0.4075586795806885,2.736990451812744,5.62876033782959,-73.76892852783203,0
2091.527,8.801780495559797e-06,-0.0003015186230186373,0.00020507012959569693,0.0,0.0,0.0,0.0,0.002899646759033203,-0.0016122919041663408,-0.0005291707930155098,0.9986933469772339,0.0,0.0,0.0,0.40682724118232727,2.735820770263672,5.630283355712891,-73.63654327392578,0
2101.428,-2.5076551537495106e-05,-0.0003451761440373957,0.00022198737133294344,0.0,0.0,0.0,0.0,-0.002565784612670541,-0.003270001383498311,0.0020208756905049086,0.9987709522247314,0.0,0.0,0.0,0.4069840908050537,2.7336013317108154,5.628587245941162,-73.66493225097656,0
2111.3509999999987,2.9396349418675527e-05,-0.00024569095694459975,0.00014714282588101923,0.0,0.0,0.0,0.0,-0.0023335511796176434,-0.0031650117598474026,0.0006697883945889771,1.000329613685608,0.0,0.0,0.0,0.4074426591396332,2.733912706375122,5.635937213897705,-73.74793243408203,0
