timestamp,stateEstimate.x,stateEstimate.y,stateEstimate.z,controller.cmd_thrust,controller.cmd_roll,controller.cmd_pitch,controller.cmd_yaw,controller.r_roll,controller.r_pitch,controller.r_yaw,controller.accelz,controller.actuatorThrust,controller.roll,controller.pitch,controller.yaw,controller.rollRate,controller.pitchRate,controller.yawRate,controller.ctr_yaw
0.0,-0.00012558438174892217,-3.0849623726680875e-05,5.370607686927542e-05,0.0,0.0,0.0,0.0,-0.0012448771158233285,-0.006906247232109308,0.00010197550000157207,1.0004178285598755,0.0,0.0,0.0,0.3396736979484558,2.0376174449920654,4.977756977081299,-61.48161315917969,0
9.919000000001688,-0.0001557780196890235,-6.141540507087484e-05,8.066520240390673e-05,0.0,0.0,0.0,0.0,-0.0006850106874480844,-6.783959543099627e-05,-0.00043109545367769897,1.001192569732666,0.0,0.0,0.0,0.33946698904037476,2.03810715675354,4.9860358238220215,-61.44419860839844,0
19.819000000001324,-0.00017674862465355545,-2.42661772063002e-05,4.3698390072677284e-05,0.0,0.0,0.0,0.0,-0.0005971449427306652,-0.002540464047342539,-0.0005806691478937864,1.0008569955825806,0.0,0.0,0.0,0.3392546772956848,2.040048599243164,4.980840682983398,-61.40577697753906,0
29.744000000000597,-8.923481072997674e-05,-9.76687588263303e-05,8.907845040084794e-05,0.0,0.0,0.0,0.0,-0.0003105179057456553,0.003006449667736888,-0.001471227966248989,0.9998750686645508,0.0,0.0,0.0,0.3391217887401581,2.041865825653076,4.983312129974365,-61.381717681884766,0
39.64600000000064,-0.00011600294965319335,-7.174068014137447e-05,6.430647044908255e-05,0.0,0.0,0.0,0.0,0.0014538676477968693,-0.0032575828954577446,-0.0011616552947089076,1.0007259845733643,0.0,0.0,0.0,0.3382331430912018,2.040680408477783,4.978972434997559,-61.22087097167969,0
49.572000000000116,-0.00011881736281793565,-0.0001354615087620914,8.605816401541233e-05,0.0,0.0,0.0,0.0,0.0003307254228275269,-0.0015819217078387737,-0.002516983076930046,1.001147747039795,0.0,0.0,0.0,0.33684101700782776,2.033538341522217,4.975124835968018,-60.968894958496094,0
59.47100000000137,-0.00019464986689854413,-0.00017973536159843206,0.00010371720418334007,0.0,0.0,0.0,0.0,-0.0034480199683457613,-0.0008474303176626563,-0.0009554288699291646,1.0006662607192993,0.0,0.0,0.0,0.33643707633018494,2.0308871269226074,4.965393543243408,-60.895782470703125,0
69.38900000000103,-0.00019950051500927657,-0.00021152646513655782,0.00013968342682346702,0.0,0.0,0.0,0.0,0.0007831462426111102,0.001695606973953545,-0.00034593811142258346,1.0006334781646729,0.0,0.0,0.0,0.33618098497390747,2.0307765007019043,4.964911460876465,-60.84942626953125,0
79.29000000000087,-0.00024002212740015239,-0.0001967053976841271,0.00013467014650814235,0.0,0.0,0.0,0.0,0.00022919052571523935,-0.0010504615493118763,0.0002958296099677682,0.9986473321914673,0.0,0.0,0.0,0.33626073598861694,2.0230071544647217,4.957370758056641,-60.86385726928711,0
89.21500000000015,-0.0001355121930828318,-0.00023586196766700596,0.00021272615413181484,0.0,0.0,0.0,0.0,0.0003309176827315241,-0.003873424371704459,-0.0010368929943069816,1.000447154045105,0.0,0.0,0.0,0.33568084239959717,2.020310163497925,4.957238674163818,-60.75889587402344,0
99.1140000000014,-0.00012148902169428766,-0.00014867866411805153,0.00016715847596060485,0.0,0.0,0.0,0.0,0.001851811190135777,0.005636340938508511,-0.0019477260066196322,1.0011391639709473,0.0,0.0,0.0,0.3345559537410736,2.021428108215332,4.954628944396973,-60.55529022216797,0
109.03300000000127,-0.00010119254875462502,-0.00024103414034470916,0.000182809992111288,0.0,0.0,0.0,0.0,-0.002632659627124667,-0.0018832990899682045,0.0038376962766051292,1.0014878511428833,0.0,0.0,0.0,0.33405303955078125,2.0168678760528564,4.94892692565918,-60.46426010131836,0
118.9369999999999,-0.00013155501801520586,-0.00022015004651620984,0.0001713922101771459,0.0,0.0,0.0,0.0,-0.0007425365620292723,0.003709969110786915,0.0011844751425087452,1.0015531778335571,0.0,0.0,0.0,0.33436766266822815,2.017317056655884,4.945743560791016,-60.521209716796875,0
128.8560000000016,-0.00010619769454933703,-0.00029363392968662083,0.00019808126671705395,0.0,0.0,0.0,0.0,-0.00025830348022282124,-0.001550578512251377,-0.004217644687741995,0.9997537136077881,0.0,0.0,0.0,0.34134674072265625,2.0103516578674316,4.955267429351807,-61.7844352722168,0
138.75800000000163,-9.180561755783856e-05,-0.00019723670266103,0.00015462208830285817,0.0,0.0,0.0,0.0,-0.0015942821046337485,-0.0024581612087786198,-0.00014866323908790946,1.0008244514465332,0.0,0.0,0.0,0.34015360474586487,2.003568410873413,4.947371006011963,-61.568477630615234,0
148.6770000000015,-5.915928340982646e-05,-0.00024199321342166513,0.00020289431267883629,0.0,0.0,0.0,0.0,0.0008031874895095825,-0.0033004048746079206,-0.0007606992730870843,1.0000146627426147,0.0,0.0,0.0,0.33454498648643494,2.00299334526062,4.965982437133789,-60.55331039428711,0
158.57800000000134,-2.5331763026770204e-05,-0.0001572819601278752,0.0001232022186741233,0.0,0.0,0.0,0.0,-0.0010533102322369814,-0.0014364008093252778,0.0016924709780141711,1.0001490116119385,0.0,0.0,0.0,0.33504489064216614,1.9981375932693481,4.96978235244751,-60.64379119873047,0
168.50600000000122,-3.29804934153799e-05,-0.00025659165112301707,0.00011326409003231674,0.0,0.0,0.0,0.0,-0.0008417764329351485,0.0013701404677703977,-0.0004741073935292661,1.000649333000183,0.0,0.0,0.0,0.3355019986629486,1.9941833019256592,4.956238746643066,-60.72652816772461,0
178.40200000000004,-5.011161192669533e-05,-0.00024080491857603192,7.27102960809134e-05,0.0,0.0,0.0,0.0,-0.002692003268748522,0.0002096883545164019,-0.002661397447809577,1.0002572536468506,0.0,0.0,0.0,0.3342224955558777,1.9926600456237793,4.94984769821167,-60.494937896728516,0
188.31900000000132,-5.6394059356534854e-05,-0.0002589137584436685,0.00011490257747936994,0.0,0.0,0.0,0.0,-0.0023800223134458065,-0.0014374357415363193,0.005470361560583115,1.0014832019805908,0.0,0.0,0.0,0.3250824213027954,1.9979087114334106,4.955377578735352,-58.84056091308594,0
198.22500000000036,-5.9106823755428195e-05,-0.00018406377057544887,7.994650513865054e-05,0.0,0.0,0.0,0.0,-0.0006583420909009874,-0.0017308633541688323,2.8121921786805615e-06,0.9988173246383667,0.0,0.0,0.0,0.32529351115226746,2.0014493465423584,4.951189994812012,-58.8787727355957,0
208.14800000000105,-0.0001812812261050567,-0.00019162388343829662,8.08288823463954e-05,0.0,0.0,0.0,0.0,0.001815657364204526,0.00016018467431422323,0.0014213641406968236,0.9985472559928894,0.0,0.0,0.0,0.32585257291793823,2.0021049976348877,4.961245536804199,-58.9799690246582,0
218.0560000000005,-0.000198992362129502,-0.00013300657155923545,5.06475153088104e-05,0.0,0.0,0.0,0.0,0.0011180370347574353,0.0030901688151061535,0.0014176680706441402,1.0016727447509766,0.0,0.0,0.0,0.3268220126628876,1.9955296516418457,4.953824996948242,-59.155433654785156,0
227.96800000000076,-0.0002161551092285663,-0.00016186892753466964,7.403286872431636e-05,0.0,0.0,0.0,0.0,-0.000169398685102351,-0.0028631556779146194,0.0037356140092015266,0.9995472431182861,0.0,0.0,0.0,0.3264251947402954,1.9914966821670532,4.942885875701904,-59.0836067199707,0
237.8690000000006,-0.0002355016185902059,-0.00010003642091760412,4.3708871089620516e-05,0.0,0.0,0.0,0.0,0.0010072696022689342,-0.0008198851719498634,0.0041845678351819515,1.0011658668518066,0.0,0.0,0.0,0.32596704363822937,1.9894225597381592,4.935603618621826,-59.00068664550781,0
247.79200000000128,-0.0001806910295272246,-0.00011294061550870538,0.00010830860992427915,0.0,0.0,0.0,0.0,0.0009949152590706944,0.0004033476288896054,-0.0006429963395930827,0.998183012008667,0.0,0.0,0.0,0.32734715938568115,1.9887079000473022,4.940123558044434,-59.25048828125,0
257.6920000000009,-0.0001823430065996945,-6.266526906983927e-05,4.6181903599062935e-05,0.0,0.0,0.0,0.0,9.011867950903252e-05,0.0015077147400006652,0.0008048600284382701,1.0017266273498535,0.0,0.0,0.0,0.3284538984298706,1.982543706893921,4.937929630279541,-59.450809478759766,0
267.6080000000002,-0.0001854237198131159,-9.807784226723015e-05,7.520054350607097e-05,0.0,0.0,0.0,0.0,-0.003501227591186762,0.0018833226058632135,-0.0019944149535149336,1.0000605583190918,0.0,0.0,0.0,0.3271251618862152,1.9775437116622925,4.927470684051514,-59.21030807495117,0
277.51500000000124,-0.00024299704818986356,-0.0001073305174941197,6.74828770570457e-05,0.0,0.0,0.0,0.0,0.0028882850892841816,-0.0027103000320494175,-0.00233949045650661,0.9985905885696411,0.0,0.0,0.0,0.32704493403434753,1.9761497974395752,4.921234130859375,-59.19578170776367,0
287.4270000000015,-0.0001294698886340484,-0.00016824304475449026,0.0001234419469255954,0.0,0.0,0.0,0.0,0.0012291575549170375,-0.0014662063913419843,-0.000603312742896378,0.9972680807113647,0.0,0.0,0.0,0.3263399600982666,1.9679667949676514,4.918867111206055,-59.068180084228516,0
297.33800000000156,-0.00017685667262412608,-0.00017050292808562517,0.00010723336163209751,0.0,0.0,0.0,0.0,-0.0024799106176942587,0.0007440797053277493,-0.0009071110980585217,0.998388409614563,0.0,0.0,0.0,0.325111448764801,1.964818000793457,4.917810916900635,-58.8458137512207,0
307.25,-0.00014220418233890086,-0.00022209309099707752,0.00014040312089491636,0.0,0.0,0.0,0.0,0.0007181077962741256,-0.003213062882423401,-0.0004113840695936233,1.000240683555603,0.0,0.0,0.0,0.32458916306495667,1.9693186283111572,4.911940097808838,-58.751285552978516,0
317.1700000000001,-0.00013292110816109926,-0.00013231596676632762,8.050177711993456e-05,0.0,0.0,0.0,0.0,0.001335139386355877,-0.0030035260133445263,-0.0018163785571232438,1.0006120204925537,0.0,0.0,0.0,0.3245640993118286,1.9718838930130005,4.917236328125,-58.74674606323242,0
327.07800000000134,-0.00014998331607785076,-0.0001861852506408468,9.284840052714571e-05,0.0,0.0,0.0,0.0,0.0028731434140354395,-0.0027108590584248304,0.002854948630556464,1.0013624429702759,0.0,0.0,0.0,0.32474514842033386,1.9688571691513062,4.9112396240234375,-58.779518127441406,0
336.9890000000014,-0.00016762646555434912,-0.00012463261373341084,5.700280598830432e-05,0.0,0.0,0.0,0.0,-0.0022306889295578003,0.0020908440928906202,-0.0018905927427113056,0.9995108246803284,0.0,0.0,0.0,0.3252318203449249,1.9551681280136108,4.908415794372559,-58.86760711669922,0
346.90300000000025,-7.44505668990314e-05,-0.0001958447537617758,9.76031951722689e-05,0.0,0.0,0.0,0.0,-0.001501809456385672,0.000272142409812659,0.002323341090232134,0.9992989301681519,0.0,0.0,0.0,0.32493507862091064,1.951382040977478,4.907235622406006,-58.81389617919922,0
356.8140000000003,-5.994263483444229e-05,-0.00011462772818049416,2.409238186373841e-05,0.0,0.0,0.0,0.0,0.0021170733962208033,-0.00025900156470015645,0.004283993970602751,1.0004887580871582,0.0,0.0,0.0,0.32647645473480225,1.9492385387420654,4.898040294647217,-59.09288787841797,0
366.71800000000076,-4.4022897782269865e-05,-0.00017541898705530912,4.040769999846816e-05,0.0,0.0,0.0,0.0,0.0004887777613475919,-0.0015205098316073418,-0.0021837560925632715,0.9989929795265198,0.0,0.0,0.0,0.3258415162563324,1.9427051544189453,4.89703369140625,-58.97795867919922,0
376.6310000000012,-1.069097652361961e-05,-0.0001430076517863199,-3.0408513339352794e-05,0.0,0.0,0.0,0.0,-0.0002523246221244335,0.000346877466654405,-0.0002550687931943685,0.997546374797821,0.0,0.0,0.0,0.3250334560871124,1.940820574760437,4.885209083557129,-58.83169937133789,0
386.5410000000011,-8.168058411683887e-05,-0.00018007552716881037,-3.8163314457051456e-05,0.0,0.0,0.0,0.0,-0.0011802315711975098,0.0019631192553788424,0.002190300030633807,1.0004150867462158,0.0,0.0,0.0,0.32537224888801575,1.9359991550445557,4.880801677703857,-58.89302444458008,0
396.46000000000095,2.698755997698754e-05,-0.00017189086065627635,-0.00011523644934641197,0.0,0.0,0.0,0.0,3.457559068920091e-05,0.002148502506315708,0.0028504629153758287,0.9995601773262024,0.0,0.0,0.0,0.32530248165130615,1.9364511966705322,4.876051902770996,-58.88039779663086,0
406.3630000000012,-4.473085573408753e-05,-0.00021166328224353492,-0.00012932292884215713,0.0,0.0,0.0,0.0,-0.0023578056134283543,-6.216795736690983e-05,0.00028525895322673023,0.9997425079345703,0.0,0.0,0.0,0.32652419805526733,1.9440206289291382,4.871903419494629,-59.101524353027344,0
416.28600000000006,6.615294751100009e-06,-0.00012005578901153058,-0.00015910914225969464,0.0,0.0,0.0,0.0,0.002191804116591811,0.0005581554723903537,0.0040118698962032795,1.0001596212387085,0.0,0.0,0.0,0.3262067139148712,1.9443223476409912,4.863252639770508,-59.044063568115234,0
426.1940000000013,-6.804506847402081e-05,-0.00015443479060195386,-0.00017403402307536453,0.0,0.0,0.0,0.0,-0.0006708303699269891,0.0008134041563607752,0.0010117007186636329,1.0006433725357056,0.0,0.0,0.0,0.32737022638320923,1.940503716468811,4.853709697723389,-59.25466537475586,0
436.1060000000016,-2.26828342420049e-05,-0.00017279680469073355,-0.0001670726778684184,0.0,0.0,0.0,0.0,-0.000906949455384165,-0.003535680705681443,0.002387711312621832,0.9992091059684753,0.0,0.0,0.0,0.32632607221603394,1.9383747577667236,4.852558135986328,-59.065670013427734,0
446.01800000000003,-9.708428115118295e-05,-0.00020933421910740435,-0.00017943365674000233,0.0,0.0,0.0,0.0,0.0018826407613232732,0.0017249685479328036,-0.0012353756465017796,1.000259518623352,0.0,0.0,0.0,0.32555392384529114,1.9368072748184204,4.850180149078369,-58.925907135009766,0
455.9290000000001,-9.737601794768125e-05,-0.0001279683201573789,-0.00013174944615457207,0.0,0.0,0.0,0.0,0.000908941961824894,-0.00023665657499805093,0.002843232359737158,1.0017468929290771,0.0,0.0,0.0,0.32664239406585693,1.9338648319244385,4.8420538902282715,-59.122920989990234,0
465.83800000000156,-0.0001739763538353145,-0.00016182965191546828,-0.0001375092688249424,0.0,0.0,0.0,0.0,0.0013329364592209458,0.003312380751594901,-0.003804673906415701,1.0022542476654053,0.0,0.0,0.0,0.32681331038475037,1.9341539144515991,4.837705135345459,-59.15385818481445,0
475.7520000000004,-0.0001413438149029389,-0.00011740304034901783,-7.98028486315161e-05,0.0,0.0,0.0,0.0,-0.002698044991120696,-0.000532055099029094,-0.002186303259804845,0.9994910359382629,0.0,0.0,0.0,0.32663434743881226,1.9316589832305908,4.824167251586914,-59.121463775634766,0
485.6670000000013,-0.0002182154421461746,-0.00015041737060528249,-7.74191867094487e-05,0.0,0.0,0.0,0.0,-0.0014367799740284681,-0.0017058931989595294,-0.0009820626582950354,1.0004585981369019,0.0,0.0,0.0,0.3264627754688263,1.9384009838104248,4.818359851837158,-59.090415954589844,0
495.5680000000011,-9.758541273185983e-05,-0.00012153512943768874,-1.196879838971654e-05,0.0,0.0,0.0,0.0,0.0031736993696540594,0.00443651108071208,-0.0018147925147786736,0.9994203448295593,0.0,0.0,0.0,0.3313940763473511,1.9415075778961182,4.847738265991211,-59.98299026489258,0
505.4830000000002,-0.00017378920165356249,-0.0001545884006191045,-4.1813700590864755e-06,0.0,0.0,0.0,0.0,0.0014483780832961202,0.0007935758912935853,0.004491022322326899,1.0002732276916504,0.0,0.0,0.0,0.33165061473846436,1.933458924293518,4.835106372833252,-60.029422760009766,0
515.3900000000012,-8.121132850646973e-05,-0.00016423156193923205,4.3434836697997525e-05,0.0,0.0,0.0,0.0,0.0016890793340280652,0.004508042708039284,0.00025866314535960555,1.0014350414276123,0.0,0.0,0.0,0.33238354325294495,1.9296895265579224,4.826539039611816,-60.162078857421875,0
525.3110000000015,-0.00013935288006905466,-0.00016400619642809033,4.1379407775821164e-05,0.0,0.0,0.0,0.0,-0.0005496633821167052,-0.007262555416673422,-0.00035953166661784053,1.0005147457122803,0.0,0.0,0.0,0.3322755694389343,1.9221253395080566,4.817379474639893,-60.14253616333008,0
535.223,-3.719190135598183e-05,-0.0002050956099992618,0.00011237691796850413,0.0,0.0,0.0,0.0,-0.0010318950517103076,0.0010896725580096245,0.0001866105740191415,0.999282956123352,0.0,0.0,0.0,0.3315626382827759,1.9139297008514404,4.810115814208984,-60.01349639892578,0
545.1380000000008,-9.345919534098357e-05,-0.00018989985983353108,0.0001259553391719237,0.0,0.0,0.0,0.0,-0.001139435451477766,-0.00039783137617632747,1.40314086820581e-05,0.9999873042106628,0.0,0.0,0.0,0.33214670419692993,1.916417121887207,4.810020446777344,-60.11921691894531,0
555.0350000000017,-6.325808499241248e-05,-0.00024324706464540213,0.00017150524945463985,0.0,0.0,0.0,0.0,-0.0021601771004498005,-0.0026163060683757067,-0.0007391756516881287,1.0016268491744995,0.0,0.0,0.0,0.3315142095088959,1.9163117408752441,4.804548740386963,-60.00473403930664,0
564.9560000000001,-7.767458737362176e-05,-0.00019669608445838094,0.0001378041779389605,0.0,0.0,0.0,0.0,0.001315410016104579,-0.0006582631031051278,0.0012164218351244926,1.000672698020935,0.0,0.0,0.0,0.33095574378967285,1.9104516506195068,4.8047027587890625,-59.903648376464844,0
574.8590000000004,-3.933109837817028e-05,-0.0002132076770067215,0.00020414682512637228,0.0,0.0,0.0,0.0,-0.0011090012267231941,-0.0013352290261536837,0.0003651609586086124,0.9996913075447083,0.0,0.0,0.0,0.33088722825050354,1.9077600240707397,4.802133560180664,-59.8912467956543,0
584.7900000000009,-3.5879143979400396e-05,-0.00017133452638518065,0.00014576470130123198,0.0,0.0,0.0,0.0,-0.0002924316213466227,0.003118336433544755,0.0003430839569773525,1.0002360343933105,0.0,0.0,0.0,0.33090677857398987,1.9123003482818604,4.806402683258057,-59.89478302001953,0
594.6860000000015,-3.490038216114044e-05,-0.00019544347014743835,0.00019523270020727068,0.0,0.0,0.0,0.0,-0.004206762183457613,-0.0022809896618127823,0.0004207116726320237,1.0002025365829468,0.0,0.0,0.0,0.3301498293876648,1.9075052738189697,4.796941757202148,-59.757774353027344,0
604.6040000000012,-3.1132851290749386e-05,-0.0001282236335100606,0.00014613998064305633,0.0,0.0,0.0,0.0,-0.0001856889866758138,0.0059484257362782955,-0.0016790382796898484,0.9994828104972839,0.0,0.0,0.0,0.33090096712112427,1.9163188934326172,4.796926498413086,-59.89373016357422,0
614.5040000000008,-2.91335309157148e-05,-0.00016127397248055786,0.00018814613576978445,0.0,0.0,0.0,0.0,0.0025151739828288555,0.002124146092683077,0.004864702001214027,0.9996403455734253,0.0,0.0,0.0,0.32995107769966125,1.9124841690063477,4.777183532714844,-59.721797943115234,0
624.4340000000011,-3.264377301093191e-05,-9.78666139417328e-05,0.00014216589624993503,0.0,0.0,0.0,0.0,-0.0018658494809642434,-0.005485242232680321,0.0006955668213777244,1.0017375946044922,0.0,0.0,0.0,0.33038005232810974,1.904066562652588,4.759589672088623,-59.79944610595703,0
634.3260000000009,1.0250385457766242e-05,-0.00016226548177655786,0.00017973611829802394,0.0,0.0,0.0,0.0,0.002501092618331313,-0.0030752145685255527,0.0006198423798196018,1.0006961822509766,0.0,0.0,0.0,0.33014926314353943,1.9092826843261719,4.761962413787842,-59.75767517089844,0
644.2490000000016,4.4559305933944415e-06,-0.00010324928734917194,0.00013395406131166965,0.0,0.0,0.0,0.0,-0.0011317001190036535,0.002365203807130456,0.0026505745481699705,1.0006483793258667,0.0,0.0,0.0,0.3307711184024811,1.906147837638855,4.769131183624268,-59.8702278137207,0
654.1490000000013,-6.294795457506552e-05,-0.00019453425193205476,0.00011742220522137359,0.0,0.0,0.0,0.0,-0.002665736014023423,-0.004466533660888672,0.0006691197631880641,1.000409722328186,0.0,0.0,0.0,0.33205553889274597,1.9040833711624146,4.763033866882324,-60.10271072387695,0
664.0720000000001,-7.925705722300336e-05,-0.00012434535892680287,8.001138485269621e-05,0.0,0.0,0.0,0.0,-0.0003464226901996881,0.006398798897862434,-0.005102795083075762,0.998896598815918,0.0,0.0,0.0,0.33110418915748596,1.9059759378433228,4.759913921356201,-59.93052291870117,0
673.9720000000016,4.351245934230974e-06,-0.00018870866915676743,0.00012760695244651288,0.0,0.0,0.0,0.0,-0.0007840848993510008,0.005559543613344431,0.00037973118014633656,1.0001808404922485,0.0,0.0,0.0,0.3242388367652893,1.9010229110717773,4.77165412902832,-58.6878776550293,0
683.8960000000006,-2.6961564799421467e-05,-0.00012451160000637174,0.00010970127914333716,0.0,0.0,0.0,0.0,-0.00042222431511618197,-0.0018540796590968966,0.002246942836791277,1.00100839138031,0.0,0.0,0.0,0.32458922266960144,1.8982586860656738,4.766166687011719,-58.75129318237305,0
693.7990000000009,4.113614977541147e-06,-0.0001789118250599131,0.00014741506311111152,0.0,0.0,0.0,0.0,-0.002897868165746331,0.0001824818318709731,-0.003337286878377199,0.9985588192939758,0.0,0.0,0.0,0.32538527250289917,1.8891544342041016,4.751084327697754,-58.895381927490234,0
703.7200000000012,-3.946996002923697e-05,-0.00017248866788577288,0.00012134962889831513,0.0,0.0,0.0,0.0,0.001357699278742075,0.004568981938064098,0.0019098755437880754,0.9984785914421082,0.0,0.0,0.0,0.3246490955352783,1.894860863685608,4.746891975402832,-58.76213073730469,0
713.6170000000002,-3.493626354611479e-05,-0.00018754313350655138,0.0001713333185762167,0.0,0.0,0.0,0.0,-0.001095367013476789,-0.0022025234065949917,0.002142309444025159,1.0006177425384521,0.0,0.0,0.0,0.3244141638278961,1.8927841186523438,4.741515159606934,-58.719608306884766,0
723.5400000000009,-4.9462414608569816e-05,-0.00016199548554141074,0.00010908627155004069,0.0,0.0,0.0,0.0,-0.0007534127798862755,0.001626756158657372,0.002567730378359556,1.0033434629440308,0.0,0.0,0.0,0.32468152046203613,1.8939568996429443,4.73662805557251,-58.768001556396484,0
733.4400000000005,-8.465196151519194e-05,-0.00017111716442741454,0.00014125274901743978,0.0,0.0,0.0,0.0,-0.00230306014418602,0.003550933441147208,-0.0012339174281805754,1.0009397268295288,0.0,0.0,0.0,0.3243657648563385,1.8931277990341187,4.732995986938477,-58.71084976196289,0
743.3630000000012,-0.00010741373989731073,-0.00011071380140492693,0.00010475540329935029,0.0,0.0,0.0,0.0,0.0019316787365823984,0.0009964301716536283,0.0019055567681789398,0.9998968839645386,0.0,0.0,0.0,0.32425493001937866,1.8872389793395996,4.723609924316406,-58.69078826904297,0
753.2630000000008,-0.00012968397641088814,-0.00014858957729302347,0.00012746687571052462,0.0,0.0,0.0,0.0,-0.0020542070269584656,-0.0017179641872644424,0.00025614650803618133,1.0022732019424438,0.0,0.0,0.0,0.3302231729030609,1.889953851699829,4.727570056915283,-59.77104949951172,0
763.1830000000009,-0.0001044023665599525,-4.687291584559716e-05,3.903489778167568e-05,0.0,0.0,0.0,0.0,-0.001913418178446591,0.001591553445905447,0.004144415259361267,1.0025076866149902,0.0,0.0,0.0,0.3303767740726471,1.8860914707183838,4.7293806076049805,-59.79885482788086,0
773.0880000000016,-4.04957499995362e-05,-0.00012883450835943222,6.268660945352167e-05,0.0,0.0,0.0,0.0,-0.002081533893942833,-0.0027080930303782225,0.0002445898426230997,1.0014679431915283,0.0,0.0,0.0,0.3367069661617279,1.8761547803878784,4.743375301361084,-60.94462966918945,0
783.014000000001,-7.095903856679797e-05,-8.419888763455674e-05,2.5228309823432937e-05,0.0,0.0,0.0,0.0,0.0001546169223729521,0.001853444380685687,-9.486891212873161e-05,1.000234603881836,0.0,0.0,0.0,0.3366744816303253,1.8764904737472534,4.736948490142822,-60.938751220703125,0
792.9110000000001,-6.494232366094366e-05,-0.00017224991461262107,2.8919504984514788e-05,0.0,0.0,0.0,0.0,0.002460215939208865,0.000455984118161723,0.0012558320304378867,0.9992875456809998,0.0,0.0,0.0,0.3363966643810272,1.8776456117630005,4.740692138671875,-60.88846206665039,0
802.8270000000011,-0.00012571128900162876,-0.00015444931341335177,1.8153270502807572e-05,0.0,0.0,0.0,0.0,-0.0030271606519818306,-0.0029095232021063566,0.0035746281500905752,0.9992135763168335,0.0,0.0,0.0,0.33680614829063416,1.8742297887802124,4.72959041595459,-60.962581634521484,0
812.732,-1.1799861567851622e-05,-0.00024212340940721333,5.990847057546489e-05,0.0,0.0,0.0,0.0,0.0015687990235164762,-0.0018013595836237073,0.00047314941184595227,1.0008761882781982,0.0,0.0,0.0,0.3368394076824188,1.8759993314743042,4.728715419769287,-60.968605041503906,0
822.6530000000002,-6.5484011429362e-05,-0.00021149365056771785,4.951104347128421e-05,0.0,0.0,0.0,0.0,0.0004785563796758652,-0.0021531484089791775,0.003509725444018841,1.0003198385238647,0.0,0.0,0.0,0.3368675410747528,1.8761647939682007,4.728094100952148,-60.973697662353516,0
832.5640000000003,-6.490655505331233e-05,-0.000244591326918453,8.568037446821108e-05,0.0,0.0,0.0,0.0,0.002190668135881424,-0.0005004715058021247,0.00017819827189669013,0.9990044832229614,0.0,0.0,0.0,0.33691272139549255,1.874022364616394,4.725697040557861,-60.981876373291016,0
842.473,-9.835969103733078e-05,-0.00017510878387838602,6.726642459398136e-05,0.0,0.0,0.0,0.0,0.0034002114553004503,0.0018663734663277864,-0.0033357860520482063,0.9993104934692383,0.0,0.0,0.0,0.33749401569366455,1.871551275253296,4.731872081756592,-61.08708572387695,0
852.3780000000006,-8.806881669443101e-05,-0.00021715649927500635,0.00010696097888285294,0.0,0.0,0.0,0.0,-0.001626204582862556,0.004366999492049217,-0.0029947611037641764,0.9973093867301941,0.0,0.0,0.0,0.33683380484580994,1.8614685535430908,4.72479248046875,-60.967594146728516,0
862.3020000000015,-0.00014144937449600548,-0.00019907281966879964,9.513236000202596e-05,0.0,0.0,0.0,0.0,0.001736950478516519,0.0008688820526003838,0.0004466125392355025,1.0007784366607666,0.0,0.0,0.0,0.3357752859592438,1.8622759580612183,4.717402935028076,-60.77599334716797,0
872.2030000000013,-6.527893856400624e-05,-0.0002211813989561051,0.00016560823132749647,0.0,0.0,0.0,0.0,0.0017400325741618872,0.0015177804743871093,0.0029827833641320467,0.9985955953598022,0.0,0.0,0.0,0.33672666549682617,1.8529646396636963,4.71078634262085,-60.94819641113281,0
882.1290000000008,-0.0001489328860770911,-0.00026289490051567554,0.000175989160197787,0.0,0.0,0.0,0.0,-0.0005173722165636718,-0.0006362308631651103,0.002082433085888624,1.0003260374069214,0.0,0.0,0.0,0.3363434076309204,1.8533141613006592,4.702184200286865,-60.878822326660156,0
892.0240000000013,-7.50396357034333e-05,-0.0002953080693259835,0.0002073012583423406,0.0,0.0,0.0,0.0,0.0036326006520539522,-0.0009767466690391302,0.0017867456190288067,1.0003166198730469,0.0,0.0,0.0,0.33594927191734314,1.8509020805358887,4.692358493804932,-60.80748748779297,0
901.9520000000011,-2.0536037482088432e-05,-0.00015854481898713857,6.19929633103311e-05,0.0,0.0,0.0,0.0,0.0003668302088044584,-0.0012912048259750009,0.0011399235809221864,0.9983550310134888,0.0,0.0,0.0,0.3391050100326538,1.887848973274231,4.716928005218506,-61.37868118286133,0
911.8460000000014,-0.00011171096411999315,-0.00017784170631784946,6.663089152425528e-05,0.0,0.0,0.0,0.0,-0.00013419029710348696,-0.001825269078835845,0.0001027420221362263,1.0007822513580322,0.0,0.0,0.0,0.3456719219684601,1.8862745761871338,4.713510036468506,-62.56730651855469,0
921.7710000000006,-9.166313975583762e-05,-6.977649172767997e-05,-3.616614776547067e-05,0.0,0.0,0.0,0.0,0.0003275266499258578,0.00032173117506317794,-0.0022477840539067984,1.0021097660064697,0.0,0.0,0.0,0.34458085894584656,1.8860734701156616,4.711185455322266,-62.36982345581055,0
931.6710000000003,-0.0001272674708161503,-9.80334443738684e-05,-2.245990435767453e-05,0.0,0.0,0.0,0.0,-0.00044072556192986667,-0.0031628410797566175,0.004274663981050253,0.9996708035469055,0.0,0.0,0.0,0.3458218276500702,1.8844454288482666,4.709029197692871,-62.59443664550781,0
941.5910000000003,-0.0002226467040600255,-0.00012624877854250371,-9.995494110626169e-06,0.0,0.0,0.0,0.0,-0.0016227170126512647,-0.0036859274841845036,0.0010085556423291564,0.9990020394325256,0.0,0.0,0.0,0.34552013874053955,1.8825538158416748,4.704753398895264,-62.53982925415039,0
951.4930000000004,-6.488890358014032e-05,-0.00017125674639828503,7.30066531104967e-05,0.0,0.0,0.0,0.0,0.0032766282092779875,0.0010512854205444455,0.004847067408263683,1.0002096891403198,0.0,0.0,0.0,0.34219181537628174,1.8821015357971191,4.7361159324646,-61.93739700317383,0
961.4150000000009,-0.00010098324128193781,-0.00010859617032110691,5.153726306161843e-05,0.0,0.0,0.0,0.0,-0.004015296697616577,-0.0006578140892088413,0.0050291153602302074,0.9990471601486206,0.0,0.0,0.0,0.34308895468711853,1.8765537738800049,4.734146595001221,-62.09978103637695,0
971.3150000000005,-0.000122249242849648,-0.00012376889935694635,9.316678188042715e-05,0.0,0.0,0.0,0.0,0.0026921804528683424,-0.0005554223316721618,0.002776332898065448,1.0014053583145142,0.0,0.0,0.0,0.3435710072517395,1.8751232624053955,4.732742786407471,-62.187034606933594,0
981.2350000000006,-0.0001514056057203561,-6.608982221223414e-05,5.703031274606474e-05,0.0,0.0,0.0,0.0,0.00023339827021118253,0.0003274164046160877,-0.0007779804291203618,0.9999719858169556,0.0,0.0,0.0,0.3442765474319458,1.8667352199554443,4.721827507019043,-62.31473922729492,0
991.1370000000006,-9.615211456548423e-05,-0.00014858937356621027,8.958668331615627e-05,0.0,0.0,0.0,0.0,-0.0011975944507867098,0.0036733015440404415,0.0042523886077106,0.9996676445007324,0.0,0.0,0.0,0.3454620838165283,1.8654612302780151,4.714672088623047,-62.52932357788086,0
1001.0580000000009,-0.00012093481927877292,-8.783592056715861e-05,4.9448568461230025e-05,0.0,0.0,0.0,0.0,0.0047896020114421844,-0.002116710878908634,0.0023002191446721554,1.0007637739181519,0.0,0.0,0.0,0.3462037146091461,1.8619115352630615,4.7073655128479,-62.6635627746582,0
1010.960000000001,-9.237570338882506e-05,-0.00015969134983606637,7.720847497694194e-05,0.0,0.0,0.0,0.0,0.0007556068594567478,0.006985016167163849,-0.0015486908378079534,1.0022575855255127,0.0,0.0,0.0,0.3463132679462433,1.8496270179748535,4.696897983551025,-62.68339538574219,0
1020.880000000001,-0.00010999460209859535,-0.00010293172090314329,2.5192208340740763e-05,0.0,0.0,0.0,0.0,0.0020850910805165768,0.0028400493320077658,-0.0009518037550151348,1.0019702911376953,0.0,0.0,0.0,0.3452726900577545,1.8487213850021362,4.680017948150635,-62.49504470825195,0
1030.7920000000013,-5.718777538277209e-05,-0.00018861558055505157,5.472459815791808e-05,0.0,0.0,0.0,0.0,0.002170001622289419,0.0011016112985089421,-0.0013407530495896935,1.0020153522491455,0.0,0.0,0.0,0.3451169431209564,1.8429104089736938,4.662734508514404,-62.46685028076172,0
1040.705,-9.284038242185488e-05,-0.00012741563841700554,3.648434721981175e-05,0.0,0.0,0.0,0.0,0.0002910128387156874,-0.00043268746230751276,0.00015719009388703853,1.000415563583374,0.0,0.0,0.0,0.3450040817260742,1.8370559215545654,4.6519622802734375,-62.4464225769043,0
1050.6100000000006,-2.4499266146449372e-05,-0.00017952137568499893,9.299593511968851e-05,0.0,0.0,0.0,0.0,0.0003083673364017159,0.0011885907733812928,-0.005728371907025576,0.9992014169692993,0.0,0.0,0.0,0.3378334641456604,1.8393970727920532,4.678557872772217,-61.14852523803711,0
1060.5280000000002,-4.6450535592157394e-05,-0.00013249983021523803,4.891877688351087e-05,0.0,0.0,0.0,0.0,-0.0041315872222185135,-0.0024101193994283676,-0.0011140734422951937,0.9994949102401733,0.0,0.0,0.0,0.33738869428634644,1.832020878791809,4.665055274963379,-61.06802749633789,0
1070.4300000000003,-2.9533675842685625e-05,-0.00019096412870567292,8.035683276830241e-05,0.0,0.0,0.0,0.0,-0.001403692876920104,-0.0023925015702843666,0.005193352699279785,1.0006085634231567,0.0,0.0,0.0,0.3362312912940979,1.8351014852523804,4.65418004989624,-60.85852813720703,0
1080.353000000001,-6.423341983463615e-05,-0.00013563687389250845,4.911061478196643e-05,0.0,0.0,0.0,0.0,0.0007803371991030872,-0.002826982643455267,-0.0007529831491410732,0.9988388419151306,0.0,0.0,0.0,0.33817464113235474,1.831195592880249,4.657659530639648,-61.21028137207031,0
1090.2510000000002,-1.7326099623460323e-05,-0.00019761579460464418,9.214972669724375e-05,0.0,0.0,0.0,0.0,-0.0008960741688497365,0.0017714094137772918,0.0016023814678192139,1.0004345178604126,0.0,0.0,0.0,0.3313642740249634,1.8296600580215454,4.680150985717773,-59.97759246826172,0
1100.175000000001,-7.00030432199128e-05,-0.00018760643433779478,6.475831469288096e-05,0.0,0.0,0.0,0.0,0.0020805527456104755,-0.00022895161237102002,0.003227164736017585,0.9979248046875,0.0,0.0,0.0,0.3306578993797302,1.8292030096054077,4.688596248626709,-59.84973907470703,0
1110.0790000000015,-1.5869431081227958e-05,-0.0002236225554952398,0.00012527088983915746,0.0,0.0,0.0,0.0,0.0003283211844973266,-0.0032344236969947815,0.0025904655922204256,0.997702956199646,0.0,0.0,0.0,0.32291367650032043,1.8274037837982178,4.701464653015137,-58.44801712036133,0
1120.0030000000006,-0.00010684171138564125,-0.00026890577282756567,0.00013350215158425272,0.0,0.0,0.0,0.0,0.0017022087704390287,0.0018224602099508047,-0.002236776752397418,0.9984226822853088,0.0,0.0,0.0,0.3223932087421417,1.8248604536056519,4.704349994659424,-58.35381317138672,0
1129.9010000000017,-4.22090852225665e-05,-0.0002935621596407145,0.00016741636500228196,0.0,0.0,0.0,0.0,0.0008548551122657955,-0.0005307887331582606,-0.0010928799165412784,1.0014644861221313,0.0,0.0,0.0,0.32313916087150574,1.8254854679107666,4.714305400848389,-58.48883056640625,0
1139.817000000001,-7.39005918148905e-05,-0.00024938906426541507,0.00011307432578178123,0.0,0.0,0.0,0.0,-0.0011773064034059644,0.003981424029916525,-0.0032662581652402878,1.0004488229751587,0.0,0.0,0.0,0.32120180130004883,1.8196419477462769,4.702123641967773,-58.13816452026367,0
1149.7220000000016,-8.537082612747326e-05,-0.0002845312701538205,0.0001544773840578273,0.0,0.0,0.0,0.0,0.003088131546974182,-0.0009700749069452286,-0.0025021806359291077,0.9989616870880127,0.0,0.0,0.0,0.32091277837753296,1.8185904026031494,4.698013782501221,-58.085845947265625,0
1159.643,-3.4444423363311216e-05,-0.000146216552820988,1.1904547136509791e-05,0.0,0.0,0.0,0.0,0.0026136646047234535,0.004108012653887272,-0.00177862832788378,1.0007988214492798,0.0,0.0,0.0,0.32375138998031616,1.8489103317260742,4.708653450012207,-58.599647521972656,0
1169.5430000000015,6.447868599934736e-06,-0.00019204753334634006,5.7764082157518715e-05,0.0,0.0,0.0,0.0,-0.0007378848968073726,-0.0010662386193871498,0.000586360227316618,0.9996535181999207,0.0,0.0,0.0,0.31650683283805847,1.8377761840820312,4.727317810058594,-57.28836441040039,0
1179.4680000000008,-4.218937465338968e-05,-0.0001414658036082983,3.563330028555356e-05,0.0,0.0,0.0,0.0,-0.0004646185552701354,0.0019678983371704817,-0.003402882721275091,0.9993926882743835,0.0,0.0,0.0,0.3157857060432434,1.8309226036071777,4.725886344909668,-57.15784454345703,0
1189.366,-2.3556669475510716e-05,-0.00019766000332310796,6.169386324472725e-05,0.0,0.0,0.0,0.0,0.0013564828550443053,-0.00039587830542586744,0.002215620595961809,0.9993835687637329,0.0,0.0,0.0,0.3154103755950928,1.8327014446258545,4.7108073234558105,-57.089908599853516,0
1199.291000000001,1.298523238801863e-05,-8.550621714675799e-05,-6.255311745917425e-05,0.0,0.0,0.0,0.0,0.0004657671379391104,-0.007426196243613958,0.0001607044687261805,1.0007450580596924,0.0,0.0,0.0,0.31485748291015625,1.8263300657272339,4.704237937927246,-56.98983383178711,0
1209.1970000000001,2.7082476663053967e-05,-0.0001232670183526352,-3.3547003113199025e-05,0.0,0.0,0.0,0.0,-0.004113274626433849,0.0019497752655297518,0.0003147778916172683,0.9994351863861084,0.0,0.0,0.0,0.3143688440322876,1.8266865015029907,4.707052230834961,-56.90138626098633,0
1219.1110000000008,-5.285714905767236e-06,-5.0869042752310634e-05,-7.547574932686985e-05,0.0,0.0,0.0,0.0,0.0009287095163017511,-0.0037253755144774914,-0.0016505932435393333,1.0020661354064941,0.0,0.0,0.0,0.31484243273735046,1.827401041984558,4.704543590545654,-56.98710250854492,0
1229.0160000000014,1.1032502698071767e-06,-6.147439853521064e-05,-3.573763751774095e-05,0.0,0.0,0.0,0.0,0.00300409784540534,-0.001163069042377174,-0.0012207250110805035,1.0018131732940674,0.0,0.0,0.0,0.31432071328163147,1.8304661512374878,4.680277347564697,-56.892677307128906,0
1238.9390000000003,-5.672785118804313e-05,-8.536534733138978e-05,-8.25125171104446e-05,0.0,0.0,0.0,0.0,0.0015169356483966112,0.003916578833013773,0.0021229651756584644,1.0006331205368042,0.0,0.0,0.0,0.31430697441101074,1.8277291059494019,4.6838788986206055,-56.89018630981445,0
1248.8340000000007,-1.4753305549675133e-05,-0.00011086509766755626,-3.47200948453974e-05,0.0,0.0,0.0,0.0,-0.004341327119618654,-0.0022087134420871735,0.0014007121790200472,0.9992006421089172,0.0,0.0,0.0,0.3131823241710663,1.8210572004318237,4.671215534210205,-56.686622619628906,0
1258.759,-7.554668991360813e-05,-7.92837017797865e-05,-5.184153269510716e-05,0.0,0.0,0.0,0.0,0.00047426889068447053,-0.003011689754202962,0.005677573382854462,1.0002186298370361,0.0,0.0,0.0,0.31420227885246277,1.826901912689209,4.653599262237549,-56.871238708496094,0
1268.6580000000013,-7.671271305298433e-05,-9.022591984830797e-05,-1.1961619748035446e-05,0.0,0.0,0.0,0.0,0.0024064036551862955,-0.0014149779453873634,-0.0022568872664123774,0.99801105260849,0.0,0.0,0.0,0.3228909969329834,1.8371942043304443,4.6729326248168945,-58.44391632080078,0
1278.5830000000005,-0.00014350219862535596,-5.98083388467785e-05,-2.0988787582609802e-05,0.0,0.0,0.0,0.0,0.0027355626225471497,-0.0011927656596526504,0.0022689970210194588,0.9994967579841614,0.0,0.0,0.0,0.3234911859035492,1.8325656652450562,4.674133777618408,-58.55255126953125,0
1288.4810000000016,-8.786407124716789e-05,-0.00013799936277791858,8.256975888798479e-06,0.0,0.0,0.0,0.0,-0.000611764844506979,-0.0011060073738917708,0.00015100653399713337,1.0005581378936768,0.0,0.0,0.0,0.32408902049064636,1.8290003538131714,4.67129373550415,-58.66075897216797,0
1298.398000000001,-0.00013342300371732563,-0.0001272224762942642,-3.9220103644765913e-05,0.0,0.0,0.0,0.0,-0.0004548586730379611,-0.001798273646272719,0.0013650794280692935,1.002287745475769,0.0,0.0,0.0,0.3247525095939636,1.819770097732544,4.662707328796387,-58.780853271484375,0
1308.3029999999999,-0.00010300486610503867,-0.0002080517151625827,-2.1997168005327694e-05,0.0,0.0,0.0,0.0,0.00066763797076419,-0.0007205562433227897,0.0002678339078556746,0.9989341497421265,0.0,0.0,0.0,0.3298887610435486,1.8151719570159912,4.675324440002441,-59.71051788330078,0
1318.228000000001,-0.00015556573634967208,-0.00014374493912328035,-3.186362664564513e-05,0.0,0.0,0.0,0.0,-0.001854034373536706,0.00011804990208474919,-0.0011076272930949926,1.0019726753234863,0.0,0.0,0.0,0.33045271039009094,1.8090097904205322,4.667159080505371,-59.81259536743164,0
1328.130000000001,-7.329897925956175e-05,-0.0002144129539374262,1.7345151718473062e-05,0.0,0.0,0.0,0.0,-0.0005991215002723038,-0.006025702692568302,-0.00017890021263156086,1.0038496255874634,0.0,0.0,0.0,0.32371771335601807,1.8112616539001465,4.695642948150635,-58.59355545043945,0
1338.0480000000007,-0.00010361966997152194,-0.00014610357175115496,-1.244800296262838e-05,0.0,0.0,0.0,0.0,0.0017934850184246898,0.0037652335595339537,0.002780486363917589,1.002564787864685,0.0,0.0,0.0,0.3232460618019104,1.8132743835449219,4.69943380355835,-58.508174896240234,0
1347.9480000000003,-2.1315847334335558e-05,-0.00019771546067204326,5.137423795531504e-05,0.0,0.0,0.0,0.0,0.0006766797741875052,-0.004252219572663307,0.0007644112920388579,1.0006543397903442,0.0,0.0,0.0,0.32408860325813293,1.8100720643997192,4.695676803588867,-58.660682678222656,0
1357.871000000001,-5.686805161531083e-05,-0.00017682864563539624,1.4815374925092328e-05,0.0,0.0,0.0,0.0,0.0002680536126717925,-0.0010283974697813392,0.003037255024537444,0.9986366629600525,0.0,0.0,0.0,0.32452815771102905,1.8101783990859985,4.678791522979736,-58.74024200439453,0
1367.7710000000006,-7.199612446129322e-05,-0.0002355277247261256,4.072593219461851e-05,0.0,0.0,0.0,0.0,-0.001769749796949327,0.003049347084015608,0.001126966904848814,1.0005848407745361,0.0,0.0,0.0,0.3263380825519562,1.803769588470459,4.687835216522217,-59.067840576171875,0
1377.6890000000003,-8.645733032608405e-05,-0.00016106262046378106,-7.166737759689568e-06,0.0,0.0,0.0,0.0,0.0018368655582889915,-0.0007910223212093115,0.0030912181828171015,1.0004491806030273,0.0,0.0,0.0,0.3257465958595276,1.7997652292251587,4.679851531982422,-58.96078109741211,0
1387.594000000001,-0.00011458774679340422,-0.00030265195528045297,3.8343408959917724e-05,0.0,0.0,0.0,0.0,0.0017779301851987839,0.0009546683868393302,-3.553232818376273e-05,0.9985012412071228,0.0,0.0,0.0,0.32661035656929016,1.7979273796081543,4.670558929443359,-59.11712646484375,0
1397.5160000000014,-1.894967681437265e-05,-0.00016164244152605534,-3.6179037124384195e-05,0.0,0.0,0.0,0.0,0.0016046686796471477,0.0006189003470353782,-3.640255454229191e-05,1.000221610069275,0.0,0.0,0.0,0.32661035656929016,1.7979273796081543,4.670558929443359,-59.11712646484375,0
1407.4180000000015,-0.00016646749281790107,-0.00026824267115443945,-2.0359340851427987e-05,0.0,0.0,0.0,0.0,0.0008601299487054348,-0.0051619489677250385,0.00012947930372320116,1.000691533088684,0.0,0.0,0.0,0.32742178440093994,1.7966570854187012,4.653102874755859,-59.263999938964844,0
1417.3410000000003,-0.00010931104043265805,-0.00014499192184302956,-4.7479727072641253e-05,0.0,0.0,0.0,0.0,-0.0045393784530460835,0.0022711234632879496,0.0007037724135443568,1.0004358291625977,0.0,0.0,0.0,0.32742178440093994,1.7966570854187012,4.653102874755859,-59.263999938964844,0
1427.2400000000016,-5.031621549278498e-05,-0.0001717200066195801,2.9580727641587146e-05,0.0,0.0,0.0,0.0,0.002030525589361787,-0.002487582853063941,-0.0003360601549502462,0.9993380308151245,0.0,0.0,0.0,0.3273678421974182,1.7896535396575928,4.655709266662598,-59.25423049926758,0
1437.1640000000007,-0.00013698400289285928,-0.00018025189638137817,4.6247700083767995e-05,0.0,0.0,0.0,0.0,-0.003866249695420265,-0.006378019694238901,0.0038883432280272245,0.9982715845108032,0.0,0.0,0.0,0.326918363571167,1.7845101356506348,4.6435136795043945,-59.17287063598633,0
1447.0700000000015,-0.00010472894791746512,-0.0002157450362574309,0.00011087705934187397,0.0,0.0,0.0,0.0,0.0012078260770067573,0.0033733868040144444,0.0005538071854971349,0.9996967315673828,0.0,0.0,0.0,0.3269805908203125,1.777571439743042,4.651037693023682,-59.18413162231445,0
1456.9890000000014,-0.00012003059237031266,-0.00012117352162022144,7.252607611007988e-05,0.0,0.0,0.0,0.0,9.573582792654634e-05,-0.0030563732143491507,0.002620403189212084,1.0001473426818848,0.0,0.0,0.0,0.32810643315315247,1.7832441329956055,4.655831336975098,-59.387916564941406,0
1466.8910000000014,-1.4633600585511886e-05,-0.000195209780940786,0.0001371492980979383,0.0,0.0,0.0,0.0,-0.0004834761784877628,-0.0005084489239379764,0.0030420974362641573,1.001574158668518,0.0,0.0,0.0,0.32091259956359863,1.7731322050094604,4.66784143447876,-58.085819244384766,0
1476.8070000000007,-4.009760596090928e-05,-0.00013110676081851125,0.00010322686284780502,0.0,0.0,0.0,0.0,0.00034131930442526937,-0.0018743135733529925,0.0016003820346668363,1.0001658201217651,0.0,0.0,0.0,0.3210145831108093,1.7729145288467407,4.670454978942871,-58.10427474975586,0
1486.7080000000005,-3.35385266225785e-05,-0.00022059331240598112,0.00012516086280811578,0.0,0.0,0.0,0.0,0.0026332568377256393,0.0006190510466694832,8.704685751581565e-05,1.0013571977615356,0.0,0.0,0.0,0.3206072747707367,1.772258996963501,4.66579008102417,-58.030555725097656,0
1496.6310000000012,-7.266955799423158e-05,-0.0001965095434570685,9.017234697239473e-05,0.0,0.0,0.0,0.0,0.002024957910180092,0.007800967898219824,0.0013341247104108334,0.9999204277992249,0.0,0.0,0.0,0.3200858235359192,1.7717952728271484,4.668424606323242,-57.93617248535156,0
1506.5370000000003,-9.731254249345511e-05,-0.00023698192671872675,0.00013180167297832668,0.0,0.0,0.0,0.0,0.0007550213485956192,0.002357918070629239,0.003037587273865938,0.9984201788902283,0.0,0.0,0.0,0.31940343976020813,1.7630795240402222,4.660233020782471,-57.812652587890625,0
1516.451000000001,-0.00012193187285447493,-0.0001439552870579064,0.00010156325151911005,0.0,0.0,0.0,0.0,-0.0029715897981077433,-0.007207412738353014,0.0010422082850709558,0.9999187588691711,0.0,0.0,0.0,0.3198125958442688,1.75458824634552,4.643603801727295,-57.88671875,0
1526.3550000000014,-0.0002202294417656958,-0.0001887596445158124,0.00011089906183769926,0.0,0.0,0.0,0.0,-0.0006227840785868466,0.0021926434710621834,0.0005247198860161006,0.9991878867149353,0.0,0.0,0.0,0.3200004994869232,1.7522168159484863,4.646294593811035,-57.92072677612305,0
1536.277,-0.00024546514032408595,-8.621533925179392e-05,7.023193029453978e-05,0.0,0.0,0.0,0.0,1.0509200365049765e-05,0.006214934401214123,-0.002539710607379675,0.9995649456977844,0.0,0.0,0.0,0.32462358474731445,1.790537714958191,4.668792247772217,-58.75751495361328,0
1546.183000000001,-0.0003466023481450975,-0.00012815346417482942,7.545385597040877e-05,0.0,0.0,0.0,0.0,0.00033501291181892157,-0.004412200301885605,0.002832256956025958,1.0006564855575562,0.0,0.0,0.0,0.3248591125011444,1.7919948101043701,4.660788536071777,-58.80014419555664,0
1556.098,-0.0004523419192992151,-0.00017351307906210423,8.05381205282174e-05,0.0,0.0,0.0,0.0,0.001736067933961749,0.0038571329787373543,-0.0008047129958868027,0.9989274740219116,0.0,0.0,0.0,0.32380127906799316,1.7877247333526611,4.644336700439453,-58.60867691040039,0
1566.0020000000004,-0.0005625777994282544,-0.00022263445134740323,8.572797378292307e-05,0.0,0.0,0.0,0.0,0.0015474854735657573,-0.00015510717639699578,0.0007066840771585703,1.0001726150512695,0.0,0.0,0.0,0.32417869567871094,1.783060073852539,4.633665084838867,-58.6769905090332,0
1575.9220000000005,-0.0005292114801704884,-5.618336217594333e-05,-4.278117060607656e-08,0.0,0.0,0.0,0.0,-0.001655499218031764,4.0351966163143516e-05,0.0004025851667392999,0.9995936751365662,0.0,0.0,0.0,0.3211356997489929,1.8612899780273438,4.700108528137207,-58.126197814941406,0
1585.8240000000005,-0.0006295457715168595,-9.447900811210275e-05,-2.0356369532237295e-06,0.0,0.0,0.0,0.0,-0.0012437719851732254,0.0014370041899383068,-0.0001860586053226143,1.00179123878479,0.0,0.0,0.0,0.32174402475357056,1.8533471822738647,4.702167510986328,-58.23631286621094,0
1595.7480000000014,-0.0005508579197339714,3.812380600720644e-05,-0.0001230349880643189,0.0,0.0,0.0,0.0,0.0012630786513909698,0.001049378071911633,-0.0036202496849000454,1.0027070045471191,0.0,0.0,0.0,0.3200213313102722,1.929639220237732,4.786140441894531,-57.924495697021484,0
1605.6460000000006,-0.0006398566183634102,1.0009414836531505e-05,-0.00013247097376734018,0.0,0.0,0.0,0.0,0.00131328240968287,-0.002259122906252742,-0.001857484458014369,1.0018835067749023,0.0,0.0,0.0,0.3205842971801758,1.927049160003662,4.770737171173096,-58.026397705078125,0
1615.5690000000013,-0.0006258828216232359,7.0693735324312e-05,-0.00019589491421356797,0.0,0.0,0.0,0.0,0.004369867965579033,0.0033488376066088676,0.003173346631228924,0.9977818727493286,0.0,0.0,0.0,0.32417190074920654,1.9690043926239014,4.8197431564331055,-58.67575454711914,0
1625.469000000001,-0.000713425746653229,4.69986698590219e-05,-0.00020537615637294948,0.0,0.0,0.0,0.0,-0.002360796555876732,0.0029885561671108007,0.0004099289944861084,0.9984172582626343,0.0,0.0,0.0,0.3243734538555145,1.9606890678405762,4.8067121505737305,-58.71223831176758,0
1635.398000000001,-0.0008047650335356593,2.1676190954167396e-05,-0.00021617920720018446,0.0,0.0,0.0,0.0,-0.0009914657566696405,-3.692119935294613e-05,4.314122270443477e-05,1.0006115436553955,0.0,0.0,0.0,0.3246527314186096,1.95378577709198,4.7990522384643555,-58.76279067993164,0
1645.291000000001,-0.0008995863026939332,-4.864717993768863e-06,-0.00022820685990154743,0.0,0.0,0.0,0.0,0.0009416610118933022,0.004216994158923626,-0.0006036657723598182,0.999633252620697,0.0,0.0,0.0,0.3235904276371002,1.9569761753082275,4.792430877685547,-58.57051467895508,0
1655.214,-0.0009972462430596352,-3.2230578653980047e-05,-0.00024012665380723774,0.0,0.0,0.0,0.0,0.00041573873022571206,0.0011219059815630317,0.00043823488522320986,0.9989957213401794,0.0,0.0,0.0,0.3237207531929016,1.9585822820663452,4.774991512298584,-58.59410095214844,0
1665.1140000000014,-0.0010975052136927843,-6.089599264669232e-05,-0.00025206583086401224,0.0,0.0,0.0,0.0,0.0002359997743042186,0.002962154569104314,-0.0017876626225188375,0.9990097880363464,0.0,0.0,0.0,0.32446762919425964,1.9536895751953125,4.757781028747559,-58.729286193847656,0
1675.0390000000007,-0.0012004460440948606,-9.117079753195867e-05,-0.0002648323425091803,0.0,0.0,0.0,0.0,0.0004986549611203372,0.0011571976356208324,0.0012336760992184281,0.9994332790374756,0.0,0.0,0.0,0.3240359127521515,1.9533368349075317,4.749325275421143,-58.65114212036133,0
1684.942000000001,-0.0013058542972430587,-0.0001231225032825023,-0.0002784956886898726,0.0,0.0,0.0,0.0,-0.0021132014226168394,0.004522363189607859,-0.003913453780114651,0.9995128512382507,0.0,0.0,0.0,0.32547467947006226,1.9542521238327026,4.735282897949219,-58.911563873291016,0
1694.8600000000006,-0.0014145151944831014,-0.00015662008081562817,-0.0002924026339314878,0.0,0.0,0.0,0.0,0.00037504968349821866,0.0036856590304523706,-0.0030469100456684828,1.000680685043335,0.0,0.0,0.0,0.3243556022644043,1.9547830820083618,4.728506088256836,-58.709007263183594,0
1704.7610000000004,-0.001527506741695106,-0.00019116471230518073,-0.00030616484582424164,0.0,0.0,0.0,0.0,-0.0022304176818579435,-0.002620075363665819,-0.0024432765785604715,0.9985407590866089,0.0,0.0,0.0,0.3230605721473694,1.9498324394226074,4.71874475479126,-58.47460174560547,0
1714.6720000000005,-0.0010750314686447382,0.00021705101244151592,-0.0004948825808241963,0.0,0.0,0.0,0.0,-0.0030900242272764444,-0.0015349325258284807,-0.00013846495130565017,1.0007551908493042,0.0,0.0,0.0,0.3290002644062042,2.1043343544006348,4.872735977172852,-59.54970169067383,0
1724.5880000000016,-0.001239584293216467,0.00020831591973546892,-0.000550696044228971,0.0,0.0,0.0,0.0,-0.0011688473168760538,-0.0005978328408673406,-0.003350831102579832,1.0000109672546387,0.0,0.0,0.0,0.3275992274284363,2.0989692211151123,4.870683670043945,-59.296112060546875,0
1734.4940000000006,-0.001239584293216467,0.00020831591973546892,-0.000550696044228971,0.0,0.0,0.0,0.0,0.0018548989901319146,-0.0038441717624664307,-0.002642787992954254,1.0013041496276855,0.0,0.0,0.0,0.3275992274284363,2.0989692211151123,4.870683670043945,-59.296112060546875,0
1744.4170000000013,-0.001414191909134388,0.00019798445282503963,-0.0006047518108971417,0.0,0.0,0.0,0.0,-0.000543565081898123,0.0005268535460345447,0.00034538243198767304,1.000885248184204,0.0,0.0,0.0,0.3260195553302765,2.0998358726501465,4.868267059326172,-59.01018524169922,0
1754.3270000000011,-0.001414191909134388,0.00019798445282503963,-0.0006047518108971417,0.0,0.0,0.0,0.0,0.0017866857815533876,-0.0016229082830250263,-0.002255406230688095,1.0015023946762085,0.0,0.0,0.0,0.3260195553302765,2.0998358726501465,4.868267059326172,-59.01018524169922,0
1764.246000000001,-0.00022434379206970334,-0.000295499135972932,0.00034590193536132574,0.0,0.0,0.0,0.0,0.004009495954960585,-0.004645338281989098,0.0004827571101486683,0.9994234442710876,0.0,0.0,0.0,0.33217689394950867,2.0215859413146973,5.060141563415527,-60.12467956542969,0
1774.1420000000016,-0.00026488007279112935,-0.0003221832448616624,0.00035775668220594525,0.0,0.0,0.0,0.0,-0.0011323835933580995,0.0032294695265591145,-0.004030202049762011,1.0002838373184204,0.0,0.0,0.0,0.3317206799983978,2.0186848640441895,5.050604820251465,-60.04210662841797,0
1784.063,-0.00011600787547649816,-0.0003743898414541036,0.0004226909950375557,0.0,0.0,0.0,0.0,0.0008665531640872359,0.0014844099059700966,0.00498565100133419,1.0002878904342651,0.0,0.0,0.0,0.32356521487236023,2.009897232055664,5.062227725982666,-58.56594467163086,0
1793.9760000000006,-0.00015889355563558638,-0.0004060603678226471,0.0004374074633233249,0.0,0.0,0.0,0.0,0.004408717155456543,0.004858413245528936,0.0015749138547107577,1.0001791715621948,0.0,0.0,0.0,0.32278233766555786,2.0109784603118896,5.047370433807373,-58.42424392700195,0
1803.8850000000002,-5.628407598123886e-05,-0.0004092647577635944,0.0004970093141309917,0.0,0.0,0.0,0.0,0.0028431853279471397,0.0020221767481416464,-0.000422350422013551,0.9990766644477844,0.0,0.0,0.0,0.3131338357925415,2.005129814147949,5.042290687561035,-56.6778450012207,0
1813.7920000000013,-0.00010274969827150926,-0.0004413007409311831,0.0005150185315869749,0.0,0.0,0.0,0.0,0.0009199978085234761,0.001446613110601902,0.0037801675498485565,0.9966306090354919,0.0,0.0,0.0,0.31341975927352905,1.9981449842453003,5.031031608581543,-56.72959899902344,0
1823.7110000000011,-5.361052171792835e-05,-0.0004982458194717765,0.0005136039108037949,0.0,0.0,0.0,0.0,-0.0020347419194877148,-7.750359509373084e-05,-0.002003162633627653,0.9995299577713013,0.0,0.0,0.0,0.32217937707901,1.9768720865249634,5.027900218963623,-58.31510543823242,0
1833.6090000000004,-0.00010706519242376089,-0.0005375237087719142,0.0005279704346321523,0.0,0.0,0.0,0.0,0.0004112528695259243,0.0016590432496741414,0.003470939351245761,0.9984151124954224,0.0,0.0,0.0,0.32259970903396606,1.9748200178146362,5.024940490722656,-58.39118957519531,0
1843.527,-7.979937072377652e-05,-0.0005697031156159937,0.000549831020180136,0.0,0.0,0.0,0.0,-0.0009666379191912711,0.0026352601125836372,0.0024577882140874863,0.9980720281600952,0.0,0.0,0.0,0.32243824005126953,1.9641551971435547,5.022984981536865,-58.36196517944336,0
1853.437,-0.0001363605697406456,-0.0006124190404079854,0.0005634427652694285,0.0,0.0,0.0,0.0,-0.0014272417174652219,-0.00032538766390644014,0.0024217942263931036,0.9977383017539978,0.0,0.0,0.0,0.32209232449531555,1.966832160949707,5.010342597961426,-58.29935073852539,0
1863.357,-0.0001444430963601917,-0.0006255577318370342,0.0006048624054528773,0.0,0.0,0.0,0.0,0.00028372436645440757,0.002171298721805215,0.0005587490159086883,0.9988799095153809,0.0,0.0,0.0,0.3350256383419037,1.9730322360992432,5.007462501525879,-60.64031219482422,0
1873.2580000000016,-0.0002053483040072024,-0.0006688276189379394,0.0006177816540002823,0.0,0.0,0.0,0.0,0.0011634916299954057,0.0010919758351519704,-0.002137691481038928,1.0001680850982666,0.0,0.0,0.0,0.33495843410491943,1.9750163555145264,4.992368221282959,-60.628143310546875,0
1883.1810000000005,-0.00013349700020626187,-0.0006584779475815594,0.0006731172907166183,0.0,0.0,0.0,0.0,-0.002854130230844021,-0.002997106174007058,0.00085920694982633,0.999724805355072,0.0,0.0,0.0,0.3274451494216919,1.9923866987228394,4.999786376953125,-59.268226623535156,0
1893.0840000000007,-0.00019429017265792936,-0.000700160104315728,0.0006899487925693393,0.0,0.0,0.0,0.0,-0.00046502388431690633,0.0011223104083910584,-0.002094542607665062,0.9999463558197021,0.0,0.0,0.0,0.32773536443710327,1.9996858835220337,4.999141693115234,-59.32075500488281,0
1902.9950000000008,-0.00017433924949727952,-0.0007055533933453262,0.0007392180850729346,0.0,0.0,0.0,0.0,0.002866674680262804,-9.960617171600461e-05,0.002927335212007165,0.9994855523109436,0.0,0.0,0.0,0.3364635109901428,2.006284475326538,4.999812126159668,-60.90056228637695,0
1912.9000000000015,-0.00023643285385333002,-0.0007482389337383211,0.0007597735966555774,0.0,0.0,0.0,0.0,-0.0002862140827346593,-0.0008551605278626084,-0.0013980029616504908,0.9976393580436707,0.0,0.0,0.0,0.33562377095222473,2.006755828857422,4.99744987487793,-60.74856948852539,0
1922.8220000000001,-0.0002139944554073736,-0.0007714899256825447,0.0007996555650606751,0.0,0.0,0.0,0.0,-0.003342400537803769,0.0015631981659680605,-0.00296846404671669,0.9971957206726074,0.0,0.0,0.0,0.3354516327381134,2.0037152767181396,4.989363193511963,-60.71741485595703,0
1932.732,-0.00027707539265975356,-0.000817996624391526,0.0008202188764698803,0.0,0.0,0.0,0.0,0.0022142487578094006,-0.0028871477115899324,-0.0007512384909205139,0.9976166486740112,0.0,0.0,0.0,0.33434441685676575,2.005073308944702,4.994023323059082,-60.51700210571289,0
1942.6490000000013,-0.00017890999151859432,-0.0008040019893087447,0.0008824531687423587,0.0,0.0,0.0,0.0,-0.0007382454932667315,0.005708540789783001,0.0008278409950435162,1.0004000663757324,0.0,0.0,0.0,0.33404338359832764,2.0052995681762695,4.990669250488281,-60.46251678466797,0
1952.545,-0.0002395937335677445,-0.0008495369693264365,0.0009042914025485516,0.0,0.0,0.0,0.0,-0.001569157699123025,0.003977001644670963,-0.0008029857999645174,0.9996373057365417,0.0,0.0,0.0,0.3344117999076843,2.0062994956970215,4.984669208526611,-60.529197692871094,0
1962.469000000001,-0.00031085527734830976,-0.0008208808721974492,0.000976703828200698,0.0,0.0,0.0,0.0,-0.00432979129254818,-0.001390542252920568,0.001871722168289125,0.9989713430404663,0.0,0.0,0.0,0.33412280678749084,2.0097267627716064,4.974268913269043,-60.47689437866211,0
1972.3780000000006,-4.713933594757691e-05,0.0001495577598689124,-0.0006863109883852303,0.0,0.0,0.0,0.0,-0.0006318779196590185,-0.0035730500239878893,-0.00043343938887119293,1.0004907846450806,0.0,0.0,0.0,0.33263781666755676,2.1982719898223877,5.027270317077637,-60.20810317993164,0
1982.2890000000007,-9.898371354211122e-05,0.00017168704653158784,-0.0006924194749444723,0.0,0.0,0.0,0.0,0.0011395139154046774,0.0024472414515912533,0.0009922296740114689,0.9999406933784485,0.0,0.0,0.0,0.3402807116508484,2.205281972885132,5.030076503753662,-61.59148406982422,0
1992.1910000000007,-0.00014671716780867428,0.00024512995150871575,-0.0007391360122710466,0.0,0.0,0.0,0.0,0.0003047326172236353,-0.0027386650908738375,-0.001844758982770145,0.9992951154708862,0.0,0.0,0.0,0.34025028347969055,2.1987972259521484,5.02516508102417,-61.585975646972656,0
2002.1240000000016,-3.438995190663263e-05,0.0002186396304750815,-0.0006921298336237669,0.0,0.0,0.0,0.0,0.002392097841948271,-0.0008158264681696892,-0.005016281269490719,1.001502513885498,0.0,0.0,0.0,0.34059011936187744,2.193647861480713,5.027097225189209,-61.64749526977539,0
2012.0200000000004,9.716604108689353e-05,0.00021431203640531749,-0.0006300235982052982,0.0,0.0,0.0,0.0,-0.0026629099156707525,-0.0013925805687904358,0.0015294116456061602,1.0009853839874268,0.0,0.0,0.0,0.33181700110435486,2.181821346282959,5.0454840660095215,-60.05953598022461,0
2021.934000000001,4.0276761865243316e-05,0.00021474897221196443,-0.0006456527044065297,0.0,0.0,0.0,0.0,-0.0013867623638361692,0.002357427729293704,-0.0002414399932604283,0.9994863271713257,0.0,0.0,0.0,0.33166566491127014,2.179149866104126,5.044034481048584,-60.03214645385742,0
2031.8370000000014,0.00011582215665839612,0.00011175619874848053,-0.0005410332814790308,0.0,0.0,0.0,0.0,-0.0010512365261092782,-0.0007404539501294494,0.0004263886366970837,0.9987820982933044,0.0,0.0,0.0,0.33787307143211365,2.177064895629883,5.068098068237305,-61.15569305419922,0
2041.7610000000004,5.593747482635081e-05,0.00010866064258152619,-0.0005486630834639072,0.0,0.0,0.0,0.0,-0.0004237343673594296,-0.003323799464851618,-0.00013570160081144422,0.9969920516014099,0.0,0.0,0.0,0.3381015956401825,2.1725924015045166,5.062211036682129,-61.19706344604492,0
2051.666000000001,1.1405334589653648e-05,1.1476416148070712e-05,-0.000392610119888559,0.0,0.0,0.0,0.0,-0.0023882591631263494,0.0013592051109299064,-0.003599962219595909,0.9972495436668396,0.0,0.0,0.0,0.3451821208000183,2.171293258666992,5.076753616333008,-62.4786491394043,0
2061.5790000000015,-5.0293689128011465e-05,3.1109802876017056e-06,-0.0003924428310710937,0.0,0.0,0.0,0.0,0.0016472600400447845,0.0004637205565813929,-0.0006795552326366305,0.9998612999916077,0.0,0.0,0.0,0.3446066975593567,2.173983097076416,5.073450565338135,-62.3745002746582,0
2071.4900000000016,9.58370219450444e-06,-8.655388228362426e-05,-0.00031752962968312204,0.0,0.0,0.0,0.0,-0.0018454091623425484,-0.0035132451448589563,-0.0009862266015261412,1.0002402067184448,0.0,0.0,0.0,0.34443753957748413,2.1710562705993652,5.069284915924072,-62.34387969970703,0
2081.4000000000015,-5.515927477972582e-05,-0.0001012841603369452,-0.0003137138264719397,0.0,0.0,0.0,0.0,0.0011502229608595371,0.008116671815514565,0.0006031853845342994,1.000559687614441,0.0,0.0,0.0,0.344432532787323,2.1661300659179688,5.076727390289307,-62.34297561645508,0
2091.3060000000005,4.467271355679259e-05,-5.5184911616379395e-05,-0.000281829183222726,0.0,0.0,0.0,0.0,0.0003987898526247591,-0.0011969314655289054,-0.0012779934331774712,1.0007129907608032,0.0,0.0,0.0,0.3452524244785309,2.169116258621216,5.062004566192627,-62.49137496948242,0
2101.228000000001,-2.0961677364539355e-05,-7.00833261362277e-05,-0.00027379460516385734,0.0,0.0,0.0,0.0,-0.0008167930645868182,0.002926217159256339,0.0015128545928746462,0.9996161460876465,0.0,0.0,0.0,0.34384629130363464,2.1637210845947266,5.046530246734619,-62.23686218261719,0
2111.130000000001,-2.7847359888255596e-05,-6.754698551958427e-05,-0.00020177141414023936,0.0,0.0,0.0,0.0,0.000808153476100415,-0.005077974405139685,0.00012120867177145556,0.9988894462585449,0.0,0.0,0.0,0.34325119853019714,2.1627745628356934,5.034027576446533,-62.129150390625,0
