timestamp,stateEstimate.x,stateEstimate.y,stateEstimate.z,controller.cmd_thrust,controller.cmd_roll,controller.cmd_pitch,controller.cmd_yaw,controller.r_roll,controller.r_pitch,controller.r_yaw,controller.accelz,controller.actuatorThrust,controller.roll,controller.pitch,controller.yaw,controller.rollRate,controller.pitchRate,controller.yawRate,controller.ctr_yaw
0.0,0.002280002925544977,-0.0196662787348032,0.00033958550193347037,0.0,0.0,0.0,0.0,0.0019795976113528013,-0.00041933904867619276,0.002043819520622492,1.0017426013946533,0.0,0.0,0.0,3.5329411029815674,1.7428208589553833,4.901888847351074,-639.4693603515625,0
9.909999999999854,0.0023086811415851116,-0.019635695964097977,0.000390105094993487,0.0,0.0,0.0,0.0,-0.0029080251697450876,0.0013034845469519496,0.003990910016000271,1.0004552602767944,0.0,0.0,0.0,3.5362019538879395,1.7423315048217773,4.90473747253418,-640.0596313476562,0
19.826999999999316,0.0022562507074326277,-0.019662419334053993,0.00039732165168970823,0.0,0.0,0.0,0.0,0.0006678682402707636,0.003943108953535557,-0.0005606841295957565,0.9990866780281067,0.0,0.0,0.0,3.543327569961548,1.7410109043121338,4.896377086639404,-641.3493041992188,0
29.74199999999837,0.002287187147885561,-0.019688135012984276,0.00041812993003986776,0.0,0.0,0.0,0.0,0.002293770434334874,0.004049757961183786,-0.00014120206469669938,0.9996639490127563,0.0,0.0,0.0,3.5394349098205566,1.7414307594299316,4.883516788482666,-640.644775390625,0
39.649999999999636,0.0022849657107144594,-0.019690513610839844,0.00037322327261790633,0.0,0.0,0.0,0.0,0.00033500618883408606,0.0003348145983181894,0.003159929998219013,1.0016906261444092,0.0,0.0,0.0,3.5364649295806885,1.7318557500839233,4.86564302444458,-640.1072387695312,0
49.568999999999505,0.0023056701757013798,-0.01966015249490738,0.00042540437425486743,0.0,0.0,0.0,0.0,0.0018796611111611128,0.0011470065219327807,0.0014186832122504711,0.9979621171951294,0.0,0.0,0.0,3.5339183807373047,1.7276437282562256,4.861546993255615,-639.646240234375,0
59.466999999998734,0.0023060045205056667,-0.019648248329758644,0.0003839890123344958,0.0,0.0,0.0,0.0,-3.194581495336024e-06,0.001468396163545549,-0.0023696378339082003,1.0000156164169312,0.0,0.0,0.0,3.530364751815796,1.721553921699524,4.850258827209473,-639.0030517578125,0
69.38899999999921,0.0023085277061909437,-0.01962391287088394,0.0004224671865813434,0.0,0.0,0.0,0.0,0.0009179387125186622,0.0018560739699751139,-0.001545125269331038,0.9999236464500427,0.0,0.0,0.0,3.526094675064087,1.7194002866744995,4.840912342071533,-638.2301635742188,0
79.29299999999967,0.0022970561403781176,-0.019648946821689606,0.0003826075990218669,0.0,0.0,0.0,0.0,-0.0013234491925686598,0.001817191718146205,0.002465374767780304,1.0009292364120483,0.0,0.0,0.0,3.5296952724456787,1.7108209133148193,4.838726997375488,-638.8818969726562,0
89.20999999999913,0.002315665129572153,-0.019624439999461174,0.00042638793820515275,0.0,0.0,0.0,0.0,0.0006850856589153409,0.002749099163338542,-0.006139880511909723,1.0017024278640747,0.0,0.0,0.0,3.5356011390686035,1.7146390676498413,4.836008548736572,-639.9508666992188,0
99.1299999999992,0.002308761468157172,-0.01966332457959652,0.0003749640309251845,0.0,0.0,0.0,0.0,-0.0013695349916815758,-0.0018391557969152927,0.002864846959710121,0.9997934103012085,0.0,0.0,0.0,3.5299434661865234,1.7093769311904907,4.820329666137695,-638.9268188476562,0
109.03899999999885,0.0022478094324469566,-0.019636139273643494,0.00038961030077189207,0.0,0.0,0.0,0.0,-0.0029907552525401115,-0.0027079342398792505,-0.0024061608128249645,1.0012297630310059,0.0,0.0,0.0,3.5275497436523438,1.7110472917556763,4.821722984313965,-638.4935302734375,0
118.95599999999831,0.0022961152717471123,-0.019588172435760498,0.0002965135790873319,0.0,0.0,0.0,0.0,-0.0003033905813936144,-7.349350926233456e-05,-0.000593623029999435,1.0013846158981323,0.0,0.0,0.0,3.52421236038208,1.7140402793884277,4.822121620178223,-637.889404296875,0
128.86299999999937,0.0022661169059574604,-0.01957305148243904,0.00031069619581103325,0.0,0.0,0.0,0.0,0.002066672081127763,-0.0021075252443552017,-0.003431713907048106,0.9993293285369873,0.0,0.0,0.0,3.5217292308807373,1.7121477127075195,4.8203020095825195,-637.43994140625,0
138.78099999999904,0.0022334964014589787,-0.019612496718764305,0.0002767144760582596,0.0,0.0,0.0,0.0,-0.0001275053946301341,-0.007231595925986767,-0.0013764069881290197,1.0007834434509277,0.0,0.0,0.0,3.51782488822937,1.7082667350769043,4.822202205657959,-636.7332763671875,0
148.6989999999987,0.0022495053708553314,-0.01959826610982418,0.0003124526410829276,0.0,0.0,0.0,0.0,-0.0007318621501326561,-0.006672828458249569,0.0005910346517339349,0.9998886585235596,0.0,0.0,0.0,3.5136260986328125,1.7112575769424438,4.834559440612793,-635.9733276367188,0
158.60599999999977,0.0022325869649648666,-0.019606851041316986,0.0002767266414593905,0.0,0.0,0.0,0.0,0.0006534407148137689,0.006986544001847506,-0.002936923410743475,1.0001426935195923,0.0,0.0,0.0,3.520447254180908,1.7124038934707642,4.851849555969238,-637.2079467773438,0
168.52199999999903,0.0023127926979213953,-0.019632413983345032,0.00031424028566107154,0.0,0.0,0.0,0.0,-0.002040232764557004,0.0008588882628828287,-0.00024731282610446215,0.9993517398834229,0.0,0.0,0.0,3.51690411567688,1.7087316513061523,4.833372592926025,-636.566650390625,0
178.41799999999967,0.0022954021114856005,-0.01963423378765583,0.00028357436531223357,0.0,0.0,0.0,0.0,0.0027894729282706976,0.006513957399874926,0.0007446872186847031,0.9990574717521667,0.0,0.0,0.0,3.5131218433380127,1.709828495979309,4.818216800689697,-635.8820190429688,0
188.35099999999875,0.0023109647445380688,-0.01964491792023182,0.00030211193370632827,0.0,0.0,0.0,0.0,-0.00019014996360056102,-0.0015278470236808062,-0.001157717895694077,0.9990677237510681,0.0,0.0,0.0,3.5105719566345215,1.702223539352417,4.792866230010986,-635.4204711914062,0
198.25099999999838,0.002285220194607973,-0.019662607461214066,0.00027548547950573266,0.0,0.0,0.0,0.0,0.00376010756008327,0.004557123873382807,0.00022944493684917688,0.9989955425262451,0.0,0.0,0.0,3.5121231079101562,1.69935142993927,4.793245315551758,-635.7012939453125,0
208.16599999999926,0.002333475975319743,-0.019654259085655212,0.0003240233054384589,0.0,0.0,0.0,0.0,0.0007161329267546535,0.0016597009962424636,-0.0010177474468946457,0.9986437559127808,0.0,0.0,0.0,3.508432149887085,1.6896789073944092,4.775259017944336,-635.033203125,0
218.0729999999985,0.002306478563696146,-0.019691739231348038,0.00029185181483626366,0.0,0.0,0.0,0.0,-0.0028327356558293104,0.00207552220672369,0.0027616466395556927,0.9985923767089844,0.0,0.0,0.0,3.504809617996216,1.6857322454452515,4.771071910858154,-634.3775634765625,0
227.99399999999878,0.002348989248275757,-0.01968804933130741,0.00033071907819248736,0.0,0.0,0.0,0.0,-6.480121373897418e-05,-0.0013124505057930946,0.004803097806870937,0.9986616969108582,0.0,0.0,0.0,3.5102431774139404,1.6889700889587402,4.773263931274414,-635.3609619140625,0
356.85899999999856,0.002306325826793909,-0.019679058343172073,0.0002854357589967549,0.0,0.0,0.0,0.0,0.0012806071899831295,-0.00162041827570647,0.0035208226181566715,0.9999696612358093,0.0,0.0,0.0,3.4920969009399414,1.6908704042434692,4.731074810028076,-632.076416015625,0
366.77399999999943,0.00221453420817852,-0.019626561552286148,0.0003040573210455477,0.0,0.0,0.0,0.0,-0.0012138144811615348,-0.0016377037391066551,0.0038070513401180506,1.0013242959976196,0.0,0.0,0.0,3.4891932010650635,1.6890686750411987,4.734097003936768,-631.5509033203125,0
376.6879999999983,0.0022155395708978176,-0.01960991695523262,0.00024437668616883457,0.0,0.0,0.0,0.0,-0.0012086862698197365,-7.896290480857715e-05,0.00250361324287951,0.9991644620895386,0.0,0.0,0.0,3.486035108566284,1.688056230545044,4.740283012390137,-630.979248046875,0
386.60699999999997,0.002185397082939744,-0.019570227712392807,0.0002756696194410324,0.0,0.0,0.0,0.0,-6.987245910750062e-07,0.00026146176969632506,-7.127301796572283e-05,0.999702513217926,0.0,0.0,0.0,3.4831154346466064,1.6854475736618042,4.7418928146362305,-630.4508056640625,0
396.521999999999,0.002112516202032566,-0.01964830979704857,0.0002718957548495382,0.0,0.0,0.0,0.0,-0.00010048582043964416,-9.562328341417015e-05,-0.0020005623809993267,1.0012909173965454,0.0,0.0,0.0,3.489152431488037,1.667921543121338,4.739852428436279,-631.5435180664062,0
406.4339999999993,0.0022151817101985216,-0.01965916156768799,0.00032434434979222715,0.0,0.0,0.0,0.0,0.0014773302245885134,-0.0025297519750893116,-0.00030359000083990395,0.9989902377128601,0.0,0.0,0.0,3.491884469985962,1.6640501022338867,4.755378723144531,-632.0379638671875,0
416.34799999999996,0.0023325798101723194,-0.019645994529128075,0.000341325270710513,0.0,0.0,0.0,0.0,-0.0016578113427385688,-0.005929107312113047,0.0016002892516553402,1.0005491971969604,0.0,0.0,0.0,3.495182514190674,1.6655809879302979,4.7728962898254395,-632.635009765625,0
426.2579999999998,0.0022866404615342617,-0.019659992307424545,0.000342900661053136,0.0,0.0,0.0,0.0,-0.0008271588594652712,-0.002051687566563487,0.0030596714932471514,1.0011194944381714,0.0,0.0,0.0,3.491781234741211,1.6719931364059448,4.779414653778076,-632.019287109375,0
436.16399999999885,0.0022798979189246893,-0.019624721258878708,0.000330750277498737,0.0,0.0,0.0,0.0,-0.0011359109776094556,-0.002048743423074484,-0.003936124034225941,1.0009326934814453,0.0,0.0,0.0,3.4965507984161377,1.6749145984649658,4.788742542266846,-632.8826904296875,0
446.0769999999993,0.0022295524831861258,-0.019635457545518875,0.00033369308221153915,0.0,0.0,0.0,0.0,0.005103189963847399,0.00022978297783993185,-0.00035625474993139505,1.0011321306228638,0.0,0.0,0.0,3.4925010204315186,1.6765773296356201,4.789143085479736,-632.149658203125,0
455.9939999999988,0.00233278376981616,-0.019624600186944008,0.00035082377144135535,0.0,0.0,0.0,0.0,-0.0009654043824411929,0.00010593211482046172,0.002654915675520897,0.9997432231903076,0.0,0.0,0.0,3.496617078781128,1.6769593954086304,4.804598331451416,-632.8946533203125,0
465.90899999999965,0.002282847184687853,-0.01963503658771515,0.0003572769637685269,0.0,0.0,0.0,0.0,0.002937560435384512,-0.0022283545695245266,-0.0003177654289174825,1.0007163286209106,0.0,0.0,0.0,3.4936938285827637,1.6823424100875854,4.803196907043457,-632.365478515625,0
475.8309999999983,0.0024069277569651604,-0.019669359549880028,0.000360468722647056,0.0,0.0,0.0,0.0,-0.003053786000236869,-5.995476749376394e-05,-5.361227522371337e-06,1.0013266801834106,0.0,0.0,0.0,3.500674247741699,1.6789727210998535,4.805059909820557,-633.6290283203125,0
485.7379999999994,0.0023604773450642824,-0.01968182995915413,0.0003678056818898767,0.0,0.0,0.0,0.0,-0.0021995333954691887,0.0006039104191586375,0.004648542497307062,1.0000003576278687,0.0,0.0,0.0,3.4970459938049316,1.6893750429153442,4.802863597869873,-632.9723510742188,0
495.64999999999964,0.002443540608510375,-0.019698256626725197,0.0003794872900471091,0.0,0.0,0.0,0.0,0.0012081821914762259,-0.0010342011228203773,-0.0045861853286623955,0.9996240139007568,0.0,0.0,0.0,3.5088748931884766,1.6849150657653809,4.812557697296143,-635.1133422851562,0
505.5569999999989,0.0023986741434782743,-0.0197124145925045,0.00038780528120696545,0.0,0.0,0.0,0.0,-0.001543206162750721,-0.0018911330262199044,-0.0026468003634363413,0.9989181756973267,0.0,0.0,0.0,3.5045530796051025,1.6771260499954224,4.810308456420898,-634.3311157226562,0
515.4839999999986,0.0024070688523352146,-0.019691288471221924,0.00039795844350010157,0.0,0.0,0.0,0.0,-0.00010687138274079189,-0.0005057164817117155,0.000691448338329792,0.998329222202301,0.0,0.0,0.0,3.5106430053710938,1.6774767637252808,4.816543102264404,-635.433349609375,0
525.3889999999992,0.002359492238610983,-0.01970674842596054,0.0004049241542816162,0.0,0.0,0.0,0.0,-0.000533121929038316,0.0018001666758209467,7.085116521921009e-05,1.0011454820632935,0.0,0.0,0.0,3.5073082447052,1.681252121925354,4.8176493644714355,-634.8297729492188,0
535.2959999999985,0.002324538305401802,-0.019682494923472404,0.0003836388932541013,0.0,0.0,0.0,0.0,0.0016348048811778426,-0.001543246558867395,0.0004424029611982405,1.0013431310653687,0.0,0.0,0.0,3.5119986534118652,1.6753287315368652,4.8129353523254395,-635.6787719726562,0
545.2189999999991,0.0023200567811727524,-0.019681723788380623,0.0003362458955962211,0.0,0.0,0.0,0.0,0.002154280198737979,-0.0016526083927601576,-0.002276118379086256,0.9989094138145447,0.0,0.0,0.0,3.508828639984131,1.667253017425537,4.808213710784912,-635.10498046875,0
555.1219999999994,0.00228163436986506,-0.01965196616947651,0.00036713617737405,0.0,0.0,0.0,0.0,0.0007449734257534146,0.0001314971741521731,-0.0014931701589375734,0.9990088939666748,0.0,0.0,0.0,3.504657506942749,1.6619997024536133,4.8042426109313965,-634.3499755859375,0
565.0459999999985,0.0022941166535019875,-0.01960131525993347,0.00031572164152748883,0.0,0.0,0.0,0.0,0.00011032348265871406,-0.004909989889711142,0.002198668895289302,0.9999577403068542,0.0,0.0,0.0,3.5073118209838867,1.6761385202407837,4.815855503082275,-634.8304443359375,0
574.9489999999987,0.0023517387453466654,-0.01959051378071308,0.00036437949165701866,0.0,0.0,0.0,0.0,0.0032497653737664223,0.0032602285500615835,-0.0002716924645937979,0.9994891285896301,0.0,0.0,0.0,3.5116188526153564,1.6810182332992554,4.833306312561035,-635.6099853515625,0
584.8739999999998,0.0023410404101014137,-0.019593968987464905,0.00032635260140523314,0.0,0.0,0.0,0.0,-0.002637910656630993,-0.0008563291630707681,-0.0017952063353732228,1.0006768703460693,0.0,0.0,0.0,3.507603168487549,1.6741055250167847,4.820415496826172,-634.8831176757812,0
594.780999999999,0.002404250204563141,-0.019604377448558807,0.00036390579771250486,0.0,0.0,0.0,0.0,-0.004211344290524721,0.0020037221256643534,0.0014196772826835513,0.9980575442314148,0.0,0.0,0.0,3.5044243335723877,1.6754475831985474,4.827584266662598,-634.3078002929688,0
604.7039999999997,0.0023796663153916597,-0.01962149329483509,0.0003425883478485048,0.0,0.0,0.0,0.0,-0.0016586252022534609,-0.0006241756491363049,0.0021015480160713196,0.9993026256561279,0.0,0.0,0.0,3.5003767013549805,1.6741828918457031,4.818382263183594,-633.5751342773438,0
614.6139999999996,0.002376582706347108,-0.01959845796227455,0.0003779151593334973,0.0,0.0,0.0,0.0,-0.0013654204085469246,-0.00548678869381547,-0.0004270937934052199,1.001137137413025,0.0,0.0,0.0,3.5054776668548584,1.6792250871658325,4.82275390625,-634.4984130859375,0
624.521999999999,0.002311097923666239,-0.019642697647213936,0.000393544789403677,0.0,0.0,0.0,0.0,-0.0005037658265791833,0.0032054446637630463,0.004488808568567038,1.0003926753997803,0.0,0.0,0.0,3.508532762527466,1.673952579498291,4.82605504989624,-635.0514526367188,0
634.4279999999999,0.00233336235396564,-0.019665254279971123,0.0004134341434109956,0.0,0.0,0.0,0.0,-0.0006780943949706852,-0.0005634385743178427,-0.0004971536691300571,1.0011707544326782,0.0,0.0,0.0,3.505847215652466,1.677193284034729,4.805438041687012,-634.5653686523438,0
644.3409999999985,0.0023281951434910297,-0.019669029861688614,0.00037139770574867725,0.0,0.0,0.0,0.0,-0.0016375902341678739,-0.0028951973654329777,0.0019981719087809324,1.0006582736968994,0.0,0.0,0.0,3.511399269104004,1.6807994842529297,4.8043036460876465,-635.5703125,0
654.253999999999,0.002292083576321602,-0.01967126503586769,0.000384084734832868,0.0,0.0,0.0,0.0,-0.001637812121771276,-0.0016735641984269023,0.002727373270317912,1.0014382600784302,0.0,0.0,0.0,3.508227586746216,1.6829338073730469,4.798696041107178,-634.9962158203125,0
664.1779999999999,0.0022857992444187403,-0.01967061311006546,0.0003418690466787666,0.0,0.0,0.0,0.0,0.0014595604734495282,1.3413397027761675e-05,-0.0012285256525501609,1.000767469406128,0.0,0.0,0.0,3.516026496887207,1.6854068040847778,4.799985408782959,-636.4077758789062,0
674.0809999999983,0.0022736480459570885,-0.019658634439110756,0.00036959207500331104,0.0,0.0,0.0,0.0,0.00031295447843149304,-0.00401947321370244,0.006057462655007839,1.001883625984192,0.0,0.0,0.0,3.5115997791290283,1.6881582736968994,4.793254375457764,-635.6065063476562,0
683.994999999999,0.0022709856275469065,-0.019653938710689545,0.0003260342055000365,0.0,0.0,0.0,0.0,-0.0019163613906130195,0.0005718730972148478,0.0031961447093635798,0.9998124837875366,0.0,0.0,0.0,3.5167198181152344,1.696022868156433,4.801220417022705,-636.5333251953125,0
693.9069999999992,0.0023334540892392397,-0.019631080329418182,0.0003876916889566928,0.0,0.0,0.0,0.0,0.0013160448288545012,0.0005086907185614109,-0.0015565354842692614,0.9996011853218079,0.0,0.0,0.0,3.519312620162964,1.7021331787109375,4.805466651916504,-637.0026245117188,0
703.8209999999999,0.0023166928440332413,-0.019639024510979652,0.0003595459565985948,0.0,0.0,0.0,0.0,0.0004208158643450588,-0.0009284429834224284,0.0035576471127569675,0.9980311393737793,0.0,0.0,0.0,3.524339437484741,1.6983342170715332,4.800851345062256,-637.9124755859375,0
713.741,0.002381999511271715,-0.019650928676128387,0.0003996177401859313,0.0,0.0,0.0,0.0,0.0012062836904078722,0.0003761125262826681,-0.0008019835222512484,0.9994621276855469,0.0,0.0,0.0,3.521517276763916,1.6967628002166748,4.792893886566162,-637.401611328125,0
723.646999999999,0.0023678955622017384,-0.019657356664538383,0.00037091688136570156,0.0,0.0,0.0,0.0,-0.0016585373086854815,-0.003789197886362672,4.1208495531463996e-05,0.9997251629829407,0.0,0.0,0.0,3.5246920585632324,1.6890910863876343,4.789514064788818,-637.9761962890625,0
733.5649999999987,0.002400984987616539,-0.019639693200588226,0.0004202595155220479,0.0,0.0,0.0,0.0,0.00013489194680005312,0.0054000248201191425,0.003373806830495596,1.000797152519226,0.0,0.0,0.0,3.5199267864227295,1.690548062324524,4.789099216461182,-637.1137084960938,0
743.4809999999998,0.0023955954238772392,-0.01960686594247818,0.00039726498653180897,0.0,0.0,0.0,0.0,0.003945644479244947,0.003299613017588854,-8.249694656115025e-05,1.0023146867752075,0.0,0.0,0.0,3.526404619216919,1.6992747783660889,4.78181791305542,-638.2863159179688,0
753.387999999999,0.002363895531743765,-0.01962766796350479,0.0003988364478573203,0.0,0.0,0.0,0.0,-0.00012747575237881392,-0.004174178931862116,-0.002266951836645603,1.0007094144821167,0.0,0.0,0.0,3.522716999053955,1.6918373107910156,4.773337364196777,-637.6187133789062,0
763.3009999999995,0.0023456099443137646,-0.019645383581519127,0.0003686030104290694,0.0,0.0,0.0,0.0,0.0002159201685572043,0.005052075255662203,-0.0010833247797563672,1.000551700592041,0.0,0.0,0.0,3.524979829788208,1.6906297206878662,4.779316425323486,-638.0284423828125,0
773.2159999999985,0.002352215815335512,-0.019665023311972618,0.00038679555291309953,0.0,0.0,0.0,0.0,-0.001825560349971056,-0.004196569789201021,-0.003333435393869877,1.0006366968154907,0.0,0.0,0.0,3.521059989929199,1.6825551986694336,4.765847682952881,-637.31884765625,0
783.128999999999,0.0023449365980923176,-0.019667522981762886,0.00035310827661305666,0.0,0.0,0.0,0.0,0.0013298728736117482,-0.0027505073230713606,0.00026956680812872946,0.9988994002342224,0.0,0.0,0.0,3.516829252243042,1.6863608360290527,4.775424480438232,-636.5530395507812,0
793.0469999999987,0.0023556097876280546,-0.019638393074274063,0.00040157127659767866,0.0,0.0,0.0,0.0,0.0007172013283707201,-0.0006712310714647174,-0.00222026277333498,0.9981778860092163,0.0,0.0,0.0,3.520092725753784,1.694811224937439,4.785130023956299,-637.1437377929688,0
802.9589999999989,0.0023561762645840645,-0.019618235528469086,0.0003660921356640756,0.0,0.0,0.0,0.0,-0.003256533294916153,0.0012284175027161837,0.0010236107045784593,1.000020980834961,0.0,0.0,0.0,3.5273096561431885,1.6989686489105225,4.792261123657227,-638.4501342773438,0
812.8669999999984,0.0023685104679316282,-0.019604869186878204,0.000400276854634285,0.0,0.0,0.0,0.0,-0.0006372830830514431,0.0007632403867319226,-0.0011307252570986748,1.0024124383926392,0.0,0.0,0.0,3.5305182933807373,1.7058610916137695,4.7969489097595215,-639.0308227539062,0
822.7869999999984,0.002348383190110326,-0.019638238474726677,0.0003711503522936255,0.0,0.0,0.0,0.0,0.00216111121699214,0.004591727163642645,0.0007939344504848123,0.9989978671073914,0.0,0.0,0.0,3.53346586227417,1.696929693222046,4.7921013832092285,-639.5643310546875,0
832.6939999999995,0.0023640962317585945,-0.019618898630142212,0.00041463031084276736,0.0,0.0,0.0,0.0,-0.00015715000336058438,-0.0006057462305761874,-0.0027749352157115936,1.0002483129501343,0.0,0.0,0.0,3.536505699157715,1.6985818147659302,4.786709785461426,-640.1146240234375,0
842.6079999999984,0.002348851878196001,-0.019640227779746056,0.0003847037150990218,0.0,0.0,0.0,0.0,0.0007112029124982655,0.001406269846484065,-0.0002900918771047145,1.001145362854004,0.0,0.0,0.0,3.533038854598999,1.6965337991714478,4.775569915771484,-639.487060546875,0
852.530999999999,0.0023224831093102694,-0.019643662497401237,0.0003998273459728807,0.0,0.0,0.0,0.0,0.0028369969222694635,-0.0012795915827155113,-1.948561293829698e-05,0.9993491172790527,0.0,0.0,0.0,3.5354199409484863,1.6961077451705933,4.771824359893799,-639.9180297851562,0
862.4339999999993,0.0023318089079111814,-0.01959957182407379,0.00035967794246971607,0.0,0.0,0.0,0.0,0.0025006055366247892,-0.0024116660933941603,0.00037994206650182605,1.0002284049987793,0.0,0.0,0.0,3.5415568351745605,1.697325587272644,4.778861045837402,-641.02880859375,0
872.3499999999985,0.0023280789609998465,-0.019617101177573204,0.00037029190571047366,0.0,0.0,0.0,0.0,-0.0017400986980646849,0.0013843170600011945,-0.0036358379293233156,1.0010093450546265,0.0,0.0,0.0,3.5462770462036133,1.6879663467407227,4.782962322235107,-641.8831787109375,0
882.2609999999986,0.0023202872835099697,-0.019625267013907433,0.00033047428587451577,0.0,0.0,0.0,0.0,0.0026385413948446512,0.003733397228643298,-0.0037062999326735735,0.9989076852798462,0.0,0.0,0.0,3.5424728393554688,1.6905982494354248,4.773290157318115,-641.194580078125,0
892.1729999999989,0.0023576843086630106,-0.019618086516857147,0.0003725983260665089,0.0,0.0,0.0,0.0,-0.0021464042365550995,0.0023670513182878494,0.00026151625206694007,1.000144124031067,0.0,0.0,0.0,3.538193941116333,1.687139868736267,4.7612080574035645,-640.420166015625,0
902.0859999999993,0.002338138874620199,-0.019646184518933296,0.0003407489857636392,0.0,0.0,0.0,0.0,-0.00045631430111825466,0.0027529308572411537,0.00038385370862670243,1.0013091564178467,0.0,0.0,0.0,3.541712999343872,1.6866918802261353,4.757735252380371,-641.05712890625,0
912.0009999999984,0.0023677735589444637,-0.019627217203378677,0.00038735324051231146,0.0,0.0,0.0,0.0,0.0004457349132280797,-0.002383554819971323,0.0011281364131718874,1.0023068189620972,0.0,0.0,0.0,3.5437867641448975,1.6898908615112305,4.759395122528076,-641.4324340820312,0
921.9129999999986,0.0023494178894907236,-0.019639328122138977,0.0003626997349783778,0.0,0.0,0.0,0.0,0.0014419261133298278,-0.0026830281130969524,-0.00030108963255770504,0.997992217540741,0.0,0.0,0.0,3.540379047393799,1.6845017671585083,4.753725528717041,-640.8156127929688,0
931.8259999999991,0.0023634936660528183,-0.019623931497335434,0.0004046168178319931,0.0,0.0,0.0,0.0,0.0010724408784881234,-0.0004089734284207225,-0.0027066199108958244,1.0017083883285522,0.0,0.0,0.0,3.542318820953369,1.6887589693069458,4.761857986450195,-641.166748046875,0
941.741,0.0023452090099453926,-0.019642505794763565,0.0003773270291276276,0.0,0.0,0.0,0.0,0.0019243252463638783,-0.0009794196812435985,0.0014605438336730003,1.001310110092163,0.0,0.0,0.0,3.5379676818847656,1.6824508905410767,4.752252578735352,-640.379150390625,0
951.6619999999984,0.0023889250587671995,-0.019650960341095924,0.00041853950824588537,0.0,0.0,0.0,0.0,0.0012207763502374291,-0.002195539651438594,0.00041728673386387527,1.0001952648162842,0.0,0.0,0.0,3.5350100994110107,1.6766482591629028,4.749981880187988,-639.8439331054688,0
961.5659999999989,0.00237785535864532,-0.019672969356179237,0.00038662884617224336,0.0,0.0,0.0,0.0,-0.00048582724411971867,-0.0009737947839312255,0.0008986589382402599,0.9991682767868042,0.0,0.0,0.0,3.532650947570801,1.6726932525634766,4.747713565826416,-639.4168701171875,0
971.4829999999984,0.002408247208222747,-0.01967637985944748,0.0004281024157535285,0.0,0.0,0.0,0.0,-0.001700752996839583,-0.004994818475097418,0.0024203923530876637,0.9968065023422241,0.0,0.0,0.0,3.5387752056121826,1.672333836555481,4.751795768737793,-640.525390625,0
981.3999999999996,0.0024159434251487255,-0.019646691158413887,0.00039361295057460666,0.0,0.0,0.0,0.0,-0.0011925884755328298,-0.003985435236245394,0.0006428678752854466,0.9979357719421387,0.0,0.0,0.0,3.542819023132324,1.6798250675201416,4.766623497009277,-641.2572631835938,0
991.3059999999987,0.002416516887024045,-0.019646234810352325,0.00042184136691503227,0.0,0.0,0.0,0.0,-0.000746632635127753,0.0003218298952560872,0.0014970952179282904,0.9977533221244812,0.0,0.0,0.0,3.540257215499878,1.680930495262146,4.7659010887146,-640.7935791015625,0
1001.2189999999991,0.002398400567471981,-0.019664397463202477,0.00039414383354596794,0.0,0.0,0.0,0.0,-0.0009852219372987747,0.0005327921244315803,-0.0003087584627792239,1.0002644062042236,0.0,0.0,0.0,3.544090747833252,1.683034896850586,4.76986837387085,-641.4874267578125,0
1011.1319999999996,0.002408210886642337,-0.01966080442070961,0.0004238823603373021,0.0,0.0,0.0,0.0,0.002224815310910344,-0.0012594404397532344,-0.0029427087865769863,0.9993451833724976,0.0,0.0,0.0,3.5407419204711914,1.685304045677185,4.767339706420898,-640.8812866210938,0
1021.0459999999985,0.002384074265137315,-0.019709814339876175,0.00039162844768725336,0.0,0.0,0.0,0.0,0.0008101662388071418,-0.0024695047177374363,0.0015723655233159661,0.9988834261894226,0.0,0.0,0.0,3.537078619003296,1.6737658977508545,4.76406717300415,-640.21826171875,0
1030.958999999999,0.002437106566503644,-0.019734516739845276,0.0004188228340353817,0.0,0.0,0.0,0.0,0.0024090695660561323,0.0014727759407833219,-0.0030435335356742144,0.9988659620285034,0.0,0.0,0.0,3.5343737602233887,1.672487497329712,4.762230396270752,-639.7286987304688,0
1040.8799999999992,0.0024376497603952885,-0.019697146490216255,0.0003864678437821567,0.0,0.0,0.0,0.0,-0.00016212360060308129,-0.004056564997881651,0.00039641361217945814,0.9993720054626465,0.0,0.0,0.0,3.5413620471954346,1.678954839706421,4.765230178833008,-640.9935302734375,0
1050.7919999999995,0.002428448526188731,-0.01969311386346817,0.00040550754056312144,0.0,0.0,0.0,0.0,-0.0011219768784940243,-0.002850423799827695,0.00024565920466557145,0.9993507266044617,0.0,0.0,0.0,3.5443832874298096,1.6843284368515015,4.772734642028809,-641.5404052734375,0
1060.705,0.002464455319568515,-0.019648782908916473,0.00032202195143327117,0.0,0.0,0.0,0.0,0.0022087639663368464,-0.0003697902720887214,0.002519523724913597,0.9999387264251709,0.0,0.0,0.0,3.541696071624756,1.6862280368804932,4.7779717445373535,-641.0540161132812,0
1070.6119999999992,0.0023960983380675316,-0.019607480615377426,0.0003371517814230174,0.0,0.0,0.0,0.0,0.0011426309356465936,0.0036796233616769314,0.0010145647684112191,0.999261736869812,0.0,0.0,0.0,3.5392186641693115,1.6831657886505127,4.776762008666992,-640.6055908203125,0
1080.5419999999995,0.0023665251210331917,-0.019598456099629402,0.00031495754956267774,0.0,0.0,0.0,0.0,-0.0043031638488173485,4.718222771771252e-05,0.002568801399320364,1.0005276203155518,0.0,0.0,0.0,3.548171281814575,1.6872323751449585,4.764294624328613,-642.2260131835938,0
1090.440999999999,0.002291275653988123,-0.01958557218313217,0.00030959700234234333,0.0,0.0,0.0,0.0,-0.00143543747253716,-0.003176523372530937,0.0031670215539634228,1.0009788274765015,0.0,0.0,0.0,3.5456056594848633,1.6935555934906006,4.756115436553955,-641.7616577148438,0
1100.360999999999,0.002271378878504038,-0.01959907077252865,0.0002679640892893076,0.0,0.0,0.0,0.0,-0.00022932872525416315,-0.004676665645092726,-0.0014672490069642663,0.998860776424408,0.0,0.0,0.0,3.5426151752471924,1.6930010318756104,4.754578113555908,-641.2203979492188,0
1110.2739999999994,0.0022427579388022423,-0.019586345180869102,0.00028036790899932384,0.0,0.0,0.0,0.0,-3.7323472497519106e-05,0.0009664123645052314,7.898775220382959e-05,0.9985219836235046,0.0,0.0,0.0,3.5392675399780273,1.6950187683105469,4.757496356964111,-640.6144409179688,0
1120.1879999999983,0.002205269644036889,-0.019634980708360672,0.00023828708799555898,0.0,0.0,0.0,0.0,-0.00043974490836262703,0.005152060184627771,-7.863373321015388e-05,0.9983865022659302,0.0,0.0,0.0,3.5359857082366943,1.6933239698410034,4.746677398681641,-640.0205078125,0
1130.0919999999987,0.0022141176741570234,-0.019617319107055664,0.0002678356831893325,0.0,0.0,0.0,0.0,0.00031580711947754025,0.002272950718179345,-0.0008237913134507835,0.9999735951423645,0.0,0.0,0.0,3.5327823162078857,1.691932201385498,4.728554725646973,-639.440673828125,0
1140.018,0.0021493504755198956,-0.01964806765317917,0.0002649285888765007,0.0,0.0,0.0,0.0,-0.002510526217520237,-0.00046749060857109725,0.002058512531220913,1.0025962591171265,0.0,0.0,0.0,3.5371930599212646,1.6828747987747192,4.72321081161499,-640.2389526367188,0
1149.9189999999999,0.002161977346986532,-0.019612180069088936,0.0003175449091941118,0.0,0.0,0.0,0.0,-0.0033645350486040115,-0.004527016542851925,4.131671448703855e-05,1.0001300573349,0.0,0.0,0.0,3.534768581390381,1.6865367889404297,4.7219085693359375,-639.8001708984375,0
1159.8399999999983,0.002105210442095995,-0.019626358523964882,0.00031504605431109667,0.0,0.0,0.0,0.0,0.001895578228868544,0.002780411159619689,-0.0012285857228562236,0.9993316531181335,0.0,0.0,0.0,3.539113998413086,1.6878718137741089,4.722233295440674,-640.586669921875,0
1169.744999999999,0.0021579365711659193,-0.01960294507443905,0.0003815903910435736,0.0,0.0,0.0,0.0,0.0013132755411788821,0.00041640442213974893,-0.001521981437690556,0.999730110168457,0.0,0.0,0.0,3.5347654819488525,1.6829010248184204,4.706972599029541,-639.7996215820312,0
1179.673999999999,0.0021213507279753685,-0.019611498340964317,0.00035862461663782597,0.0,0.0,0.0,0.0,-0.004904882051050663,-0.004698725882917643,0.001715897349640727,0.9995715618133545,0.0,0.0,0.0,3.537304162979126,1.6765856742858887,4.703761577606201,-640.2590942382812,0
1189.5719999999983,0.002194501692429185,-0.019627263769507408,0.00040569077827967703,0.0,0.0,0.0,0.0,-0.0016472537536174059,0.002766952384263277,-0.0010730086360126734,0.9972355365753174,0.0,0.0,0.0,3.534632921218872,1.684449553489685,4.7144036293029785,-639.775634765625,0
1199.503999999999,0.002194928703829646,-0.01962735876441002,0.00034310942282900214,0.0,0.0,0.0,0.0,-0.004637277685105801,0.0012478121789172292,0.0020102798007428646,0.9977211952209473,0.0,0.0,0.0,3.536972999572754,1.6874924898147583,4.718038082122803,-640.19921875,0
1209.3979999999992,0.0022739896085113287,-0.01966303028166294,0.00037268808227963746,0.0,0.0,0.0,0.0,-0.0016230099136009812,-0.002492225728929043,0.0026980366092175245,0.9994437098503113,0.0,0.0,0.0,3.533928155899048,1.6911954879760742,4.708981990814209,-639.6480102539062,0
1219.324999999999,0.00220282981172204,-0.019731508567929268,0.0003762616543099284,0.0,0.0,0.0,0.0,0.004429630935192108,0.000486392411403358,-0.0006878657732158899,0.9996578693389893,0.0,0.0,0.0,3.5384087562561035,1.6790003776550293,4.698024749755859,-640.4590454101562,0
1229.2259999999987,0.0022657462395727634,-0.01975572481751442,0.0004103201499674469,0.0,0.0,0.0,0.0,-0.003712606383487582,0.0071844859048724174,-0.002099938690662384,0.9991841912269592,0.0,0.0,0.0,3.5343594551086426,1.6713999509811401,4.691050052642822,-639.7261352539062,0
1239.1489999999994,0.002279261127114296,-0.01972907781600952,0.0003483080363366753,0.0,0.0,0.0,0.0,0.002045420464128256,-6.143065547803417e-05,2.590470467112027e-05,1.0002787113189697,0.0,0.0,0.0,3.5397911071777344,1.6857465505599976,4.681301593780518,-640.7092895507812,0
1249.0509999999995,0.0023427160922437906,-0.019720427691936493,0.0004005904484074563,0.0,0.0,0.0,0.0,-0.003188672009855509,0.000787263794336468,0.0004255079838912934,0.9997615218162537,0.0,0.0,0.0,3.5358452796936035,1.6869910955429077,4.681878566741943,-639.9950561523438,0
1258.9779999999992,0.0023367733228951693,-0.01972978748381138,0.0003557311720214784,0.0,0.0,0.0,0.0,-0.0009777384111657739,0.002095737960189581,0.00012482638703659177,0.998714804649353,0.0,0.0,0.0,3.538922071456909,1.6972546577453613,4.681982517242432,-640.5519409179688,0
1268.884,0.0023239743895828724,-0.01973157376050949,0.00036992362583987415,0.0,0.0,0.0,0.0,0.002639769809320569,-0.0006171471322886646,0.0015098453732207417,1.0007729530334473,0.0,0.0,0.0,3.535304546356201,1.6994383335113525,4.67467737197876,-639.897216796875,0
1278.7999999999993,0.002332533709704876,-0.019677305594086647,0.00032505361014045775,0.0,0.0,0.0,0.0,0.0019364826148375869,0.005874594673514366,-0.0014419168001040816,0.999548077583313,0.0,0.0,0.0,3.539271116256714,1.7088401317596436,4.683380126953125,-640.6151123046875,0
1288.7039999999997,0.0023649330250918865,-0.019674284383654594,0.0003572753048501909,0.0,0.0,0.0,0.0,0.0011855745688080788,-0.0021360779646784067,-0.0012574675492942333,0.9984275698661804,0.0,0.0,0.0,3.5354132652282715,1.7012046575546265,4.664698123931885,-639.9168090820312,0
1298.6319999999996,0.0023486698046326637,-0.0196626428514719,0.00032367822132073343,0.0,0.0,0.0,0.0,-0.0018777281511574984,-0.0007395819993689656,-0.0003633293090388179,1.001301884651184,0.0,0.0,0.0,3.531693458557129,1.6980887651443481,4.66579008102417,-639.2435913085938,0
1308.5379999999986,0.002323540858924389,-0.019622694700956345,0.0003583928046282381,0.0,0.0,0.0,0.0,0.0020129717886447906,0.0032944828271865845,-0.0021762580145150423,1.0011340379714966,0.0,0.0,0.0,3.5292630195617676,1.6972095966339111,4.661083698272705,-638.8037109375,0
1318.4529999999995,0.0022929194383323193,-0.019648874178528786,0.0003272850008215755,0.0,0.0,0.0,0.0,0.0020030206069350243,0.0017093339702114463,-0.002057111356407404,0.9985212087631226,0.0,0.0,0.0,3.532104253768921,1.686205506324768,4.657810688018799,-639.31787109375,0
1328.3589999999986,0.0023128101602196693,-0.01962299644947052,0.00037321363925002515,0.0,0.0,0.0,0.0,-0.0037264088168740273,0.0004304154426790774,-0.0015569488750770688,0.9974988102912903,0.0,0.0,0.0,3.528104543685913,1.6795207262039185,4.64468240737915,-638.593994140625,0
1338.2879999999986,0.0022863915655761957,-0.01963464356958866,0.00034260397660546005,0.0,0.0,0.0,0.0,0.00449409568682313,0.0025111795403063297,0.0017375798197463155,1.0000070333480835,0.0,0.0,0.0,3.5244102478027344,1.6862165927886963,4.640212059020996,-637.92529296875,0
1348.1839999999993,0.002244920702651143,-0.019617674872279167,0.00035663435119204223,0.0,0.0,0.0,0.0,0.00026354315923526883,0.0036218473687767982,-0.003592921420931816,0.9991045594215393,0.0,0.0,0.0,3.5209403038024902,1.6742885112762451,4.628128528594971,-637.2971801757812,0
1358.1119999999992,0.0022345753386616707,-0.0196253452450037,0.00030315908952616155,0.0,0.0,0.0,0.0,-0.0022309429477900267,-0.004661089275032282,0.0010697158286347985,0.9990956783294678,0.0,0.0,0.0,3.515359401702881,1.6742511987686157,4.621669292449951,-636.2870483398438,0
1368.0099999999984,0.0022550970315933228,-0.0196358785033226,0.00032323357299901545,0.0,0.0,0.0,0.0,-0.002172705717384815,-0.0038039954379200935,0.001713079516775906,0.9996018409729004,0.0,0.0,0.0,3.5185577869415283,1.6715341806411743,4.636316776275635,-636.8659057617188,0
1377.9379999999983,0.002237291308119893,-0.019647372886538506,0.00027547625359147787,0.0,0.0,0.0,0.0,-9.061547461897135e-05,-0.001187297166325152,-0.0008702146587893367,0.9978640675544739,0.0,0.0,0.0,3.522674560546875,1.6698154211044312,4.648268699645996,-637.611083984375,0
1387.842999999999,0.0022556320764124393,-0.019646892324090004,0.0003003661404363811,0.0,0.0,0.0,0.0,0.0018458438571542501,-0.0018484361935406923,-0.00017842282250057906,0.9995929002761841,0.0,0.0,0.0,3.5270981788635254,1.668540120124817,4.652088165283203,-638.4118041992188,0
1397.7709999999988,0.002232396276667714,-0.019669946283102036,0.00025271272170357406,0.0,0.0,0.0,0.0,-0.003434340935200453,0.003443678142502904,0.00049305782886222,0.99957674741745,0.0,0.0,0.0,3.522825241088867,1.665441632270813,4.652393341064453,-637.6383666992188,0
1407.6659999999993,0.002296106657013297,-0.01968172937631607,0.0002856141945812851,0.0,0.0,0.0,0.0,0.002382328500971198,-0.0009029394714161754,0.003526416141539812,0.9996843934059143,0.0,0.0,0.0,3.5188491344451904,1.673569679260254,4.6471123695373535,-636.9186401367188,0
1417.592999999999,0.002271637786179781,-0.019689416512846947,0.00024866979219950736,0.0,0.0,0.0,0.0,-0.0009696263005025685,-0.0049689654260873795,0.0047646393068134785,0.999159038066864,0.0,0.0,0.0,3.5225322246551514,1.6656733751296997,4.644873142242432,-637.5853271484375,0
1427.494999999999,0.0022961164359003305,-0.019698739051818848,0.00026778984465636313,0.0,0.0,0.0,0.0,-0.00023068758309818804,-0.002452411223202944,0.0014678222360089421,1.0013493299484253,0.0,0.0,0.0,3.519838809967041,1.6635282039642334,4.6473517417907715,-637.0977783203125,0
1437.4199999999983,0.0022880355827510357,-0.019661225378513336,0.00022860386525280774,0.0,0.0,0.0,0.0,-0.0003811566566582769,0.0006520760362036526,-0.0024252559524029493,0.9997016787528992,0.0,0.0,0.0,3.524600028991699,1.6745656728744507,4.653656959533691,-637.9595947265625,0
1447.324999999999,0.002308937953785062,-0.019661717116832733,0.000253540463745594,0.0,0.0,0.0,0.0,-0.000970417691860348,-0.0008833662141114473,0.002575770951807499,0.9973526000976562,0.0,0.0,0.0,3.520277500152588,1.679692268371582,4.647222518920898,-637.1771850585938,0
1457.2369999999992,0.0022991022560745478,-0.019614484161138535,0.00021958051365800202,0.0,0.0,0.0,0.0,0.003516801632940769,0.002711536828428507,0.0005121002322994173,0.9979074001312256,0.0,0.0,0.0,3.526594400405884,1.6952757835388184,4.644591331481934,-638.3206176757812,0
1467.1589999999997,0.0023546647280454636,-0.019615324214100838,0.00025013997219502926,0.0,0.0,0.0,0.0,0.00023523156414739788,-0.003945027012377977,0.001215545809827745,0.9991505742073059,0.0,0.0,0.0,3.522772789001465,1.6917545795440674,4.6245808601379395,-637.62890625,0
1477.057999999999,0.0022989511489868164,-0.01966036483645439,0.0002373864990659058,0.0,0.0,0.0,0.0,0.004484688863158226,-0.00045851815957576036,0.0010906755924224854,1.0002710819244385,0.0,0.0,0.0,3.519534111022949,1.689672589302063,4.621361255645752,-637.0426635742188,0
1486.976999999999,0.0023168688639998436,-0.019661787897348404,0.00026030250592157245,0.0,0.0,0.0,0.0,-0.00025711796479299664,0.00163186842110008,0.003778862301260233,1.0005428791046143,0.0,0.0,0.0,3.5158636569976807,1.6834464073181152,4.61562967300415,-636.3782958984375,0
1496.8869999999988,0.002299186307936907,-0.01962723396718502,0.00023049079754855484,0.0,0.0,0.0,0.0,0.0017208727076649666,0.0009294669725932181,0.0016234363429248333,0.999407947063446,0.0,0.0,0.0,3.5203347206115723,1.695956826210022,4.612311840057373,-637.1875610351562,0
1506.807999999999,0.0023155089002102613,-0.019633956253528595,0.00025214775814674795,0.0,0.0,0.0,0.0,-0.003879118012264371,-0.004709356464445591,0.001393222133629024,0.9992929100990295,0.0,0.0,0.0,3.5163426399230957,1.6917356252670288,4.605198860168457,-636.4650268554688,0
1516.7099999999991,0.0022737185936421156,-0.01966380514204502,0.0002303044602740556,0.0,0.0,0.0,0.0,0.0026355311274528503,0.0011090582702308893,0.003384363604709506,0.9992427825927734,0.0,0.0,0.0,3.5113589763641357,1.696120262145996,4.609619617462158,-635.56298828125,0
1526.6309999999994,0.002307874383404851,-0.019629469141364098,0.00028671041945926845,0.0,0.0,0.0,0.0,0.0010841412004083395,0.0008632188546471298,0.0009603091748431325,1.0012354850769043,0.0,0.0,0.0,3.513241767883301,1.702333927154541,4.611227035522461,-635.9037475585938,0
1536.5369999999984,0.00227475818246603,-0.019650503993034363,0.0002593800309114158,0.0,0.0,0.0,0.0,-0.002990301698446274,0.0019051703857257962,-0.0016979598440229893,0.999518871307373,0.0,0.0,0.0,3.509960174560547,1.7019128799438477,4.605350017547607,-635.3097534179688,0
1546.458999999999,0.002302195644006133,-0.019623765721917152,0.00031284141005016863,0.0,0.0,0.0,0.0,-0.0032078123185783625,-0.0020857616327703,0.0025754794478416443,0.9994385242462158,0.0,0.0,0.0,3.506009578704834,1.7064751386642456,4.598466873168945,-634.5947265625,0
1556.3639999999996,0.0022641606628894806,-0.019674399867653847,0.00028262892737984657,0.0,0.0,0.0,0.0,0.0005125845782458782,0.0006131617701612413,0.00341693963855505,1.0010535717010498,0.0,0.0,0.0,3.5031161308288574,1.7134851217269897,4.596188068389893,-634.0709838867188,0
1566.2839999999997,0.0022560220677405596,-0.019662972539663315,0.0003144085349049419,0.0,0.0,0.0,0.0,0.0035320392344146967,-0.001691967947408557,0.0027076040860265493,1.0018194913864136,0.0,0.0,0.0,3.506716728210449,1.7167447805404663,4.590687274932861,-634.7227172851562,0
1576.1929999999993,0.0022333262022584677,-0.019669970497488976,0.00027990256785415113,0.0,0.0,0.0,0.0,-0.0007018485339358449,-0.003446880728006363,0.0022169144358485937,1.0022575855255127,0.0,0.0,0.0,3.5115103721618652,1.7170056104660034,4.588046073913574,-635.5903930664062,0
1586.1099999999988,0.0022010679822415113,-0.01962236501276493,0.0003321962431073189,0.0,0.0,0.0,0.0,0.0002169664658140391,-0.005080041475594044,0.000504880677908659,1.0015324354171753,0.0,0.0,0.0,3.508432626724243,1.7149653434753418,4.581738471984863,-635.0332641601562,0
1596.0159999999996,0.002142194891348481,-0.019656548276543617,0.000330995098920539,0.0,0.0,0.0,0.0,-0.0009722953545860946,-0.0005314221489243209,0.0012972240801900625,1.0003647804260254,0.0,0.0,0.0,3.50510311126709,1.713308334350586,4.585527420043945,-634.4306640625,0
1605.9319999999989,0.0021849297918379307,-0.01965498737990856,0.00038868648698553443,0.0,0.0,0.0,0.0,0.000811723351944238,0.004740525968372822,0.004528183024376631,0.9978206157684326,0.0,0.0,0.0,3.50170636177063,1.7172138690948486,4.591156482696533,-633.8158569335938,0
1615.8419999999987,0.002147096674889326,-0.01965988427400589,0.0003734241472557187,0.0,0.0,0.0,0.0,-0.00031750916969031096,-0.0012228420237079263,-0.004603153094649315,1.0006945133209229,0.0,0.0,0.0,3.508610248565674,1.7169513702392578,4.587153434753418,-635.0654296875,0
1625.7569999999996,0.0021865349262952805,-0.0196596160531044,0.00042899869731627405,0.0,0.0,0.0,0.0,0.0007549746660515666,-0.0010879175970330834,-0.0011789961718022823,1.0014638900756836,0.0,0.0,0.0,3.503911256790161,1.7166507244110107,4.585367202758789,-634.2149047851562,0
1635.6709999999985,0.0022018919698894024,-0.019618911668658257,0.00036555048427544534,0.0,0.0,0.0,0.0,-0.000704329926520586,0.0010417851153761148,0.001799458870664239,1.000328779220581,0.0,0.0,0.0,3.500046730041504,1.714150071144104,4.583669185638428,-633.5155029296875,0
1645.5909999999985,0.0022440801840275526,-0.01964130438864231,0.0004085988621227443,0.0,0.0,0.0,0.0,-0.0006320046377368271,0.005314990878105164,0.0002458012313582003,0.9999975562095642,0.0,0.0,0.0,3.5034470558166504,1.715993046760559,4.597285270690918,-634.130859375,0
1655.494999999999,0.0022356456611305475,-0.019639795646071434,0.00036248593823984265,0.0,0.0,0.0,0.0,-0.0021694789174944162,-0.0010255143279209733,0.003922612406313419,1.0004205703735352,0.0,0.0,0.0,3.500515937805176,1.7108044624328613,4.588284015655518,-633.6004028320312,0
1665.4169999999995,0.002275374485179782,-0.019676078110933304,0.00039273255970329046,0.0,0.0,0.0,0.0,0.0011552759679034352,0.0035818489268422127,-0.001998255029320717,1.000530481338501,0.0,0.0,0.0,3.4976046085357666,1.710774302482605,4.586608409881592,-633.0734252929688,0
1675.3309999999983,0.0022761996369808912,-0.019649839028716087,0.0003459753643255681,0.0,0.0,0.0,0.0,0.004866226576268673,-0.004505956545472145,0.002326725283637643,0.9980782866477966,0.0,0.0,0.0,3.493014335632324,1.7077165842056274,4.574686527252197,-632.2424926757812,0
1685.2429999999986,0.0023275406565517187,-0.019667262211441994,0.0003905056801158935,0.0,0.0,0.0,0.0,-0.0005382461240515113,-0.0015538949519395828,-0.003766031237319112,0.9981562495231628,0.0,0.0,0.0,3.4905707836151123,1.696714162826538,4.5831146240234375,-631.8002319335938,0
1695.155999999999,0.002312624827027321,-0.019662920385599136,0.00035711878444999456,0.0,0.0,0.0,0.0,0.0013923560036346316,-0.0009292195318266749,-0.0013251884374767542,1.0008046627044678,0.0,0.0,0.0,3.486260414123535,1.6963775157928467,4.582808971405029,-631.02001953125,0
1705.0729999999985,0.002312081167474389,-0.019689591601490974,0.0003727517614606768,0.0,0.0,0.0,0.0,-0.0022656209766864777,0.0028114875312894583,-0.00439781928434968,0.9992893934249878,0.0,0.0,0.0,3.482682228088379,1.691826581954956,4.582090854644775,-630.3724365234375,0
1714.976999999999,0.0023022231180220842,-0.019654255360364914,0.00033820242970250547,0.0,0.0,0.0,0.0,0.00034479942405596375,0.00040363066364079714,-0.00020186524488963187,1.000449538230896,0.0,0.0,0.0,3.487990379333496,1.7048903703689575,4.581899166107178,-631.3331298828125,0
1724.8999999999996,0.0023513399064540863,-0.019661501049995422,0.00038434445741586387,0.0,0.0,0.0,0.0,0.0007818140438757837,-0.0008983052102848887,-0.0004396878939587623,0.999221920967102,0.0,0.0,0.0,3.4910764694213867,1.7070571184158325,4.588984966278076,-631.8917846679688,0
1734.8059999999987,0.002320815110579133,-0.019689561799168587,0.00036464567529037595,0.0,0.0,0.0,0.0,-0.0014633849496021867,0.002767948666587472,0.00418061250820756,1.001224398612976,0.0,0.0,0.0,3.493509292602539,1.7018426656723022,4.588906764984131,-632.3320922851562,0
1744.7259999999987,0.002348440233618021,-0.01969199627637863,0.0004119591903872788,0.0,0.0,0.0,0.0,-0.0018881434807553887,0.0007441621855832636,-0.00044680488645099103,1.0013213157653809,0.0,0.0,0.0,3.4915595054626465,1.704309105873108,4.580266952514648,-631.9791870117188,0
1754.6329999999998,0.002327512251213193,-0.019717352464795113,0.0003850471111945808,0.0,0.0,0.0,0.0,0.0029159863479435444,0.005463474430143833,0.00021770129387732595,0.9989129304885864,0.0,0.0,0.0,3.487339735031128,1.7068567276000977,4.571021556854248,-631.2153930664062,0
1764.5499999999993,0.002358895493671298,-0.019729316234588623,0.0004287243355065584,0.0,0.0,0.0,0.0,0.0011137279216200113,0.0007824041531421244,0.0018689522985368967,1.0001683235168457,0.0,0.0,0.0,3.4834673404693604,1.6966081857681274,4.5491414070129395,-630.5145263671875,0
1774.4559999999983,0.002348255831748247,-0.01973399706184864,0.0003960275207646191,0.0,0.0,0.0,0.0,-0.0024467562325298786,0.00014791548892389983,0.0006401342689059675,0.9996964931488037,0.0,0.0,0.0,3.486557960510254,1.700971007347107,4.545767784118652,-631.073974609375,0
1784.3759999999984,0.0023324789945036173,-0.019727621227502823,0.00043550573172979057,0.0,0.0,0.0,0.0,0.0005764646339230239,0.0028519730549305677,-0.0014565204037353396,0.9998894333839417,0.0,0.0,0.0,3.483013153076172,1.7077187299728394,4.546245098114014,-630.4323120117188,0
1794.2819999999992,0.0023218831047415733,-0.01973528228700161,0.0003983726492151618,0.0,0.0,0.0,0.0,0.0006121942424215376,0.0028810063377022743,-0.002194365719333291,1.000644564628601,0.0,0.0,0.0,3.488072395324707,1.7096067667007446,4.5474772453308105,-631.3480224609375,0
1804.2039999999997,0.002335422206670046,-0.019727922976017,0.0004485642712097615,0.0,0.0,0.0,0.0,-0.0024658816400915384,-0.001660095644183457,-0.002361375605687499,1.0012677907943726,0.0,0.0,0.0,3.4834604263305664,1.7094104290008545,4.536012172698975,-630.5132446289062,0
1814.110999999999,0.0023170143831521273,-0.019749293103814125,0.00041382142808288336,0.0,0.0,0.0,0.0,-0.000868211267516017,-0.0031086707022041082,0.0014750828268006444,0.9996781945228577,0.0,0.0,0.0,3.4857752323150635,1.7115240097045898,4.541222095489502,-630.9322509765625,0
1824.0419999999995,0.002263106405735016,-0.019742164760828018,0.00044152900227345526,0.0,0.0,0.0,0.0,-0.000177974536200054,-0.0013720754068344831,0.0035750912502408028,1.0028963088989258,0.0,0.0,0.0,3.4888558387756348,1.7178752422332764,4.542952060699463,-631.4898681640625,0
1833.9349999999995,0.0022676705848425627,-0.019741149619221687,0.00038150695036165416,0.0,0.0,0.0,0.0,0.0003452386299613863,0.003755235578864813,-0.004656221717596054,1.0020923614501953,0.0,0.0,0.0,3.485671043395996,1.714991569519043,4.539162635803223,-630.913330078125,0
1843.857,0.0022826041094958782,-0.019725479185581207,0.0004434084694366902,0.0,0.0,0.0,0.0,0.0018442979780957103,0.0014232631074264646,-3.085739444941282e-05,0.9997735023498535,0.0,0.0,0.0,3.4874775409698486,1.718927264213562,4.5369133949279785,-631.2403564453125,0
1853.7609999999986,0.0022265890147536993,-0.01978439837694168,0.0004443943907972425,0.0,0.0,0.0,0.0,0.0025009552482515574,-0.004409418441355228,-0.0013410680694505572,0.9997938871383667,0.0,0.0,0.0,3.491203784942627,1.7089987993240356,4.531110763549805,-631.914794921875,0
1863.687,0.002203259849920869,-0.01978522725403309,0.0004838119784835726,0.0,0.0,0.0,0.0,0.002667571185156703,-8.462471305392683e-05,-0.006496820133179426,0.9983643293380737,0.0,0.0,0.0,3.4951231479644775,1.7100293636322021,4.531491279602051,-632.6243286132812,0
1873.598,0.002190399682149291,-0.01978413015604019,0.00044965813867747784,0.0,0.0,0.0,0.0,-0.0010009323013946414,-0.0013980133226141334,-0.0027648096438497305,0.9987277388572693,0.0,0.0,0.0,3.490734815597534,1.6987624168395996,4.522389888763428,-631.8298950195312,0
1883.5109999999986,0.002195129869505763,-0.01978328637778759,0.0005008399020880461,0.0,0.0,0.0,0.0,-0.0016085106180980802,-0.0002240169997094199,0.0019416906870901585,0.9991970658302307,0.0,0.0,0.0,3.4925642013549805,1.7039940357208252,4.53096866607666,-632.1610107421875,0
1893.4169999999995,0.002225126838311553,-0.019745148718357086,0.00042407229193486273,0.0,0.0,0.0,0.0,0.0018691079458221793,0.0024959733709692955,-0.0017922783736139536,0.9990140795707703,0.0,0.0,0.0,3.4976906776428223,1.721015214920044,4.545197010040283,-633.0889892578125,0
1903.3419999999987,0.002199409296736121,-0.019734952598810196,0.0004615127691067755,0.0,0.0,0.0,0.0,0.000638711208011955,0.0006113880081102252,-0.0006101835169829428,0.999635636806488,0.0,0.0,0.0,3.493084192276001,1.7176039218902588,4.540669918060303,-632.255126953125,0
1913.2429999999986,0.0021799395326524973,-0.019739532843232155,0.0004249124904163182,0.0,0.0,0.0,0.0,-0.0007933706510812044,0.0012893982930108905,-5.317234536050819e-05,1.0007898807525635,0.0,0.0,0.0,3.4900715351104736,1.7179652452468872,4.533241271972656,-631.7098388671875,0
1923.1619999999984,0.0022696356754750013,-0.01974894478917122,0.0004954535397700965,0.0,0.0,0.0,0.0,-0.0007945254328660667,-0.003680930705741048,-0.0016443796921521425,0.9987972378730774,0.0,0.0,0.0,3.4947893619537354,1.7188447713851929,4.545407295227051,-632.5639038085938,0
1933.0739999999987,0.0022831230890005827,-0.019749704748392105,0.00042660642066039145,0.0,0.0,0.0,0.0,0.003159639658406377,-0.0036291759461164474,0.000686757848598063,1.0007309913635254,0.0,0.0,0.0,3.4970686435699463,1.726534366607666,4.557136058807373,-632.9763793945312,0
1942.9929999999986,0.002280857879668474,-0.019724925979971886,0.0004815055290237069,0.0,0.0,0.0,0.0,-3.034663495782297e-05,-7.957452908158302e-05,-0.0007338288705796003,0.9987467527389526,0.0,0.0,0.0,3.4998295307159424,1.7318763732910156,4.568821907043457,-633.4761352539062,0
1952.8939999999984,0.0022844448685646057,-0.0197218619287014,0.0004233123327139765,0.0,0.0,0.0,0.0,0.0011793081648647785,-0.0010331241646781564,-0.0029686428606510162,0.9987955689430237,0.0,0.0,0.0,3.5029428005218506,1.738801121711731,4.5771613121032715,-634.0396118164062,0
1962.815999999999,0.002280706772580743,-0.019699208438396454,0.000473704218165949,0.0,0.0,0.0,0.0,-0.00140016817022115,0.000640972750261426,0.0007250951020978391,1.0003941059112549,0.0,0.0,0.0,3.5038230419158936,1.7441151142120361,4.577314853668213,-634.1989135742188,0
1972.7209999999995,0.002277652034536004,-0.019726429134607315,0.0004053707525599748,0.0,0.0,0.0,0.0,-0.0013105132384225726,-0.0007459658663719893,0.0011995760723948479,1.001987338066101,0.0,0.0,0.0,3.4999024868011475,1.7468228340148926,4.565552234649658,-633.4893188476562,0
1982.6459999999988,0.002288184827193618,-0.01970602385699749,0.0004598265513777733,0.0,0.0,0.0,0.0,-0.0017417885828763247,-0.000243115980993025,-0.004672748502343893,0.999457061290741,0.0,0.0,0.0,3.5024936199188232,1.7574424743652344,4.5740203857421875,-633.9583129882812,0
1992.5469999999987,0.002298663603141904,-0.019691484048962593,0.00038279645377770066,0.0,0.0,0.0,0.0,-0.0005429515731520951,0.004368114750832319,-0.0012101284228265285,0.9972249865531921,0.0,0.0,0.0,3.5049097537994385,1.762723684310913,4.588772296905518,-634.3956909179688,0
2002.4789999999994,0.0022408878430724144,-0.019713804125785828,0.00037972882273606956,0.0,0.0,0.0,0.0,-0.003016697010025382,-0.0037321317940950394,0.0008996403776109219,0.9985261559486389,0.0,0.0,0.0,3.501483917236328,1.7586610317230225,4.574607849121094,-633.7755737304688,0
2012.3729999999996,0.0022802739404141903,-0.019696295261383057,0.00026156665990129113,0.0,0.0,0.0,0.0,-0.0024055426474660635,0.0020087440498173237,-0.0005968163022771478,0.9989075660705566,0.0,0.0,0.0,3.5021677017211914,1.770758032798767,4.613346576690674,-633.8992919921875,0
2022.307999999999,0.002228430239483714,-0.019718892872333527,0.0002461960248183459,0.0,0.0,0.0,0.0,-0.0006096094730310142,-0.002866554306820035,-0.0019778062123805285,0.9995208382606506,0.0,0.0,0.0,3.4993112087249756,1.7721680402755737,4.60080099105835,-633.3822631835938,0
2032.2059999999983,0.0022518523037433624,-0.019703630357980728,0.00014888006262481213,0.0,0.0,0.0,0.0,0.0034668005537241697,-0.00027925200993195176,-0.002232141559943557,0.9985306859016418,0.0,0.0,0.0,3.5014874935150146,1.7818443775177002,4.642693042755127,-633.7761840820312,0
2042.137999999999,0.0022047145757824183,-0.019724050536751747,0.0001249028427992016,0.0,0.0,0.0,0.0,0.0001745279150782153,0.00251958891749382,-0.0025109436828643084,1.0013115406036377,0.0,0.0,0.0,3.497842788696289,1.7753899097442627,4.6388750076293945,-633.1165161132812,0
2052.0289999999986,0.0021833705250173807,-0.019705576822161674,9.135143045568839e-05,0.0,0.0,0.0,0.0,0.0013777227140963078,-0.0068009281530976295,0.003082526847720146,1.0004271268844604,0.0,0.0,0.0,3.505458116531372,1.7857719659805298,4.646067142486572,-634.4949340820312,0
2061.9489999999987,0.0021384733263403177,-0.01972431316971779,6.703066901536658e-05,0.0,0.0,0.0,0.0,0.0024062201846390963,0.0006922022439539433,-0.0025969170965254307,0.9987131357192993,0.0,0.0,0.0,3.5036518573760986,1.7836287021636963,4.656973838806152,-634.16796875,0
2071.852999999999,0.002141128294169903,-0.01968393474817276,3.1675754144089296e-05,0.0,0.0,0.0,0.0,-0.0014861313393339515,-0.008030541241168976,0.0021862504072487354,0.999427318572998,0.0,0.0,0.0,3.500222682952881,1.7772877216339111,4.652406215667725,-633.5473022460938,0
2081.786,0.002099726116284728,-0.019698364660143852,5.056605004938319e-06,0.0,0.0,0.0,0.0,0.003295864909887314,0.00420772610232234,-0.002614772180095315,0.9990641474723816,0.0,0.0,0.0,3.4972057342529297,1.7812319993972778,4.663972854614258,-633.001220703125,0
2091.681999999999,0.002095747273415327,-0.01964854635298252,-1.4470617315964773e-05,0.0,0.0,0.0,0.0,-0.0007953541353344917,-0.004203950520604849,-0.0017218776047229767,0.9990646243095398,0.0,0.0,0.0,3.492720603942871,1.7781583070755005,4.653993606567383,-632.1893310546875,0
2101.6049999999996,0.0020540347322821617,-0.019658956676721573,-4.222583447699435e-05,0.0,0.0,0.0,0.0,-0.0005474315257743001,0.002146960236132145,-0.002034562872722745,1.0017082691192627,0.0,0.0,0.0,3.4890177249908447,1.7784088850021362,4.663572788238525,-631.5191040039062,0
2111.5069999999996,0.002044892869889736,-0.019637254998087883,-7.438073953380808e-05,0.0,0.0,0.0,0.0,0.0005815228796564043,-0.000575257174205035,0.0014075975632295012,0.9993434548377991,0.0,0.0,0.0,3.491750478744507,1.7887053489685059,4.6686015129089355,-632.0137329101562,0
2121.4389999999985,0.002001687651500106,-0.019646460190415382,-0.00010189308522967622,0.0,0.0,0.0,0.0,0.0009339175885543227,-0.0011384893441572785,0.0013292437652125955,0.9995152950286865,0.0,0.0,0.0,3.4890453815460205,1.7828260660171509,4.666629314422607,-631.5241088867188,0
2131.3359999999993,0.001983152935281396,-0.019627291709184647,-0.00012916924606543034,0.0,0.0,0.0,0.0,-0.002395153511315584,0.00110782275442034,-0.0018006538739427924,1.0003762245178223,0.0,0.0,0.0,3.4973766803741455,1.7882710695266724,4.673735618591309,-633.0321655273438,0
2141.252999999999,0.0019385013729333878,-0.019635645672678947,-0.0001570974854985252,0.0,0.0,0.0,0.0,-0.0048218523152172565,-0.00028370102518238127,-0.00048652017721906304,1.002002477645874,0.0,0.0,0.0,3.493921995162964,1.7853870391845703,4.6624531745910645,-632.4068603515625,0
2151.1589999999997,0.0019299602136015892,-0.01961953192949295,-0.0001936174521688372,0.0,0.0,0.0,0.0,0.0015933128306642175,0.00013665024016518146,-0.00206154678016901,0.9993960857391357,0.0,0.0,0.0,3.490518569946289,1.7892769575119019,4.660460948944092,-631.790771484375,0
2161.0809999999983,0.001884337281808257,-0.019626818597316742,-0.000220900634303689,0.0,0.0,0.0,0.0,-0.001320753013715148,0.00047194198123179376,-0.0009066927595995367,1.0001096725463867,0.0,0.0,0.0,3.48653507232666,1.7791144847869873,4.651340484619141,-631.0697631835938,0
2170.995999999999,0.001871054177172482,-0.01961471512913704,-0.00025814224500209093,0.0,0.0,0.0,0.0,0.00017888548609334975,0.0016380671877413988,0.003642431693151593,1.0003658533096313,0.0,0.0,0.0,3.4896504878997803,1.7891377210617065,4.6609206199646,-631.6336669921875,0
2180.9069999999992,0.001824796898290515,-0.01962040178477764,-0.0002864451671484858,0.0,0.0,0.0,0.0,0.0035487248096615076,0.0008562075672671199,-0.0025477202143520117,0.9996651411056519,0.0,0.0,0.0,3.487786293029785,1.7911512851715088,4.659533977508545,-631.2962036132812,0
2190.8129999999983,0.0017761028138920665,-0.019626980647444725,-0.0003145890950690955,0.0,0.0,0.0,0.0,0.0033123232424259186,-4.023143628728576e-05,-0.001085213734768331,1.0018213987350464,0.0,0.0,0.0,3.4839582443237305,1.7841248512268066,4.65028715133667,-630.6033325195312,0
2200.7419999999984,0.0017255849670618773,-0.019633373245596886,-0.00034199270885437727,0.0,0.0,0.0,0.0,-0.002202548086643219,-0.0027365456335246563,0.000573584926314652,1.0009539127349854,0.0,0.0,0.0,3.480634927749634,1.7731750011444092,4.6446146965026855,-630.0018310546875,0
2210.638999999999,0.0016733997035771608,-0.01963919773697853,-0.00036807963624596596,0.0,0.0,0.0,0.0,0.002482438227161765,9.526312169327866e-06,-0.003507829736918211,1.0000430345535278,0.0,0.0,0.0,3.4775474071502686,1.7764354944229126,4.6450724601745605,-629.4430541992188,0
2220.5679999999993,0.0016192840412259102,-0.019645964726805687,-0.00039352764724753797,0.0,0.0,0.0,0.0,0.0011386803817003965,-0.007597343530505896,0.003188455244526267,0.999534547328949,0.0,0.0,0.0,3.4733874797821045,1.7736283540725708,4.641712665557861,-628.6900634765625,0
2230.4699999999993,0.0015631852438673377,-0.019654829055070877,-0.0004189959727227688,0.0,0.0,0.0,0.0,-0.00492426473647356,-0.002249667188152671,0.002305614296346903,1.0007879734039307,0.0,0.0,0.0,3.471010684967041,1.767385482788086,4.6508636474609375,-628.2598266601562,0
2240.3899999999994,0.0023117316886782646,-0.01990470290184021,0.0004042662912979722,0.0,0.0,0.0,0.0,0.0008242747280746698,0.00418002437800169,0.001597988186404109,1.0001764297485352,0.0,0.0,0.0,3.4802238941192627,1.7523822784423828,4.763967990875244,-629.9274291992188,0
2250.2969999999987,0.0022837247233837843,-0.01992223598062992,0.0004132813774049282,0.0,0.0,0.0,0.0,0.001980953849852085,0.0030775307677686214,0.0015438764821738005,0.9985572695732117,0.0,0.0,0.0,3.476480722427368,1.7492798566818237,4.752705097198486,-629.2499389648438,0
2260.223,0.0023335928563028574,-0.019879484549164772,0.0005432397592812777,0.0,0.0,0.0,0.0,2.4189374016714282e-05,-0.00014046950673218817,0.0024594718124717474,0.998943567276001,0.0,0.0,0.0,3.4823946952819824,1.7640434503555298,4.750818729400635,-630.3203125,0
2270.1269999999986,0.0023035849444568157,-0.019892817363142967,0.000557375664357096,0.0,0.0,0.0,0.0,0.0003983865026384592,0.0007163690170273185,-0.002519667847082019,1.0019378662109375,0.0,0.0,0.0,3.4796407222747803,1.7631021738052368,4.746722221374512,-629.8218994140625,0
