timestamp,stateEstimate.x,stateEstimate.y,stateEstimate.z,controller.cmd_thrust,controller.cmd_roll,controller.cmd_pitch,controller.cmd_yaw,controller.r_roll,controller.r_pitch,controller.r_yaw,controller.accelz,controller.actuatorThrust,controller.roll,controller.pitch,controller.yaw,controller.rollRate,controller.pitchRate,controller.yawRate,controller.ctr_yaw
0.0,0.0016775017138570547,-0.001965777250006795,-8.041875116759911e-05,0.0,0.0,0.0,0.0,0.0005149435601197183,0.002966946689411998,0.0005531951901502907,1.0006312131881714,0.0,0.0,0.0,4.003092288970947,1.4107149839401245,4.660567760467529,-724.567626953125,0
9.920000000000073,0.0016207116423174739,-0.0019905525259673595,-8.316385356010869e-05,0.0,0.0,0.0,0.0,-0.0019180389354005456,0.0003395352978259325,0.0006807215977460146,0.9996644258499146,0.0,0.0,0.0,3.998307466506958,1.411470890045166,4.648838043212891,-723.70166015625,0
19.823999999998705,0.0016166793648153543,-0.0019239094108343124,-0.00012035691906930879,0.0,0.0,0.0,0.0,-0.0005072575877420604,-0.005070495884865522,0.0025535894092172384,0.9981846809387207,0.0,0.0,0.0,3.9941015243530273,1.4142779111862183,4.639012813568115,-722.9403076171875,0
29.755999999999403,0.0017528708558529615,-0.002003792906180024,-4.073138552485034e-05,0.0,0.0,0.0,0.0,-0.0011266734218224883,-0.001773189171217382,0.002426911611109972,0.9995306730270386,0.0,0.0,0.0,3.9988739490509033,1.3944242000579834,4.678333759307861,-723.8041381835938,0
39.65300000000025,0.0017742570489645004,-0.001927614095620811,-9.094646520679817e-05,0.0,0.0,0.0,0.0,0.000602936779614538,0.004303146153688431,-0.0016446927329525352,1.0007672309875488,0.0,0.0,0.0,3.994921922683716,1.3995203971862793,4.679004192352295,-723.0888061523438,0
49.57099999999991,0.0018202890641987324,-0.0019712226931005716,-6.811761704739183e-05,0.0,0.0,0.0,0.0,-0.0034079388715326786,-0.005549897439777851,0.006413580384105444,1.000239610671997,0.0,0.0,0.0,3.9974334239959717,1.392612099647522,4.681993007659912,-723.54345703125,0
59.475000000000364,0.0018252037698403,-0.0019244332797825336,-0.00010441424092277884,0.0,0.0,0.0,0.0,0.0009233810706064105,0.00270851026289165,-0.0028509872499853373,1.0001901388168335,0.0,0.0,0.0,4.002664089202881,1.4038081169128418,4.682142734527588,-724.4901733398438,0
69.39699999999903,0.0017905437853187323,-0.0020070422906428576,-0.00010704170563258231,0.0,0.0,0.0,0.0,-0.0013893195427954197,-0.0005680793547071517,-0.0009143284987658262,1.0001827478408813,0.0,0.0,0.0,4.006072998046875,1.4062058925628662,4.6876630783081055,-725.107177734375,0
79.30099999999948,0.0018485955661162734,-0.0019291613716632128,-0.0001511084847152233,0.0,0.0,0.0,0.0,-0.0012936420971527696,0.004905229900032282,0.0016246529994532466,0.9980866312980652,0.0,0.0,0.0,4.006072998046875,1.4062058925628662,4.6876630783081055,-725.107177734375,0
89.23399999999856,0.0017548799514770508,-0.002007950097322464,-0.0001846424856921658,0.0,0.0,0.0,0.0,0.0023845983669161797,-0.001359255751594901,0.0002035623328993097,0.9986814260482788,0.0,0.0,0.0,3.9979326725006104,1.4075778722763062,4.677015781402588,-723.6337890625,0
99.12699999999859,0.001803801627829671,-0.001933469669893384,-0.00021813740022480488,0.0,0.0,0.0,0.0,0.0009822905994951725,0.0054549649357795715,-0.0030822898261249065,1.000511646270752,0.0,0.0,0.0,3.9979326725006104,1.4075778722763062,4.677015781402588,-723.6337890625,0
109.05199999999968,0.0017675968119874597,-0.00199523800984025,-0.00022316619288176298,0.0,0.0,0.0,0.0,-0.001392693491652608,-0.0035080150701105595,-0.0002527058240957558,1.0004093647003174,0.0,0.0,0.0,3.998105764389038,1.4002189636230469,4.678560733795166,-723.6651000976562,0
118.95299999999952,0.0017684352351352572,-0.001977631589397788,-0.00021850672783330083,0.0,0.0,0.0,0.0,0.00019358716963324696,0.0031513425055891275,0.00017557310638949275,1.0004875659942627,0.0,0.0,0.0,3.998105764389038,1.4002189636230469,4.678560733795166,-723.6651000976562,0
128.8799999999992,0.001760144717991352,-0.0020278787706047297,-0.0002002774563152343,0.0,0.0,0.0,0.0,-0.00012170776608400047,0.0004914470482617617,0.0024808375164866447,0.9993897080421448,0.0,0.0,0.0,3.998431444168091,1.394493818283081,4.681271553039551,-723.7240600585938,0
138.77999999999884,0.001775030279532075,-0.0019549524877220392,-0.00019214864005334675,0.0,0.0,0.0,0.0,-0.0010215304791927338,-0.00023479096125811338,-0.0024509348440915346,0.9977495670318604,0.0,0.0,0.0,3.998431444168091,1.394493818283081,4.681271553039551,-723.7240600585938,0
148.70199999999932,0.001776841119863093,-0.0019576081540435553,-0.0001621404371690005,0.0,0.0,0.0,0.0,0.0023687733337283134,0.005479644984006882,0.0005157360574230552,0.998841404914856,0.0,0.0,0.0,4.003201007843018,1.3956190347671509,4.678607940673828,-724.58740234375,0
158.60800000000017,0.001742981025017798,-0.0019670999608933926,-0.00017812519217841327,0.0,0.0,0.0,0.0,-0.0029699746519327164,0.0010016257874667645,0.0001622792042326182,0.9983476400375366,0.0,0.0,0.0,3.999741554260254,1.3963323831558228,4.663827419281006,-723.9612426757812,0
168.53399999999965,0.00172212824691087,-0.0019915825687348843,-0.00017105780716519803,0.0,0.0,0.0,0.0,0.002568545052781701,0.0006614982848986983,0.0010819041635841131,1.0010782480239868,0.0,0.0,0.0,4.004280090332031,1.392998218536377,4.660451889038086,-724.7826538085938,0
178.4339999999993,0.0016940106870606542,-0.00198913156054914,-0.0001934850006364286,0.0,0.0,0.0,0.0,-0.0022200141102075577,-0.0010233866050839424,0.0010289933998137712,1.0005407333374023,0.0,0.0,0.0,4.000125885009766,1.3893550634384155,4.655683517456055,-724.0307006835938,0
188.35199999999895,0.001725532696582377,-0.0019778611604124308,-0.00014222375466488302,0.0,0.0,0.0,0.0,-0.0010654616635292768,-0.0019237709930166602,-0.0010119100334122777,0.997746467590332,0.0,0.0,0.0,4.006268501281738,1.3886460065841675,4.655570030212402,-725.1425170898438,0
198.2569999999996,0.0016691582277417183,-0.0019773116800934076,-0.00012644569505937397,0.0,0.0,0.0,0.0,-0.0027874168008565903,0.00471626129001379,-0.0017949091270565987,0.9998152852058411,0.0,0.0,0.0,4.003479957580566,1.3926736116409302,4.664638519287109,-724.6378173828125,0
208.1839999999993,0.0017113944049924612,-0.0020041761454194784,-9.384282020619139e-05,0.0,0.0,0.0,0.0,-0.0011614718241617084,-0.00854601338505745,-0.0004897166509181261,1.0005943775177002,0.0,0.0,0.0,4.007674694061279,1.3958019018173218,4.667123794555664,-725.3970336914062,0
218.08299999999872,0.0016607376746833324,-0.002004388254135847,-8.311699639307335e-05,0.0,0.0,0.0,0.0,0.002145603997632861,0.007447506301105022,0.00038709555519744754,1.0000584125518799,0.0,0.0,0.0,4.004332542419434,1.3989499807357788,4.667125701904297,-724.7921142578125,0
228.01000000000022,0.0017132260836660862,-0.002017476363107562,-2.954295268864371e-05,0.0,0.0,0.0,0.0,0.0005376390763558447,0.0021977010183036327,0.00242041633464396,0.9985451698303223,0.0,0.0,0.0,4.008027076721191,1.3982212543487549,4.67537260055542,-725.4608154296875,0
237.91100000000006,0.0017217949498444796,-0.001953528029844165,-6.0952203057240695e-05,0.0,0.0,0.0,0.0,0.0021532264072448015,0.0006882449961267412,0.0005550623754970729,0.9998612999916077,0.0,0.0,0.0,4.004230976104736,1.3962907791137695,4.661202907562256,-724.7737426757812,0
247.83299999999872,0.0018029859056696296,-0.002015976933762431,-3.112347621936351e-05,0.0,0.0,0.0,0.0,0.000550050928723067,0.002756265224888921,0.0018300265073776245,1.0003185272216797,0.0,0.0,0.0,3.999142646789551,1.3933162689208984,4.654402732849121,-723.852783203125,0
257.73499999999876,0.0018041975563392043,-0.001970077631995082,-5.7941520935855806e-05,0.0,0.0,0.0,0.0,0.003560849232599139,0.0024547537323087454,0.0002688703534658998,0.9990932941436768,0.0,0.0,0.0,3.9957010746002197,1.38873291015625,4.64992618560791,-723.2298583984375,0
267.65499999999884,0.001820158096961677,-0.002020431449636817,-4.49655344709754e-05,0.0,0.0,0.0,0.0,-0.0037824746686965227,-0.0009115701541304588,0.0025414330884814262,1.0003576278686523,0.0,0.0,0.0,4.00290584564209,1.379634976387024,4.645414352416992,-724.533935546875,0
277.5609999999997,0.0018348394660279155,-0.001972323516383767,-9.040833538165316e-05,0.0,0.0,0.0,0.0,0.00011045840801671147,-0.00040698194061405957,0.0007565621053799987,0.9994175434112549,0.0,0.0,0.0,3.9996557235717773,1.3764374256134033,4.62698221206665,-723.9456176757812,0
287.48399999999856,0.0018436905229464173,-0.001999541884288192,-7.030471897451207e-05,0.0,0.0,0.0,0.0,0.00026824139058589935,-0.001040621311403811,0.0003830607747659087,0.9972482919692993,0.0,0.0,0.0,3.997204065322876,1.3810447454452515,4.634068012237549,-723.5018920898438,0
297.3869999999988,0.0018631980055943131,-0.0019482127390801907,-0.00012223786325193942,0.0,0.0,0.0,0.0,0.0013652816414833069,-0.005635632202029228,0.0028010334353893995,0.9996492266654968,0.0,0.0,0.0,3.9924933910369873,1.3766261339187622,4.619810104370117,-722.6492309570312,0
307.3079999999991,0.0018546791980043054,-0.00198177807033062,-0.00011470360914245248,0.0,0.0,0.0,0.0,-0.001494246651418507,-0.0008627637871541083,0.004840312525629997,0.9988706707954407,0.0,0.0,0.0,3.9949710369110107,1.379193663597107,4.625519752502441,-723.0977783203125,0
317.21799999999894,0.001810528920032084,-0.002000059001147747,-0.00012107686779927462,0.0,0.0,0.0,0.0,0.0027395649813115597,0.0015568964881822467,-0.0007859871257096529,1.00138258934021,0.0,0.0,0.0,3.9909744262695312,1.3746166229248047,4.626650810241699,-722.3743286132812,0
327.1369999999988,0.0018308841390535235,-0.0020260270684957504,-9.59210010478273e-05,0.0,0.0,0.0,0.0,0.003351637627929449,-0.0008397220517508686,-0.00016127557319123298,1.0001975297927856,0.0,0.0,0.0,3.9938511848449707,1.3798978328704834,4.628871917724609,-722.8950805664062,0
337.04699999999866,0.0018054809188470244,-0.0019877704326063395,-0.00010252508945995942,0.0,0.0,0.0,0.0,-0.0006375474040396512,0.0019674133509397507,-0.0027214798610657454,1.0009111166000366,0.0,0.0,0.0,3.990186929702759,1.3709005117416382,4.622535705566406,-722.2317504882812,0
346.96899999999914,0.001828787731938064,-0.0020173536613583565,-7.629799074493349e-05,0.0,0.0,0.0,0.0,-0.0017914121272042394,4.668104156735353e-05,-0.0020790433045476675,0.9993706941604614,0.0,0.0,0.0,3.992859125137329,1.3704019784927368,4.6218180656433105,-722.7154541015625,0
356.8719999999994,0.0017964810831472278,-0.0020140022970736027,-8.5780571680516e-05,0.0,0.0,0.0,0.0,-0.0008246906800195575,0.0019261776469647884,-0.0007663160213269293,1.0017051696777344,0.0,0.0,0.0,3.987419843673706,1.3675960302352905,4.611690521240234,-721.73095703125,0
366.79299999999967,0.0017439797520637512,-0.0020460744854062796,-8.506386075168848e-05,0.0,0.0,0.0,0.0,-0.0014178779674693942,-0.0024886243045330048,0.0026559061370790005,1.0015665292739868,0.0,0.0,0.0,3.9832448959350586,1.3699862957000732,4.616236209869385,-720.9752807617188,0
376.6980000000003,0.0017276692669838667,-0.002031435491517186,-0.00011109383194707334,0.0,0.0,0.0,0.0,0.001971140969544649,0.0009017462725751102,-0.00041848712135106325,0.9988098740577698,0.0,0.0,0.0,3.9794485569000244,1.3716787099838257,4.602405071258545,-720.2881469726562,0
386.6179999999986,0.0016737941186875105,-0.0020651433151215315,-0.0001099513319786638,0.0,0.0,0.0,0.0,0.0024649603292346,0.0012981726322323084,-0.0008069991017691791,0.9983409643173218,0.0,0.0,0.0,3.976222515106201,1.3722789287567139,4.594551086425781,-719.7042236328125,0
396.52999999999884,0.0016363553004339337,-0.0020319714676588774,-0.00010357928113080561,0.0,0.0,0.0,0.0,-0.0019515223102644086,-0.0012623410439118743,5.50373770238366e-05,0.9992419481277466,0.0,0.0,0.0,3.9720962047576904,1.362017035484314,4.585987567901611,-718.957275390625,0
406.4380000000001,0.0016990656731650233,-0.0020487532019615173,8.07149444881361e-06,0.0,0.0,0.0,0.0,-0.0017279282910749316,0.003970461897552013,0.001399669679813087,1.0007041692733765,0.0,0.0,0.0,3.9764676094055176,1.3632978200912476,4.616067409515381,-719.7485961914062,0
416.35699999999997,0.001702994224615395,-0.0020236605778336525,-3.301192555227317e-05,0.0,0.0,0.0,0.0,0.0028639056254178286,-0.0024501048028469086,0.0025995976757258177,0.9995662569999695,0.0,0.0,0.0,3.980419635772705,1.3771084547042847,4.629989147186279,-720.4638061523438,0
426.27299999999923,0.001669945428147912,-0.0020554596558213234,2.865300302801188e-05,0.0,0.0,0.0,0.0,-0.0006020847358740866,0.0017429274739697576,-0.0014857019996270537,0.99909907579422,0.0,0.0,0.0,3.9823837280273438,1.379069447517395,4.6314520835876465,-720.8193359375,0
436.1749999999993,0.0016907338285818696,-0.0020203704480081797,1.472793701395858e-05,0.0,0.0,0.0,0.0,-0.0013890507398173213,-0.00030604054336436093,0.000381780177121982,0.9990271329879761,0.0,0.0,0.0,3.9902966022491455,1.386041522026062,4.635235786437988,-722.2516479492188,0
446.09100000000035,0.0016364549519494176,-0.002051717136055231,2.151710395992268e-05,0.0,0.0,0.0,0.0,0.00013171958562452346,0.0007398301968351007,-0.000786427641287446,0.9993671774864197,0.0,0.0,0.0,3.984708547592163,1.391357660293579,4.620571613311768,-721.2401733398438,0
456.003999999999,0.0016264658188447356,-0.002006401540711522,2.862132930658845e-07,0.0,0.0,0.0,0.0,0.001489846734330058,-0.0014101654523983598,-0.0019944477826356888,1.000346064567566,0.0,0.0,0.0,3.9806063175201416,1.3940684795379639,4.615608215332031,-720.4976806640625,0
465.92199999999866,0.001575920730829239,-0.002034841338172555,2.8251149615243776e-06,0.0,0.0,0.0,0.0,-4.789509694091976e-05,0.000752923428080976,-0.0031048906967043877,1.000343680381775,0.0,0.0,0.0,3.976578712463379,1.389306902885437,4.605329513549805,-719.7686767578125,0
475.83100000000013,0.0015584001084789634,-0.002012112410739064,-2.641507853695657e-05,0.0,0.0,0.0,0.0,-9.251038864022121e-05,-0.0050379992462694645,0.0006235965411178768,0.9993935823440552,0.0,0.0,0.0,3.972196578979492,1.3899526596069336,4.601162910461426,-718.9754638671875,0
485.7420000000002,0.001504995278082788,-0.0020365258678793907,-2.598195533209946e-05,0.0,0.0,0.0,0.0,-0.002228525700047612,0.0042559243738651276,-0.0004966150154359639,1.0002812147140503,0.0,0.0,0.0,3.968973159790039,1.3856031894683838,4.602396488189697,-718.3920288085938,0
495.66299999999865,0.0014905112329870462,-0.0019843745976686478,-5.04629424540326e-05,0.0,0.0,0.0,0.0,0.0023069530725479126,-0.0003792619099840522,0.0008125772583298385,1.0016741752624512,0.0,0.0,0.0,3.9647810459136963,1.3798153400421143,4.595030307769775,-717.6332397460938,0
505.5739999999987,0.0014365513343364,-0.0020053531043231487,-5.123431037645787e-05,0.0,0.0,0.0,0.0,0.0011017974466085434,-0.002576835686340928,0.0045283702202141285,0.9979280233383179,0.0,0.0,0.0,3.960979700088501,1.3823261260986328,4.578691005706787,-716.9451904296875,0
515.4839999999986,0.001380843692459166,-0.002028867369517684,-5.106422759126872e-05,0.0,0.0,0.0,0.0,-0.0010343741159886122,0.004266167525202036,-0.0014622478047385812,0.9988729953765869,0.0,0.0,0.0,3.9579553604125977,1.378029227256775,4.572441101074219,-716.3978271484375,0
525.4039999999986,0.0013229884207248688,-0.0020537953823804855,-5.160107684787363e-05,0.0,0.0,0.0,0.0,0.0036492319777607918,-0.003051806939765811,-0.00033508960041217506,1.0002708435058594,0.0,0.0,0.0,3.9545464515686035,1.3801946640014648,4.566329002380371,-715.7808227539062,0
535.3199999999997,0.0012622346403077245,-0.00207812013104558,-5.3117910283617675e-05,0.0,0.0,0.0,0.0,-0.0007497754995711148,-0.0021603398490697145,0.003140238346531987,1.0013701915740967,0.0,0.0,0.0,3.9508931636810303,1.376277208328247,4.557958126068115,-715.1195068359375,0
545.2199999999993,0.0011986984172835946,-0.0021023701410740614,-5.428654549177736e-05,0.0,0.0,0.0,0.0,0.001949427998624742,-0.000914882228244096,0.0005179457948543131,1.0010035037994385,0.0,0.0,0.0,3.946716070175171,1.371646523475647,4.55938720703125,-714.3634033203125,0
555.134,0.0011333355214446783,-0.0021273712627589703,-5.4412856115959585e-05,0.0,0.0,0.0,0.0,-0.004676890093833208,-0.0009565531508997083,-0.0013867237139493227,0.9988263249397278,0.0,0.0,0.0,3.9437804222106934,1.3702737092971802,4.562010288238525,-713.8320922851562,0
565.0450000000001,0.0010661000851541758,-0.0021535903215408325,-5.36893930984661e-05,0.0,0.0,0.0,0.0,0.0010936768958345056,0.0017814090242609382,-0.00042462130659259856,0.9976743459701538,0.0,0.0,0.0,3.9394471645355225,1.3691933155059814,4.5619306564331055,-713.0477294921875,0
574.9660000000003,0.0009961127070710063,-0.0021815774962306023,-5.3511219448409975e-05,0.0,0.0,0.0,0.0,0.00019260842236690223,0.003237779252231121,0.00019317366241011769,0.9985061287879944,0.0,0.0,0.0,3.936000347137451,1.3727872371673584,4.5625128746032715,-712.4239501953125,0
584.8809999999994,0.0009229769348166883,-0.002211306942626834,-5.496175435837358e-05,0.0,0.0,0.0,0.0,-0.002114019123837352,-0.002276911400258541,0.003187354886904359,0.9983065128326416,0.0,0.0,0.0,3.932762622833252,1.3719685077667236,4.551853656768799,-711.8378295898438,0
594.7950000000001,0.0013594237389042974,-0.0018439278937876225,-0.00035968286101706326,0.0,0.0,0.0,0.0,-0.0007652580388821661,-0.00245680776424706,0.0017418883508071303,0.9989161491394043,0.0,0.0,0.0,3.937286615371704,1.497951626777649,4.724920749664307,-712.6566772460938,0
604.6959999999999,0.001319433213211596,-0.0018450794741511345,-0.00038410574779845774,0.0,0.0,0.0,0.0,0.001112125115469098,0.0021390956826508045,0.001008087070658803,0.9988210201263428,0.0,0.0,0.0,3.93257212638855,1.4940378665924072,4.720162868499756,-711.8034057617188,0
614.6139999999996,0.001395086175762117,-0.0017605370376259089,-0.00047576709766872227,0.0,0.0,0.0,0.0,0.0007644075667485595,3.679407018353231e-05,0.0014338927576318383,1.0003606081008911,0.0,0.0,0.0,3.942566394805908,1.522004246711731,4.752680778503418,-713.6123657226562,0
624.5149999999994,0.0013572430470958352,-0.0017549981130287051,-0.0005064936121925712,0.0,0.0,0.0,0.0,0.0003567053936421871,-0.002388453809544444,-0.004158813040703535,1.0009934902191162,0.0,0.0,0.0,3.939479112625122,1.5224487781524658,4.746417999267578,-713.0535888671875,0
634.4449999999997,0.0013165491400286555,-0.0017501465044915676,-0.0005369824939407408,0.0,0.0,0.0,0.0,-0.0002809595607686788,0.004221532493829727,-0.002550368430092931,0.9997684359550476,0.0,0.0,0.0,3.934415340423584,1.5230553150177002,4.737549304962158,-712.1370239257812,0
644.3449999999993,0.0012736705830320716,-0.0017453088657930493,-0.0005668232915922999,0.0,0.0,0.0,0.0,0.0005852288450114429,-0.002146331826224923,-0.0012115206336602569,0.9994155764579773,0.0,0.0,0.0,3.928678035736084,1.5185562372207642,4.726815700531006,-711.0985717773438,0
654.268,0.0012294825864955783,-0.0017409466672688723,-0.0005966515745967627,0.0,0.0,0.0,0.0,-0.0026400017086416483,0.0007011030102148652,0.00020611022773664445,1.0011157989501953,0.0,0.0,0.0,3.9250025749206543,1.5161769390106201,4.720180034637451,-710.4332885742188,0
664.1729999999989,0.0011848403373733163,-0.0017387367552146316,-0.0006263308459892869,0.0,0.0,0.0,0.0,-4.194088251097128e-05,0.0025162440724670887,-0.0018906132318079472,1.0002655982971191,0.0,0.0,0.0,3.920746088027954,1.5113890171051025,4.71685791015625,-709.6627807617188,0
674.0889999999999,0.0011404085671529174,-0.0017379064811393619,-0.0006553822895511985,0.0,0.0,0.0,0.0,-0.00115202646702528,-0.0003013689711224288,0.0024768684525042772,0.9994831681251526,0.0,0.0,0.0,3.916694164276123,1.5105961561203003,4.706767559051514,-708.929443359375,0
683.994999999999,0.001807589316740632,-0.0020293358247727156,-6.913326069479808e-05,0.0,0.0,0.0,0.0,-0.0012544644996523857,-0.0037641890812665224,0.00156986468937248,0.9995117783546448,0.0,0.0,0.0,3.926349401473999,1.4615015983581543,4.806795597076416,-710.6770629882812,0
693.9200000000001,0.0017923559062182903,-0.002037621336057782,-7.509878923883662e-05,0.0,0.0,0.0,0.0,-0.00011632523819571361,-0.0007081952062435448,0.0011955741792917252,1.001455545425415,0.0,0.0,0.0,3.923111915588379,1.4575281143188477,4.8215436935424805,-710.0911254882812,0
703.8230000000003,0.0018319631926715374,-0.002051429357379675,-5.19863169756718e-05,0.0,0.0,0.0,0.0,-0.0006684453692287207,-0.0028543234802782536,-0.005586490035057068,1.000137448310852,0.0,0.0,0.0,3.9287946224212646,1.460456132888794,4.824354648590088,-711.11962890625,0
713.7420000000002,0.0018158052116632462,-0.0020625058095902205,-5.58993560844101e-05,0.0,0.0,0.0,0.0,0.0003483472974039614,-0.0026677686255425215,-0.0006855990504845977,0.9989933967590332,0.0,0.0,0.0,3.9237987995147705,1.4620449542999268,4.814626216888428,-710.2153930664062,0
723.6479999999992,0.0017532395431771874,-0.0020473820623010397,-2.0430241420399398e-05,0.0,0.0,0.0,0.0,-0.0008619792060926557,0.000633537070825696,-0.0011837398633360863,1.000133752822876,0.0,0.0,0.0,3.9320969581604004,1.4716240167617798,4.818074703216553,-711.7173461914062,0
733.5659999999989,0.0017532395431771874,-0.0020473820623010397,-2.0430241420399398e-05,0.0,0.0,0.0,0.0,0.00047773317783139646,-0.00027671761927194893,-0.0011648447252810001,1.0008492469787598,0.0,0.0,0.0,3.9320969581604004,1.4716240167617798,4.818074703216553,-711.7173461914062,0
743.4830000000002,0.0017640107544139028,-0.002065289067104459,-1.3613400369649753e-05,0.0,0.0,0.0,0.0,-0.000983581179752946,-0.0015581708867102861,-0.0005528106121346354,0.9997759461402893,0.0,0.0,0.0,3.937793731689453,1.467302918434143,4.820552825927734,-712.7484741210938,0
753.393,0.0017640107544139028,-0.002065289067104459,-1.3613400369649753e-05,0.0,0.0,0.0,0.0,-0.0019974554888904095,0.0007213653298094869,-0.005872152280062437,0.9993118643760681,0.0,0.0,0.0,3.937793731689453,1.467302918434143,4.820552825927734,-712.7484741210938,0
763.2960000000003,0.001778542879037559,-0.0020814170129597187,-4.420113782543922e-06,0.0,0.0,0.0,0.0,-0.0008805911056697369,0.002041302155703306,-0.0018253241432830691,0.9999836087226868,0.0,0.0,0.0,3.949002981185913,1.469058871269226,4.824882507324219,-714.77734375,0
773.223,0.001778542879037559,-0.0020814170129597187,-4.420113782543922e-06,0.0,0.0,0.0,0.0,-0.0009802913991734385,-0.0007669684709981084,-0.000765992677770555,0.9998205900192261,0.0,0.0,0.0,3.949002981185913,1.469058871269226,4.824882507324219,-714.77734375,0
783.1229999999996,0.0017891987226903439,-0.002095770323649049,8.578126653446816e-06,0.0,0.0,0.0,0.0,0.0015578524908050895,-0.0021167693194001913,-0.00047473254380747676,1.0008959770202637,0.0,0.0,0.0,3.9521026611328125,1.4691232442855835,4.820046424865723,-715.3385009765625,0
793.0460000000003,0.0017891987226903439,-0.002095770323649049,8.578126653446816e-06,0.0,0.0,0.0,0.0,0.005151481367647648,0.003166561247780919,-0.0022766990587115288,0.9996212124824524,0.0,0.0,0.0,3.9521026611328125,1.4691232442855835,4.820046424865723,-715.3385009765625,0
802.9489999999987,0.0017828996060416102,-0.0021209183614701033,2.2238844394451007e-05,0.0,0.0,0.0,0.0,0.0011329823173582554,-0.0002687455271370709,-0.001460982603020966,0.9982399344444275,0.0,0.0,0.0,3.961469888687134,1.452133297920227,4.813813209533691,-717.033935546875,0
812.8719999999994,0.0017828996060416102,-0.0021209183614701033,2.2238844394451007e-05,0.0,0.0,0.0,0.0,0.0005745926173403859,0.0021812820341438055,0.0013964743120595813,0.9994860291481018,0.0,0.0,0.0,3.961469888687134,1.452133297920227,4.813813209533691,-717.033935546875,0
822.7789999999986,0.0017841245280578732,-0.0021390621550381184,4.279255517758429e-05,0.0,0.0,0.0,0.0,0.0016173988115042448,-0.0011824312387034297,-0.001872786320745945,0.9984637498855591,0.0,0.0,0.0,3.9672298431396484,1.449998378753662,4.812953472137451,-718.0765380859375,0
832.7009999999991,0.0017841245280578732,-0.0021390621550381184,4.279255517758429e-05,0.0,0.0,0.0,0.0,0.0006012601661495864,-0.0014693866251036525,0.002632615389302373,1.000286340713501,0.0,0.0,0.0,3.9672298431396484,1.449998378753662,4.812953472137451,-718.0765380859375,0
842.6000000000004,0.0017818794585764408,-0.0021594034042209387,6.555618165293708e-05,0.0,0.0,0.0,0.0,0.00017383662634529173,-0.0023092287592589855,-0.0002144865138689056,0.9994884133338928,0.0,0.0,0.0,3.9664852619171143,1.4474825859069824,4.824915885925293,-717.9417114257812,0
852.5209999999988,0.0017818794585764408,-0.0021594034042209387,6.555618165293708e-05,0.0,0.0,0.0,0.0,0.0009081804309971631,-0.0009760303073562682,0.0013983009848743677,0.999475359916687,0.0,0.0,0.0,3.9664852619171143,1.4474825859069824,4.824915885925293,-717.9417114257812,0
862.4259999999995,0.0017106758896261454,-0.002155460650101304,0.00011357048788340762,0.0,0.0,0.0,0.0,-0.0019473668653517962,0.003420389024540782,0.0008057440863922238,1.0003496408462524,0.0,0.0,0.0,3.9701974391937256,1.4679803848266602,4.819344997406006,-718.6135864257812,0
872.3490000000002,0.0017784815281629562,-0.0019262192072346807,-0.0001956967607839033,0.0,0.0,0.0,0.0,-0.0009304116829298437,-0.0002909880131483078,0.003550692228600383,0.9992510080337524,0.0,0.0,0.0,3.978496551513672,1.5089755058288574,4.8337883949279785,-720.1157836914062,0
882.2529999999988,0.0017296054866164923,-0.0019441584590822458,-0.00018955273844767362,0.0,0.0,0.0,0.0,7.683924923185259e-05,0.0015289712464436889,-0.0005135558312758803,0.9997138977050781,0.0,0.0,0.0,3.98498272895813,1.5122660398483276,4.831399440765381,-721.289794921875,0
892.1759999999995,0.001698705367743969,-0.0019412724068388343,-0.00019858394807670265,0.0,0.0,0.0,0.0,0.0012366935843601823,0.0024841756094247103,-0.0016176853096112609,0.9988306164741516,0.0,0.0,0.0,3.9886209964752197,1.5104267597198486,4.826353549957275,-721.9483642578125,0
902.0820000000003,0.0016634585335850716,-0.0019489104161038995,-0.00020320039766374975,0.0,0.0,0.0,0.0,-0.00105898582842201,-0.003562017809599638,-0.001459001563489437,0.9980153441429138,0.0,0.0,0.0,3.984412908554077,1.5082557201385498,4.825957775115967,-721.1867065429688,0
912.003999999999,0.0016489570261910558,-0.0019418698502704501,-0.00016442855121567845,0.0,0.0,0.0,0.0,0.000968214706517756,-0.00017863590619526803,-0.002537513617426157,0.998967170715332,0.0,0.0,0.0,3.991107225418091,1.5114799737930298,4.822239875793457,-722.3983764648438,0
921.905999999999,0.0016782301245257258,-0.0019514771411195397,-7.552540773758665e-05,0.0,0.0,0.0,0.0,-0.0015072213718667626,-0.0001514841860625893,0.0014337716856971383,0.9999933242797852,0.0,0.0,0.0,3.9931814670562744,1.5082343816757202,4.846682071685791,-722.7738647460938,0
931.8220000000001,0.0016731803771108389,-0.001942977774888277,-6.41121223452501e-05,0.0,0.0,0.0,0.0,-0.0015661328798159957,-0.002368451561778784,-0.005169958807528019,1.0015299320220947,0.0,0.0,0.0,3.9994170665740967,1.5095930099487305,4.846100330352783,-723.9024658203125,0
941.7309999999998,0.0016829337691888213,-0.0019500072812661529,-4.279395398043562e-06,0.0,0.0,0.0,0.0,-0.0018655535532161593,-0.0008524630102328956,-0.001502801082096994,1.0012246370315552,0.0,0.0,0.0,4.002181529998779,1.5186635255813599,4.846391201019287,-724.4027709960938,0
951.646999999999,0.0016901327762752771,-0.0019240624969825149,-4.528043518803315e-06,0.0,0.0,0.0,0.0,-0.0018046757904812694,0.00096409663092345,-0.0012040446745231748,1.0003485679626465,0.0,0.0,0.0,4.011605739593506,1.5219075679779053,4.84763240814209,-726.1085815429688,0
961.5559999999987,0.0016467386158183217,-0.0019605779089033604,1.1394433386158198e-05,0.0,0.0,0.0,0.0,-0.0017873593606054783,-0.001562923425808549,0.0036635592114180326,0.9996826648712158,0.0,0.0,0.0,4.009420394897461,1.5140790939331055,4.83764123916626,-725.7130126953125,0
971.4709999999995,0.0016971542499959469,-0.0019285189919173717,-4.355911733000539e-05,0.0,0.0,0.0,0.0,0.0037722510751336813,0.001365487463772297,-0.0010960903018712997,0.998004674911499,0.0,0.0,0.0,4.009420394897461,1.5140790939331055,4.83764123916626,-725.7130126953125,0
981.3909999999996,0.0017531164921820164,-0.00198260135948658,-8.815477485768497e-06,0.0,0.0,0.0,0.0,-0.0018595203291624784,-0.004639831371605396,-0.0008881704998202622,1.0005366802215576,0.0,0.0,0.0,4.010634422302246,1.5036168098449707,4.837885856628418,-725.9327392578125,0
991.2979999999989,0.0018341338727623224,-0.0019011481199413538,-8.150374924298376e-05,0.0,0.0,0.0,0.0,-0.0011414341861382127,0.0006710030720569193,0.003187124850228429,1.0013712644577026,0.0,0.0,0.0,4.010634422302246,1.5036168098449707,4.837885856628418,-725.9327392578125,0
1001.2079999999987,0.0018030870705842972,-0.0019386302446946502,-8.247926598414779e-05,0.0,0.0,0.0,0.0,-0.0001212226998177357,-0.003714747726917267,0.0012187290703877807,1.0012575387954712,0.0,0.0,0.0,4.013468265533447,1.495303750038147,4.848576545715332,-726.4457397460938,0
1011.1209999999992,0.0018504182808101177,-0.0018994103884324431,-0.00012791110202670097,0.0,0.0,0.0,0.0,-0.0007243220461532474,0.00321147870272398,0.0006033292156644166,1.000210165977478,0.0,0.0,0.0,4.022066593170166,1.5007156133651733,4.855253219604492,-728.0020751953125,0
1021.0389999999989,0.0017898468067869544,-0.0019324056338518858,-0.00013771375233773142,0.0,0.0,0.0,0.0,0.004837722983211279,0.0017992990324273705,-0.004327963571995497,0.9978187084197998,0.0,0.0,0.0,4.021275997161865,1.5014835596084595,4.834516525268555,-727.8590087890625,0
1030.9539999999997,0.0018391307676211,-0.0018410523189231753,-0.00016548849816899747,0.0,0.0,0.0,0.0,0.00021182253840379417,-0.002989818574860692,0.0013258486287668347,1.0012931823730469,0.0,0.0,0.0,4.021275997161865,1.5014835596084595,4.834516525268555,-727.8590087890625,0
1040.8670000000002,0.0018050731159746647,-0.0018904482712969184,-0.00017914833733811975,0.0,0.0,0.0,0.0,-0.0008781064534559846,0.0011531158816069365,0.0013773232931271195,0.9996315240859985,0.0,0.0,0.0,4.024795055389404,1.4884800910949707,4.824238300323486,-728.4959106445312,0
1050.7839999999997,0.0017712910193949938,-0.0018750304589048028,-0.00018248760898131877,0.0,0.0,0.0,0.0,-0.0016394996782764792,0.0009661407675594091,0.0026861955411732197,0.9996187090873718,0.0,0.0,0.0,4.021494388580322,1.4869747161865234,4.822696685791016,-727.8984985351562,0
1060.6989999999987,0.00172433874104172,-0.001889777835458517,-0.000187609824934043,0.0,0.0,0.0,0.0,0.004186788573861122,0.00299536669626832,-0.004438317380845547,1.0022586584091187,0.0,0.0,0.0,4.0172295570373535,1.4816118478775024,4.811375617980957,-727.1265869140625,0
1070.5990000000002,0.0016859406605362892,-0.001911226543597877,-0.00014497016672976315,0.0,0.0,0.0,0.0,0.0032260557636618614,0.0076734344474971294,0.0011764067457988858,0.9988377094268799,0.0,0.0,0.0,4.0172295570373535,1.4816118478775024,4.811375617980957,-727.1265869140625,0
1080.5190000000002,0.001590050640515983,-0.0019478782778605819,-0.0001443531655240804,0.0,0.0,0.0,0.0,-6.934998964425176e-05,6.192203727550805e-05,0.0021274297032505274,0.9992429614067078,0.0,0.0,0.0,4.009785175323486,1.467271089553833,4.7802252769470215,-725.779052734375,0
1090.4300000000003,0.0015931343659758568,-0.0019113587914034724,-0.00013198878150433302,0.0,0.0,0.0,0.0,0.0018615387380123138,0.0001669307384872809,0.0010597668588161469,1.0001651048660278,0.0,0.0,0.0,4.009785175323486,1.467271089553833,4.7802252769470215,-725.779052734375,0
1100.3449999999993,0.0016726950416341424,-0.0019561925437301397,-4.311375232646242e-05,0.0,0.0,0.0,0.0,-0.0005493327626027167,-0.00030414207139983773,-0.0001260846183868125,1.0016587972640991,0.0,0.0,0.0,4.015305995941162,1.4575905799865723,4.812789440155029,-726.7784423828125,0
1110.2519999999986,0.001643470604903996,-0.0019510457059368491,-4.211793566355482e-05,0.0,0.0,0.0,0.0,0.0014425951521843672,0.0005605865153484046,0.0018092859536409378,1.000221848487854,0.0,0.0,0.0,4.011353492736816,1.4586101770401,4.808825969696045,-726.0629272460938,0
1120.1759999999995,0.0017366763204336166,-0.0020182249136269093,9.358154784422368e-08,0.0,0.0,0.0,0.0,-0.0008282511262223125,0.0027221697382628918,0.004412167239934206,0.9994862079620361,0.0,0.0,0.0,4.017648220062256,1.4404881000518799,4.824867248535156,-727.2023315429688,0
1130.0779999999995,0.0017129493644461036,-0.0019978564232587814,7.795426427037455e-06,0.0,0.0,0.0,0.0,-0.0024025114253163338,0.0027145855128765106,-0.0005613120156340301,1.0011800527572632,0.0,0.0,0.0,4.014228343963623,1.438909888267517,4.811934471130371,-726.5833740234375,0
1140.0,0.0018100542947649956,-0.0020888354629278183,2.9919721782789566e-05,0.0,0.0,0.0,0.0,-0.0013589849695563316,-0.00016914437583182007,-0.006286806892603636,1.000575304031372,0.0,0.0,0.0,4.021561622619629,1.4192415475845337,4.816483497619629,-727.9107055664062,0
1149.9139999999989,0.001785891829058528,-0.0020538128446787596,4.6575321903219447e-05,0.0,0.0,0.0,0.0,-0.001787159126251936,-0.00011142541916342452,0.0024744782131165266,0.9998028874397278,0.0,0.0,0.0,4.017690658569336,1.4262295961380005,4.8083014488220215,-727.2100219726562,0
1159.8359999999993,0.0017898911610245705,-0.0020857001654803753,7.046129030641168e-05,0.0,0.0,0.0,0.0,-0.002153103007003665,0.0028225986752659082,-0.0017870336305350065,0.9995065927505493,0.0,0.0,0.0,4.019552707672119,1.4239282608032227,4.803468227386475,-727.5470581054688,0
1169.735999999999,0.001841833465732634,-0.001997457118704915,5.972529834252782e-06,0.0,0.0,0.0,0.0,0.0024605963844805956,0.000646539032459259,-0.0023725309874862432,0.9984874129295349,0.0,0.0,0.0,4.02156400680542,1.4476228952407837,4.816902160644531,-727.9110717773438,0
1179.6530000000002,0.0018170841503888369,-0.0020225418265908957,1.2952972610946745e-05,0.0,0.0,0.0,0.0,-0.00028767218464054167,-0.00042123757884837687,-0.004147783853113651,0.9995713233947754,0.0,0.0,0.0,4.0227861404418945,1.4444626569747925,4.804766654968262,-728.13232421875,0
1189.554,0.0018590122926980257,-0.0019511568825691938,-4.982064638170414e-05,0.0,0.0,0.0,0.0,0.00113478593993932,-0.0021919303108006716,0.0025465856306254864,0.999652087688446,0.0,0.0,0.0,4.019232273101807,1.448487639427185,4.802367210388184,-727.4890747070312,0
1199.4789999999994,0.0018018473638221622,-0.0019883199129253626,-7.026804087217897e-05,0.0,0.0,0.0,0.0,0.0019575711339712143,0.0009860240388661623,0.00047561622341163456,1.0000946521759033,0.0,0.0,0.0,4.025799751281738,1.4405986070632935,4.800238132476807,-728.677734375,0
1209.3850000000002,0.0018064295873045921,-0.0019289207411929965,-7.250208000186831e-05,0.0,0.0,0.0,0.0,-0.003238316625356674,-0.0011379135539755225,-0.002227921737357974,0.9992446303367615,0.0,0.0,0.0,4.02928352355957,1.4530482292175293,4.805053234100342,-729.308349609375,0
1219.3019999999997,0.0017636726843193173,-0.001951198442839086,-7.276855467353016e-05,0.0,0.0,0.0,0.0,0.004827540833503008,0.001683753915131092,-0.003664277493953705,0.9996375441551208,0.0,0.0,0.0,4.024625301361084,1.4426920413970947,4.782950401306152,-728.4652099609375,0
1229.2079999999987,0.0017398456111550331,-0.0019612982869148254,-9.566913649905473e-05,0.0,0.0,0.0,0.0,0.0008513449574820697,-0.005581645295023918,0.00018971732060890645,0.9972403645515442,0.0,0.0,0.0,4.020218849182129,1.4385006427764893,4.785869121551514,-727.6676635742188,0
1239.1299999999992,0.0017171470681205392,-0.0019515150925144553,-7.08171064616181e-05,0.0,0.0,0.0,0.0,-0.0023670466616749763,0.00042772002052515745,0.002567060524597764,0.9975094199180603,0.0,0.0,0.0,4.022924900054932,1.4395354986190796,4.786923408508301,-728.157470703125,0
1249.0329999999994,0.0017292206175625324,-0.001892784726805985,-0.00012242881348356605,0.0,0.0,0.0,0.0,-0.002431954024359584,0.0006826017051935196,0.0007141265086829662,0.998883843421936,0.0,0.0,0.0,4.019995212554932,1.442659616470337,4.782172203063965,-727.627197265625,0
1258.9570000000003,0.0017855247715488076,-0.0019336191471666098,-0.00010703904263209552,0.0,0.0,0.0,0.0,-0.00040920014725998044,0.0010760389268398285,-0.0009098373702727258,1.0010464191436768,0.0,0.0,0.0,4.01513671875,1.4491524696350098,4.778948783874512,-726.7477416992188,0
1268.8799999999992,0.0018369958270341158,-0.0019233099883422256,-0.0001339943119091913,0.0,0.0,0.0,0.0,0.0015593848656862974,-0.0026913792826235294,0.0004998368676751852,0.9983038306236267,0.0,0.0,0.0,4.01115083694458,1.4509726762771606,4.781179904937744,-726.0262451171875,0
1278.7849999999999,0.0017965870210900903,-0.0019444298231974244,-0.00014319187903311104,0.0,0.0,0.0,0.0,0.0008124351734295487,1.1765734598156996e-05,0.0003911918611265719,1.0004703998565674,0.0,0.0,0.0,4.006345748901367,1.4431333541870117,4.7681379318237305,-725.1565551757812,0
1288.688,0.0017546702874824405,-0.0019744555465877056,-0.00015694259491283447,0.0,0.0,0.0,0.0,-0.0015623446088284254,2.999685784743633e-05,0.0015680479118600488,1.0004528760910034,0.0,0.0,0.0,4.002866744995117,1.4417355060577393,4.769777774810791,-724.52685546875,0
1298.610999999999,0.0018022245494648814,-0.002002160996198654,-0.00013677595416083932,0.0,0.0,0.0,0.0,0.0009266294073313475,0.003908188547939062,-0.0010416845325380564,0.9996144771575928,0.0,0.0,0.0,4.0078301429748535,1.4379048347473145,4.782280445098877,-725.4252319335938,0
1308.521999999999,0.001756365760229528,-0.0020232019014656544,-0.00013916249736212194,0.0,0.0,0.0,0.0,-0.00019046799570787698,-0.0022052123676985502,-0.0004933387972414494,1.0014725923538208,0.0,0.0,0.0,4.00292444229126,1.4358152151107788,4.769676208496094,-724.5372924804688,0
1318.4390000000003,0.0017119410913437605,-0.002048294059932232,-0.0001459741615690291,0.0,0.0,0.0,0.0,0.0010618424275889993,-0.000655750569421798,0.001982429064810276,1.0026620626449585,0.0,0.0,0.0,3.9988090991973877,1.4406131505966187,4.769505500793457,-723.7924194335938,0
1328.3439999999991,0.0017972144996747375,-0.0020570571068674326,-0.00010658582323230803,0.0,0.0,0.0,0.0,0.00022306916071102023,0.0003211426374036819,-0.0018502628663554788,1.0013514757156372,0.0,0.0,0.0,3.9944958686828613,1.43931245803833,4.769912242889404,-723.01171875,0
1338.2639999999992,0.0017580501735210419,-0.0020834130700677633,-0.00010630514589138329,0.0,0.0,0.0,0.0,-0.001496833865530789,-0.0023155275266617537,0.0002733518194872886,1.000901699066162,0.0,0.0,0.0,3.9899392127990723,1.437117576599121,4.768590927124023,-722.1869506835938,0
1348.1710000000003,0.001790215726941824,-0.0020837122574448586,-5.2298684749985114e-05,0.0,0.0,0.0,0.0,-0.002788624493405223,-0.0003568091487977654,-0.0017390536377206445,1.0006213188171387,0.0,0.0,0.0,4.004234313964844,1.4446362257003784,4.781613349914551,-724.7743530273438,0
1358.1009999999987,0.0017485566204413772,-0.0021106137428432703,-4.5540251448983327e-05,0.0,0.0,0.0,0.0,-0.0032166840974241495,-0.001375942025333643,0.00178458821028471,1.0000120401382446,0.0,0.0,0.0,3.9998464584350586,1.4456520080566406,4.777082920074463,-723.9801635742188,0
1368.0,0.0017896984936669469,-0.0020937430672347546,1.1673376320686657e-05,0.0,0.0,0.0,0.0,-2.5553740670147818e-06,-0.0024338678922504187,-0.00037783189327456057,0.9997931122779846,0.0,0.0,0.0,4.005573749542236,1.4487961530685425,4.78811502456665,-725.0167846679688,0
1377.923999999999,0.0017448124708607793,-0.0021217872854322195,2.2895987058291212e-05,0.0,0.0,0.0,0.0,-0.000761674193199724,-0.0016454230062663555,0.002942404244095087,1.0002288818359375,0.0,0.0,0.0,4.001771450042725,1.455005407333374,4.787528991699219,-724.3285522460938,0
1387.8329999999987,0.0017897238722071052,-0.0020803497172892094,1.2330326171650086e-05,0.0,0.0,0.0,0.0,-5.5934749980224296e-05,-0.0013386978534981608,0.0005454749916680157,0.9992731213569641,0.0,0.0,0.0,4.013711452484131,1.4641218185424805,4.80283260345459,-726.4898071289062,0
1397.7420000000002,0.001744450069963932,-0.0021076323464512825,2.1976848074700683e-05,0.0,0.0,0.0,0.0,0.004895483609288931,-0.001381699345074594,0.0018181954510509968,1.0014346837997437,0.0,0.0,0.0,4.009434700012207,1.4595245122909546,4.80146598815918,-725.7156372070312,0
1407.6539999999986,0.0017031840980052948,-0.0020397936459630728,-4.415413513925159e-06,0.0,0.0,0.0,0.0,0.0009236264158971608,0.000982330646365881,0.0012706620618700981,1.001434087753296,0.0,0.0,0.0,4.014068126678467,1.4618091583251953,4.78720760345459,-726.5543212890625,0
1417.5640000000003,0.0016581463860347867,-0.0020670234225690365,4.3162012843822595e-06,0.0,0.0,0.0,0.0,-0.0020883092656731606,-0.0010855646105483174,0.00341128115542233,0.998434841632843,0.0,0.0,0.0,4.010207176208496,1.456770658493042,4.778548240661621,-725.8554077148438,0
1427.482,0.0016681051347404718,-0.0020268643274903297,-3.2717969588702545e-05,0.0,0.0,0.0,0.0,0.0023130199406296015,0.004099628422409296,0.006115575786679983,0.9994807839393616,0.0,0.0,0.0,4.006298542022705,1.4574180841445923,4.7794904708862305,-725.14794921875,0
1437.3959999999988,0.0016235768562182784,-0.0020539602264761925,-2.771700019366108e-05,0.0,0.0,0.0,0.0,-0.0008918071980588138,-0.0013694477966055274,0.0014286821242421865,0.9981511235237122,0.0,0.0,0.0,4.002469062805176,1.4572076797485352,4.754179954528809,-724.4548950195312,0
1447.3050000000003,0.0016706178430467844,-0.001963006565347314,-9.81830817181617e-05,0.0,0.0,0.0,0.0,-0.0010754185495898128,0.0009870276553556323,-0.0019032559357583523,0.9993519186973572,0.0,0.0,0.0,4.006777763366699,1.4796538352966309,4.775455951690674,-725.2347412109375,0
1457.208999999999,0.0016309068305417895,-0.001984747825190425,-0.00010079066851176322,0.0,0.0,0.0,0.0,0.0031027786899358034,0.001265577389858663,0.002328414237126708,1.0001057386398315,0.0,0.0,0.0,4.003214359283447,1.4779446125030518,4.765747547149658,-724.5897216796875,0
1467.1239999999998,0.0015941036399453878,-0.001975276740267873,-9.413828229298815e-05,0.0,0.0,0.0,0.0,-0.000420962373027578,-0.002681543817743659,0.0006802966818213463,1.0003875494003296,0.0,0.0,0.0,3.999591588973999,1.4733397960662842,4.757986068725586,-723.9340209960938,0
1477.0339999999997,0.0015520373126491904,-0.0019978538621217012,-9.589399996912107e-05,0.0,0.0,0.0,0.0,-0.0012889706995338202,0.00016569159924983978,-0.000545472139492631,0.9984895586967468,0.0,0.0,0.0,3.9963810443878174,1.4659035205841064,4.761039733886719,-723.3529052734375,0
1486.9560000000001,0.0017643659375607967,-0.002060718135908246,-1.378141314489767e-05,0.0,0.0,0.0,0.0,5.6483582739019766e-05,-0.0018324030097573996,-0.004053350072354078,1.000052571296692,0.0,0.0,0.0,4.01021671295166,1.45256507396698,4.842130661010742,-725.857177734375,0
1496.8760000000002,0.0017381341895088553,-0.002087527886033058,-1.121986861107871e-05,0.0,0.0,0.0,0.0,0.0002709962718654424,-0.0005844563129357994,0.004319718573242426,0.9993685483932495,0.0,0.0,0.0,4.006783962249756,1.4563463926315308,4.840651035308838,-725.23583984375,0
1506.7759999999998,0.0017187738558277488,-0.0020779939368367195,-4.252511644153856e-06,0.0,0.0,0.0,0.0,0.001739563187584281,-0.0006080901948735118,0.0021792594343423843,1.0012283325195312,0.0,0.0,0.0,4.003893852233887,1.460794448852539,4.833307266235352,-724.7127075195312,0
1516.6859999999997,0.0016892981948330998,-0.0021058504935353994,-1.6506292013218626e-06,0.0,0.0,0.0,0.0,0.000761594099458307,0.0018806420266628265,-7.551514136139303e-05,1.0011093616485596,0.0,0.0,0.0,4.000855922698975,1.4613298177719116,4.836415767669678,-724.162841796875,0
1526.6000000000004,0.001791373360902071,-0.002126800362020731,5.9833535487996414e-05,0.0,0.0,0.0,0.0,-0.0013854046119377017,0.001219092053361237,-0.0019693165086209774,1.0000945329666138,0.0,0.0,0.0,4.01272439956665,1.4502971172332764,4.8606486320495605,-726.31103515625,0
1536.5149999999994,0.0017664089100435376,-0.002156249713152647,6.808953185100108e-05,0.0,0.0,0.0,0.0,-0.002752401400357485,0.00019470069673843682,0.0002012292534345761,0.999951183795929,0.0,0.0,0.0,4.008254051208496,1.4535588026046753,4.861678123474121,-725.5018920898438,0
1546.4249999999993,0.0018191947601735592,-0.0020958073437213898,4.684657687903382e-05,0.0,0.0,0.0,0.0,0.0017040921375155449,-0.002436904702335596,-0.0017094151116907597,1.0004767179489136,0.0,0.0,0.0,4.004013538360596,1.4487175941467285,4.851029872894287,-724.7344360351562,0
1556.3439999999991,0.001791693503037095,-0.0021225963719189167,5.3807922085979953e-05,0.0,0.0,0.0,0.0,-0.0009415983804501593,-0.001052527455613017,0.0005498596001416445,1.0006427764892578,0.0,0.0,0.0,4.000646114349365,1.4503412246704102,4.8485846519470215,-724.1249389648438,0
1566.2519999999986,0.0018820302793756127,-0.002118970500305295,2.655330899870023e-05,0.0,0.0,0.0,0.0,0.0014298736350610852,0.004681709688156843,-0.0018791784532368183,1.000382661819458,0.0,0.0,0.0,3.9968326091766357,1.4555537700653076,4.843770503997803,-723.4346923828125,0
1576.1689999999999,0.0018515458796173334,-0.002146522281691432,3.2607138564344496e-05,0.0,0.0,0.0,0.0,0.00300368620082736,0.0006323984125629067,0.0016193564515560865,1.0001367330551147,0.0,0.0,0.0,3.9933207035064697,1.454243540763855,4.847446441650391,-722.7990112304688,0
1586.0859999999993,0.0018429062329232693,-0.002047075191512704,-1.8408467440167442e-05,0.0,0.0,0.0,0.0,-0.0013133767060935497,0.0004211926425341517,-0.0027598070446401834,1.0021822452545166,0.0,0.0,0.0,3.99784779548645,1.452162265777588,4.820742607116699,-723.618408203125,0
1595.9889999999996,0.0018106980714946985,-0.0020718907471746206,-1.4840978110441938e-05,0.0,0.0,0.0,0.0,-0.00013763387687504292,-0.002343398053199053,-0.00011088776955148205,1.000959038734436,0.0,0.0,0.0,3.993576765060425,1.4538229703903198,4.816126823425293,-722.8453979492188,0
1605.9069999999992,0.0018038874259218574,-0.0019541080109775066,-5.710671393899247e-05,0.0,0.0,0.0,0.0,5.927530219196342e-05,0.003448828123509884,-0.0008628936484456062,0.9992067813873291,0.0,0.0,0.0,4.0010552406311035,1.464915156364441,4.799126625061035,-724.198974609375,0
1615.8400000000001,0.0017798267072066665,-0.0019718091934919357,-6.445002509281039e-05,0.0,0.0,0.0,0.0,-0.0026244206819683313,0.003522366750985384,0.0007471336284652352,0.9993950128555298,0.0,0.0,0.0,3.9972174167633057,1.4616345167160034,4.794530391693115,-723.5042724609375,0
1625.732,0.0017240229062736034,-0.001984366914257407,-6.298603693721816e-05,0.0,0.0,0.0,0.0,0.0038394101429730654,0.0030457123648375273,0.004347527865320444,0.9975454807281494,0.0,0.0,0.0,4.005236625671387,1.4594385623931885,4.787729263305664,-724.9557495117188,0
1635.6399999999994,0.0016847497317939997,-0.002011538716033101,-6.203474913490936e-05,0.0,0.0,0.0,0.0,-0.0026461384259164333,0.0046564023941755295,-0.00802023895084858,0.999534010887146,0.0,0.0,0.0,4.002360820770264,1.4625588655471802,4.771090030670166,-724.4352416992188,0
1645.557999999999,0.0017180192517116666,-0.0020143890287727118,-4.317558341426775e-05,0.0,0.0,0.0,0.0,-0.00031838720315136015,0.0014481914695352316,-0.0022911629639565945,0.9991862177848816,0.0,0.0,0.0,4.012457370758057,1.4646408557891846,4.770881175994873,-726.2627563476562,0
1655.4789999999994,0.0017178617417812347,-0.0019946310203522444,-7.699755224166438e-05,0.0,0.0,0.0,0.0,0.0011654732516035438,0.0017171449726447463,-0.001979745691642165,0.9985669255256653,0.0,0.0,0.0,4.0128703117370605,1.4759639501571655,4.762296199798584,-726.3374633789062,0
1665.3829999999998,0.0016741278814151883,-0.002025882015004754,-7.981599628692493e-05,0.0,0.0,0.0,0.0,-0.0010531352600082755,0.0011470139725133777,0.0017629368230700493,0.9975894093513489,0.0,0.0,0.0,4.009266376495361,1.4715898036956787,4.74486780166626,-725.6851806640625,0
1675.2909999999993,0.0016722904983907938,-0.0019715919625014067,-0.00010639556421665475,0.0,0.0,0.0,0.0,-0.001299256575293839,-0.0003178714541718364,-0.0027520162984728813,1.0009092092514038,0.0,0.0,0.0,4.004812717437744,1.4680665731430054,4.737254619598389,-724.8790283203125,0
1685.2070000000003,0.0016281247371807694,-0.0020021337550133467,-0.00011327108222758397,0.0,0.0,0.0,0.0,0.0024757878854870796,-0.0005737280007451773,-0.00016010164108593017,1.001948356628418,0.0,0.0,0.0,4.000428676605225,1.4695056676864624,4.735348701477051,-724.0855102539062,0
1695.1170000000002,0.0016132853925228119,-0.0019718080293387175,-0.00013809293159283698,0.0,0.0,0.0,0.0,0.0007965629920363426,-0.0016485460801050067,0.005441061221063137,0.9997798800468445,0.0,0.0,0.0,4.003749847412109,1.4820713996887207,4.743075847625732,-724.6867065429688,0
1705.0469999999987,0.001570218475535512,-0.002000683918595314,-0.00014412440941669047,0.0,0.0,0.0,0.0,0.001773275900632143,0.0009699112270027399,0.0018455106765031815,0.9983572363853455,0.0,0.0,0.0,3.9998857975006104,1.4816241264343262,4.738475799560547,-723.9873046875,0
1714.9480000000003,0.001573097542859614,-0.001983305672183633,-0.0001955302432179451,0.0,0.0,0.0,0.0,-0.0007854033610783517,-0.00212484342046082,-0.001304595498368144,0.9999945759773254,0.0,0.0,0.0,3.996176242828369,1.4826918840408325,4.735429286956787,-723.3158569335938,0
1724.8629999999994,0.0017699783202260733,-0.0020804887171834707,-3.8125352148199454e-05,0.0,0.0,0.0,0.0,-0.002740466268733144,0.003890398656949401,-0.0017479397356510162,0.999302327632904,0.0,0.0,0.0,4.0008039474487305,1.4665733575820923,4.789669513702393,-724.1534423828125,0
1734.7739999999994,0.0018161691259592772,-0.001994373509660363,-9.442593000130728e-05,0.0,0.0,0.0,0.0,0.00036406549043022096,0.0010007319506257772,-0.0015936492709442973,1.0001481771469116,0.0,0.0,0.0,4.002173900604248,1.4951461553573608,4.804256439208984,-724.4014892578125,0
1744.691999999999,0.001820239471271634,-0.0020201876759529114,-8.167006308212876e-05,0.0,0.0,0.0,0.0,0.0005738220643252134,0.004412299953401089,0.0029281857423484325,0.9983590245246887,0.0,0.0,0.0,4.009967803955078,1.491528868675232,4.796365261077881,-725.8121337890625,0
1754.5969999999998,0.0018619147595018148,-0.0019586337730288506,-0.00014020208618603647,0.0,0.0,0.0,0.0,0.0036747169215232134,0.00022515119053423405,0.0011466983705759048,0.9994063377380371,0.0,0.0,0.0,4.004797458648682,1.491616129875183,4.786432266235352,-724.8763427734375,0
1764.5199999999986,0.0018501613521948457,-0.001992058241739869,-0.00014607683988288045,0.0,0.0,0.0,0.0,-0.003925076685845852,-0.0020913474727422,0.003961413633078337,0.9994553923606873,0.0,0.0,0.0,4.015387058258057,1.4852434396743774,4.782069683074951,-726.7930908203125,0
1774.4229999999989,0.0018580063479021192,-0.0019664003048092127,-0.00017657373973634094,0.0,0.0,0.0,0.0,-0.0036449723411351442,0.0013350945664569736,-0.0015724723925814033,0.99974524974823,0.0,0.0,0.0,4.010694980621338,1.4817254543304443,4.772490501403809,-725.9437255859375,0
1784.3459999999995,0.0018436280079185963,-0.0019844393245875835,-0.0001726235932437703,0.0,0.0,0.0,0.0,-0.005201298743486404,-0.005234814248979092,0.0040458375588059425,0.999901294708252,0.0,0.0,0.0,4.01721715927124,1.4884908199310303,4.777031421661377,-727.1243896484375,0
1794.2489999999998,0.0018525744089856744,-0.0019387899665161967,-0.00020303080964367837,0.0,0.0,0.0,0.0,0.0034697656519711018,-0.002192400861531496,0.00022772187367081642,0.9997720718383789,0.0,0.0,0.0,4.018840789794922,1.5071165561676025,4.786008834838867,-727.418212890625,0
1804.1839999999993,0.001844567246735096,-0.001960478723049164,-0.00020047137513756752,0.0,0.0,0.0,0.0,0.0019494373118504882,0.0023961628321558237,0.00017295802535954863,0.9975495338439941,0.0,0.0,0.0,4.024981498718262,1.504921317100525,4.793745517730713,-728.5296630859375,0
1814.08,0.001801969250664115,-0.0019547108095139265,-0.00018513420945964754,0.0,0.0,0.0,0.0,0.0010762611636891961,-0.000460922863567248,-0.0008582102600485086,0.9989256262779236,0.0,0.0,0.0,4.027228355407715,1.5057352781295776,4.780464172363281,-728.9364013671875,0
1823.9989999999998,0.0018144970526918769,-0.0019794809632003307,-0.00017315101285930723,0.0,0.0,0.0,0.0,-0.0036209705285727978,-0.0008468917803838849,0.000884579261764884,0.9987490773200989,0.0,0.0,0.0,4.030208587646484,1.5103079080581665,4.782207012176514,-729.475830078125,0
1833.9069999999992,0.0017734627472236753,-0.0019916256424039602,-0.00017057692457456142,0.0,0.0,0.0,0.0,0.0015083297621458769,0.00409075478091836,-0.00444037327542901,0.9996498227119446,0.0,0.0,0.0,4.026216983795166,1.50985586643219,4.78611421585083,-728.7532958984375,0
1843.8189999999995,0.0017346490640193224,-0.0020218428689986467,-0.00017941366240847856,0.0,0.0,0.0,0.0,-0.0019425601931288838,-0.002444977406412363,0.0003255457850173116,0.9991637468338013,0.0,0.0,0.0,4.022896766662598,1.509692907333374,4.778735637664795,-728.15234375,0
1853.7309999999998,0.0017011171439662576,-0.0020213332027196884,-0.0001866184320533648,0.0,0.0,0.0,0.0,0.000520952744409442,0.0016294358065351844,-0.0017321754712611437,0.9977490901947021,0.0,0.0,0.0,4.025224208831787,1.51002836227417,4.769091606140137,-728.5736083984375,0
1863.652,0.0017280287574976683,-0.0020193869713693857,-0.00012619579501915723,0.0,0.0,0.0,0.0,-0.0004327688948251307,-0.0031158505007624626,0.0020616818219423294,0.9983561038970947,0.0,0.0,0.0,4.026911735534668,1.5147837400436401,4.784297943115234,-728.8790893554688,0
1873.5499999999993,0.0017107516760006547,-0.002008258132264018,-0.00014460603415500373,0.0,0.0,0.0,0.0,0.000806627154815942,0.0004723641322925687,0.0006580817280337214,0.9989463686943054,0.0,0.0,0.0,4.02380895614624,1.5174274444580078,4.790394306182861,-728.3175048828125,0
1883.4719999999998,0.0016724119195714593,-0.0020368038676679134,-0.00015282932145055383,0.0,0.0,0.0,0.0,-0.0025003275368362665,-0.003309647087007761,0.0015858309343457222,0.9997975826263428,0.0,0.0,0.0,4.019545078277588,1.5098880529403687,4.7916460037231445,-727.545654296875,0
1893.3769999999986,0.0016412506811320782,-0.0020095682702958584,-0.0001487133849877864,0.0,0.0,0.0,0.0,0.00090266193728894,-0.002416122006252408,-0.0034334189258515835,0.9980501532554626,0.0,0.0,0.0,4.015879154205322,1.507004737854004,4.794749736785889,-726.8821411132812,0
1903.3069999999989,0.0016023821663111448,-0.0020372678991407156,-0.00015710567822679877,0.0,0.0,0.0,0.0,0.0002986363833770156,0.0020248957443982363,0.0007860137266106904,0.9985103011131287,0.0,0.0,0.0,4.012282848358154,1.5108546018600464,4.793710708618164,-726.2311401367188,0
1913.2029999999995,0.001574404421262443,-0.0019994881004095078,-0.00015240001084748656,0.0,0.0,0.0,0.0,0.0021838867105543613,0.0004391325346659869,-9.03217151062563e-05,0.9977020025253296,0.0,0.0,0.0,4.006951332092285,1.5064889192581177,4.784074306488037,-725.26611328125,0
1923.125,0.0015374341746792197,-0.0020242216996848583,-0.0001626775920158252,0.0,0.0,0.0,0.0,0.003002903191372752,0.0021369503811001778,-0.0035564000718295574,0.9998277425765991,0.0,0.0,0.0,4.003336429595947,1.5040576457977295,4.7712016105651855,-724.61181640625,0
1933.0289999999986,0.0015380150871351361,-0.0019756739493459463,-0.00019752190564759076,0.0,0.0,0.0,0.0,-0.005025828722864389,-0.004262923263013363,0.00526840565726161,1.0024503469467163,0.0,0.0,0.0,4.005951881408691,1.5268374681472778,4.7867536544799805,-725.085205078125,0
1942.9529999999995,0.001761249266564846,-0.002083481987938285,-3.5268585634185e-05,0.0,0.0,0.0,0.0,0.0016838652081787586,0.003066243603825569,-0.0003189611015841365,1.0021897554397583,0.0,0.0,0.0,4.010285377502441,1.4993435144424438,4.851441860198975,-725.8695678710938,0
1952.8539999999994,0.0017784708179533482,-0.002056984230875969,-7.251268834806979e-05,0.0,0.0,0.0,0.0,-0.0033974123653024435,0.004879348911345005,-0.00048132878146134317,1.0004637241363525,0.0,0.0,0.0,4.007180213928223,1.5048457384109497,4.8565497398376465,-725.3075561523438,0
1962.7749999999996,0.0018190672853961587,-0.0020785548258572817,-4.000676199211739e-05,0.0,0.0,0.0,0.0,-0.0010560749797150493,-0.0019178501097485423,-0.0006574108265340328,0.9976143836975098,0.0,0.0,0.0,4.011092185974121,1.5010043382644653,4.8531365394592285,-726.015625,0
1972.6800000000003,0.0018618169706314802,-0.0020042802207171917,-8.282703493023291e-05,0.0,0.0,0.0,0.0,-0.0018114317208528519,-0.0045160213485360146,-0.003995888866484165,0.9999014735221863,0.0,0.0,0.0,4.016279697418213,1.5235008001327515,4.845920085906982,-726.9546508789062,0
1982.6039999999994,0.001859715674072504,-0.0020214172545820475,-7.633892528247088e-05,0.0,0.0,0.0,0.0,-0.0008598623680882156,-0.001815703697502613,-0.0019456137670204043,1.0012273788452148,0.0,0.0,0.0,4.021252155303955,1.520656943321228,4.854203224182129,-727.8546142578125,0
1992.5079999999998,0.0018887867918238044,-0.0019744436722248793,-0.00011625339539023116,0.0,0.0,0.0,0.0,-0.0018475037068128586,-0.001939389854669571,7.125121919671074e-05,1.0004980564117432,0.0,0.0,0.0,4.0179362297058105,1.5218539237976074,4.859886169433594,-727.2544555664062,0
2002.4269999999997,0.0018704633694142103,-0.0019759053830057383,-0.00011161094153067097,0.0,0.0,0.0,0.0,-0.0002589549694675952,0.0008022108813747764,0.0021370791364461184,0.9979442358016968,0.0,0.0,0.0,4.020440101623535,1.5248868465423584,4.860611438751221,-727.7076416015625,0
2012.333999999999,0.001871960237622261,-0.00195383932441473,-0.00015750677266623825,0.0,0.0,0.0,0.0,0.004503542557358742,0.00010068346455227584,0.002124172169715166,1.0002405643463135,0.0,0.0,0.0,4.018616676330566,1.5382822751998901,4.859668254852295,-727.3776245117188,0
2022.2549999999992,0.0018822104902938008,-0.0019500373164191842,-0.0001531267334939912,0.0,0.0,0.0,0.0,0.0028465052600950003,0.0025437246076762676,-0.002711175475269556,1.0017132759094238,0.0,0.0,0.0,4.026802062988281,1.5380915403366089,4.860540390014648,-728.8591918945312,0
2032.1579999999994,0.0018211239948868752,-0.001944245072081685,-0.00013508480333257467,0.0,0.0,0.0,0.0,-0.0005075885565020144,-0.0035698169376701117,0.002055860124528408,1.001621127128601,0.0,0.0,0.0,4.018863677978516,1.5291415452957153,4.8529438972473145,-727.4223022460938,0
2042.0779999999995,0.0018344635609537363,-0.0019460228504613042,-0.00013199499517213553,0.0,0.0,0.0,0.0,-0.0006859961431473494,-0.0027452700305730104,-0.0010960864601656795,0.9982279539108276,0.0,0.0,0.0,4.028143882751465,1.5276118516921997,4.854703426361084,-729.1021118164062,0
2051.985999999999,0.0018049645004794002,-0.0019606316927820444,-0.00013329311332199723,0.0,0.0,0.0,0.0,-0.003452072385698557,-0.001974840648472309,-0.002528475597500801,0.9992215037345886,0.0,0.0,0.0,4.025104999542236,1.5302941799163818,4.848333358764648,-728.552001953125,0
2061.9069999999992,0.0017640929436311126,-0.0019712927751243114,-0.00014046441356185824,0.0,0.0,0.0,0.0,-0.0010551975574344397,0.0009101040195673704,-0.0014730560360476375,1.0001722574234009,0.0,0.0,0.0,4.031386852264404,1.5336896181106567,4.848688125610352,-729.6890258789062,0
2071.812,0.001747828908264637,-0.001974958460777998,-0.00015467572666238993,0.0,0.0,0.0,0.0,0.0026097341906279325,0.002415275201201439,0.0012866213219240308,1.000354290008545,0.0,0.0,0.0,4.026944160461426,1.5362250804901123,4.838363170623779,-728.8848876953125,0
2081.7259999999987,0.0017758734757080674,-0.001982318703085184,-0.00013072694127913564,0.0,0.0,0.0,0.0,-0.002167044673115015,0.0024176938459277153,0.0008739687618799508,0.9985946416854858,0.0,0.0,0.0,4.030722141265869,1.534515142440796,4.8504157066345215,-729.5687255859375,0
2091.637999999999,0.0017503990093246102,-0.00197432073764503,-0.0001284639147343114,0.0,0.0,0.0,0.0,0.0035005284007638693,-0.0045110913924872875,-0.00045431044418364763,0.9991540312767029,0.0,0.0,0.0,4.026748180389404,1.5304348468780518,4.838757038116455,-728.8494262695312,0
2101.553,0.0017855818150565028,-0.001979963853955269,-9.809590846998617e-05,0.0,0.0,0.0,0.0,0.0023431465961039066,0.0011458199005573988,0.001535497372969985,0.997943639755249,0.0,0.0,0.0,4.0323686599731445,1.5282121896743774,4.836948871612549,-729.8667602539062,0
2111.4709999999995,0.001737111248075962,-0.0019891790580004454,-7.06301216268912e-05,0.0,0.0,0.0,0.0,-0.000939613557420671,-0.006173289846628904,0.0032135904766619205,0.9989049434661865,0.0,0.0,0.0,4.028990745544434,1.5224683284759521,4.839075565338135,-729.2553100585938,0
2121.3819999999996,0.0017069104360416532,-0.002007704460993409,-6.975380529183894e-05,0.0,0.0,0.0,0.0,0.0011613663518801332,-0.001981381792575121,-0.0008619706495665014,1.0023261308670044,0.0,0.0,0.0,4.025643348693848,1.5207407474517822,4.8408122062683105,-728.6494750976562,0
2131.298999999999,0.0016772854141891003,-0.0019945346284657717,-6.011591904098168e-05,0.0,0.0,0.0,0.0,-0.0016506265383213758,-0.0006462233141064644,0.0014842080418020487,1.0000770092010498,0.0,0.0,0.0,4.02235221862793,1.5153895616531372,4.848433494567871,-728.0537719726562,0
2141.2129999999997,0.001643241266719997,-0.0020130423363298178,-5.807760317111388e-05,0.0,0.0,0.0,0.0,-0.002645464614033699,-0.001926569384522736,-0.0013308553025126457,0.9989430904388428,0.0,0.0,0.0,4.017978191375732,1.5128159523010254,4.856052398681641,-727.2620239257812,0
