timestamp,stateEstimate.x,stateEstimate.y,stateEstimate.z,controller.cmd_thrust,controller.cmd_roll,controller.cmd_pitch,controller.cmd_yaw,controller.r_roll,controller.r_pitch,controller.r_yaw,controller.accelz,controller.actuatorThrust,controller.roll,controller.pitch,controller.yaw,controller.rollRate,controller.pitchRate,controller.yawRate,controller.ctr_yaw
0.0,0.00022908543178346008,-0.017265889793634415,0.0003693836915772408,0.0,0.0,0.0,0.0,0.0013095001922920346,-0.0013858391903340816,-0.001691651064902544,0.9998108148574829,0.0,0.0,0.0,-0.09411133080720901,1.6630070209503174,4.687294006347656,17.034339904785156,0
9.92200000000048,0.00021468599152285606,-0.017268551513552666,0.000361003476427868,0.0,0.0,0.0,0.0,0.0030784362461417913,0.004991947207599878,0.0009399904520250857,1.0021615028381348,0.0,0.0,0.0,-0.0944172739982605,1.6600933074951172,4.679418563842773,17.08971405029297,0
19.82600000000093,0.0002284906804561615,-0.017258940264582634,0.0003740062820725143,0.0,0.0,0.0,0.0,-0.0009911295492202044,-0.00623898534104228,-0.0017118139658123255,1.0014066696166992,0.0,0.0,0.0,-0.07407352328300476,1.6578329801559448,4.671777725219727,13.407453536987305,0
29.752000000000407,0.00021383688726928085,-0.017262283712625504,0.00036945941974408925,0.0,0.0,0.0,0.0,0.0023375921882689,0.004878560546785593,0.0012350036995485425,0.9998327493667603,0.0,0.0,0.0,-0.07479366660118103,1.6597636938095093,4.678116321563721,13.537802696228027,0
39.65300000000025,0.0002569089992903173,-0.017250344157218933,0.0003864468599203974,0.0,0.0,0.0,0.0,0.0012675432953983545,0.0008000549278222024,-0.0034681041724979877,0.999950110912323,0.0,0.0,0.0,-0.05045181140303612,1.6644186973571777,4.672413349151611,9.131877899169922,0
49.574000000000524,0.00024133332772180438,-0.017251770943403244,0.0003844409657176584,0.0,0.0,0.0,0.0,0.003495626151561737,-0.0026335620786994696,-0.0008534140652045608,0.9981200098991394,0.0,0.0,0.0,-0.05056186020374298,1.6605027914047241,4.6674299240112305,9.1517972946167,0
59.47900000000118,0.00026141759008169174,-0.017249608412384987,0.000385527266189456,0.0,0.0,0.0,0.0,-0.0024245022796094418,0.0008202705066651106,-0.001345378695987165,1.0002747774124146,0.0,0.0,0.0,-0.028474340215325356,1.656786561012268,4.672706604003906,5.15391206741333,0
69.40700000000106,0.00024154945276677608,-0.01725035347044468,0.0003830196801573038,0.0,0.0,0.0,0.0,-0.0018946724012494087,-0.003596595488488674,-0.0019117366755381227,0.9982609152793884,0.0,0.0,0.0,-0.027876991778612137,1.6640071868896484,4.669930458068848,5.045791149139404,0
79.3060000000005,0.00022089353296905756,-0.017277134582400322,0.0003557476738933474,0.0,0.0,0.0,0.0,-0.0005433800397440791,0.0013542373199015856,0.000668973894789815,0.9982932806015015,0.0,0.0,0.0,-0.0090632950887084,1.663835883140564,4.675234317779541,1.6404744386672974,0
89.22700000000077,0.0001983988913707435,-0.017281994223594666,0.0003494984994176775,0.0,0.0,0.0,0.0,0.0019114569295197725,-0.0038424418307840824,0.0018239784985780716,1.0004299879074097,0.0,0.0,0.0,-0.008814465254545212,1.6652113199234009,4.670992851257324,1.5954357385635376,0
99.13299999999981,0.00023373366275336593,-0.01727919839322567,0.00035002216463908553,0.0,0.0,0.0,0.0,-0.0017369227716699243,-0.004906745627522469,-0.0011159605346620083,0.999507486820221,0.0,0.0,0.0,0.010916505008935928,1.6685978174209595,4.681849956512451,-1.9759092330932617,0
109.06999999999971,0.00021343397384043783,-0.017284421250224113,0.00034376929397694767,0.0,0.0,0.0,0.0,-0.0015394092770293355,0.0009648572886362672,-0.0006601374479942024,0.9981173276901245,0.0,0.0,0.0,0.01082287635654211,1.6669461727142334,4.691765308380127,-1.9589622020721436,0
118.96100000000115,0.00020612473599612713,-0.017307287082076073,0.00032103489502333105,0.0,0.0,0.0,0.0,-0.003909623716026545,0.001651371130719781,0.0005298485630191863,0.9978009462356567,0.0,0.0,0.0,0.028957942500710487,1.658333659172058,4.698650360107422,-5.241445064544678,0
128.88500000000022,0.00018714062753133476,-0.017314312979578972,0.0003113490529358387,0.0,0.0,0.0,0.0,-0.0004330238443799317,0.001968112075701356,0.0011808512499555945,1.0005574226379395,0.0,0.0,0.0,0.02834824100136757,1.6594845056533813,4.687169075012207,-5.131087779998779,0
138.78900000000067,0.00019421346951276064,-0.017282666638493538,0.00033684360096231103,0.0,0.0,0.0,0.0,0.0016787147615104914,-0.00038623454747721553,0.0008432500180788338,0.9997862577438354,0.0,0.0,0.0,0.05103392153978348,1.6734132766723633,4.6830573081970215,-9.237241744995117,0
148.70900000000074,0.00017429319268558174,-0.01728704757988453,0.0003299193340353668,0.0,0.0,0.0,0.0,-0.0021818741224706173,-0.0007669965270906687,0.0027466509491205215,1.001107096672058,0.0,0.0,0.0,0.05030360445380211,1.6681699752807617,4.671715259552002,-9.10505199432373,0
158.6110000000008,0.0001570306485518813,-0.017286330461502075,0.00032987320446409285,0.0,0.0,0.0,0.0,-0.0008221720927394927,-0.0004802103794645518,-0.0005316426395438612,0.9992793798446655,0.0,0.0,0.0,0.06944240629673004,1.6657226085662842,4.671018600463867,-12.569214820861816,0
168.52599999999984,0.00013614924682769924,-0.017289552837610245,0.0003244412364438176,0.0,0.0,0.0,0.0,0.0044464776292443275,-3.210229260730557e-05,-0.0005873767076991498,1.0007702112197876,0.0,0.0,0.0,0.06875862181186676,1.6650710105895996,4.664515495300293,-12.44544792175293,0
178.4380000000001,0.0002210423699580133,-0.01717306300997734,0.00021085876505821943,0.0,0.0,0.0,0.0,0.0007140012457966805,-0.002373520052060485,0.0018858114490285516,0.9999841451644897,0.0,0.0,0.0,0.062387511134147644,1.68424654006958,4.67390775680542,-11.292263984680176,0
188.35499999999956,0.00020309866522438824,-0.01717209443449974,0.0002039519022218883,0.0,0.0,0.0,0.0,-0.004069386050105095,-0.0001493061427026987,0.002449660561978817,0.997409462928772,0.0,0.0,0.0,0.063412144780159,1.680661916732788,4.678281784057617,-11.477724075317383,0
198.26400000000103,0.0002137616538675502,-0.01722627878189087,0.00022691689082421362,0.0,0.0,0.0,0.0,-0.0011188954813405871,0.002939794212579727,-0.0014767356915399432,0.9972456097602844,0.0,0.0,0.0,0.04031740128993988,1.671541690826416,4.689042091369629,-7.297529220581055,0
208.17699999999968,0.00019634637283161283,-0.01722872629761696,0.00021825969452038407,0.0,0.0,0.0,0.0,-0.003523388644680381,-0.0017687223153188825,0.0030962550081312656,0.9989303350448608,0.0,0.0,0.0,0.03898897394537926,1.674422264099121,4.676148891448975,-7.057082176208496,0
218.09100000000035,0.00018196183373220265,-0.017244573682546616,0.0002215959393652156,0.0,0.0,0.0,0.0,0.0022399926092475653,0.0030879327096045017,-0.003359244903549552,0.9995998740196228,0.0,0.0,0.0,0.030532442033290863,1.6716691255569458,4.670125961303711,-5.526432514190674,0
228.00400000000081,0.00016316839901264757,-0.017245780676603317,0.00021044652385171503,0.0,0.0,0.0,0.0,-0.0013681299751624465,0.0005579943535849452,0.003048597602173686,0.9985031485557556,0.0,0.0,0.0,0.0297684408724308,1.6683422327041626,4.664506912231445,-5.388147354125977,0
237.91699999999946,0.00018804747378453612,-0.01720401458442211,0.00016764816245995462,0.0,0.0,0.0,0.0,-0.0006798331742174923,-0.003277289215475321,0.0007206355803646147,0.9998427629470825,0.0,0.0,0.0,0.02216457948088646,1.6687626838684082,4.662467956542969,-4.0118327140808105,0
247.83100000000013,0.00016828619118314236,-0.01720440573990345,0.00015323146362788975,0.0,0.0,0.0,0.0,0.00014396681217476726,0.0013159840600565076,0.0025150522124022245,0.9980865120887756,0.0,0.0,0.0,0.02287711389362812,1.6759756803512573,4.662259101867676,-4.140803337097168,0
257.7430000000004,0.00023256517306435853,-0.01718384027481079,0.00016739861166570336,0.0,0.0,0.0,0.0,-0.0002739972260314971,0.002148446161299944,0.000725310470443219,1.0008018016815186,0.0,0.0,0.0,0.038352128118276596,1.6763741970062256,4.673218250274658,-6.941811561584473,0
267.65600000000086,0.00021564943017438054,-0.017183324322104454,0.000153613873408176,0.0,0.0,0.0,0.0,0.0027862763963639736,-0.0030736166518181562,-0.0007742872694507241,1.0024480819702148,0.0,0.0,0.0,0.03829313814640045,1.6734135150909424,4.673465728759766,-6.931134223937988,0
277.5699999999997,0.00027225539088249207,-0.017228353768587112,0.00023670398513786495,0.0,0.0,0.0,0.0,0.0007152659818530083,0.006057464051991701,-0.0016843359917402267,1.0011026859283447,0.0,0.0,0.0,0.03912625089287758,1.6610702276229858,4.682159423828125,-7.081928730010986,0
287.48199999999997,0.0002573681704234332,-0.01722770556807518,0.00023307575611397624,0.0,0.0,0.0,0.0,0.0012420356506481767,-3.978774657298345e-06,-0.002023907843977213,0.9975205063819885,0.0,0.0,0.0,0.03931008279323578,1.6601037979125977,4.676904678344727,-7.115203380584717,0
297.39899999999943,0.00026500842068344355,-0.017256731167435646,0.00029095858917571604,0.0,0.0,0.0,0.0,-0.0038259115535765886,-0.0016017985763028264,-0.0008209632360376418,1.0002673864364624,0.0,0.0,0.0,0.035637758672237396,1.6505262851715088,4.681139945983887,-6.450504779815674,0
307.3080000000009,0.00025214042398147285,-0.0172578115016222,0.0002906346635427326,0.0,0.0,0.0,0.0,-0.0026714776176959276,-0.002281027380377054,0.0028052893467247486,1.0006952285766602,0.0,0.0,0.0,0.035642918199300766,1.654712438583374,4.682789325714111,-6.451439380645752,0
317.22099999999955,0.00028660293901339173,-0.01723323203623295,0.00029292539693415165,0.0,0.0,0.0,0.0,-0.0007438360480591655,-0.0009953004773706198,0.002584903733804822,0.9991812109947205,0.0,0.0,0.0,0.02543512172996998,1.6670587062835693,4.692834854125977,-4.60380744934082,0
327.1350000000002,0.00027419201796874404,-0.017234034836292267,0.00029388617258518934,0.0,0.0,0.0,0.0,-0.0002116635732818395,0.0022173195611685514,-0.0012349983444437385,1.0004117488861084,0.0,0.0,0.0,0.02549871802330017,1.671181559562683,4.696307182312012,-4.615318775177002,0
337.0509999999995,0.00016216404037550092,-0.01723436266183853,0.0002847603755071759,0.0,0.0,0.0,0.0,0.0015884385211393237,0.0020046981517225504,0.00032216403633356094,0.9990866780281067,0.0,0.0,0.0,0.009679139591753483,1.6687723398208618,4.67641019821167,-1.7519434690475464,0
346.96100000000115,0.00014317399472929537,-0.017234887927770615,0.00028481712797656655,0.0,0.0,0.0,0.0,8.685536886332557e-05,-0.0001893674925668165,-0.0006540471804328263,0.9989938735961914,0.0,0.0,0.0,0.010241159237921238,1.6701629161834717,4.67333459854126,-1.8536701202392578,0
356.8739999999998,0.00020752393174916506,-0.01720593310892582,0.0002842778922058642,0.0,0.0,0.0,0.0,0.0013334914110600948,-0.0001691010984359309,0.003261166624724865,0.9997155666351318,0.0,0.0,0.0,0.004792948719114065,1.6745942831039429,4.689489841461182,-0.8675333261489868,0
366.78800000000047,0.00018857591203413904,-0.017205243930220604,0.0002832820173352957,0.0,0.0,0.0,0.0,-0.00129021389875561,-0.003787643974646926,0.0012470479123294353,1.0012661218643188,0.0,0.0,0.0,0.006409572437405586,1.6768051385879517,4.687597751617432,-1.1601454019546509,0
376.70200000000114,0.00022231096227187663,-0.017215179279446602,0.00028225965797901154,0.0,0.0,0.0,0.0,-0.0015412974171340466,4.507772246142849e-06,0.00021151333930902183,1.0015006065368652,0.0,0.0,0.0,-0.006696147378534079,1.6723636388778687,4.696974754333496,1.2120158672332764,0
386.6139999999996,0.00020505803695414215,-0.017215510830283165,0.00028300919802859426,0.0,0.0,0.0,0.0,-0.00100929185282439,-0.0043125818483531475,-0.0020754714496433735,0.9967638254165649,0.0,0.0,0.0,-0.007129535544663668,1.672608494758606,4.694260597229004,1.2904601097106934,0
396.52700000000004,0.00019518242334015667,-0.01724982261657715,0.0002652441035024822,0.0,0.0,0.0,0.0,-0.0007331962115131319,0.0016405429923906922,-0.003348254831507802,0.9983066320419312,0.0,0.0,0.0,-0.01717568002641201,1.6684246063232422,4.698495388031006,3.108832359313965,0
406.4420000000009,0.00022680616530124098,-0.017183523625135422,0.00022381239978130907,0.0,0.0,0.0,0.0,-0.0006496309651993215,0.004444077145308256,0.002810552716255188,1.0003278255462646,0.0,0.0,0.0,-0.028398297727108,1.6896036863327026,4.703619003295898,5.140148162841797,0
416.3580000000002,0.00025157423806376755,-0.01714746467769146,0.00025145342806354165,0.0,0.0,0.0,0.0,0.001641371170990169,-5.100863563711755e-05,-0.0002871490432880819,0.9999250769615173,0.0,0.0,0.0,-0.007218226324766874,1.6988836526870728,4.696676254272461,1.3065133094787598,0
426.26800000000003,0.0002084782754536718,-0.017209267243742943,0.0002525622840039432,0.0,0.0,0.0,0.0,-0.0014557808171957731,-0.004567455500364304,0.0027375961653888226,1.000632882118225,0.0,0.0,0.0,-0.031908486038446426,1.6931346654891968,4.691256523132324,5.7754998207092285,0
436.1849999999995,0.00016281181888189167,-0.01719093695282936,0.00024525250773876905,0.0,0.0,0.0,0.0,0.0006677128258161247,-0.001607923535630107,-0.0029260104056447744,0.9989489912986755,0.0,0.0,0.0,-0.016187455505132675,1.704940676689148,4.687798023223877,2.929961681365967,0
446.09599999999955,0.0001449490519007668,-0.01718726009130478,0.00024160512839443982,0.0,0.0,0.0,0.0,-0.0007623258279636502,3.095973079325631e-05,-0.0010440102778375149,0.9982926845550537,0.0,0.0,0.0,-0.0162630807608366,1.700966238975525,4.682338714599609,2.943650007247925,0
456.0169999999998,0.00023975044314283878,-0.017186706885695457,0.00025272287894040346,0.0,0.0,0.0,0.0,-0.00040593071025796235,-0.0015780354151502252,-0.0025878194719552994,0.9981792569160461,0.0,0.0,0.0,0.0011960593983530998,1.6973438262939453,4.703346252441406,-0.21648913621902466,0
465.9240000000009,0.00022766648908145726,-0.017202766612172127,0.0002287420502398163,0.0,0.0,0.0,0.0,-0.0036537782289087772,-0.0007895599701441824,0.001838524593040347,0.9986534118652344,0.0,0.0,0.0,-0.010684465989470482,1.6956809759140015,4.699577331542969,1.93390953540802,0
505.5740000000005,0.00026176366372965276,-0.017250629141926765,0.00025286231539212167,0.0,0.0,0.0,0.0,0.0005575934192165732,-0.0014723018975928426,-0.0013115383917465806,0.9995196461677551,0.0,0.0,0.0,-0.008266815915703773,1.6943081617355347,4.696700096130371,1.4963099956512451,0
515.4950000000008,0.00026159113622270525,-0.017203688621520996,0.00028059756732545793,0.0,0.0,0.0,0.0,-0.0008623352623544633,-0.008099870756268501,0.0013994080945849419,0.9987490177154541,0.0,0.0,0.0,0.010690022259950638,1.7054824829101562,4.712273120880127,-1.9349151849746704,0
525.3989999999994,0.00023741548648104072,-0.017235253006219864,0.00027376748039387167,0.0,0.0,0.0,0.0,0.0023759992327541113,0.0059720552526414394,-6.394115916918963e-05,0.9995783567428589,0.0,0.0,0.0,-0.010106634348630905,1.7027286291122437,4.718582630157471,1.829321026802063,0
535.3220000000001,0.00018931076920125633,-0.01722409576177597,0.0002603581815492362,0.0,0.0,0.0,0.0,0.00028121747891418636,0.0027504232712090015,0.0009085539495572448,1.000869870185852,0.0,0.0,0.0,0.0037994643207639456,1.6973068714141846,4.701391220092773,-0.6877105832099915,0
545.2330000000002,0.0001447955146431923,-0.017250651493668556,0.00027727062115445733,0.0,0.0,0.0,0.0,-0.0017184570897370577,-0.000984656042419374,0.0014201415469869971,0.9985104203224182,0.0,0.0,0.0,-0.016923584043979645,1.695977807044983,4.6947832107543945,3.0632026195526123,0
555.152,0.00016110719298012555,-0.01724820025265217,0.0002857830550055951,0.0,0.0,0.0,0.0,-0.0013590417802333832,-0.00048747859545983374,0.0016233082860708237,0.9993494153022766,0.0,0.0,0.0,-0.001034677610732615,1.6907967329025269,4.684385776519775,0.18727868795394897,0
565.0509999999995,0.00011871648166561499,-0.017288248986005783,0.00029435657779686153,0.0,0.0,0.0,0.0,0.002599352039396763,-0.0028908958192914724,0.0025618006475269794,0.9991047382354736,0.0,0.0,0.0,-0.021356940269470215,1.6885677576065063,4.673292636871338,3.8656487464904785,0
574.9740000000002,0.0002001830580411479,-0.017279386520385742,0.0003355960070621222,0.0,0.0,0.0,0.0,-0.0010888983961194754,0.0013010530965402722,0.0009336352231912315,0.9998397827148438,0.0,0.0,0.0,-0.009496566839516163,1.6924761533737183,4.6952900886535645,1.7188975811004639,0
584.8780000000006,0.00018453846860211343,-0.017286378890275955,0.0003337256785016507,0.0,0.0,0.0,0.0,-0.0008596114348620176,-0.00038877828046679497,-0.0010134739568457007,0.9987469911575317,0.0,0.0,0.0,-0.009512661956250668,1.6907166242599487,4.685920715332031,1.7218108177185059,0
594.8070000000007,0.00022337886912282556,-0.01727575622498989,0.0003509797097649425,0.0,0.0,0.0,0.0,-0.0016731902724131942,0.0025650605093687773,-0.0002582070301286876,0.9984277486801147,0.0,0.0,0.0,0.002102274913340807,1.6907930374145508,4.686736106872559,-0.3805159628391266,0
604.7029999999995,0.00024145969655364752,-0.017243169248104095,0.0003043738252017647,0.0,0.0,0.0,0.0,-0.0004775086999870837,0.002418063348159194,0.002409434411674738,0.9986155033111572,0.0,0.0,0.0,-0.017604079097509384,1.7026219367980957,4.688302993774414,3.186373472213745,0
614.6260000000002,0.00024480681167915463,-0.01723247952759266,0.000313731114147231,0.0,0.0,0.0,0.0,-0.0026689774822443724,0.0010804083431139588,-0.0012120975879952312,0.9983646273612976,0.0,0.0,0.0,-0.0026787815149873495,1.7011644840240479,4.682400703430176,0.4848647713661194,0
624.5320000000011,0.00023577877436764538,-0.01722601242363453,0.00029692190582863986,0.0,0.0,0.0,0.0,-0.001087757758796215,0.005527740344405174,-0.0014465672429651022,0.9994664192199707,0.0,0.0,0.0,-0.025378147140145302,1.7116979360580444,4.679571628570557,4.593494892120361,0
634.4619999999995,0.00027876574313268065,-0.01722821593284607,0.00030887825414538383,0.0,0.0,0.0,0.0,0.00148971623275429,0.0013376777060329914,0.004119175486266613,1.001063346862793,0.0,0.0,0.0,-0.008264032192528248,1.7124637365341187,4.677812576293945,1.4958062171936035,0
644.3580000000002,0.00025814009131863713,-0.01726369746029377,0.00029315619030967355,0.0,0.0,0.0,0.0,-0.00133045285474509,0.001910207443870604,-0.0015568810049444437,1.0008116960525513,0.0,0.0,0.0,-0.030011555179953575,1.7010849714279175,4.657372951507568,5.4321513175964355,0
654.277,0.0002992072841152549,-0.017262928187847137,0.0003094137937296182,0.0,0.0,0.0,0.0,0.0012923855101689696,-0.0023043681867420673,-0.0003451643278822303,1.0000150203704834,0.0,0.0,0.0,-0.01122565008699894,1.6988478899002075,4.6543660163879395,2.031865119934082,0
664.1859999999997,0.0002928915782831609,-0.017274780198931694,0.0002906342560891062,0.0,0.0,0.0,0.0,-0.001737259211950004,0.0005179553409107029,-0.0019521374488249421,0.9988446831703186,0.0,0.0,0.0,-0.022592781111598015,1.702189326286316,4.6567792892456055,4.089338302612305,0
674.1059999999998,0.00029562663985416293,-0.017249325290322304,0.0003073090629186481,0.0,0.0,0.0,0.0,0.0031249390449374914,-0.001679070177488029,0.00047785660717636347,1.0000855922698975,0.0,0.0,0.0,-0.004466840531677008,1.7055628299713135,4.650327205657959,0.8085070252418518,0
684.009,0.00028198707150295377,-0.01725306175649166,0.0003020017466042191,0.0,0.0,0.0,0.0,-0.0009865200845524669,0.003704832401126623,0.003155222162604332,0.9992991089820862,0.0,0.0,0.0,-0.027325114235281944,1.7060850858688354,4.650584697723389,4.9459004402160645,0
693.9359999999997,0.0002610239025671035,-0.017238935455679893,0.0003066149656660855,0.0,0.0,0.0,0.0,0.001273741596378386,-0.0005643184995278716,0.0014310503611341119,1.0004370212554932,0.0,0.0,0.0,-0.014528721570968628,1.70785391330719,4.640337944030762,2.629727363586426,0
703.844000000001,0.00023694771516602486,-0.01728844828903675,0.00029431641451083124,0.0,0.0,0.0,0.0,-0.0007696230313740671,-0.0034918123856186867,0.0034872605465352535,1.0003879070281982,0.0,0.0,0.0,-0.034830059856176376,1.6968845129013062,4.640871524810791,6.304310321807861,0
713.759,0.00024298322387039661,-0.017275331541895866,0.00031285732984542847,0.0,0.0,0.0,0.0,-0.0015215870225802064,0.0022155491169542074,0.0012637358158826828,1.0004292726516724,0.0,0.0,0.0,-0.02192690782248974,1.7042872905731201,4.646966934204102,3.968813896179199,0
723.6630000000005,0.00018945518240798265,-0.01733802817761898,0.0003336565278004855,0.0,0.0,0.0,0.0,-0.0007426998927257955,-0.005599393043667078,-0.0018807054730132222,0.9985495805740356,0.0,0.0,0.0,-0.04096824303269386,1.6983400583267212,4.635441303253174,7.4153337478637695,0
733.5820000000003,0.0001544120314065367,-0.01732257567346096,0.0003444572212174535,0.0,0.0,0.0,0.0,0.0021199677139520645,0.00044836816960014403,-0.0015449627535417676,0.9985485672950745,0.0,0.0,0.0,-0.02504151687026024,1.6996005773544312,4.643701076507568,4.532564163208008,0
743.4979999999996,0.000173695691046305,-0.017318174242973328,0.00029556744266301394,0.0,0.0,0.0,0.0,-0.003212842158973217,0.005504413973540068,0.00014619204739574343,0.9975399374961853,0.0,0.0,0.0,-0.045555759221315384,1.7135579586029053,4.647943496704102,8.245683670043945,0
753.4200000000001,0.0001810393005143851,-0.017323315143585205,0.0003018254938069731,0.0,0.0,0.0,0.0,-0.0006661112420260906,0.0013257060199975967,0.0003462865424808115,0.999396800994873,0.0,0.0,0.0,-0.031863629817962646,1.7209653854370117,4.644665718078613,5.767380237579346,0
763.3160000000007,0.00018872816872317344,-0.017333364114165306,0.00025964106316678226,0.0,0.0,0.0,0.0,-0.0010962642263621092,0.00037374417297542095,-0.000636146985925734,1.000563144683838,0.0,0.0,0.0,-0.05425802990794182,1.7243452072143555,4.648880481719971,9.82081127166748,0
773.237000000001,0.0002507692261133343,-0.017315784469246864,0.0003010378568433225,0.0,0.0,0.0,0.0,0.0022353874519467354,0.005186611786484718,-0.0031755866948515177,1.0002354383468628,0.0,0.0,0.0,-0.03496691212058067,1.727874994277954,4.645223617553711,6.329081058502197,0
783.148000000001,0.00024090563238132745,-0.01734083890914917,0.00027955108089372516,0.0,0.0,0.0,0.0,0.0019174223998561502,-0.0012394165387377143,-0.004126962274312973,1.0005441904067993,0.0,0.0,0.0,-0.05582355335354805,1.724552869796753,4.641446113586426,10.10417366027832,0
793.0630000000001,0.0002234742569271475,-0.01733836904168129,0.00028179874061606824,0.0,0.0,0.0,0.0,-0.0011740257032215595,0.0019281957065686584,-0.0030177279841154814,1.0006741285324097,0.0,0.0,0.0,-0.0386493057012558,1.7238502502441406,4.62896728515625,6.995601177215576,0
802.9700000000012,0.00022614393674302846,-0.01732788048684597,0.0002567474148236215,0.0,0.0,0.0,0.0,0.0037357958499342203,-0.004784258082509041,-0.003879781113937497,0.9985039234161377,0.0,0.0,0.0,-0.058345094323158264,1.729827880859375,4.621337890625,10.560578346252441,0
812.8880000000008,0.0002903412387240678,-0.01733670011162758,0.0002836468629539013,0.0,0.0,0.0,0.0,0.0038769955281168222,-0.002254858147352934,0.0022217142395675182,0.997656524181366,0.0,0.0,0.0,-0.0436466746032238,1.7186014652252197,4.630092144012451,7.900134563446045,0
822.7970000000005,0.0002738352050073445,-0.017363233491778374,0.0002716576855164021,0.0,0.0,0.0,0.0,0.0015525657217949629,0.003415365470573306,-0.0031669470481574535,1.0012097358703613,0.0,0.0,0.0,-0.06142207980155945,1.7109763622283936,4.623948097229004,11.117518424987793,0
832.7250000000004,0.0002455000940244645,-0.017325706779956818,0.00029388885013759136,0.0,0.0,0.0,0.0,-0.0006377355894073844,0.00045076082460582256,-0.0017299120081588626,0.9994155764579773,0.0,0.0,0.0,-0.04855858162045479,1.7145087718963623,4.61694860458374,8.789199829101562,0
842.6200000000008,0.0002423474652459845,-0.017323877662420273,0.00027335641789250076,0.0,0.0,0.0,0.0,-0.0019484846852719784,0.0002516272070351988,-0.0018606925150379539,0.9986787438392639,0.0,0.0,0.0,-0.06814993172883987,1.7187647819519043,4.614858150482178,12.335272789001465,0
852.5410000000011,0.00019857801089528948,-0.01731828786432743,0.0002687032683752477,0.0,0.0,0.0,0.0,-0.0009631190914660692,-0.0026884987019002438,-0.0028003535699099302,1.0018031597137451,0.0,0.0,0.0,-0.054229736328125,1.7237775325775146,4.598114490509033,9.815690040588379,0
862.4480000000003,0.00020508906163740903,-0.017309565097093582,0.00023739103926345706,0.0,0.0,0.0,0.0,-0.002353617688640952,-0.001962977461516857,-0.0017781396163627505,1.000289797782898,0.0,0.0,0.0,-0.07639863342046738,1.7308417558670044,4.595776081085205,13.828304290771484,0
872.375,0.00017153211229015142,-0.017279908061027527,0.00025229205493815243,0.0,0.0,0.0,0.0,0.002623988315463066,-0.004573623184114695,0.0006694779149256647,1.0000022649765015,0.0,0.0,0.0,-0.05895998328924179,1.7344926595687866,4.582130432128906,10.671874046325684,0
882.2780000000002,0.0001768031797837466,-0.017291024327278137,0.00021200822084210813,0.0,0.0,0.0,0.0,0.0007360412855632603,0.002391261514276266,-0.00241416459903121,0.9998807311058044,0.0,0.0,0.0,-0.07793205231428146,1.7338461875915527,4.586726665496826,14.105854988098145,0
892.1949999999997,0.00010503913654247299,-0.017232106998562813,0.00022990693105384707,0.0,0.0,0.0,0.0,-0.0007623832207173109,0.0021609049290418625,-0.000530773657374084,0.9984959363937378,0.0,0.0,0.0,-0.0626642182469368,1.7465811967849731,4.573051452636719,11.342347145080566,0
902.0990000000002,0.00011996240209555253,-0.01720222644507885,0.0001866858365247026,0.0,0.0,0.0,0.0,-5.064808647148311e-05,-0.006088974419981241,0.001960222376510501,0.9988440275192261,0.0,0.0,0.0,-0.07274685800075531,1.7579360008239746,4.574549198150635,13.167326927185059,0
912.0190000000002,0.0001561367535032332,-0.017202336341142654,0.00020227977074682713,0.0,0.0,0.0,0.0,0.0003571546694729477,-0.0007148919976316392,0.0006931263487786055,0.9987055063247681,0.0,0.0,0.0,-0.054808568209409714,1.759484887123108,4.586368083953857,9.92046070098877,0
921.9259999999995,0.00013228875468485057,-0.017210030928254128,0.00019468131358735263,0.0,0.0,0.0,0.0,-0.0017403587698936462,-0.0044065420515835285,-0.0033921408466994762,1.0002338886260986,0.0,0.0,0.0,-0.05538737028837204,1.7600960731506348,4.583559513092041,10.025223731994629,0
931.8459999999995,0.00020431789744179696,-0.01718750037252903,0.0002205108612542972,0.0,0.0,0.0,0.0,-0.006508503574877977,-0.0003104916831944138,0.0027485790196806192,0.9990798830986023,0.0,0.0,0.0,-0.044317666441202164,1.7637556791305542,4.603033542633057,8.021586418151855,0
941.7510000000002,0.00018394493963569403,-0.01719682477414608,0.00021455141541082412,0.0,0.0,0.0,0.0,-0.00011439550144132227,-0.0006036967388354242,-0.003938663750886917,0.9993891716003418,0.0,0.0,0.0,-0.043399158865213394,1.7692502737045288,4.602715015411377,7.855334281921387,0
951.6650000000009,0.0002400806697551161,-0.017185265198349953,0.0002277153980685398,0.0,0.0,0.0,0.0,0.00010145619307877496,8.013780461624265e-05,-0.001821845886297524,0.9996767640113831,0.0,0.0,0.0,-0.02709306962788105,1.7779818773269653,4.608306407928467,4.903900146484375,0
961.5779999999995,0.00022063635697122663,-0.01719350554049015,0.00022261928825173527,0.0,0.0,0.0,0.0,-0.00044031828292645514,-0.001667944248765707,0.002696902258321643,1.0003924369812012,0.0,0.0,0.0,-0.026147209107875824,1.779397964477539,4.6121745109558105,4.732697010040283,0
971.496000000001,0.0003255783813074231,-0.017208468168973923,0.00021965373889543116,0.0,0.0,0.0,0.0,0.0033679192420095205,0.0010594431078061461,0.0023917758371680975,0.9982165098190308,0.0,0.0,0.0,-0.005501854699105024,1.7710866928100586,4.636230945587158,0.995846688747406,0
981.4040000000005,0.0002343495871173218,-0.01733524352312088,0.00033233099384233356,0.0,0.0,0.0,0.0,0.0016799322329461575,0.002613598480820656,0.0004855928709730506,0.999308705329895,0.0,0.0,0.0,-0.027688197791576385,1.738673448562622,4.621547698974609,5.011618614196777,0
991.3250000000007,0.0002610540250316262,-0.017339278012514114,0.00037316608359105885,0.0,0.0,0.0,0.0,0.001360424212180078,-0.002976191695779562,0.0012449653586372733,1.0003314018249512,0.0,0.0,0.0,-0.005764385685324669,1.7369577884674072,4.619807720184326,1.043365240097046,0
1001.2330000000002,0.00023454079928342253,-0.017391584813594818,0.0003726367140188813,0.0,0.0,0.0,0.0,-0.001850335975177586,-0.00437336228787899,-0.0005184338660910726,1.0001220703125,0.0,0.0,0.0,-0.02427290566265583,1.72357177734375,4.61195182800293,4.393444538116455,0
1011.1530000000002,0.0002703128266148269,-0.017392128705978394,0.000420108757680282,0.0,0.0,0.0,0.0,0.0015497206477448344,-0.0020802561193704605,-0.001884731580503285,0.9976665377616882,0.0,0.0,0.0,0.0014726674417033792,1.72341787815094,4.630733489990234,-0.2665557265281677,0
1021.0609999999997,0.00025226527941413224,-0.017415884882211685,0.000426920858444646,0.0,0.0,0.0,0.0,-0.002224747557193041,0.0004815364954993129,0.0005532842478714883,1.000566005706787,0.0,0.0,0.0,0.0007514540920965374,1.7200833559036255,4.62814998626709,-0.1360146850347519,0
1030.9770000000008,0.00022584653925150633,-0.017407357692718506,0.00045553926611319184,0.0,0.0,0.0,0.0,-0.002724461257457733,-0.00572384987026453,0.005802709609270096,0.9998660683631897,0.0,0.0,0.0,0.017023423686623573,1.7260010242462158,4.626944541931152,-3.081273317337036,0
1040.8829999999998,0.00021838511747773737,-0.017418542876839638,0.00043870366062037647,0.0,0.0,0.0,0.0,0.001037788693793118,-0.0019103320082649589,0.0011552877258509398,0.9999825358390808,0.0,0.0,0.0,-0.004271361045539379,1.7316572666168213,4.624890327453613,0.7731248140335083,0
1050.8070000000007,0.00023525107826571912,-0.017408711835741997,0.0004819950554519892,0.0,0.0,0.0,0.0,-0.0006538887391798198,-0.0020801264327019453,0.002840694971382618,1.001847505569458,0.0,0.0,0.0,0.014102197252213955,1.7336796522140503,4.6325907707214355,-2.552525520324707,0
1060.710000000001,0.0002737518516369164,-0.01737603358924389,0.00041817472083494067,0.0,0.0,0.0,0.0,0.001343857846222818,-0.0025757120456546545,-0.0010895798914134502,1.0024356842041016,0.0,0.0,0.0,-0.010207830928266048,1.744735598564148,4.637314796447754,1.84763765335083,0
1070.6329999999998,0.00027117165154777467,-0.017357299104332924,0.00045504438458010554,0.0,0.0,0.0,0.0,0.0028582820668816566,0.004826617427170277,-0.0025887200608849525,1.000103235244751,0.0,0.0,0.0,0.012092695571482182,1.7490068674087524,4.644937992095947,-2.1888020038604736,0
1080.5419999999995,0.0002906722074840218,-0.017361443489789963,0.000409899337682873,0.0,0.0,0.0,0.0,-0.0006036439444869757,0.002753443783149123,0.0013831456890329719,0.9986398816108704,0.0,0.0,0.0,-0.011277174577116966,1.7415679693222046,4.634636402130127,2.0411911010742188,0
1090.4590000000007,0.00024139299057424068,-0.01733788102865219,0.00042702583596110344,0.0,0.0,0.0,0.0,-0.00038559650420211256,0.0009472550009377301,-0.0010532394517213106,1.0012576580047607,0.0,0.0,0.0,0.002986346837133169,1.7465465068817139,4.620869159698486,-0.5405347347259521,0
1100.3729999999996,0.0002720447664614767,-0.017287226393818855,0.0003878505667671561,0.0,0.0,0.0,0.0,-0.0016537066549062729,-0.00627896236255765,-0.0005913628847338259,0.9989134669303894,0.0,0.0,0.0,-0.01937473565340042,1.759217381477356,4.624579429626465,3.5068657398223877,0
1110.2849999999999,0.00023586956376675516,-0.0172739140689373,0.0003971377736888826,0.0,0.0,0.0,0.0,-0.0010186032159253955,0.0009136409498751163,-0.004997157957404852,0.9978006482124329,0.0,0.0,0.0,-0.0037728664465248585,1.7655272483825684,4.6322245597839355,0.6828963160514832,0
1120.1890000000003,0.0002471734769642353,-0.017270734533667564,0.00036231905687600374,0.0,0.0,0.0,0.0,0.001126420102082193,0.0028200182132422924,7.300984725588933e-05,0.9975476264953613,0.0,0.0,0.0,-0.026165850460529327,1.7669994831085205,4.625607013702393,4.736071586608887,0
1130.1110000000008,0.00029526936123147607,-0.017298460006713867,0.0003690802550408989,0.0,0.0,0.0,0.0,-0.0009197773179039359,-0.005347206257283688,0.003333465429022908,0.9985838532447815,0.0,0.0,0.0,-0.010857783257961273,1.7599674463272095,4.620230674743652,1.965280294418335,0
1140.0149999999994,0.00034603141830302775,-0.01725880242884159,0.0002990948560182005,0.0,0.0,0.0,0.0,-0.0002596308768261224,0.001016143593005836,0.0008930235635489225,0.9987214803695679,0.0,0.0,0.0,-0.03239836171269417,1.7688052654266357,4.630476951599121,5.864168167114258,0
1149.9359999999997,0.00032644555903971195,-0.017267553135752678,0.0002808989956974983,0.0,0.0,0.0,0.0,-0.0022366121411323547,-0.0017332773422822356,-0.0025964612141251564,0.9987591505050659,0.0,0.0,0.0,-0.01683259941637516,1.764636516571045,4.626298904418945,3.0467336177825928,0
1159.848,0.0003210187132935971,-0.017268074676394463,0.0002630288654472679,0.0,0.0,0.0,0.0,0.003655259730294347,-0.0003850680368486792,0.004029986914247274,0.9995924830436707,0.0,0.0,0.0,-0.031811680644750595,1.7703925371170044,4.630710601806641,5.757977485656738,0
1169.768,0.0002640754100866616,-0.01723448932170868,0.0002566876937635243,0.0,0.0,0.0,0.0,0.002229579258710146,-0.0019935406744480133,-0.002259495435282588,1.0011650323867798,0.0,0.0,0.0,-0.017853546887636185,1.7708622217178345,4.613047122955322,3.23152756690979,0
1179.6720000000005,0.0002454823115840554,-0.017268234863877296,0.00023857927590142936,0.0,0.0,0.0,0.0,-0.0016797322314232588,0.00405270978808403,0.0007992049213498831,0.9989302754402161,0.0,0.0,0.0,-0.041144195944070816,1.7643071413040161,4.611486911773682,7.447181701660156,0
1189.5959999999995,0.0002491858322173357,-0.017246490344405174,0.0002502939023543149,0.0,0.0,0.0,0.0,0.0009858758421614766,-0.0014895027270540595,-0.0015086099738255143,0.9973394870758057,0.0,0.0,0.0,-0.027583269402384758,1.7701416015625,4.602722644805908,4.992626667022705,0
1199.4940000000006,0.0002481365227140486,-0.017231324687600136,0.0002257294545415789,0.0,0.0,0.0,0.0,-0.0005762732471339405,0.0015343239065259695,-0.0036083695013076067,0.9979774951934814,0.0,0.0,0.0,-0.0394350104033947,1.7700403928756714,4.598121166229248,7.137814998626709,0
1209.4210000000003,0.00028961876523680985,-0.017223933711647987,0.00023880584922153503,0.0,0.0,0.0,0.0,0.002241635462269187,0.004274153150618076,0.0011251597898080945,0.9988516569137573,0.0,0.0,0.0,-0.02157035656273365,1.775347113609314,4.604244232177734,3.9042775630950928,0
1219.3240000000005,0.0002840043744072318,-0.017216410487890244,0.00021627759269904345,0.0,0.0,0.0,0.0,-0.0043564122170209885,-0.0003803958825301379,-0.00046460950397886336,1.0011085271835327,0.0,0.0,0.0,-0.03420339152216911,1.7808194160461426,4.5893964767456055,6.190881252288818,0
1229.2479999999996,0.00029126674053259194,-0.017199013382196426,0.00022294740483630449,0.0,0.0,0.0,0.0,0.0012639652704820037,0.004308259580284357,-0.0002487859455868602,0.9990376830101013,0.0,0.0,0.0,-0.01700921356678009,1.7811000347137451,4.589197635650635,3.0787014961242676,0
1239.1509999999998,0.00025940066552720964,-0.017240289598703384,0.00021514014224521816,0.0,0.0,0.0,0.0,-0.006408941000699997,-0.00237183622084558,0.001869083265773952,0.9992736577987671,0.0,0.0,0.0,-0.03636511415243149,1.7711840867996216,4.578891754150391,6.582158088684082,0
1249.0689999999995,0.00029495442868210375,-0.017250893637537956,0.00021753496548626572,0.0,0.0,0.0,0.0,-0.001212873263284564,-0.0004334077821113169,-0.0013795900158584118,0.9983627796173096,0.0,0.0,0.0,-0.024511486291885376,1.7785123586654663,4.5787224769592285,4.4366278648376465,0
1258.973,0.0002734266745392233,-0.01725429855287075,0.00021319661755114794,0.0,0.0,0.0,0.0,0.0024511110968887806,-8.09094708529301e-05,-0.0020519401878118515,0.9973167181015015,0.0,0.0,0.0,-0.04667909815907478,1.7856614589691162,4.573573589324951,8.44900894165039,0
1268.8999999999996,0.00026696169516071677,-0.017227251082658768,0.00022136139159556478,0.0,0.0,0.0,0.0,-1.533705653855577e-05,0.0015413035871461034,0.0019863431807607412,0.9978373646736145,0.0,0.0,0.0,-0.03294782713055611,1.785473108291626,4.578290939331055,5.963622570037842,0
1278.8070000000007,0.0002118748816428706,-0.01724216714501381,0.00024617326562292874,0.0,0.0,0.0,0.0,0.0033147025387734175,-0.0013003533240407705,0.00037060334580019116,0.9980663657188416,0.0,0.0,0.0,-0.045363716781139374,1.7765313386917114,4.570613384246826,8.210923194885254,0
1288.7219999999998,0.00021292721794452518,-0.017239542677998543,0.00024140276946127415,0.0,0.0,0.0,0.0,0.002360572572797537,-0.0006959644961170852,-0.001485531567595899,1.0016610622406006,0.0,0.0,0.0,-0.03004400245845318,1.7718453407287598,4.5727763175964355,5.438024044036865,0
1298.6329999999998,0.00015194062143564224,-0.017302490770816803,0.00025342017761431634,0.0,0.0,0.0,0.0,-0.001938807894475758,-0.0005616985727101564,-0.0006220871000550687,1.0013982057571411,0.0,0.0,0.0,-0.05127597600221634,1.7615330219268799,4.562755107879639,9.281054496765137,0
1308.549000000001,0.00017286209913436323,-0.017304405570030212,0.00025989042478613555,0.0,0.0,0.0,0.0,-0.0013779897708445787,0.0006386702880263329,-0.004716630559414625,0.9984039664268494,0.0,0.0,0.0,-0.03990241140127182,1.7571327686309814,4.575840473175049,7.222415924072266,0
1318.4520000000011,0.00017786436364986002,-0.01728997193276882,0.00022166056442074478,0.0,0.0,0.0,0.0,-0.002314792713150382,-0.0018107668729498982,0.0018456195248290896,0.9976882934570312,0.0,0.0,0.0,-0.062178123742341995,1.7687335014343262,4.578825950622559,11.254364013671875,0
1328.3729999999996,0.00015778318629600108,-0.01727234199643135,0.00021988750086165965,0.0,0.0,0.0,0.0,0.0013260823907330632,0.0013014476280659437,0.0004188206803519279,0.9980147480964661,0.0,0.0,0.0,-0.05025996267795563,1.7701716423034668,4.570026874542236,9.097152709960938,0
1338.2849999999999,0.00016576463531237096,-0.017230436205863953,0.00018161622574552894,0.0,0.0,0.0,0.0,0.002268911339342594,-0.0024373303167521954,-1.8797996744979173e-05,0.9990321397781372,0.0,0.0,0.0,-0.06067456677556038,1.7773760557174683,4.562758445739746,10.982216835021973,0
1348.2039999999997,0.00014725644723512232,-0.017193282023072243,0.00018871492648031563,0.0,0.0,0.0,0.0,-0.0018685944378376007,-0.0010679623810574412,-0.000559016247279942,0.9997461438179016,0.0,0.0,0.0,-0.04421408474445343,1.777906060218811,4.56129789352417,8.002837181091309,0
1358.1059999999998,0.00012116336438339204,-0.017213350161910057,0.00016552633314859122,0.0,0.0,0.0,0.0,-0.001745373010635376,-0.00413611251860857,-0.0004996749339625239,0.9995540380477905,0.0,0.0,0.0,-0.06560870260000229,1.7790966033935547,4.559386730194092,11.87530517578125,0
1368.0370000000003,0.00011963405268033966,-0.017193371430039406,0.000168825572472997,0.0,0.0,0.0,0.0,0.0021185765508562326,-0.004736375994980335,0.0007201605476438999,0.9997447729110718,0.0,0.0,0.0,-0.054430510848760605,1.7860794067382812,4.561807155609131,9.852030754089355,0
1377.9310000000005,7.997441571205854e-05,-0.01720242016017437,0.00016516115283593535,0.0,0.0,0.0,0.0,-0.0026284372434020042,-0.00022376036213245243,-0.004807506687939167,1.000492811203003,0.0,0.0,0.0,-0.06326403468847275,1.7838917970657349,4.559753894805908,11.450916290283203,0
1387.8590000000004,0.00015256392362061888,-0.017167862504720688,0.00021155498689040542,0.0,0.0,0.0,0.0,0.0012160547776147723,0.0013338022399693727,-0.0026109032332897186,0.999098539352417,0.0,0.0,0.0,-0.0460146926343441,1.7977700233459473,4.569136142730713,8.328749656677246,0
1397.7610000000004,0.00014585888129658997,-0.017148736864328384,0.00018413367797620595,0.0,0.0,0.0,0.0,-0.0032590972259640694,-0.006299913395196199,-0.0004829683166462928,0.9988492131233215,0.0,0.0,0.0,-0.05715962126851082,1.8027722835540771,4.564910888671875,10.3460054397583,0
1407.6859999999997,0.000205025848117657,-0.01714877225458622,0.00020301449694670737,0.0,0.0,0.0,0.0,0.004891624674201012,0.0002693906135391444,-0.0009870990179479122,0.998814582824707,0.0,0.0,0.0,-0.042614780366420746,1.8054550886154175,4.582864284515381,7.713359832763672,0
1417.5860000000011,0.00013490463607013226,-0.017199823632836342,0.00022711372002959251,0.0,0.0,0.0,0.0,0.0028308017645031214,-0.0029912737663835287,0.001937367138452828,0.9997618794441223,0.0,0.0,0.0,-0.05536191165447235,1.7884950637817383,4.559945583343506,10.020615577697754,0
1427.5069999999996,0.0002385733532719314,-0.017202408984303474,0.00026609638007357717,0.0,0.0,0.0,0.0,-0.0010772045934572816,0.0028413005638867617,-0.0006742138648405671,0.9998403787612915,0.0,0.0,0.0,-0.03327558934688568,1.7797179222106934,4.577845096588135,6.022948265075684,0
1437.4130000000005,0.00017690694949124008,-0.017236756160855293,0.0002934544172603637,0.0,0.0,0.0,0.0,0.0027680923230946064,0.0024025319144129753,0.00011528918548719957,0.9995388388633728,0.0,0.0,0.0,-0.0440402515232563,1.7762547731399536,4.560017108917236,7.971373558044434,0
1447.3360000000011,0.0002561519795563072,-0.01725270040333271,0.0003184509405400604,0.0,0.0,0.0,0.0,0.0015632212162017822,-0.0033631001133471727,0.002039053477346897,0.9990831017494202,0.0,0.0,0.0,-0.030028412118554115,1.7601649761199951,4.560817718505859,5.435202121734619,0
1457.2399999999998,0.0002298475446878001,-0.017251698300242424,0.0003179780615027994,0.0,0.0,0.0,0.0,0.0009981506736949086,-0.0039047824684530497,0.0019088025437667966,0.9999297857284546,0.0,0.0,0.0,-0.029992055147886276,1.7506786584854126,4.556194305419922,5.428621768951416,0
1467.1579999999994,0.00019974396855104715,-0.017254116013646126,0.00031445809872820973,0.0,0.0,0.0,0.0,0.002108754590153694,-0.00047636529779993,-0.0023771256674081087,0.9992523193359375,0.0,0.0,0.0,-0.016204074025154114,1.747678518295288,4.558760166168213,2.932969570159912,0
1477.063,0.00016890063125174493,-0.017252234742045403,0.00031316548120230436,0.0,0.0,0.0,0.0,-0.001606712001375854,0.0028562494553625584,0.0008543591247871518,0.9984103441238403,0.0,0.0,0.0,-0.017446961253881454,1.7445144653320312,4.556979656219482,3.1579346656799316,0
1486.9840000000004,0.0002462730626575649,-0.01725420542061329,0.00031546183163300157,0.0,0.0,0.0,0.0,0.0011247831862419844,0.0012696711346507072,-0.00092426931951195,1.0005240440368652,0.0,0.0,0.0,-0.0031978238839656115,1.7435752153396606,4.559683322906494,0.5788124203681946,0
1496.8909999999996,0.0002055574004771188,-0.017261337488889694,0.00033269141567870975,0.0,0.0,0.0,0.0,0.001335051958449185,-0.002633742056787014,-0.002078002318739891,0.9983516931533813,0.0,0.0,0.0,-0.014639337547123432,1.7449827194213867,4.544597148895264,2.649749279022217,0
1506.8140000000003,0.0002367648994550109,-0.017267335206270218,0.0003482052416075021,0.0,0.0,0.0,0.0,0.0010033644502982497,0.003444465110078454,-0.0036614597775042057,0.9985753893852234,0.0,0.0,0.0,0.003926032688468695,1.7371021509170532,4.557187080383301,-0.7106197476387024,0
1516.7170000000006,0.00024391002079937607,-0.017222601920366287,0.0003025688056368381,0.0,0.0,0.0,0.0,-0.0024798365775495768,0.006260531488806009,0.0010116253979504108,0.9993683099746704,0.0,0.0,0.0,-0.017945975065231323,1.743147373199463,4.548860549926758,3.2482571601867676,0
1526.6309999999994,0.0002254845021525398,-0.017204806208610535,0.0003079383750446141,0.0,0.0,0.0,0.0,-0.0009985842043533921,-0.0019358161371201277,0.0018907769117504358,1.0007039308547974,0.0,0.0,0.0,-0.004910051357001066,1.744367003440857,4.53091287612915,0.8887290954589844,0
1536.5419999999995,0.00021846241725143045,-0.01718747988343239,0.00027373392367735505,0.0,0.0,0.0,0.0,-0.00035769588430412114,-0.0034859373699873686,0.0011747481767088175,0.9997530579566956,0.0,0.0,0.0,-0.01705937460064888,1.7491934299468994,4.5331854820251465,3.087780714035034,0
1546.4570000000003,0.0002274337166454643,-0.017178814858198166,0.0002811604645103216,0.0,0.0,0.0,0.0,0.0013903547078371048,0.0032697187270969152,0.0014714882709085941,1.000585675239563,0.0,0.0,0.0,-0.0050224922597408295,1.7467706203460693,4.537583827972412,0.9090811014175415,0
1556.3680000000004,0.000165162913617678,-0.01722186990082264,0.0003039842704311013,0.0,0.0,0.0,0.0,-0.00046480988385155797,0.0032708041835576296,0.003305951366201043,0.999222993850708,0.0,0.0,0.0,-0.02051227167248726,1.7368031740188599,4.522908687591553,3.712761878967285,0
1566.2839999999997,0.00023481126117985696,-0.0172155499458313,0.00033883843570947647,0.0,0.0,0.0,0.0,0.00379922310821712,-0.0017451154999434948,8.763312507653609e-05,0.9998965859413147,0.0,0.0,0.0,-0.001491147791966796,1.7352391481399536,4.536111354827881,0.26990073919296265,0
1576.1949999999997,0.0001815373107092455,-0.017242059111595154,0.0003559290198609233,0.0,0.0,0.0,0.0,-4.818427623831667e-05,-0.0013022434432059526,0.0026483945548534393,0.9994743466377258,0.0,0.0,0.0,-0.014065739698708057,1.7219154834747314,4.530290126800537,2.545926809310913,0
1586.1130000000012,0.00019745415193028748,-0.017231743782758713,0.0003747077425941825,0.0,0.0,0.0,0.0,-0.0038238230627030134,0.0005378923960961401,-0.0011250205570831895,1.0004832744598389,0.0,0.0,0.0,-0.001822505029849708,1.7192721366882324,4.53360652923584,0.3298770487308502,0
1596.0210000000006,0.00016797416901681572,-0.017226316034793854,0.0003765638102777302,0.0,0.0,0.0,0.0,0.0017890098970383406,0.004244602285325527,-8.276331936940551e-05,0.9990696907043457,0.0,0.0,0.0,-0.0023244372569024563,1.7243083715438843,4.528182506561279,0.42072775959968567,0
1605.9430000000011,0.00017159065464511514,-0.017194973304867744,0.0004016216844320297,0.0,0.0,0.0,0.0,-0.0028373950626701117,-0.0014640730805695057,0.0009241842781193554,0.9996222853660583,0.0,0.0,0.0,0.011030282825231552,1.7216068506240845,4.528107643127441,-1.9965029954910278,0
1615.848,0.00011342507059453055,-0.017256807535886765,0.0004194675711914897,0.0,0.0,0.0,0.0,0.0027603793423622847,0.006002015434205532,0.0008980297716334462,0.9996684193611145,0.0,0.0,0.0,-0.010429696179926395,1.7112616300582886,4.5220208168029785,1.8877958059310913,0
1625.768,0.00016142678214237094,-0.017260665073990822,0.00044929643627256155,0.0,0.0,0.0,0.0,-0.002395032672211528,-0.0016822534380480647,0.002550968900322914,1.0009560585021973,0.0,0.0,0.0,-0.000814483966678381,1.7031289339065552,4.517053127288818,0.14742322266101837,0
1635.6730000000007,0.00012813194189220667,-0.01729748770594597,0.0004439547483343631,0.0,0.0,0.0,0.0,-0.0002356633049203083,0.005183442495763302,5.259345562080853e-05,1.0004587173461914,0.0,0.0,0.0,-0.021432779729366302,1.6993814706802368,4.51248836517334,3.87937593460083,0
1645.5969999999998,9.036596748046577e-05,-0.01728244125843048,0.0004532808088697493,0.0,0.0,0.0,0.0,0.0006513401749543846,-0.0017566162860020995,0.0021753734908998013,0.9967942237854004,0.0,0.0,0.0,-0.011456300504505634,1.6988111734390259,4.500906467437744,2.073613166809082,0
1655.5,0.00013017031596973538,-0.0172652006149292,0.00036944111343473196,0.0,0.0,0.0,0.0,0.0017259996384382248,0.005214784760028124,-0.001746963826008141,0.9992958903312683,0.0,0.0,0.0,-0.03561117500066757,1.7014176845550537,4.51369047164917,6.445693016052246,0
1665.4230000000007,0.0001170105388155207,-0.017251288518309593,0.00037644937401637435,0.0,0.0,0.0,0.0,0.0001267922343686223,-0.0009366984595544636,0.000498336972668767,0.9996249675750732,0.0,0.0,0.0,-0.020663544535636902,1.702817440032959,4.502657890319824,3.740142583847046,0
1675.326000000001,0.00012987316586077213,-0.0172570813447237,0.0003170131822116673,0.0,0.0,0.0,0.0,-0.0014863575343042612,0.006693042814731598,0.0019316242542117834,0.9984082579612732,0.0,0.0,0.0,-0.04245865345001221,1.7050467729568481,4.508516311645508,7.685100555419922,0
1685.255000000001,0.00015358762175310403,-0.017263246700167656,0.0003189593262504786,0.0,0.0,0.0,0.0,0.0006545698270201683,-0.002035740530118346,0.0027149245142936707,0.9981818795204163,0.0,0.0,0.0,-0.028933163732290268,1.7002748250961304,4.502129554748535,5.236959934234619,0
1695.161,0.00017685156490188092,-0.017243262380361557,0.00025574088795110583,0.0,0.0,0.0,0.0,0.0029386382084339857,0.003137409221380949,0.0016397543950006366,0.9971552491188049,0.0,0.0,0.0,-0.04163404926657677,1.7035884857177734,4.506025314331055,7.53584623336792,0
1705.0840000000007,0.00016880901239346713,-0.01724836975336075,0.00023968517780303955,0.0,0.0,0.0,0.0,0.002142219804227352,0.002280621090903878,-0.0008954278891906142,0.9982178211212158,0.0,0.0,0.0,-0.03132873773574829,1.6926352977752686,4.501433849334717,5.670563697814941,0
1714.9899999999998,0.00017559199477545917,-0.01721222698688507,0.0001950664009200409,0.0,0.0,0.0,0.0,-0.0021967769134789705,0.0017530559562146664,-0.0026036438066512346,0.9986492395401001,0.0,0.0,0.0,-0.043764229863882065,1.7004594802856445,4.487795829772949,7.921412944793701,0
1724.911,0.0002547090407460928,-0.017204413190484047,0.0002138142444891855,0.0,0.0,0.0,0.0,-0.0015695426845923066,0.004295026417821646,0.001006823731586337,0.9997124671936035,0.0,0.0,0.0,-0.025939036160707474,1.70658540725708,4.493110656738281,4.695017337799072,0
1734.826000000001,0.0002094614610541612,-0.017257869243621826,0.00020578700059559196,0.0,0.0,0.0,0.0,0.0009186726529151201,0.0028118491172790527,-0.0018040348077192903,0.998352587223053,0.0,0.0,0.0,-0.04660744592547417,1.69741952419281,4.479923725128174,8.436040878295898,0
1744.737000000001,0.00024957815185189247,-0.01724652759730816,0.00021666366956196725,0.0,0.0,0.0,0.0,0.0005044367862865329,0.0033463549334555864,-6.567174750671256e-06,1.0011835098266602,0.0,0.0,0.0,-0.029878871515393257,1.692306637763977,4.4937357902526855,5.408134937286377,0
1754.6509999999998,0.00022010656539350748,-0.017284033820033073,0.00019741679716389626,0.0,0.0,0.0,0.0,0.00067959597799927,-0.0005838433862663805,0.0008123888983391225,0.9988951683044434,0.0,0.0,0.0,-0.052663981914520264,1.682181477546692,4.479878902435303,9.5322847366333,0
1764.5599999999995,0.00028282677521929145,-0.01727239601314068,0.00021554864360950887,0.0,0.0,0.0,0.0,-0.0030619145836681128,-0.0024995405692607164,0.0018489148933440447,0.9995995163917542,0.0,0.0,0.0,-0.040477950125932693,1.6811487674713135,4.488842964172363,7.326589584350586,0
1774.4790000000012,0.00026613526279106736,-0.017270464450120926,0.00020085976575501263,0.0,0.0,0.0,0.0,-0.002356223063543439,-0.005538199096918106,0.0013998652575537562,0.9991968274116516,0.0,0.0,0.0,-0.040126580744981766,1.690943956375122,4.494358062744141,7.262990951538086,0
1784.4030000000002,0.00029420992359519005,-0.017254624515771866,0.00020131998462602496,0.0,0.0,0.0,0.0,-0.0019942307844758034,0.0039270068518817425,-0.004170771688222885,1.0013681650161743,0.0,0.0,0.0,-0.024218223989009857,1.6968598365783691,4.508162021636963,4.383547306060791,0
1794.3060000000005,0.00024487360497005284,-0.017257099971175194,0.00022990380239207298,0.0,0.0,0.0,0.0,-0.0002893175696954131,0.000769453530665487,7.077902864693897e-06,0.9995539784431458,0.0,0.0,0.0,-0.03883468732237816,1.698764681816101,4.4976935386657715,7.029155731201172,0
1804.232,0.0002366686676396057,-0.017223045229911804,0.0002448200830258429,0.0,0.0,0.0,0.0,-0.0005295933806337416,-0.0020416411571204662,-0.0014609205536544323,0.9977401494979858,0.0,0.0,0.0,-0.024010907858610153,1.7086595296859741,4.487478256225586,4.346022129058838,0
1814.1370000000006,0.0002117810072377324,-0.01723463460803032,0.0002280041080666706,0.0,0.0,0.0,0.0,-0.0004043674562126398,0.0016849057283252478,-0.004927442874759436,0.9987919926643372,0.0,0.0,0.0,-0.045170605182647705,1.7081769704818726,4.4884443283081055,8.175970077514648,0
1824.0570000000007,0.00017547339666634798,-0.017196401953697205,0.0002276005398016423,0.0,0.0,0.0,0.0,-0.0043005868792533875,-0.00019122588855680078,0.0006310570752248168,0.9986322522163391,0.0,0.0,0.0,-0.02605327032506466,1.7106082439422607,4.4709248542785645,4.715693473815918,0
1833.9570000000003,0.00012704633991234004,-0.017210857942700386,0.00023555100779049098,0.0,0.0,0.0,0.0,0.00011600999278016388,0.0014081192202866077,-0.0016525256214663386,0.9975391626358032,0.0,0.0,0.0,-0.03974537551403046,1.7120803594589233,4.465074062347412,7.1939921379089355,0
1843.8760000000002,0.00013308909547049552,-0.017202045768499374,0.00023719421005807817,0.0,0.0,0.0,0.0,-0.0024673191364854574,-0.0001995059137698263,0.0002350877912249416,0.9977473616600037,0.0,0.0,0.0,-0.025758525356650352,1.713343620300293,4.4665207862854,4.662343978881836,0
1853.7829999999994,0.00013238590327091515,-0.017168454825878143,0.0001932016311911866,0.0,0.0,0.0,0.0,-0.0004411698901094496,-0.0027658904436975718,-0.0028010972309857607,0.9989560842514038,0.0,0.0,0.0,-0.03866400942206383,1.720386266708374,4.467524528503418,6.998262882232666,0
1863.6980000000003,0.00018489801732357591,-0.01713646575808525,0.00022549905406776816,0.0,0.0,0.0,0.0,0.0021413543727248907,0.002989021362736821,-0.002191111445426941,1.0008279085159302,0.0,0.0,0.0,-0.021864810958504677,1.7256615161895752,4.479541301727295,3.9575741291046143,0
1873.6090000000004,0.00014509985339827836,-0.017175445333123207,0.00020384333038236946,0.0,0.0,0.0,0.0,0.0009157024906016886,-0.006179252173751593,-0.0004512981977313757,1.0002336502075195,0.0,0.0,0.0,-0.04588186368346214,1.7178122997283936,4.46370267868042,8.304708480834961,0
1883.5329999999994,0.00014238106086850166,-0.01717815361917019,0.00019279452681075782,0.0,0.0,0.0,0.0,0.0004499113711062819,0.0003762489359360188,-0.00040017435094341636,1.0003658533096313,0.0,0.0,0.0,-0.035259850323200226,1.7142491340637207,4.479032039642334,6.382103443145752,0
1893.4349999999995,0.0001133743062382564,-0.01719551719725132,0.0001651385537115857,0.0,0.0,0.0,0.0,0.001062628347426653,0.0006765170255675912,0.004314621444791555,0.9997227191925049,0.0,0.0,0.0,-0.0569598451256752,1.711976408958435,4.473012447357178,10.309844970703125,0
1903.3430000000008,0.00022061890922486782,-0.01719965599477291,0.00019916007295250893,0.0,0.0,0.0,0.0,0.00010066305549116805,-0.002330346032977104,-0.0035643980372697115,0.9992470145225525,0.0,0.0,0.0,-0.03645540773868561,1.7072045803070068,4.486522674560547,6.598501205444336,0
1913.2530000000006,0.0002021339169004932,-0.017192641273140907,0.00017162662697955966,0.0,0.0,0.0,0.0,0.0008093900396488607,-0.0005494672222994268,-0.001256753341294825,0.9998253583908081,0.0,0.0,0.0,-0.050918035209178925,1.709276556968689,4.479465484619141,9.216266632080078,0
1923.174000000001,0.00016613266780041158,-0.017187336459755898,0.0001571529428474605,0.0,0.0,0.0,0.0,0.0005647783982567489,-0.0028583041857928038,-0.0020175145473331213,0.998181939125061,0.0,0.0,0.0,-0.037910331040620804,1.7122360467910767,4.469295501708984,6.861845016479492,0
1933.0830000000005,0.00013463679351843894,-0.017177121713757515,0.00014005880802869797,0.0,0.0,0.0,0.0,-0.0016640062676742673,-0.0010777728166431189,-0.0025947047397494316,0.9995017051696777,0.0,0.0,0.0,-0.05795193091034889,1.7137320041656494,4.46409797668457,10.489415168762207,0
1943.0030000000006,0.00024022290017455816,-0.017207298427820206,0.00015785667346790433,0.0,0.0,0.0,0.0,0.003021218115463853,-0.0003991786215920001,0.003282237332314253,1.0006616115570068,0.0,0.0,0.0,-0.04661720246076584,1.7108529806137085,4.489108562469482,8.437806129455566,0
1952.9150000000009,0.00019698598771356046,-0.017230581492185593,0.00014981806452851743,0.0,0.0,0.0,0.0,-0.00020233566465321928,0.0020546652376651764,0.0013182745315134525,1.0000545978546143,0.0,0.0,0.0,-0.05693625286221504,1.6995962858200073,4.48443078994751,10.305574417114258,0
1962.8289999999997,0.00024679003399796784,-0.017213987186551094,0.0001811778056435287,0.0,0.0,0.0,0.0,-0.00367475813254714,-0.0003334207576699555,0.0018176375888288021,0.9993233680725098,0.0,0.0,0.0,-0.039146121591329575,1.702839970588684,4.487943649291992,7.0855255126953125,0
1972.7330000000002,0.00021615430887322873,-0.017218058928847313,0.00017291889525949955,0.0,0.0,0.0,0.0,0.0002700286277104169,-0.0019414883572608232,0.00030675227753818035,0.9991756081581116,0.0,0.0,0.0,-0.03749306499958038,1.7031551599502563,4.483506679534912,6.786319732666016,0
1982.6450000000004,0.0002495477383490652,-0.0171999279409647,0.00018879167328123003,0.0,0.0,0.0,0.0,0.002472779480740428,-0.000832824211101979,-0.0011167058255523443,0.9992541670799255,0.0,0.0,0.0,-0.019509119912981987,1.7078733444213867,4.488977432250977,3.5311896800994873,0
1992.5750000000007,0.00018427122267894447,-0.0172658022493124,0.00020418610074557364,0.0,0.0,0.0,0.0,0.002012368058785796,0.006029839161783457,0.002454729750752449,1.0000351667404175,0.0,0.0,0.0,-0.04121029004454613,1.6865439414978027,4.477653980255127,7.459144592285156,0
2002.4700000000012,0.0002039339451584965,-0.01724385842680931,0.00024003736325539649,0.0,0.0,0.0,0.0,-0.001043554861098528,-0.00642938818782568,0.0009396492387168109,1.0000934600830078,0.0,0.0,0.0,-0.02663891762495041,1.6908280849456787,4.470504283905029,4.821697235107422,0
2012.3870000000006,0.00017671650857664645,-0.017284033820033073,0.00020867562852799892,0.0,0.0,0.0,0.0,-0.0014587774639949203,-0.0019345980836078525,0.0020443822722882032,0.9996430277824402,0.0,0.0,0.0,-0.0519295372068882,1.6858742237091064,4.473047733306885,9.399349212646484,0
2022.3019999999997,0.00012869515921920538,-0.017264338210225105,0.00021626974921673536,0.0,0.0,0.0,0.0,-0.0026351779233664274,-0.004076497629284859,0.0010552216554060578,1.0005770921707153,0.0,0.0,0.0,-0.03500834479928017,1.6915645599365234,4.468045711517334,6.336580276489258,0
2032.2170000000006,0.00013215222861617804,-0.01721792109310627,0.00017432575987186283,0.0,0.0,0.0,0.0,0.0017859491053968668,0.0039720553904771805,-0.0005369435530155897,1.000287413597107,0.0,0.0,0.0,-0.046440184116363525,1.708505392074585,4.4689836502075195,8.40576457977295,0
2042.1270000000004,0.00019467763195279986,-0.017209282144904137,0.00021767124417237937,0.0,0.0,0.0,0.0,0.0010075870668515563,-0.00041575657087378204,-0.0006717688520438969,0.9993101358413696,0.0,0.0,0.0,-0.03210753574967384,1.709524393081665,4.484889030456543,5.811527729034424,0
2052.0380000000005,0.0001614649227121845,-0.017210660502314568,0.00021603531786240637,0.0,0.0,0.0,0.0,0.0011311705457046628,-0.00013795400445815176,-0.0030428022146224976,0.998633861541748,0.0,0.0,0.0,-0.03267595171928406,1.707244634628296,4.475629806518555,5.914412021636963,0
2061.965,0.00020266446517780423,-0.01719655469059944,0.00023709460219834,0.0,0.0,0.0,0.0,-0.0036881512496620417,0.0013038386823609471,0.00091072783106938,0.9987763166427612,0.0,0.0,0.0,-0.020914262160658836,1.70675528049469,4.487796783447266,3.785522937774658,0
2071.867,0.0001580469834152609,-0.017232954502105713,0.00023412902373820543,0.0,0.0,0.0,0.0,0.002517388202250004,-0.0009084122139029205,0.0032875167671591043,0.9992093443870544,0.0,0.0,0.0,-0.044804029166698456,1.7065411806106567,4.483250617980957,8.109619140625,0
2081.777,0.00019360307487659156,-0.017224730923771858,0.0002688993117772043,0.0,0.0,0.0,0.0,-0.0010749377543106675,0.00013670041516888887,0.0003773254284169525,0.9989222884178162,0.0,0.0,0.0,-0.0292845219373703,1.7029972076416016,4.492161273956299,5.3005571365356445,0
2091.688,0.00013705753372050822,-0.01725905016064644,0.0002855653874576092,0.0,0.0,0.0,0.0,-0.0006054664845578372,-0.00497969426214695,-0.0037885247729718685,0.9997653961181641,0.0,0.0,0.0,-0.044512148946523666,1.6941704750061035,4.480808734893799,8.056787490844727,0
2101.6049999999996,0.00018333012121729553,-0.017250994220376015,0.00032756663858890533,0.0,0.0,0.0,0.0,-0.00012860454444307834,-2.1809444660902955e-05,0.0002531670324970037,1.0011801719665527,0.0,0.0,0.0,-0.03073408268392086,1.698000192642212,4.496356010437012,5.562930107116699,0
2111.526,0.00016781972954049706,-0.017270438373088837,0.00029542145784944296,0.0,0.0,0.0,0.0,-0.003522004932165146,-0.0008588391938246787,-0.003665919415652752,0.9990155696868896,0.0,0.0,0.0,-0.05571691691875458,1.6948038339614868,4.494718074798584,10.08487319946289,0
2121.42,0.0001823183847591281,-0.01725422404706478,0.000328032678226009,0.0,0.0,0.0,0.0,0.001068004872649908,0.001387893222272396,-0.002781753893941641,0.9983626008033752,0.0,0.0,0.0,-0.04638814553618431,1.7060319185256958,4.491795063018799,8.396346092224121,0
2131.3420000000006,0.00016361537564080209,-0.017278239130973816,0.0003014730173163116,0.0,0.0,0.0,0.0,0.0010315780527889729,-0.0013287500478327274,-0.002436704933643341,1.0005004405975342,0.0,0.0,0.0,-0.06769035756587982,1.704391598701477,4.492258548736572,12.252089500427246,0
2141.2530000000006,0.00012850569328293204,-0.01726672425866127,0.000308262329781428,0.0,0.0,0.0,0.0,0.0018878199625760317,0.005646962206810713,-0.0032603906001895666,0.9998446106910706,0.0,0.0,0.0,-0.050773538649082184,1.7094762325286865,4.490891933441162,9.19011116027832,0
2151.174000000001,9.774332283996046e-05,-0.017264390364289284,0.00030744902323931456,0.0,0.0,0.0,0.0,-0.0006538792513310909,0.0021083555184304714,-0.0007775177946314216,1.0012331008911133,0.0,0.0,0.0,-0.0656336098909378,1.7051321268081665,4.474623680114746,11.879814147949219,0
