timestamp,stateEstimate.x,stateEstimate.y,stateEstimate.z,controller.cmd_thrust,controller.cmd_roll,controller.cmd_pitch,controller.cmd_yaw,controller.r_roll,controller.r_pitch,controller.r_yaw,controller.accelz,controller.actuatorThrust,controller.roll,controller.pitch,controller.yaw,controller.rollRate,controller.pitchRate,controller.yawRate,controller.ctr_yaw
0.0,0.01506118569523096,-0.02427019365131855,-0.0027782295364886522,0.0,0.0,0.0,0.0,0.003401532769203186,-0.000814214872661978,0.0026293464470654726,0.9996694326400757,0.0,0.0,0.0,-27.20830726623535,6.783133506774902,-2.8940789699554443,4924.7578125,0
9.891999999999825,0.015011275187134743,-0.024362532421946526,-0.0026699730660766363,0.0,0.0,0.0,0.0,-0.00048692902782931924,-0.003539968514814973,0.002444437937811017,0.9992493987083435,0.0,0.0,0.0,-27.180885314941406,6.769681930541992,-2.8859941959381104,4919.79443359375,0
19.77599999999984,0.014960899017751217,-0.024457359686493874,-0.002561884466558695,0.0,0.0,0.0,0.0,-0.001093133701942861,0.006242557428777218,0.002175545087084174,0.999034583568573,0.0,0.0,0.0,-27.15396499633789,6.766912460327148,-2.878657341003418,4914.92138671875,0
29.666000000001077,0.014910435304045677,-0.024554777890443802,-0.0024544247426092625,0.0,0.0,0.0,0.0,0.0032939782831817865,0.00039503161679022014,0.001891722553409636,1.0020867586135864,0.0,0.0,0.0,-27.127490997314453,6.763753890991211,-2.893648862838745,4910.1298828125,0
39.54000000000087,0.01486069057136774,-0.024653911590576172,-0.002346608554944396,0.0,0.0,0.0,0.0,0.0011282711056992412,0.006752590648829937,-0.000357484765117988,1.0013267993927002,0.0,0.0,0.0,-27.10080337524414,6.758406639099121,-2.8856241703033447,4905.2998046875,0
49.4369999999999,0.014811157248914242,-0.02475440502166748,-0.00223704450763762,0.0,0.0,0.0,0.0,0.0008314246661029756,0.0008817968191578984,-0.0003933336411137134,1.0006372928619385,0.0,0.0,0.0,-27.074617385864258,6.753416538238525,-2.8928585052490234,4900.5595703125,0
59.31999999999971,0.01476026326417923,-0.02485639974474907,-0.002126107458025217,0.0,0.0,0.0,0.0,0.0029472399037331343,-0.0011049401946365833,0.002285818802192807,1.0020745992660522,0.0,0.0,0.0,-27.047666549682617,6.746891498565674,-2.8844597339630127,4895.681640625,0
69.20499999999993,0.014709020964801311,-0.02496001496911049,-0.0020137717947363853,0.0,0.0,0.0,0.0,0.0019010804826393723,-0.0006651307339780033,0.0014377825427800417,1.002538800239563,0.0,0.0,0.0,-27.019990921020508,6.7397284507751465,-2.876586675643921,4890.67236328125,0
79.09100000000035,0.014658847823739052,-0.025065194815397263,-0.0018991013057529926,0.0,0.0,0.0,0.0,-0.00028378149727359414,-0.001371063175611198,-0.002158910036087036,1.0018500089645386,0.0,0.0,0.0,-26.99303436279297,6.729214668273926,-2.864870309829712,4885.79296875,0
88.98099999999977,0.014608114026486874,-0.025171823799610138,-0.0017820451175794005,0.0,0.0,0.0,0.0,-0.001801869017072022,0.0019440139876678586,5.443400752369598e-08,1.0006910562515259,0.0,0.0,0.0,-26.966869354248047,6.725371837615967,-2.849980354309082,4881.056640625,0
98.86000000000058,0.014555420726537704,-0.02527967281639576,-0.0016634196508675814,0.0,0.0,0.0,0.0,-0.0011143733281642199,-0.005040635354816914,0.0007518237689509988,0.9985628724098206,0.0,0.0,0.0,-26.93962860107422,6.721596717834473,-2.8464674949645996,4876.1259765625,0
108.75300000000061,0.014501414261758327,-0.025389449670910835,-0.0015445223543792963,0.0,0.0,0.0,0.0,0.0012998176971450448,0.0013112404849380255,-0.0028654939960688353,0.9984580874443054,0.0,0.0,0.0,-26.913469314575195,6.716464996337891,-2.830651044845581,4871.3916015625,0
118.64000000000124,0.014942018315196037,-0.024408001452684402,-0.0024750123266130686,0.0,0.0,0.0,0.0,0.003854435635730624,-0.001732851262204349,0.0018871701322495937,1.0011776685714722,0.0,0.0,0.0,-27.10173797607422,6.798849105834961,-2.8843002319335938,4905.46826171875,0
128.52300000000105,0.014894507825374603,-0.02449692040681839,-0.002355970675125718,0.0,0.0,0.0,0.0,0.002765243174508214,-0.0023828770499676466,-0.003907470498234034,0.999544084072113,0.0,0.0,0.0,-27.0740966796875,6.781907558441162,-2.8840279579162598,4900.46533203125,0
138.40000000000146,0.014846371486783028,-0.024587811902165413,-0.002236288273707032,0.0,0.0,0.0,0.0,0.0030281124636530876,0.0014199470169842243,-0.0020367198158055544,0.9995664954185486,0.0,0.0,0.0,-27.04863166809082,6.767894268035889,-2.875748634338379,4895.8564453125,0
148.3010000000013,0.01479662861675024,-0.024680232629179955,-0.0021166857331991196,0.0,0.0,0.0,0.0,0.0018828646279871464,0.0018149347743019462,-0.0008644105400890112,0.9984039664268494,0.0,0.0,0.0,-27.02200698852539,6.752904891967773,-2.8782105445861816,4891.037109375,0
158.1760000000013,0.01474618911743164,-0.024774033576250076,-0.0019977353513240814,0.0,0.0,0.0,0.0,0.0009143001516349614,-0.0036432344932109118,-0.004590719938278198,0.9978561997413635,0.0,0.0,0.0,-26.995454788208008,6.7428789138793945,-2.878572702407837,4886.23095703125,0
168.06800000000112,0.01469529140740633,-0.02486906573176384,-0.0018799633253365755,0.0,0.0,0.0,0.0,-0.0015428632032126188,3.921597090084106e-05,0.00015955018170643598,0.9994516372680664,0.0,0.0,0.0,-26.96949005126953,6.7307658195495605,-2.8695571422576904,4881.53076171875,0
177.9459999999999,0.014643709175288677,-0.0249664094299078,-0.0017632502131164074,0.0,0.0,0.0,0.0,-0.000666444597300142,-0.0003102653136011213,-0.0011448890436440706,1.00174880027771,0.0,0.0,0.0,-26.942964553833008,6.7247185707092285,-2.8660149574279785,4876.72998046875,0
187.84699999999975,0.014592115767300129,-0.02506677247583866,-0.0016459892503917217,0.0,0.0,0.0,0.0,-0.0011984671000391245,-0.0027880677953362465,0.00025558381457813084,1.001804232597351,0.0,0.0,0.0,-26.91667366027832,6.714855194091797,-2.86128830909729,4871.97119140625,0
197.72199999999975,0.014540920965373516,-0.02516932226717472,-0.0015268109273165464,0.0,0.0,0.0,0.0,0.0007704379386268556,-0.005125096533447504,0.0032746591605246067,1.0018094778060913,0.0,0.0,0.0,-26.890823364257812,6.711991786956787,-2.8565943241119385,4867.29248046875,0
207.6190000000006,0.014489944092929363,-0.025273974984884262,-0.0014056741492822766,0.0,0.0,0.0,0.0,0.0019776495173573494,0.004341411404311657,0.0006039727013558149,1.0013126134872437,0.0,0.0,0.0,-26.863309860229492,6.703113555908203,-2.8469865322113037,4862.3125,0
217.49099999999999,0.014929642900824547,-0.024607166647911072,-0.0022750047501176596,0.0,0.0,0.0,0.0,-0.002112096641212702,0.0023865883704274893,-0.006015665363520384,0.999629557132721,0.0,0.0,0.0,-27.070812225341797,6.733095645904541,-2.8542351722717285,4899.87060546875,0
227.38500000000022,0.014886507764458656,-0.024705173447728157,-0.0021541458554565907,0.0,0.0,0.0,0.0,-0.000525713840033859,-0.003619635012000799,-0.0026806246023625135,1.0018383264541626,0.0,0.0,0.0,-27.044841766357422,6.728987693786621,-2.852294683456421,4895.169921875,0
237.27100000000064,0.015072621405124664,-0.024388059973716736,-0.0026071504689753056,0.0,0.0,0.0,0.0,0.0020357700996100903,-0.000211982405744493,0.0020836370531469584,0.9998238682746887,0.0,0.0,0.0,-27.227920532226562,6.738964557647705,-2.8564233779907227,4928.30810546875,0
247.15999999999985,0.0150277866050601,-0.024482406675815582,-0.002487487392500043,0.0,0.0,0.0,0.0,-0.0007387007353827357,-0.00015273415192496032,-0.0012985675130039454,1.0007381439208984,0.0,0.0,0.0,-27.200439453125,6.728851795196533,-2.8471736907958984,4923.33349609375,0
257.03700000000026,0.015137341804802418,-0.02427881397306919,-0.00280820787884295,0.0,0.0,0.0,0.0,0.0032757925800979137,0.0012843956938013434,0.0016262124991044402,1.0009530782699585,0.0,0.0,0.0,-27.35202980041504,6.729681491851807,-2.854374885559082,4950.77197265625,0
266.9410000000007,0.015089437365531921,-0.024373849853873253,-0.0026892535388469696,0.0,0.0,0.0,0.0,-0.0016906674718484282,0.0015060610603541136,0.0017679154407233,0.9987923502922058,0.0,0.0,0.0,-27.323562622070312,6.717861175537109,-2.848956823348999,4945.619140625,0
276.8130000000001,0.015194641426205635,-0.024146057665348053,-0.002978593111038208,0.0,0.0,0.0,0.0,0.0007648739847354591,0.003013532143086195,-0.0020838326308876276,1.0004972219467163,0.0,0.0,0.0,-27.453044891357422,6.731625080108643,-2.8715968132019043,4969.05517578125,0
286.7039999999997,0.015145944431424141,-0.024240504950284958,-0.0028599693905562162,0.0,0.0,0.0,0.0,0.001352157210931182,-0.002960069105029106,0.0028088700491935015,0.9993985891342163,0.0,0.0,0.0,-27.42662239074707,6.726259708404541,-2.871405601501465,4964.27294921875,0
296.58600000000115,0.015097089111804962,-0.0243355892598629,-0.002741019707173109,0.0,0.0,0.0,0.0,0.0004151840985286981,-0.003804794978350401,0.0008600426372140646,0.9991276264190674,0.0,0.0,0.0,-27.399019241333008,6.719505310058594,-2.858355760574341,4959.27685546875,0
306.48099999999977,0.015047394670546055,-0.024431297555565834,-0.002622319385409355,0.0,0.0,0.0,0.0,0.0009309287997893989,-0.002786447759717703,-0.0012997261947020888,0.9994235038757324,0.0,0.0,0.0,-27.371620178222656,6.712808609008789,-2.8514392375946045,4954.3173828125,0
316.35599999999977,0.014996304176747799,-0.02452876791357994,-0.0025042258203029633,0.0,0.0,0.0,0.0,0.000478862231830135,-0.005301989149302244,0.0005240741884335876,0.9976781606674194,0.0,0.0,0.0,-27.346057891845703,6.706272125244141,-2.8413498401641846,4949.69091796875,0
326.2560000000012,0.014945306815207005,-0.02462831698358059,-0.002387331798672676,0.0,0.0,0.0,0.0,-0.0004282724403310567,0.0021589777898043394,-6.793386273784563e-05,0.997951090335846,0.0,0.0,0.0,-27.318832397460938,6.703385829925537,-2.8304338455200195,4944.76318359375,0
336.130000000001,0.014894426800310612,-0.024729067459702492,-0.0022722650319337845,0.0,0.0,0.0,0.0,-0.0003864238387905061,0.002947235945612192,-0.00044854552834294736,0.9998100996017456,0.0,0.0,0.0,-27.29183578491211,6.6925225257873535,-2.8300890922546387,4939.87646484375,0
346.02500000000146,0.014842609874904156,-0.02483144775032997,-0.002158176386728883,0.0,0.0,0.0,0.0,0.0025889878161251545,0.002691479865461588,-0.0010150490561500192,0.9981153607368469,0.0,0.0,0.0,-27.264856338500977,6.686059951782227,-2.8331234455108643,4934.99365234375,0
355.91200000000026,0.014789653941988945,-0.024936605244874954,-0.0020446940325200558,0.0,0.0,0.0,0.0,-0.00016777223208919168,-0.0009031299850903451,0.005046808160841465,0.9963107705116272,0.0,0.0,0.0,-27.238096237182617,6.675649166107178,-2.8350536823272705,4930.14990234375,0
365.7960000000003,0.014735556207597256,-0.025044776499271393,-0.0019332421943545341,0.0,0.0,0.0,0.0,0.0011245675850659609,0.0007492998265661299,0.0007151612662710249,0.9965150952339172,0.0,0.0,0.0,-27.209421157836914,6.669700622558594,-2.82761549949646,4924.958984375,0
375.6769999999997,0.014950273558497429,-0.02449810691177845,-0.0025042796041816473,0.0,0.0,0.0,0.0,-0.0010811917018145323,0.0004064830718562007,0.00016276499081868678,0.9998689889907837,0.0,0.0,0.0,-27.348310470581055,6.714434623718262,-2.8736660480499268,4950.0986328125,0
385.5680000000011,0.014894159510731697,-0.024593926966190338,-0.0023975148797035217,0.0,0.0,0.0,0.0,0.001513164839707315,0.006110668648034334,0.0014956359518691897,1.0010462999343872,0.0,0.0,0.0,-27.321199417114258,6.710777282714844,-2.862725257873535,4945.19140625,0
395.4549999999999,0.015074674971401691,-0.024228714406490326,-0.002907644957304001,0.0,0.0,0.0,0.0,-0.00025296048261225224,0.002186040859669447,0.002322546439245343,1.0008445978164673,0.0,0.0,0.0,-27.44901466369629,6.725612163543701,-2.8861358165740967,4968.326171875,0
405.34900000000016,0.015018581412732601,-0.024321891367435455,-0.002801942639052868,0.0,0.0,0.0,0.0,-0.0008007548749446869,0.004773854743689299,-0.0035456621553748846,0.997897207736969,0.0,0.0,0.0,-27.42121124267578,6.718947887420654,-2.892603874206543,4963.29345703125,0
415.22000000000116,0.01496166829019785,-0.024417774751782417,-0.002696236362680793,0.0,0.0,0.0,0.0,0.001391008379869163,0.00014395089237950742,-0.0028225944843143225,0.9964237213134766,0.0,0.0,0.0,-27.3952693939209,6.711569309234619,-2.910153865814209,4958.59814453125,0
425.1149999999998,0.014903292991220951,-0.024516234174370766,-0.002592547796666622,0.0,0.0,0.0,0.0,-0.0016498106997460127,0.000820765970274806,0.00028850598027929664,0.9989134073257446,0.0,0.0,0.0,-27.369274139404297,6.702393531799316,-2.9041714668273926,4953.89306640625,0
435.0,0.015186378732323647,-0.0241534486413002,-0.003089741338044405,0.0,0.0,0.0,0.0,-0.0037316186353564262,-0.00445811590179801,-0.0009319265955127776,1.0004826784133911,0.0,0.0,0.0,-27.487201690673828,6.732624530792236,-2.8884968757629395,4975.23876953125,0
444.90000000000146,0.0151371406391263,-0.024250101298093796,-0.002989684697240591,0.0,0.0,0.0,0.0,0.0028985387180000544,0.001126818242482841,-0.003751417389139533,0.9986785650253296,0.0,0.0,0.0,-27.45998764038086,6.732723236083984,-2.8782012462615967,4970.31201171875,0
454.76800000000003,0.015298187732696533,-0.024042507633566856,-0.0032721306197345257,0.0,0.0,0.0,0.0,0.0017915687058120966,0.0005530869239009917,0.0004733830282930285,0.9982553124427795,0.0,0.0,0.0,-27.56534767150879,6.743433952331543,-2.8687899112701416,4989.3828125,0
464.6769999999997,0.01525241881608963,-0.024138417094945908,-0.0031742320861667395,0.0,0.0,0.0,0.0,-0.0004067014961037785,-0.0010410428512841463,-0.0002331634605070576,0.9996033906936646,0.0,0.0,0.0,-27.537622451782227,6.735503673553467,-2.8661370277404785,4984.3642578125,0
514.0840000000007,0.015171809121966362,-0.024206535890698433,-0.00319271394982934,0.0,0.0,0.0,0.0,0.00315651623532176,-0.0025169197469949722,-0.0032704402692615986,0.999822199344635,0.0,0.0,0.0,-27.64292335510254,6.730171203613281,-2.8768396377563477,5003.423828125,0
523.9830000000002,0.015121200121939182,-0.024302460253238678,-0.0030936310067772865,0.0,0.0,0.0,0.0,0.001094831502996385,0.00398078141734004,-0.0004235429805703461,0.9985822439193726,0.0,0.0,0.0,-27.6160945892334,6.720495223999023,-2.869807004928589,4998.568359375,0
533.8580000000002,0.01522968802601099,-0.02399546466767788,-0.0034066098742187023,0.0,0.0,0.0,0.0,-0.0011391865555197,0.0005291936104185879,-0.0024415103252977133,0.9983094930648804,0.0,0.0,0.0,-27.705671310424805,6.744464874267578,-2.913865566253662,5014.78125,0
543.7520000000004,0.015175542794167995,-0.024082157760858536,-0.003308588871732354,0.0,0.0,0.0,0.0,0.0016889781691133976,0.0006563085480593145,-0.0001873867295216769,0.9995518326759338,0.0,0.0,0.0,-27.678922653198242,6.735604286193848,-2.9099297523498535,5009.93994140625,0
553.6310000000012,0.015292540192604065,-0.02380899339914322,-0.0036044493317604065,0.0,0.0,0.0,0.0,-8.973998774308711e-05,0.0022824020124971867,0.00037632486782968044,1.0013900995254517,0.0,0.0,0.0,-27.75292205810547,6.758830547332764,-2.9173424243927,5023.333984375,0
563.5390000000007,0.01523758564144373,-0.023889876902103424,-0.0035060045775026083,0.0,0.0,0.0,0.0,0.0017852721503004432,0.003013977315276861,-0.0006050115334801376,0.9988061189651489,0.0,0.0,0.0,-27.725217819213867,6.75349235534668,-2.9134132862091064,5018.31982421875,0
573.4040000000005,0.015310931950807571,-0.023762425407767296,-0.003681730479001999,0.0,0.0,0.0,0.0,-0.00039636882138438523,0.00019487224926706403,-0.002069063950330019,0.9970775842666626,0.0,0.0,0.0,-27.796184539794922,6.756863117218018,-2.9121956825256348,5031.1650390625,0
583.3119999999999,0.015258045867085457,-0.02384382300078869,-0.003584228688850999,0.0,0.0,0.0,0.0,0.0019734175875782967,-0.012471579946577549,0.002635953715071082,0.9994117021560669,0.0,0.0,0.0,-27.769943237304688,6.7484588623046875,-2.911663293838501,5026.4150390625,0
593.1760000000013,0.015205051749944687,-0.0239267461001873,-0.003488184418529272,0.0,0.0,0.0,0.0,0.00011085852020187303,-0.0017264338675886393,0.002605753717944026,1.001243233680725,0.0,0.0,0.0,-27.741443634033203,6.7412638664245605,-2.87510085105896,5021.25634765625,0
603.0830000000005,0.015150410123169422,-0.024011382833123207,-0.003391992999240756,0.0,0.0,0.0,0.0,0.002979977522045374,-0.003896384034305811,0.0011526349699124694,1.0009310245513916,0.0,0.0,0.0,-27.71308135986328,6.731936454772949,-2.864532947540283,5016.123046875,0
612.9500000000007,0.015330670401453972,-0.02368571050465107,-0.003726628376170993,0.0,0.0,0.0,0.0,0.004090156871825457,-0.0022616032510995865,-0.0012255820911377668,0.9994041919708252,0.0,0.0,0.0,-27.778295516967773,6.764210224151611,-2.8517954349517822,5027.92724609375,0
622.8559999999998,0.015280226245522499,-0.02376021258533001,-0.003627401776611805,0.0,0.0,0.0,0.0,-6.531196413561702e-05,0.0029293159022927284,0.005044398829340935,0.9999851584434509,0.0,0.0,0.0,-27.75182342529297,6.753149032592773,-2.8433949947357178,5023.13525390625,0
632.7309999999998,0.015403030440211296,-0.023554496467113495,-0.003834025701507926,0.0,0.0,0.0,0.0,0.001957994420081377,-0.005674765910953283,-0.00018547837680671364,0.999015212059021,0.0,0.0,0.0,-27.81519317626953,6.775125503540039,-2.846684455871582,5034.60498046875,0
642.6230000000014,0.015359391458332539,-0.02362528257071972,-0.0037339080590754747,0.0,0.0,0.0,0.0,0.0003516364668030292,-0.0017157340189442039,-0.0009707629797048867,0.9975354671478271,0.0,0.0,0.0,-27.7882022857666,6.765593528747559,-2.830497980117798,5029.7197265625,0
652.5020000000004,0.015317747369408607,-0.023699218407273293,-0.0036350267473608255,0.0,0.0,0.0,0.0,0.001740969019010663,0.0014368667034432292,-0.0008349601994268596,1.0004832744598389,0.0,0.0,0.0,-27.76104736328125,6.75516414642334,-2.821894884109497,5024.80517578125,0
662.393,0.015277198515832424,-0.023776179179549217,-0.00353711168281734,0.0,0.0,0.0,0.0,-0.002218864159658551,0.0018867627950385213,-0.005701994989067316,1.0009926557540894,0.0,0.0,0.0,-27.73409080505371,6.744542121887207,-2.8143680095672607,5019.92578125,0
672.268,0.015401715412735939,-0.023632623255252838,-0.003755589248612523,0.0,0.0,0.0,0.0,-0.0028080507181584835,-0.00040082118357531726,0.0030121835879981518,1.000756025314331,0.0,0.0,0.0,-27.801061630249023,6.751991271972656,-2.8107833862304688,5032.04736328125,0
682.1660000000011,0.015363991260528564,-0.023710714653134346,-0.003656689077615738,0.0,0.0,0.0,0.0,0.004403907340019941,-0.00550896255299449,-0.002908230759203434,0.9991397857666016,0.0,0.0,0.0,-27.7722110748291,6.745147228240967,-2.808668851852417,5026.82568359375,0
692.0519999999997,0.015324671752750874,-0.023790542036294937,-0.0035575011279433966,0.0,0.0,0.0,0.0,0.004067734815180302,0.004428653046488762,0.0007195657817646861,1.0009958744049072,0.0,0.0,0.0,-27.745227813720703,6.7334675788879395,-2.7995834350585938,5021.94140625,0
701.9430000000011,0.015284310095012188,-0.02387201227247715,-0.0034580319188535213,0.0,0.0,0.0,0.0,0.0006061987369321287,6.099041911511449e-06,0.0009406593744643033,0.9991652369499207,0.0,0.0,0.0,-27.716962814331055,6.721467018127441,-2.807645082473755,5016.82568359375,0
711.8150000000005,0.015418997034430504,-0.023732420057058334,-0.003691351041197777,0.0,0.0,0.0,0.0,-0.0018821952398866415,-0.004032721742987633,0.0024535025004297495,0.9995866417884827,0.0,0.0,0.0,-27.791616439819336,6.726352691650391,-2.7978579998016357,5030.337890625,0
721.7080000000005,0.015380378812551498,-0.023815158754587173,-0.0035932359751313925,0.0,0.0,0.0,0.0,0.0012984344502910972,-0.0032928120344877243,0.0020360725466161966,1.000430703163147,0.0,0.0,0.0,-27.7632999420166,6.721944332122803,-2.7837984561920166,5025.21240234375,0
731.594000000001,0.015490979887545109,-0.02369634248316288,-0.0037391181103885174,0.0,0.0,0.0,0.0,-0.0016902496572583914,-0.0007105261902324855,-0.001064634183421731,1.0030784606933594,0.0,0.0,0.0,-27.826473236083984,6.736954689025879,-2.7575676441192627,5036.6474609375,0
741.4860000000008,0.015451447106897831,-0.023778030648827553,-0.00363906379789114,0.0,0.0,0.0,0.0,-0.000515445601195097,0.0005579192657023668,-0.0011178674176335335,1.0003281831741333,0.0,0.0,0.0,-27.799251556396484,6.733662128448486,-2.7528460025787354,5031.7197265625,0
751.3739999999998,0.015410476364195347,-0.02386181242763996,-0.003537203185260296,0.0,0.0,0.0,0.0,0.003987043164670467,0.002933201380074024,-0.0014763204380869865,0.9992873072624207,0.0,0.0,0.0,-27.77206039428711,6.7318010330200195,-2.7426252365112305,5026.79833984375,0
761.2630000000008,0.015369773842394352,-0.023948006331920624,-0.003435056423768401,0.0,0.0,0.0,0.0,0.00042846851283684373,-0.00011243124026805162,0.0013651314657181501,1.0009732246398926,0.0,0.0,0.0,-27.744606018066406,6.715843677520752,-2.7494471073150635,5021.8291015625,0
771.139000000001,0.015328635461628437,-0.02403663471341133,-0.0033325273543596268,0.0,0.0,0.0,0.0,-0.0007871538400650024,0.00020533287897706032,0.0017731782281771302,1.0009269714355469,0.0,0.0,0.0,-27.71712303161621,6.705029487609863,-2.7434141635894775,5016.8544921875,0
781.0310000000009,0.01528573501855135,-0.024127794429659843,-0.0032289456576108932,0.0,0.0,0.0,0.0,0.0041612605564296246,0.0043541318736970425,0.0009635619353502989,1.0008363723754883,0.0,0.0,0.0,-27.6903018951416,6.703039169311523,-2.7278900146484375,5011.99951171875,0
790.9140000000007,0.015385493636131287,-0.023850547149777412,-0.0035028608981519938,0.0,0.0,0.0,0.0,0.0016824612393975258,0.0021144188940525055,0.0030093935783952475,1.0014809370040894,0.0,0.0,0.0,-27.762649536132812,6.718183994293213,-2.7645907402038574,5025.0947265625,0
800.7990000000009,0.015339438803493977,-0.02393774315714836,-0.0033966705668717623,0.0,0.0,0.0,0.0,-0.0013539696810767055,-0.0016724324086681008,-0.002311891643330455,1.0019530057907104,0.0,0.0,0.0,-27.73428726196289,6.710485935211182,-2.7673370838165283,5019.96142578125,0
810.6850000000013,0.015291453339159489,-0.024026304483413696,-0.003288661129772663,0.0,0.0,0.0,0.0,0.0011706644436344504,-0.0004172227345407009,0.0010036122985184193,0.9987847805023193,0.0,0.0,0.0,-27.707815170288086,6.706129550933838,-2.763267993927002,5015.169921875,0
820.5770000000011,0.01524252351373434,-0.024116290733218193,-0.0031799639109522104,0.0,0.0,0.0,0.0,-5.554725430556573e-05,-0.0013557788915932178,-0.0006523244082927704,0.9984266757965088,0.0,0.0,0.0,-27.68037223815918,6.698201656341553,-2.7516658306121826,5010.2021484375,0
830.4590000000007,0.015354949049651623,-0.023858169093728065,-0.0034559897612780333,0.0,0.0,0.0,0.0,-0.0009440471767447889,0.00013531398144550622,-0.0005724994116462767,0.9969611763954163,0.0,0.0,0.0,-27.753644943237305,6.718988418579102,-2.7651891708374023,5023.46533203125,0
840.357,0.015307988040149212,-0.023945599794387817,-0.003350443672388792,0.0,0.0,0.0,0.0,-0.0003306609287392348,0.00583954481408,-0.0012990819523110986,0.9979074001312256,0.0,0.0,0.0,-27.72505760192871,6.716622829437256,-2.7532875537872314,5018.291015625,0
850.2340000000004,0.015259942039847374,-0.024035261943936348,-0.0032471446320414543,0.0,0.0,0.0,0.0,0.0016679763793945312,0.0026727516669780016,-0.00239907531067729,0.9975875616073608,0.0,0.0,0.0,-27.697486877441406,6.712207794189453,-2.7579643726348877,5013.30029296875,0
860.112000000001,0.015210045501589775,-0.024126160889863968,-0.003145967610180378,0.0,0.0,0.0,0.0,-0.0002200448070652783,-0.002203910145908594,-0.004290500655770302,0.9986335039138794,0.0,0.0,0.0,-27.669897079467773,6.699402332305908,-2.757770538330078,5008.306640625,0
870.0079999999998,0.01536205131560564,-0.023762837052345276,-0.0035506433341652155,0.0,0.0,0.0,0.0,0.00228579668328166,0.0003149380791001022,6.171055429149419e-05,0.9986410737037659,0.0,0.0,0.0,-27.74226188659668,6.722516059875488,-2.776904821395874,5021.40478515625,0
879.8950000000004,0.015312825329601765,-0.023848239332437515,-0.003452850040048361,0.0,0.0,0.0,0.0,-8.789169805822894e-05,-0.005556589923799038,0.004329322371631861,1.0001987218856812,0.0,0.0,0.0,-27.714632034301758,6.7134318351745605,-2.76464581489563,5016.40380859375,0
889.7870000000003,0.0152649637311697,-0.023935388773679733,-0.003355420660227537,0.0,0.0,0.0,0.0,0.0008765971870161593,0.002248921198770404,0.0010642256820574403,0.9978495836257935,0.0,0.0,0.0,-27.686264038085938,6.705444812774658,-2.7435123920440674,5011.26904296875,0
899.6630000000005,0.01521789375692606,-0.02402394451200962,-0.003258632030338049,0.0,0.0,0.0,0.0,-0.0006181260687299073,0.0012733986368402839,-0.0028724628500640392,0.996784508228302,0.0,0.0,0.0,-27.658966064453125,6.7009596824646,-2.746976613998413,5006.32763671875,0
909.5609999999997,0.015170756727457047,-0.024115027859807014,-0.003164147026836872,0.0,0.0,0.0,0.0,0.0009302935795858502,0.003169870004057884,-0.0022191370371729136,0.9989393949508667,0.0,0.0,0.0,-27.632606506347656,6.6961798667907715,-2.752370595932007,5001.556640625,0
919.4470000000001,0.01512219849973917,-0.02420850843191147,-0.0030717644840478897,0.0,0.0,0.0,0.0,0.0029362484347075224,0.0019983500242233276,0.00039790724986232817,1.0000221729278564,0.0,0.0,0.0,-27.606237411499023,6.687356948852539,-2.759169101715088,4996.78369140625,0
929.3330000000005,0.015071817673742771,-0.02430419810116291,-0.0029798089526593685,0.0,0.0,0.0,0.0,0.0031191762536764145,0.003102560294792056,0.002609033603221178,0.9994097948074341,0.0,0.0,0.0,-27.578754425048828,6.669857025146484,-2.7619543075561523,4991.8095703125,0
939.2129999999997,0.015020583756268024,-0.02440306916832924,-0.0028878464363515377,0.0,0.0,0.0,0.0,0.0009840215789154172,0.0014555035158991814,-0.0006489065126515925,1.0003830194473267,0.0,0.0,0.0,-27.55063819885254,6.6522536277771,-2.77213716506958,4986.72021484375,0
949.1000000000004,0.014969411306083202,-0.02450551465153694,-0.002795796375721693,0.0,0.0,0.0,0.0,-0.0018131673568859696,-0.002251923317089677,0.002602896187454462,1.0018478631973267,0.0,0.0,0.0,-27.523483276367188,6.64341926574707,-2.7731919288635254,4981.8056640625,0
958.9890000000014,0.014918784610927105,-0.02461152710020542,-0.002702860627323389,0.0,0.0,0.0,0.0,-0.0023208027705550194,-0.0007529605645686388,0.0018570595420897007,0.9998831152915955,0.0,0.0,0.0,-27.495624542236328,6.639078617095947,-2.758622407913208,4976.7626953125,0
968.8820000000014,0.01486737560480833,-0.02472107484936714,-0.0026089786551892757,0.0,0.0,0.0,0.0,0.0015031392686069012,0.005349213257431984,0.0013042808277532458,0.9980959892272949,0.0,0.0,0.0,-27.46844482421875,6.636496543884277,-2.755056858062744,4971.84326171875,0
978.764000000001,0.014813587069511414,-0.02483256347477436,-0.0025154449976980686,0.0,0.0,0.0,0.0,-0.0020641537848860025,-0.002673832233995199,-0.0010392303811386228,1.0004515647888184,0.0,0.0,0.0,-27.440587997436523,6.623895645141602,-2.7669191360473633,4966.80078125,0
988.648000000001,0.014757569879293442,-0.024945031851530075,-0.002422355581074953,0.0,0.0,0.0,0.0,0.0009032717789523304,0.002134403446689248,0.00017984586884267628,1.0005792379379272,0.0,0.0,0.0,-27.41301727294922,6.6200947761535645,-2.762558698654175,4961.810546875,0
998.5349999999999,0.014700111001729965,-0.025059670209884644,-0.0023287353105843067,0.0,0.0,0.0,0.0,-0.00015368274762295187,7.735785038676113e-05,0.00042242862400598824,0.9991776943206787,0.0,0.0,0.0,-27.3861141204834,6.612042427062988,-2.766054630279541,4956.94140625,0
1008.4200000000001,0.015117829665541649,-0.024214761331677437,-0.0029890043660998344,0.0,0.0,0.0,0.0,8.333504956681281e-05,0.00016406329814344645,7.149254815885797e-05,0.9977331161499023,0.0,0.0,0.0,-27.49800682067871,6.6989240646362305,-2.795518159866333,4977.19384765625,0
1018.3070000000007,0.015066604129970074,-0.024309203028678894,-0.0028928201645612717,0.0,0.0,0.0,0.0,-0.0023528356105089188,0.00650270190089941,-0.0035137024242430925,1.0000370740890503,0.0,0.0,0.0,-27.470760345458984,6.691274166107178,-2.786259412765503,4972.2626953125,0
1028.201000000001,0.015226761810481548,-0.024008264765143394,-0.003209893126040697,0.0,0.0,0.0,0.0,-0.0005271714762784541,0.005781469866633415,0.0021125860512256622,0.9997769594192505,0.0,0.0,0.0,-27.5726261138916,6.712166786193848,-2.79933500289917,4990.7001953125,0
1038.076000000001,0.015175892971456051,-0.0241001658141613,-0.003114946885034442,0.0,0.0,0.0,0.0,0.0011352318106219172,0.004853805061429739,0.00507325679063797,0.999311089515686,0.0,0.0,0.0,-27.54441261291504,6.708861351013184,-2.806635856628418,4985.59375,0
1047.9670000000006,0.015123041346669197,-0.024194261059165,-0.003020151052623987,0.0,0.0,0.0,0.0,-0.0011163755552843213,-0.005461329128593206,-0.002681518206372857,1.0002838373184204,0.0,0.0,0.0,-27.51634407043457,6.700616359710693,-2.818077564239502,4980.51318359375,0
1057.8490000000002,0.015068775042891502,-0.024289336055517197,-0.0029253815300762653,0.0,0.0,0.0,0.0,-0.00073758524376899,0.0004899038467556238,-0.0010481310309842229,0.9974420666694641,0.0,0.0,0.0,-27.49001121520996,6.689507484436035,-2.8087923526763916,4975.74658203125,0
1067.741,0.015014231204986572,-0.024385029450058937,-0.0028313365764915943,0.0,0.0,0.0,0.0,-0.0022510841954499483,0.0013399410527199507,-0.0009244329994544387,0.9981216192245483,0.0,0.0,0.0,-27.463472366333008,6.680375099182129,-2.8111326694488525,4970.94287109375,0
1077.625,0.014959616586565971,-0.02448129653930664,-0.0027390089817345142,0.0,0.0,0.0,0.0,0.0005399470101110637,-0.006584838964045048,0.004453730769455433,1.0008935928344727,0.0,0.0,0.0,-27.436710357666016,6.679254055023193,-2.8123972415924072,4966.0986328125,0
1087.5160000000014,0.014904147945344448,-0.02457890473306179,-0.0026472548488527536,0.0,0.0,0.0,0.0,-0.000517343170940876,-0.0036275582388043404,-0.000508536642882973,0.99922114610672,0.0,0.0,0.0,-27.408288955688477,6.675379753112793,-2.797295093536377,4960.95458984375,0
1097.398000000001,0.014848284423351288,-0.024678638204932213,-0.0025553321465849876,0.0,0.0,0.0,0.0,-0.0027088045608252287,-0.0011813048040494323,0.0012943980982527137,0.997383177280426,0.0,0.0,0.0,-27.382081985473633,6.670565605163574,-2.778174877166748,4956.2109375,0
1107.2840000000015,0.015121696516871452,-0.02417742647230625,-0.0030483880545943975,0.0,0.0,0.0,0.0,0.0009942101314663887,-0.000363739876775071,0.0030216313898563385,0.9984458088874817,0.0,0.0,0.0,-27.493688583374023,6.721721649169922,-2.782120943069458,4976.412109375,0
1117.1670000000013,0.01507235411554575,-0.024267420172691345,-0.0029585757292807102,0.0,0.0,0.0,0.0,-0.0015896206023171544,-0.004437768366187811,0.0006994993309490383,0.998421847820282,0.0,0.0,0.0,-27.46658706665039,6.708959579467773,-2.774265766143799,4971.5068359375,0
1127.0510000000013,0.01524953544139862,-0.02397351711988449,-0.003349404316395521,0.0,0.0,0.0,0.0,0.0016666845185682178,-6.835687236161903e-05,0.001601558062247932,0.999170184135437,0.0,0.0,0.0,-27.56218910217285,6.73013162612915,-2.7747435569763184,4988.81103515625,0
1136.942000000001,0.015202599577605724,-0.02406088262796402,-0.0032631661742925644,0.0,0.0,0.0,0.0,0.0020338199101388454,0.0006933666882105172,0.0006515763234347105,1.0014300346374512,0.0,0.0,0.0,-27.534175872802734,6.715756416320801,-2.7731692790985107,4983.74072265625,0
1146.8360000000011,0.015156375244259834,-0.024150295183062553,-0.003176557831466198,0.0,0.0,0.0,0.0,0.0003168860566802323,-0.0021695736795663834,-0.0011154963867738843,0.9989450573921204,0.0,0.0,0.0,-27.506689071655273,6.705840110778809,-2.765368700027466,4978.765625,0
1156.7180000000008,0.015110228210687637,-0.024242231622338295,-0.0030894281808286905,0.0,0.0,0.0,0.0,0.001649599289521575,0.0013126578414812684,-0.0034536789171397686,1.0007696151733398,0.0,0.0,0.0,-27.47955322265625,6.699613571166992,-2.7575554847717285,4973.8544921875,0
1166.607,0.01506472285836935,-0.024336162954568863,-0.003002052428200841,0.0,0.0,0.0,0.0,0.0020870771259069443,0.00448016170412302,-0.0022888104431331158,0.9994174838066101,0.0,0.0,0.0,-27.45237922668457,6.68956184387207,-2.7524588108062744,4968.93505859375,0
1176.4880000000012,0.015019630081951618,-0.024432573467493057,-0.002914350014179945,0.0,0.0,0.0,0.0,0.001344603020697832,-0.0004119410295970738,0.0021511970553547144,0.9963928461074829,0.0,0.0,0.0,-27.425235748291016,6.679049968719482,-2.753810167312622,4964.02197265625,0
1186.3760000000002,0.014973278157413006,-0.024532560259103775,-0.002827942371368408,0.0,0.0,0.0,0.0,0.002931371098384261,-0.002185327000916004,0.002258571097627282,0.9983243346214294,0.0,0.0,0.0,-27.39796257019043,6.667421817779541,-2.7553422451019287,4959.08544921875,0
1196.2530000000006,0.014926634728908539,-0.02463548630475998,-0.002743682824075222,0.0,0.0,0.0,0.0,-0.0012314533814787865,0.0009382960270158947,-0.00144818308763206,1.0000780820846558,0.0,0.0,0.0,-27.370004653930664,6.65219259262085,-2.7475779056549072,4954.025390625,0
1206.143,0.014881657436490059,-0.024741176515817642,-0.0026602393481880426,0.0,0.0,0.0,0.0,-0.002208628924563527,-0.0015683542005717754,-0.0009903202299028635,0.9999144077301025,0.0,0.0,0.0,-27.34343719482422,6.646498203277588,-2.7466161251068115,4949.21630859375,0
1216.0370000000003,0.014837449416518211,-0.024849480018019676,-0.0025766687467694283,0.0,0.0,0.0,0.0,0.0024441275745630264,-0.003851388581097126,0.002729651750996709,1.00077223777771,0.0,0.0,0.0,-27.316509246826172,6.643556118011475,-2.7497661113739014,4944.34228515625,0
1225.9189999999999,0.014792472124099731,-0.024959711357951164,-0.002492509549483657,0.0,0.0,0.0,0.0,0.0004653926589526236,-0.0022988198325037956,-7.842463674023747e-05,1.0019892454147339,0.0,0.0,0.0,-27.289451599121094,6.632719993591309,-2.734187364578247,4939.4453125,0
1235.8140000000003,0.014746841043233871,-0.025072677060961723,-0.0024068611674010754,0.0,0.0,0.0,0.0,-0.0011474330676719546,-0.0030273087322711945,-0.0021099145524203777,1.000075101852417,0.0,0.0,0.0,-27.26213836669922,6.629088401794434,-2.72123646736145,4934.50146484375,0
1245.688,0.01470000110566616,-0.025189051404595375,-0.0023199685383588076,0.0,0.0,0.0,0.0,0.0010771307861432433,-0.0012890043435618281,-0.00022616818023379892,0.9984394311904907,0.0,0.0,0.0,-27.235197067260742,6.625670909881592,-2.7093420028686523,4929.625,0
1255.5810000000001,0.014652622863650322,-0.02530897594988346,-0.0022332954686135054,0.0,0.0,0.0,0.0,-0.0003863391757477075,-0.0024525781627744436,-0.0009682381059974432,0.9993824362754822,0.0,0.0,0.0,-27.208148956298828,6.614572525024414,-2.6957485675811768,4924.72900390625,0
1265.4610000000011,0.014605770818889141,-0.025431731715798378,-0.002147427760064602,0.0,0.0,0.0,0.0,0.0006381752900779247,0.0013268176699057221,-0.0014981506392359734,0.9988195300102234,0.0,0.0,0.0,-27.18106460571289,6.611360549926758,-2.687462329864502,4919.82666015625,0
1275.3520000000008,0.014559403993189335,-0.02555619552731514,-0.002062226179987192,0.0,0.0,0.0,0.0,0.003523350227624178,-0.001064371899701655,-0.0005174962570890784,0.9997369050979614,0.0,0.0,0.0,-27.154705047607422,6.60152006149292,-2.6877667903900146,4915.05517578125,0
1285.246000000001,0.014513060450553894,-0.025681469589471817,-0.0019775456748902798,0.0,0.0,0.0,0.0,0.002119423821568489,0.00418043090030551,0.004281944129616022,0.9998234510421753,0.0,0.0,0.0,-27.127952575683594,6.588272571563721,-2.6785099506378174,4910.21337890625,0
1295.1280000000006,0.01446503959596157,-0.0258068535476923,-0.0018929250072687864,0.0,0.0,0.0,0.0,0.0017518593231216073,-0.0013823019107803702,0.0019078617915511131,1.0002325773239136,0.0,0.0,0.0,-27.100011825561523,6.578083515167236,-2.673887014389038,4905.15576171875,0
1305.009,0.01441594772040844,-0.02593335509300232,-0.0018080201698467135,0.0,0.0,0.0,0.0,0.0010304951574653387,-0.0003764148859772831,0.001340201823040843,1.0007823705673218,0.0,0.0,0.0,-27.073617935180664,6.570146083831787,-2.6620612144470215,4900.37890625,0
1314.8990000000013,0.01436834316700697,-0.026061737909913063,-0.0017224533949047327,0.0,0.0,0.0,0.0,0.00025937758618965745,-0.00024963801843114197,-0.003716869279742241,0.9984532594680786,0.0,0.0,0.0,-27.04636001586914,6.561668872833252,-2.6589620113372803,4895.4453125,0
1324.7849999999999,0.015033967792987823,-0.0244342852383852,-0.0027512868400663137,0.0,0.0,0.0,0.0,-0.0007147815776988864,-0.0013607169967144728,0.0013221100671216846,0.9997049570083618,0.0,0.0,0.0,-27.19437026977539,6.716805934906006,-2.727809429168701,4922.23486328125,0
1334.6650000000009,0.014998908154666424,-0.02451891079545021,-0.0026595809031277895,0.0,0.0,0.0,0.0,0.0003563983482308686,0.004297008737921715,-0.0013418771559372544,0.9999831914901733,0.0,0.0,0.0,-27.166568756103516,6.710854530334473,-2.7255635261535645,4917.203125,0
1344.558000000001,0.015187283977866173,-0.024148469790816307,-0.0030291981529444456,0.0,0.0,0.0,0.0,-0.0011454191990196705,0.001996393548324704,-0.00020184226741548628,0.9977012872695923,0.0,0.0,0.0,-27.301185607910156,6.727107524871826,-2.7482452392578125,4941.56884765625,0
1354.4449999999997,0.015154899097979069,-0.024230878800153732,-0.00293900677934289,0.0,0.0,0.0,0.0,-0.00014490964531432837,-0.007222103886306286,0.0010995380580425262,0.9961917996406555,0.0,0.0,0.0,-27.274700164794922,6.719712257385254,-2.7522411346435547,4936.775390625,0
1364.3320000000003,0.015124293975532055,-0.02431664988398552,-0.0028513730503618717,0.0,0.0,0.0,0.0,0.0034116695169359446,0.0012770878383889794,-0.001916184090077877,0.997642993927002,0.0,0.0,0.0,-27.24665069580078,6.716209888458252,-2.746833562850952,4931.6982421875,0
1374.2200000000012,0.015095003880560398,-0.024404555559158325,-0.002766343532130122,0.0,0.0,0.0,0.0,0.001135065220296383,-0.0019877543672919273,0.0004694486560765654,1.0007179975509644,0.0,0.0,0.0,-27.219654083251953,6.700268268585205,-2.746434211730957,4926.81103515625,0
1384.107,0.015267720445990562,-0.024065520614385605,-0.003195445751771331,0.0,0.0,0.0,0.0,-0.00020751627744175494,1.7651170765020652e-06,0.0001801204343792051,0.9987669587135315,0.0,0.0,0.0,-27.34443473815918,6.715933799743652,-2.7594335079193115,4949.39697265625,0
1393.9840000000004,0.015238114632666111,-0.02414919063448906,-0.003112875623628497,0.0,0.0,0.0,0.0,0.002727990038692951,-0.0030929443892091513,0.0005358437192626297,0.9979308843612671,0.0,0.0,0.0,-27.316699981689453,6.708712577819824,-2.7556405067443848,4944.37744140625,0
1403.871000000001,0.015208318829536438,-0.02423570118844509,-0.0030315874610096216,0.0,0.0,0.0,0.0,-0.0002856648643501103,-0.0009395601227879524,-0.002266382798552513,0.9997299313545227,0.0,0.0,0.0,-27.28948211669922,6.69766902923584,-2.741654396057129,4939.45068359375,0
1413.7620000000006,0.015177967958152294,-0.024324025958776474,-0.0029515058267861605,0.0,0.0,0.0,0.0,0.0009335780632682145,0.0012127563823014498,0.0019198552472516894,0.9984389543533325,0.0,0.0,0.0,-27.262331008911133,6.693476676940918,-2.7369163036346436,4934.53662109375,0
1423.6470000000008,0.015146925114095211,-0.024413105100393295,-0.0028718949761241674,0.0,0.0,0.0,0.0,-7.719246787019074e-05,0.0005044349236413836,0.005194591358304024,0.9985002875328064,0.0,0.0,0.0,-27.233964920043945,6.687922477722168,-2.735466718673706,4929.40185546875,0
1433.5310000000009,0.015115084126591682,-0.024504270404577255,-0.0027934047393500805,0.0,0.0,0.0,0.0,0.0011499666143208742,-0.0007174939964897931,0.00043333586654625833,0.9988277554512024,0.0,0.0,0.0,-27.206857681274414,6.680105686187744,-2.7394447326660156,4924.4951171875,0
1443.416000000001,0.015308214351534843,-0.024098500609397888,-0.003312216140329838,0.0,0.0,0.0,0.0,-0.0023138881660997868,-0.007092287763953209,-0.0004197616071905941,0.9981613159179688,0.0,0.0,0.0,-27.33753776550293,6.69354248046875,-2.765881299972534,4948.14892578125,0
1453.3010000000013,0.015277029946446419,-0.024186691269278526,-0.0032375939190387726,0.0,0.0,0.0,0.0,0.002111488487571478,-0.0037464601919054985,0.0007161357207223773,1.0019035339355469,0.0,0.0,0.0,-27.309860229492188,6.687995433807373,-2.746999979019165,4943.13916015625,0
1463.1859999999997,0.015415597707033157,-0.02392525039613247,-0.0036220019683241844,0.0,0.0,0.0,0.0,-0.0013247731840237975,0.0011698923772200942,0.0023073540069162846,0.9994502067565918,0.0,0.0,0.0,-27.42265510559082,6.688399791717529,-2.7501769065856934,4963.55517578125,0
1473.0780000000013,0.015385392121970654,-0.024011189118027687,-0.0035481522791087627,0.0,0.0,0.0,0.0,-0.0016184143023565412,-0.0014179905410856009,-0.0021863847505301237,1.0003365278244019,0.0,0.0,0.0,-27.394943237304688,6.684089183807373,-2.7422149181365967,4958.5390625,0
1482.9580000000005,0.015356183983385563,-0.024098942056298256,-0.0034742048010230064,0.0,0.0,0.0,0.0,-0.0010562656680122018,0.005662638694047928,-0.0006780054536648095,0.9987950325012207,0.0,0.0,0.0,-27.367843627929688,6.681361198425293,-2.7358248233795166,4953.6337890625,0
1492.8500000000004,0.01532736700028181,-0.024188624694943428,-0.0034005825873464346,0.0,0.0,0.0,0.0,0.0006685661501251161,-0.002602467779070139,-0.0029985399451106787,0.9992566704750061,0.0,0.0,0.0,-27.340972900390625,6.676941394805908,-2.748979091644287,4948.7705078125,0
1502.7330000000002,0.015484282746911049,-0.023887572810053825,-0.003712282981723547,0.0,0.0,0.0,0.0,-0.0012785574654117227,-0.001811638125218451,-0.0008050801698118448,1.0009052753448486,0.0,0.0,0.0,-27.45378303527832,6.7059197425842285,-2.758436679840088,4969.18896484375,0
1512.6200000000008,0.015454471111297607,-0.023971829563379288,-0.003637864487245679,0.0,0.0,0.0,0.0,-6.306009163381532e-05,0.0009820619598031044,-0.003308268031105399,1.0018641948699951,0.0,0.0,0.0,-27.4272403717041,6.700809001922607,-2.755141496658325,4964.384765625,0
1522.5,0.0155637226998806,-0.023669296875596046,-0.003958260174840689,0.0,0.0,0.0,0.0,-0.0004012304125353694,-0.0031545665115118027,-7.262800500029698e-05,0.9998207092285156,0.0,0.0,0.0,-27.531543731689453,6.722933292388916,-2.7877867221832275,4983.2646484375,0
1532.3950000000004,0.01552942767739296,-0.023748913779854774,-0.003880371805280447,0.0,0.0,0.0,0.0,0.00034076269366778433,-4.593328412738629e-06,-0.0031163294333964586,1.0002301931381226,0.0,0.0,0.0,-27.503450393676758,6.7157487869262695,-2.7838950157165527,4978.17919921875,0
1542.2780000000002,0.015620402060449123,-0.023521939292550087,-0.0041641779243946075,0.0,0.0,0.0,0.0,0.0009047418716363609,0.002124188467860222,0.0010845455108210444,1.0004786252975464,0.0,0.0,0.0,-27.592031478881836,6.72302770614624,-2.817465305328369,4994.21240234375,0
1552.1640000000007,0.01558361854404211,-0.023600932210683823,-0.004085610155016184,0.0,0.0,0.0,0.0,0.0003845881437882781,0.002868636744096875,-0.0005487512680701911,1.000341534614563,0.0,0.0,0.0,-27.564453125,6.7167253494262695,-2.8122751712799072,4989.220703125,0
1562.045,0.01565561257302761,-0.023428915068507195,-0.004312100354582071,0.0,0.0,0.0,0.0,0.0019640170503407717,0.0054482752457261086,-0.0018818111857399344,0.9995690584182739,0.0,0.0,0.0,-27.64723014831543,6.72027063369751,-2.839315414428711,5004.20361328125,0
1571.9430000000011,0.01561456173658371,-0.023506533354520798,-0.004232774488627911,0.0,0.0,0.0,0.0,0.002179284580051899,-0.0014249945525079966,0.0019105281680822372,0.9985871911048889,0.0,0.0,0.0,-27.62007713317871,6.70526123046875,-2.8536875247955322,4999.28857421875,0
1581.8240000000005,0.015720397233963013,-0.023288732394576073,-0.004530413541942835,0.0,0.0,0.0,0.0,0.0027635872829705477,-0.001027172664180398,0.0002675970608834177,0.9990963935852051,0.0,0.0,0.0,-27.69327163696289,6.713575839996338,-2.859463691711426,5012.537109375,0
1591.7090000000007,0.015679186210036278,-0.023363672196865082,-0.004453255329281092,0.0,0.0,0.0,0.0,-0.0004066074325237423,0.0010497909970581532,-0.00028451860998757184,0.9982848167419434,0.0,0.0,0.0,-27.66555404663086,6.700301647186279,-2.8542895317077637,5007.52001953125,0
1601.5960000000014,0.015729466453194618,-0.023241525515913963,-0.0046111540868878365,0.0,0.0,0.0,0.0,0.0026177926920354366,0.00021315352933015674,-0.0013850689865648746,0.9981805086135864,0.0,0.0,0.0,-27.732994079589844,6.7030463218688965,-2.871140241622925,5019.72705078125,0
1611.478000000001,0.01568705402314663,-0.02331647090613842,-0.004536362364888191,0.0,0.0,0.0,0.0,0.00038868639967404306,0.005640318151563406,-0.0014081635745242238,0.9992318749427795,0.0,0.0,0.0,-27.70526885986328,6.69115686416626,-2.86830735206604,5014.70849609375,0
1621.3649999999998,0.015746083110570908,-0.023195384070277214,-0.004682219587266445,0.0,0.0,0.0,0.0,-0.000751057465095073,0.0010686649475246668,0.0009094696724787354,0.9998977184295654,0.0,0.0,0.0,-27.77054786682129,6.699419975280762,-2.895946741104126,5026.5244140625,0
1631.2530000000006,0.015706399455666542,-0.02326943166553974,-0.004608352202922106,0.0,0.0,0.0,0.0,-0.0008729794062674046,0.004449686501175165,0.0009701912058517337,0.9989321231842041,0.0,0.0,0.0,-27.74295425415039,6.69199275970459,-2.892428398132324,5021.52978515625,0
1641.1370000000006,0.015807021409273148,-0.023098191246390343,-0.0048428974114358425,0.0,0.0,0.0,0.0,0.00013566970301326364,-0.0016470587579533458,0.0008017646614462137,0.9969476461410522,0.0,0.0,0.0,-27.807334899902344,6.702070713043213,-2.911790132522583,5033.18310546875,0
1651.036,0.01576981693506241,-0.02317216619849205,-0.0047710491344332695,0.0,0.0,0.0,0.0,0.00260400352999568,-0.0012148129753768444,0.0009930841624736786,1.0012493133544922,0.0,0.0,0.0,-27.780136108398438,6.695612907409668,-2.911318778991699,5028.259765625,0
1660.9099999999999,0.015827501192688942,-0.023056697100400925,-0.004895236808806658,0.0,0.0,0.0,0.0,-0.00035225306055508554,0.0002741096541285515,0.0033661231864243746,0.9995493292808533,0.0,0.0,0.0,-27.842084884643555,6.703516960144043,-2.9203593730926514,5039.47314453125,0
1670.8029999999999,0.015791675075888634,-0.02313067577779293,-0.004822445102035999,0.0,0.0,0.0,0.0,0.001307510887272656,0.001983558526262641,-0.0004626001464203,0.9970130324363708,0.0,0.0,0.0,-27.814241409301758,6.699597358703613,-2.9255640506744385,5034.43310546875,0
1680.6820000000007,0.01580122858285904,-0.02307586371898651,-0.00490622129291296,0.0,0.0,0.0,0.0,0.0042638033628463745,-0.003925112541764975,0.0023087579756975174,1.0015456676483154,0.0,0.0,0.0,-27.866907119750977,6.694333076477051,-2.9451701641082764,5043.9658203125,0
1690.5730000000003,0.01576158218085766,-0.023151135072112083,-0.004835363011807203,0.0,0.0,0.0,0.0,0.002205787692219019,-0.0012844465672969818,0.0017803257796913385,1.0007432699203491,0.0,0.0,0.0,-27.838470458984375,6.683055400848389,-2.93603777885437,5038.818359375,0
1700.4710000000014,0.015807487070560455,-0.023060034960508347,-0.004924152046442032,0.0,0.0,0.0,0.0,-0.0013318918645381927,-0.0015095564303919673,-0.0031882268376648426,1.0001546144485474,0.0,0.0,0.0,-27.891164779663086,6.6902947425842285,-2.932429552078247,5048.3564453125,0
1710.3490000000002,0.015765205025672913,-0.023136097937822342,-0.00484965555369854,0.0,0.0,0.0,0.0,0.0021248923148959875,0.00044739319127984345,0.0013385937782004476,1.001949667930603,0.0,0.0,0.0,-27.863903045654297,6.683676242828369,-2.930417537689209,5043.421875,0
1720.2270000000008,0.015832876786589622,-0.0230172760784626,-0.004968276713043451,0.0,0.0,0.0,0.0,0.0012439530109986663,-0.0034682978875935078,-0.0011208992218598723,1.0008138418197632,0.0,0.0,0.0,-27.918411254882812,6.6949872970581055,-2.9409074783325195,5053.28759765625,0
1730.116,0.015792081132531166,-0.02309056557714939,-0.004889105446636677,0.0,0.0,0.0,0.0,-0.0008046723669394851,-0.0014600487193092704,-0.0012828337494283915,1.0002226829528809,0.0,0.0,0.0,-27.891122817993164,6.68851375579834,-2.93605637550354,5048.3486328125,0
1740.0,0.015829801559448242,-0.02301391214132309,-0.004951768089085817,0.0,0.0,0.0,0.0,0.00044693457311950624,0.0002733880828600377,-0.0012236131587997079,0.9978240132331848,0.0,0.0,0.0,-27.9398193359375,6.696617126464844,-2.930065870285034,5057.1630859375,0
1749.8900000000012,0.015788985416293144,-0.023085329681634903,-0.004870357923209667,0.0,0.0,0.0,0.0,0.00041825207881629467,0.00858484860509634,-0.0022897219751030207,0.998940110206604,0.0,0.0,0.0,-27.912403106689453,6.68743371963501,-2.924264669418335,5052.20068359375,0
1759.7800000000007,0.015746058896183968,-0.023159435018897057,-0.004790245555341244,0.0,0.0,0.0,0.0,0.0008869472076185048,0.004111809190362692,0.0019850395619869232,1.001381516456604,0.0,0.0,0.0,-27.884897232055664,6.679887294769287,-2.9324185848236084,5047.22216796875,0
1769.6710000000003,0.01570175588130951,-0.02323669008910656,-0.004710014909505844,0.0,0.0,0.0,0.0,-0.0006861155270598829,-0.0022059634793549776,0.001034568645991385,0.9990971684455872,0.0,0.0,0.0,-27.856548309326172,6.673098087310791,-2.924607276916504,5042.09033203125,0
1779.5529999999999,0.015657447278499603,-0.02331656962633133,-0.004629047587513924,0.0,0.0,0.0,0.0,0.00040363206062465906,0.0014769162517040968,-8.899152453523129e-05,0.9988641738891602,0.0,0.0,0.0,-27.828903198242188,6.663422584533691,-2.9126126766204834,5037.0869140625,0
1789.437,0.015613779425621033,-0.023399718105793,-0.00454834196716547,0.0,0.0,0.0,0.0,0.0013547672424465418,-0.002343914471566677,-0.0020806503016501665,1.0002731084823608,0.0,0.0,0.0,-27.80192756652832,6.6535491943359375,-2.9078447818756104,5032.2041015625,0
1799.3190000000013,0.01571074314415455,-0.023222653195261955,-0.00469186482951045,0.0,0.0,0.0,0.0,-0.0016040337504819036,0.0010396389989182353,-0.00013643100101035088,1.000603199005127,0.0,0.0,0.0,-27.857065200805664,6.67372465133667,-2.908233880996704,5042.1845703125,0
1809.214,0.01567160338163376,-0.023302821442484856,-0.00460766302421689,0.0,0.0,0.0,0.0,0.004385519772768021,0.0026543326675891876,0.0012534698471426964,0.999699056148529,0.0,0.0,0.0,-27.829540252685547,6.6701860427856445,-2.9093942642211914,5037.2021484375,0
1819.0920000000006,0.015633054077625275,-0.023384973406791687,-0.004522926174104214,0.0,0.0,0.0,0.0,0.002558318665251136,0.000131355132907629,-0.005152844823896885,0.9979097843170166,0.0,0.0,0.0,-27.801515579223633,6.655922889709473,-2.912355422973633,5032.12939453125,0
1828.978000000001,0.015594019554555416,-0.02346951887011528,-0.004439006559550762,0.0,0.0,0.0,0.0,-0.002857642015442252,-0.004610118921846151,-0.0014581846771761775,0.9983304142951965,0.0,0.0,0.0,-27.775341033935547,6.643601894378662,-2.909644842147827,5027.39208984375,0
1838.875,0.01567355915904045,-0.023218488320708275,-0.004578574560582638,0.0,0.0,0.0,0.0,0.0017171597573906183,0.0023025202099233866,-0.0016020467737689614,0.9972358345985413,0.0,0.0,0.0,-27.83761978149414,6.679501533508301,-2.9223358631134033,5038.6650390625,0
1848.7510000000002,0.01563309133052826,-0.023295767605304718,-0.0044942558743059635,0.0,0.0,0.0,0.0,0.00040832607191987336,-0.0016272416105493903,-0.0021499248687177896,0.9980131983757019,0.0,0.0,0.0,-27.809751510620117,6.671081066131592,-2.9223175048828125,5033.6201171875,0
1858.6370000000006,0.015591531060636044,-0.023376021534204483,-0.004412184935063124,0.0,0.0,0.0,0.0,-0.0017384468810632825,0.0023457705974578857,0.002799373120069504,1.0006699562072754,0.0,0.0,0.0,-27.782997131347656,6.668039798736572,-2.9083197116851807,5028.77783203125,0
1868.532000000001,0.01554819941520691,-0.023459305986762047,-0.004330869764089584,0.0,0.0,0.0,0.0,0.0024150374811142683,-0.001228076172992587,0.0006165652885101736,1.0012435913085938,0.0,0.0,0.0,-27.754606246948242,6.665085792541504,-2.9066412448883057,5023.63916015625,0
1878.4099999999999,0.0155031131580472,-0.023544924333691597,-0.004248542245477438,0.0,0.0,0.0,0.0,-0.00011833735334221274,-0.00099117960780859,0.0011327670654281974,0.9989402294158936,0.0,0.0,0.0,-27.727535247802734,6.658268451690674,-2.898770570755005,5018.7392578125,0
1888.300000000001,0.015457268804311752,-0.023631803691387177,-0.004165569320321083,0.0,0.0,0.0,0.0,-0.0018826730083674192,-0.006029140204191208,-0.0020951710175722837,1.0007184743881226,0.0,0.0,0.0,-27.699623107910156,6.653811454772949,-2.8848838806152344,5013.6865234375,0
1898.183000000001,0.015410937368869781,-0.023720720782876015,-0.004082424100488424,0.0,0.0,0.0,0.0,-0.00017241014575120062,0.0009250876028090715,-0.0008880518143996596,0.9999601244926453,0.0,0.0,0.0,-27.672374725341797,6.652936935424805,-2.869262456893921,5008.75439453125,0
1908.076000000001,0.01536274328827858,-0.023813283070921898,-0.003998784348368645,0.0,0.0,0.0,0.0,-0.0017979627009481192,-0.005028311628848314,-0.0014604245079681277,1.000821590423584,0.0,0.0,0.0,-27.64569664001465,6.646660804748535,-2.8691506385803223,5003.92578125,0
1917.9570000000003,0.015311850234866142,-0.023909546434879303,-0.003914400935173035,0.0,0.0,0.0,0.0,-0.000622453517280519,0.0042242794297635555,0.001587546430528164,0.9985032081604004,0.0,0.0,0.0,-27.61872100830078,6.640212059020996,-2.857808828353882,4999.04345703125,0
1927.848,0.015258475206792355,-0.024009423330426216,-0.003829836379736662,0.0,0.0,0.0,0.0,0.0033915340900421143,-0.0027804304845631123,0.0012473603710532188,0.999968409538269,0.0,0.0,0.0,-27.590864181518555,6.633372783660889,-2.8638386726379395,4994.00146484375,0
1937.7330000000002,0.015203181654214859,-0.024112733080983162,-0.0037457901053130627,0.0,0.0,0.0,0.0,-0.0009307025466114283,0.00243156380020082,0.00027884048176929355,0.9997547268867493,0.0,0.0,0.0,-27.563631057739258,6.619376182556152,-2.860241651535034,4989.07177734375,0
1947.616,0.015146223828196526,-0.024218589067459106,-0.0036620721220970154,0.0,0.0,0.0,0.0,0.002056795870885253,0.004922645166516304,-0.000693160982336849,0.9995128512382507,0.0,0.0,0.0,-27.536117553710938,6.613199234008789,-2.863081216812134,4984.09228515625,0
1957.5060000000012,0.015430573374032974,-0.0237621758133173,-0.004000354558229446,0.0,0.0,0.0,0.0,0.0014032317558303475,0.0014097403036430478,0.0018406270537525415,0.9986883997917175,0.0,0.0,0.0,-27.62523078918457,6.660055637359619,-2.8639795780181885,5000.2216796875,0
1967.3940000000002,0.015381171368062496,-0.023857157677412033,-0.0039132824167609215,0.0,0.0,0.0,0.0,0.003241663333028555,0.00580056244507432,0.00016985656111501157,1.0003182888031006,0.0,0.0,0.0,-27.597848892211914,6.656016826629639,-2.8639299869537354,4995.26513671875,0
1977.282000000001,0.015556003898382187,-0.023641478270292282,-0.004077539313584566,0.0,0.0,0.0,0.0,0.002992080757394433,0.004226135089993477,-0.003883539466187358,1.0006407499313354,0.0,0.0,0.0,-27.683082580566406,6.680595397949219,-2.8648200035095215,5010.69287109375,0
1987.1670000000013,0.015510567463934422,-0.023736752569675446,-0.003987403586506844,0.0,0.0,0.0,0.0,-0.0005846581771038473,-0.002187475562095642,-0.00018522361642681062,0.9981778860092163,0.0,0.0,0.0,-27.657121658325195,6.672862529754639,-2.875340223312378,5005.994140625,0
1997.050000000001,0.015588563866913319,-0.02357502654194832,-0.004186579026281834,0.0,0.0,0.0,0.0,0.0057892631739377975,0.004443780053406954,0.000898548518307507,0.9980980753898621,0.0,0.0,0.0,-27.735511779785156,6.686153411865234,-2.8776583671569824,5020.18310546875,0
2006.937,0.015544988214969635,-0.023669790476560593,-0.004098309203982353,0.0,0.0,0.0,0.0,0.0016352387610822916,-0.001456202007830143,-0.0011841842206194997,0.9984347224235535,0.0,0.0,0.0,-27.707677841186523,6.670328617095947,-2.8788034915924072,5015.14453125,0
2016.826000000001,0.015626022592186928,-0.02347932569682598,-0.00429932028055191,0.0,0.0,0.0,0.0,0.00027652792050503194,-0.0007242332794703543,0.0016079371562227607,0.999272346496582,0.0,0.0,0.0,-27.780855178833008,6.682499885559082,-2.8896048069000244,5028.39013671875,0
2026.7070000000003,0.015583897940814495,-0.023571360856294632,-0.004213137552142143,0.0,0.0,0.0,0.0,-0.004124518483877182,-0.0027343258261680603,0.000533579383045435,1.0002422332763672,0.0,0.0,0.0,-27.75240707397461,6.67734432220459,-2.879436492919922,5023.2412109375,0
2036.5960000000014,0.015638725832104683,-0.023378584533929825,-0.00438194815069437,0.0,0.0,0.0,0.0,0.00015983788762241602,0.0017033012118190527,0.00165163679048419,1.0005850791931152,0.0,0.0,0.0,-27.82189178466797,6.703226089477539,-2.8952460289001465,5035.8173828125,0
2046.4920000000002,0.01559371780604124,-0.0234674122184515,-0.0042939744889736176,0.0,0.0,0.0,0.0,-0.0007126215496100485,-3.6858036764897406e-05,0.0018146767979487777,0.9973761439323425,0.0,0.0,0.0,-27.793262481689453,6.6992878913879395,-2.885345458984375,5030.63623046875,0
2056.375,0.015637407079339027,-0.02328878454864025,-0.0045048994943499565,0.0,0.0,0.0,0.0,0.0005232346593402326,-0.00030396869988180697,-0.0022625536657869816,0.9967277646064758,0.0,0.0,0.0,-27.85555648803711,6.713982582092285,-2.9159340858459473,5041.9111328125,0
2066.254000000001,0.015587682835757732,-0.02337287925183773,-0.004419563338160515,0.0,0.0,0.0,0.0,-0.0003850092471111566,-0.001908577629365027,-0.0023531776387244463,0.9993894100189209,0.0,0.0,0.0,-27.828622817993164,6.707223415374756,-2.9068074226379395,5037.0361328125,0
2076.152,0.015633774921298027,-0.02325037308037281,-0.004501753952354193,0.0,0.0,0.0,0.0,-0.0014511561021208763,-0.00048650120152160525,-0.0006036876584403217,0.9994490146636963,0.0,0.0,0.0,-27.886260986328125,6.7328081130981445,-2.90458083152771,5047.46826171875,0
2086.0340000000015,0.01557706855237484,-0.023337528109550476,-0.004407587926834822,0.0,0.0,0.0,0.0,-0.00299078063108027,-0.002982774283736944,0.0014311245176941156,1.001168131828308,0.0,0.0,0.0,-27.858762741088867,6.731649875640869,-2.895569086074829,5042.4912109375,0
2095.9130000000005,0.015647869557142258,-0.023193994536995888,-0.004542340524494648,0.0,0.0,0.0,0.0,0.00253147236071527,-0.0009694863110780716,-0.0034397088456898928,0.9995104670524597,0.0,0.0,0.0,-27.9099178314209,6.756399631500244,-2.8983073234558105,5051.75048828125,0
2105.8070000000007,0.015597549267113209,-0.02326931618154049,-0.004454066511243582,0.0,0.0,0.0,0.0,0.0010436575394123793,0.0011306029045954347,0.004848568234592676,0.9999139904975891,0.0,0.0,0.0,-27.8836669921875,6.743118762969971,-2.8924460411071777,5046.9990234375,0
2115.687,0.015546275302767754,-0.023346127942204475,-0.0043657394126057625,0.0,0.0,0.0,0.0,0.0037030999083071947,0.003097923705354333,7.192509656306356e-05,1.0011029243469238,0.0,0.0,0.0,-27.854352951049805,6.733932018280029,-2.888984203338623,5041.69287109375,0
2125.571,0.015494203194975853,-0.023424392566084862,-0.004276732914149761,0.0,0.0,0.0,0.0,-0.0010397081496194005,-0.0040610963478684425,0.0002780325594358146,0.9981369972229004,0.0,0.0,0.0,-27.82720947265625,6.721310615539551,-2.889709949493408,5036.78076171875,0
2135.461000000001,0.015588670037686825,-0.023305730894207954,-0.0043977112509310246,0.0,0.0,0.0,0.0,-0.0016622691182419658,0.0009958527516573668,-0.0005606171325780451,0.999175488948822,0.0,0.0,0.0,-27.885929107666016,6.735316753387451,-2.867732286453247,5047.408203125,0
2145.3469999999998,0.015539199113845825,-0.023382840678095818,-0.004307820461690426,0.0,0.0,0.0,0.0,-0.0007051879656501114,0.00034271818003617227,-0.0011268355883657932,1.0008995532989502,0.0,0.0,0.0,-27.85904884338379,6.734564781188965,-2.8647115230560303,5042.54296875,0
2155.2340000000004,0.01548827439546585,-0.023461805656552315,-0.004217959009110928,0.0,0.0,0.0,0.0,0.001037847250699997,0.0020724073983728886,-0.0023048885632306337,1.000328540802002,0.0,0.0,0.0,-27.831968307495117,6.728705883026123,-2.864607810974121,5037.6416015625,0
2165.120000000001,0.015435234643518925,-0.02354193851351738,-0.004127585329115391,0.0,0.0,0.0,0.0,0.0001791562681319192,0.004449484869837761,0.002772656502202153,1.0003516674041748,0.0,0.0,0.0,-27.80439567565918,6.7204461097717285,-2.857875347137451,5032.65087890625,0
2175.013000000001,0.015379920601844788,-0.02362382970750332,-0.004036817699670792,0.0,0.0,0.0,0.0,0.0008931568008847535,0.002343691186979413,-0.0015396858798339963,0.998787522315979,0.0,0.0,0.0,-27.77536392211914,6.7136383056640625,-2.8590922355651855,5027.396484375,0
2184.892,0.015323180705308914,-0.023708730936050415,-0.003945950884371996,0.0,0.0,0.0,0.0,-0.002586621791124344,0.0004547818680293858,-0.0023739405442029238,0.9996656179428101,0.0,0.0,0.0,-27.747220993041992,6.705407619476318,-2.8586020469665527,5022.30224609375,0
2194.785,0.015506678260862827,-0.0234768595546484,-0.004172330256551504,0.0,0.0,0.0,0.0,-0.0017105756560340524,-0.0004913819138891995,-0.0008192424429580569,1.0005680322647095,0.0,0.0,0.0,-27.8165283203125,6.741927623748779,-2.846648693084717,5034.8466796875,0
2204.6710000000003,0.015456965193152428,-0.023559629917144775,-0.004078900441527367,0.0,0.0,0.0,0.0,0.0013037178432568908,-0.001300737727433443,0.0035332259722054005,1.000165581703186,0.0,0.0,0.0,-27.789201736450195,6.736812591552734,-2.8479983806610107,5029.9013671875,0
