timestamp,stateEstimate.x,stateEstimate.y,stateEstimate.z,controller.cmd_thrust,controller.cmd_roll,controller.cmd_pitch,controller.cmd_yaw,controller.r_roll,controller.r_pitch,controller.r_yaw,controller.accelz,controller.actuatorThrust,controller.roll,controller.pitch,controller.yaw,controller.rollRate,controller.pitchRate,controller.yawRate,controller.ctr_yaw
0.0,-0.008320275694131851,0.009132715873420238,-0.0005349848070181906,0.0,0.0,0.0,0.0,-0.0008743483922444284,0.0024737603962421417,-0.0010647865710780025,0.9999170303344727,0.0,0.0,0.0,-6.391619682312012,5.988750457763672,-0.5866774916648865,1156.8958740234375,0
9.884000000000015,-0.008250868879258633,0.009171857498586178,-0.0005286744562909007,0.0,0.0,0.0,0.0,0.0012781497789546847,0.0037221601232886314,-0.00142688921187073,0.9979404211044312,0.0,0.0,0.0,-6.394694805145264,6.012215614318848,-0.5705702900886536,1157.4525146484375,0
19.769999999998618,-0.00821702927350998,0.00914021860808134,-0.0005242392653599381,0.0,0.0,0.0,0.0,-0.001422010362148285,-6.84464757796377e-05,-0.001178443431854248,0.9986311793327332,0.0,0.0,0.0,-6.388706684112549,6.002024173736572,-0.572891116142273,1156.3687744140625,0
29.66399999999885,-0.008135385811328888,0.009152793325483799,-0.0005564710008911788,0.0,0.0,0.0,0.0,0.0011673044646158814,0.003500465303659439,-0.0003227718116249889,0.9995551109313965,0.0,0.0,0.0,-6.390995979309082,6.021824836730957,-0.5495116114616394,1156.782958984375,0
39.54500000000007,-0.008098848164081573,0.009123021736741066,-0.0005582946469075978,0.0,0.0,0.0,0.0,0.0001914591557579115,-0.0008636637357994914,0.0023517701774835587,0.9975322484970093,0.0,0.0,0.0,-6.383706092834473,6.011875152587891,-0.5591002106666565,1155.4635009765625,0
49.42999999999847,-0.008094321005046368,0.009111110121011734,-0.0005124545423313975,0.0,0.0,0.0,0.0,-0.00026109686587005854,-0.0019270175835117698,0.0032788971439003944,0.9981363415718079,0.0,0.0,0.0,-6.386471748352051,6.008618354797363,-0.578265368938446,1155.9642333984375,0
59.32099999999991,-0.008059492334723473,0.009076748043298721,-0.0005128486081957817,0.0,0.0,0.0,0.0,0.0008397659403271973,-0.0012838529655709863,-0.0001193023708765395,1.0001872777938843,0.0,0.0,0.0,-6.37937068939209,6.004445552825928,-0.5791136026382446,1154.678955078125,0
69.21399999999994,-0.008015083149075508,0.009103454649448395,-0.0004870243719778955,0.0,0.0,0.0,0.0,0.0006189743289723992,0.0031454768031835556,0.002280985936522484,0.9998787641525269,0.0,0.0,0.0,-6.382997512817383,6.018321514129639,-0.5788716673851013,1155.335205078125,0
79.09399999999914,-0.007980269379913807,0.009069704450666904,-0.0004865778028033674,0.0,0.0,0.0,0.0,-0.001147962175309658,0.003021407639607787,-0.0005823621177114546,0.9970920085906982,0.0,0.0,0.0,-6.376373291015625,6.011528491973877,-0.578748881816864,1154.13623046875,0
88.97999999999956,-0.007961585186421871,0.009045095182955265,-0.0004739506111945957,0.0,0.0,0.0,0.0,-0.0013900536578148603,0.0003718892694450915,-0.00020532858616206795,0.9961008429527283,0.0,0.0,0.0,-6.3841423988342285,6.008640289306641,-0.5858350992202759,1155.54248046875,0
98.86899999999878,-0.007927283644676208,0.009009691886603832,-0.0004760810115840286,0.0,0.0,0.0,0.0,-0.004045937675982714,0.0015083010075613856,0.0021380747202783823,0.9973818063735962,0.0,0.0,0.0,-6.377971172332764,6.007931232452393,-0.5826216340065002,1154.4254150390625,0
108.753999999999,-0.007932593114674091,0.00901931244879961,-0.00042449546162970364,0.0,0.0,0.0,0.0,0.001274306676350534,-0.0001947939454112202,7.725784962531179e-05,0.9996638298034668,0.0,0.0,0.0,-6.379774570465088,6.019747734069824,-0.5968073010444641,1154.751953125,0
118.64599999999882,-0.00789953675121069,0.008983888663351536,-0.0004260131681803614,0.0,0.0,0.0,0.0,-0.0006162289064377546,0.005183621309697628,-0.0039585349150002,0.9992976188659668,0.0,0.0,0.0,-6.373589992523193,6.0127434730529785,-0.5921401977539062,1153.6324462890625,0
128.52999999999884,-0.007902535609900951,0.009001404047012329,-0.00038067763671278954,0.0,0.0,0.0,0.0,-0.002831781515851617,-0.0008765090024098754,0.0048047336749732494,1.0003116130828857,0.0,0.0,0.0,-6.387568473815918,6.020760536193848,-0.616147518157959,1156.1627197265625,0
138.41799999999967,-0.007869355380535126,0.008965357206761837,-0.000378427910618484,0.0,0.0,0.0,0.0,0.003452689154073596,0.005326518323272467,0.00026321489713154733,0.9995527267456055,0.0,0.0,0.0,-6.379481315612793,6.014573097229004,-0.6120332479476929,1154.6988525390625,0
148.30299999999988,-0.007874705828726292,0.008960685692727566,-0.00034222364774905145,0.0,0.0,0.0,0.0,-0.001390057965181768,-0.0007320361328311265,0.00021000161359552294,1.0004935264587402,0.0,0.0,0.0,-6.389010906219482,6.009404182434082,-0.6314345598220825,1156.423828125,0
158.1939999999995,-0.007841307669878006,0.008924716152250767,-0.00033603262272663414,0.0,0.0,0.0,0.0,0.0005852770409546793,-0.00015938559954520315,-0.0023647660855203867,1.0014365911483765,0.0,0.0,0.0,-6.382404327392578,6.004383087158203,-0.6281060576438904,1155.2279052734375,0
168.07999999999993,-0.008845875971019268,0.0097749512642622,-0.0005601217853836715,0.0,0.0,0.0,0.0,0.0013214065693318844,-0.0009532177937217057,0.001736756064929068,1.0025556087493896,0.0,0.0,0.0,-6.42281436920166,6.157356262207031,-0.75649493932724,1162.5421142578125,0
177.96699999999873,-0.008844591677188873,0.009777599014341831,-0.0005371269071474671,0.0,0.0,0.0,0.0,-0.00014779203047510237,-0.006573902443051338,0.002743537537753582,1.0003376007080078,0.0,0.0,0.0,-6.415765285491943,6.148523330688477,-0.7582715153694153,1161.266357421875,0
187.85099999999875,-0.008843193762004375,0.009723266586661339,-0.0005748472758568823,0.0,0.0,0.0,0.0,-0.0010384427150711417,0.0014030438615009189,-0.00030120977316983044,0.9973571300506592,0.0,0.0,0.0,-6.416326999664307,6.132897853851318,-0.7424929141998291,1161.367919921875,0
197.73899999999958,-0.008841200731694698,0.009721633978188038,-0.000554784550331533,0.0,0.0,0.0,0.0,0.000387584266718477,-0.0031615716870874166,-0.0025912278797477484,0.9995068907737732,0.0,0.0,0.0,-6.409840106964111,6.126470565795898,-0.7401555776596069,1160.1937255859375,0
207.625,-0.008835792541503906,0.009669449180364609,-0.0006072302348911762,0.0,0.0,0.0,0.0,-0.0010622702538967133,-0.0009433685918338597,0.0013087367406114936,0.9994377493858337,0.0,0.0,0.0,-6.413783550262451,6.1079206466674805,-0.7317368984222412,1160.907470703125,0
217.51699999999983,-0.008834443055093288,0.009662378579378128,-0.0005943975993432105,0.0,0.0,0.0,0.0,-0.0005877617513760924,0.001218427438288927,0.0009569599642418325,0.9983078241348267,0.0,0.0,0.0,-6.407243251800537,6.10254430770874,-0.7356473207473755,1159.723876953125,0
227.39999999999964,-0.008829652331769466,0.009616036899387836,-0.0006407974869944155,0.0,0.0,0.0,0.0,0.0016635679639875889,0.006970817223191261,-0.0011921937111765146,0.9986832141876221,0.0,0.0,0.0,-6.419556617736816,6.089183330535889,-0.7297536730766296,1161.9525146484375,0
237.29099999999926,-0.008826317265629768,0.0096036521717906,-0.0006345118163153529,0.0,0.0,0.0,0.0,-0.0006795505760237575,0.004193136468529701,-0.0006040995358489454,1.0005097389221191,0.0,0.0,0.0,-6.4134202003479,6.0816121101379395,-0.7449811697006226,1160.841796875,0
247.17499999999927,-0.008806335739791393,0.009608056396245956,-0.0006708430009894073,0.0,0.0,0.0,0.0,-0.0018296627094969153,-0.004108068533241749,0.0008377529447898269,0.9998390674591064,0.0,0.0,0.0,-6.420347690582275,6.081029891967773,-0.7418479323387146,1162.095703125,0
257.0679999999993,-0.008799212984740734,0.009595774114131927,-0.0006679680664092302,0.0,0.0,0.0,0.0,-0.0015741409733891487,0.0006080602761358023,0.002570861019194126,1.0021299123764038,0.0,0.0,0.0,-6.414304733276367,6.077836513519287,-0.7294846177101135,1161.0018310546875,0
266.9479999999985,-0.008787295781075954,0.009565026499330997,-0.000704165839124471,0.0,0.0,0.0,0.0,-0.0007227947935461998,0.007226367946714163,0.002905928296968341,0.9983884692192078,0.0,0.0,0.0,-6.416138172149658,6.074876308441162,-0.7215257287025452,1161.333740234375,0
276.83599999999933,-0.008778263814747334,0.009547901339828968,-0.0007027277024462819,0.0,0.0,0.0,0.0,0.0002767685800790787,-0.0011291748378425837,0.000902762811165303,0.9988703727722168,0.0,0.0,0.0,-6.410094261169434,6.072392463684082,-0.7411667108535767,1160.23974609375,0
286.72399999999834,-0.008766397833824158,0.009519499726593494,-0.0007250041817314923,0.0,0.0,0.0,0.0,-0.0024198999162763357,-0.001193118398077786,0.0037935946602374315,0.9973304271697998,0.0,0.0,0.0,-6.41384744644165,6.062415599822998,-0.7408595085144043,1160.9190673828125,0
296.6149999999998,-0.00875528808683157,0.009498858824372292,-0.0007280220743268728,0.0,0.0,0.0,0.0,0.001235532108694315,-0.002213086700066924,-0.00038116637733764946,0.9985067248344421,0.0,0.0,0.0,-6.4058518409729,6.062112808227539,-0.734839916229248,1159.471923828125,0
306.4969999999994,-0.008727476932108402,0.009477746672928333,-0.0007893366273492575,0.0,0.0,0.0,0.0,0.0009520191233605146,0.0003792344650719315,-0.0003227988490834832,1.0007703304290771,0.0,0.0,0.0,-6.407408237457275,6.057958602905273,-0.716736376285553,1159.753662109375,0
316.3869999999988,-0.00871481653302908,0.009456985630095005,-0.000799269531853497,0.0,0.0,0.0,0.0,-0.0026413006708025932,0.0033886991441249847,0.0023045868147164583,1.002028226852417,0.0,0.0,0.0,-6.400825500488281,6.050065040588379,-0.7141833305358887,1158.5621337890625,0
326.27999999999884,-0.00867780577391386,0.009461894631385803,-0.0008478070376440883,0.0,0.0,0.0,0.0,0.002409258857369423,-0.004329235292971134,0.0017199949361383915,0.9989157319068909,0.0,0.0,0.0,-6.40402364730835,6.056577682495117,-0.7187104225158691,1159.14111328125,0
336.15999999999985,-0.00865990947932005,0.009442814625799656,-0.000859326682984829,0.0,0.0,0.0,0.0,0.0012035701656714082,0.006869726814329624,0.0003925861674360931,0.9996379613876343,0.0,0.0,0.0,-6.397058010101318,6.045362949371338,-0.7109126448631287,1157.8802490234375,0
346.04799999999886,-0.008642250671982765,0.009414386004209518,-0.0008853715844452381,0.0,0.0,0.0,0.0,0.002126789651811123,0.0017495950451120734,0.001798646175302565,0.9998123049736023,0.0,0.0,0.0,-6.401188373565674,6.033048629760742,-0.7188552021980286,1158.6278076171875,0
355.9329999999991,-0.008625457063317299,0.009391681291162968,-0.0008988960180431604,0.0,0.0,0.0,0.0,0.0015083730686455965,-0.004052844364196062,-0.0002904907159972936,1.0002539157867432,0.0,0.0,0.0,-6.394587993621826,6.021949768066406,-0.7233530282974243,1157.4332275390625,0
365.8199999999997,-0.00860806368291378,0.009370355866849422,-0.0009165392839349806,0.0,0.0,0.0,0.0,-0.0036358691286295652,-0.0007573721231892705,0.001639478257857263,0.9989033341407776,0.0,0.0,0.0,-6.396020889282227,6.016278266906738,-0.7113827466964722,1157.6925048828125,0
375.7079999999987,-0.008592653088271618,0.009345181286334991,-0.0009302858379669487,0.0,0.0,0.0,0.0,0.00010806740465341136,-0.0035135045181959867,-0.0013774073449894786,0.9978623390197754,0.0,0.0,0.0,-6.389247894287109,6.018347263336182,-0.7178844213485718,1156.466552734375,0
385.59399999999914,-0.008568148128688335,0.00936158187687397,-0.0009173884755000472,0.0,0.0,0.0,0.0,0.0004734899557661265,0.0020681319292634726,0.0008419904625043273,1.0005677938461304,0.0,0.0,0.0,-6.395025253295898,6.031246662139893,-0.7074770927429199,1157.5123291015625,0
395.48199999999997,-0.008550766855478287,0.009333654306828976,-0.0009313910268247128,0.0,0.0,0.0,0.0,-0.0005589899374172091,-0.0013486243551597,0.0006411434151232243,0.9997684955596924,0.0,0.0,0.0,-6.387726306915283,6.0219011306762695,-0.704547107219696,1156.1912841796875,0
405.3729999999996,-0.008543306030333042,0.009357058443129063,-0.0008721496560610831,0.0,0.0,0.0,0.0,-0.0012603026116266847,0.0036786114796996117,0.001734175719320774,0.9993692636489868,0.0,0.0,0.0,-6.394466400146484,6.029041290283203,-0.7104599475860596,1157.4112548828125,0
415.259,-0.008525335229933262,0.009328925050795078,-0.0008804065873846412,0.0,0.0,0.0,0.0,0.00044364167843014,0.0001703712623566389,0.0014603408053517342,1.0000358819961548,0.0,0.0,0.0,-6.388236999511719,6.028476715087891,-0.7083262801170349,1156.28369140625,0
425.14300000000003,-0.008551626466214657,0.009320368058979511,-0.0007960423827171326,0.0,0.0,0.0,0.0,0.0015935752307996154,0.0010659227846190333,0.00040260437526740134,0.9995935559272766,0.0,0.0,0.0,-6.395797252655029,6.019733428955078,-0.72556471824646,1157.6519775390625,0
435.03099999999904,-0.008538737893104553,0.009290245361626148,-0.0007963788812048733,0.0,0.0,0.0,0.0,5.0941656809300184e-05,-0.00028284810832701623,-0.000993653666228056,0.9978124499320984,0.0,0.0,0.0,-6.388901233673096,6.011952877044678,-0.7287778258323669,1156.40380859375,0
444.91699999999946,-0.008555637672543526,0.009294664487242699,-0.0007192431367002428,0.0,0.0,0.0,0.0,0.0005608545616269112,0.0015627965331077576,0.0016990165458992124,0.997782289981842,0.0,0.0,0.0,-6.389774799346924,6.014033317565918,-0.7408744692802429,1156.5618896484375,0
454.8049999999985,-0.008545800112187862,0.00926280952990055,-0.000715794856660068,0.0,0.0,0.0,0.0,0.0016481652855873108,0.0004576719074975699,0.0021726081613451242,0.997755229473114,0.0,0.0,0.0,-6.382589340209961,6.008029460906982,-0.7440927624702454,1155.2613525390625,0
464.6939999999995,-0.008587039075791836,0.00924798846244812,-0.0006271550664678216,0.0,0.0,0.0,0.0,-0.0006512857507914305,0.00036345524131320417,-0.003506449982523918,1.0006970167160034,0.0,0.0,0.0,-6.39216423034668,5.999960422515869,-0.7616714239120483,1156.9945068359375,0
474.5849999999991,-0.008580446243286133,0.009210946038365364,-0.0006188403349369764,0.0,0.0,0.0,0.0,0.0009547183872200549,0.0012668512063100934,0.0012680349173024297,0.9996052384376526,0.0,0.0,0.0,-6.387038230895996,5.99664306640625,-0.7637419104576111,1156.0667724609375,0
484.46699999999873,-0.008570542559027672,0.009222366847097874,-0.0005753608420491219,0.0,0.0,0.0,0.0,0.002173825865611434,0.002152642235159874,0.003919039387255907,0.9999536275863647,0.0,0.0,0.0,-6.388543605804443,6.009267807006836,-0.7704989910125732,1156.3392333984375,0
494.35999999999876,-0.00856318511068821,0.009182888083159924,-0.0005644034245051444,0.0,0.0,0.0,0.0,-0.0027942562010139227,-0.00037624218384735286,-0.0029060819651931524,1.0021793842315674,0.0,0.0,0.0,-6.3816142082214355,6.003488540649414,-0.7654640674591064,1155.0848388671875,0
504.241,-0.008852907456457615,0.009758264757692814,-0.0003446374321356416,0.0,0.0,0.0,0.0,-0.003694553393870592,0.001571982866153121,0.0018839652184396982,1.0008394718170166,0.0,0.0,0.0,-6.419522285461426,6.147405624389648,-0.8204724788665771,1161.9462890625,0
514.1309999999994,-0.008854985237121582,0.009748324751853943,-0.00031006947392597795,0.0,0.0,0.0,0.0,-0.0003865269827656448,-0.004020818043500185,0.0015535480342805386,0.9993732571601868,0.0,0.0,0.0,-6.412872314453125,6.139720439910889,-0.8223890066146851,1160.7425537109375,0
524.0149999999994,-0.008857904002070427,0.00973750464618206,-0.000274864723905921,0.0,0.0,0.0,0.0,0.002425819868221879,0.004698270000517368,0.0027009989134967327,0.9972444772720337,0.0,0.0,0.0,-6.405831813812256,6.136434555053711,-0.8144882321357727,1159.46826171875,0
533.902,-0.00886203721165657,0.009726619347929955,-0.00024091580417007208,0.0,0.0,0.0,0.0,-0.0010227563325315714,-0.0012676409678533673,-0.0027154763229191303,0.9989876747131348,0.0,0.0,0.0,-6.398537635803223,6.127824783325195,-0.8216721415519714,1158.1480712890625,0
543.7929999999997,-0.008793962188065052,0.00974752102047205,-0.00040829507634043694,0.0,0.0,0.0,0.0,0.0010461214696988463,-0.0018782730912789702,-0.0011772621655836701,0.9986836314201355,0.0,0.0,0.0,-6.404685020446777,6.136475563049316,-0.7824745774269104,1159.2607421875,0
553.6769999999997,-0.008793177083134651,0.009738441556692123,-0.0003918748698197305,0.0,0.0,0.0,0.0,-0.0005623821052722633,0.0018123011104762554,-0.0020211534574627876,1.001225233078003,0.0,0.0,0.0,-6.3982439041137695,6.125164985656738,-0.764057993888855,1158.0948486328125,0
563.5689999999995,-0.008792783133685589,0.009728570468723774,-0.00037561339559033513,0.0,0.0,0.0,0.0,0.0012180254561826587,0.006147241219878197,-0.0001829116663429886,1.0016109943389893,0.0,0.0,0.0,-6.392350673675537,6.120041847229004,-0.7710154056549072,1157.0283203125,0
573.4509999999991,-0.008792543783783913,0.009717602282762527,-0.00035835907328873873,0.0,0.0,0.0,0.0,0.0016909361584112048,-0.0019206665456295013,0.00300414115190506,1.00009024143219,0.0,0.0,0.0,-6.385087013244629,6.113096714019775,-0.7790993452072144,1155.7135009765625,0
583.351999999999,-0.008772003464400768,0.009659785777330399,-0.0004854256985709071,0.0,0.0,0.0,0.0,0.0023875294718891382,0.00020271175890229642,-0.002231944352388382,0.9984909892082214,0.0,0.0,0.0,-6.387032985687256,6.090586185455322,-0.7648487091064453,1156.065673828125,0
593.2249999999985,-0.008770189248025417,0.009644518606364727,-0.0004775546840392053,0.0,0.0,0.0,0.0,-0.0024908639024943113,-0.0023063814733177423,0.0013258199905976653,0.9986048340797424,0.0,0.0,0.0,-6.380573749542236,6.084718227386475,-0.7623265385627747,1154.8966064453125,0
603.1169999999984,-0.00875550415366888,0.00959902536123991,-0.0005644520279020071,0.0,0.0,0.0,0.0,-0.0015176498563960195,0.0029583873692899942,4.4182012061355636e-05,0.9997410774230957,0.0,0.0,0.0,-6.383447647094727,6.071949481964111,-0.7563850283622742,1155.416748046875,0
613.003999999999,-0.008751820772886276,0.009578106924891472,-0.0005648494116030633,0.0,0.0,0.0,0.0,0.0006106767104938626,0.000264162925304845,0.0007235122611746192,0.9977852702140808,0.0,0.0,0.0,-6.377474784851074,6.065365314483643,-0.7678564786911011,1154.3355712890625,0
622.893,-0.0087863989174366,0.009994706138968468,-0.00016077837790362537,0.0,0.0,0.0,0.0,-0.0013134425971657038,-0.005703656002879143,-0.00020023532852064818,0.9975176453590393,0.0,0.0,0.0,-6.407586574554443,6.163125514984131,-0.7957339882850647,1159.7860107421875,0
632.7739999999994,-0.008782769553363323,0.009992290288209915,-0.0001388549862895161,0.0,0.0,0.0,0.0,-0.0027941009029746056,0.0025771823711693287,-0.002101319609209895,0.9983149170875549,0.0,0.0,0.0,-6.400947093963623,6.157649517059326,-0.7814993858337402,1158.5841064453125,0
642.6669999999995,-0.008770915679633617,0.009890826418995857,-0.00028632264002226293,0.0,0.0,0.0,0.0,-0.000998295028693974,0.001439102808944881,-0.004018500912934542,1.000937581062317,0.0,0.0,0.0,-6.4031829833984375,6.130842208862305,-0.7895740270614624,1158.98876953125,0
652.5489999999991,-0.00876560341566801,0.009879158809781075,-0.0002782345691230148,0.0,0.0,0.0,0.0,-0.0013593599433079362,-0.005545939784497023,-0.0008924744324758649,1.0005334615707397,0.0,0.0,0.0,-6.3978376388549805,6.123626708984375,-0.7928985953330994,1158.0213623046875,0
662.4439999999995,-0.00876364391297102,0.00976938009262085,-0.0004005471128039062,0.0,0.0,0.0,0.0,-0.000892205280251801,0.0009287804132327437,-0.001055690459907055,0.999183714389801,0.0,0.0,0.0,-6.414883613586426,6.093688488006592,-0.7765762805938721,1161.106689453125,0
672.3229999999985,-0.008759289048612118,0.009748990647494793,-0.000400015152990818,0.0,0.0,0.0,0.0,0.0036729052662849426,0.007293085101991892,-0.0008233054541051388,0.9996239542961121,0.0,0.0,0.0,-6.407878875732422,6.091564178466797,-0.7749759554862976,1159.8387451171875,0
682.2209999999995,-0.008748497813940048,0.009675360284745693,-0.000498988083563745,0.0,0.0,0.0,0.0,0.001898662419989705,-0.00375760137103498,-0.0003266647399868816,1.0007785558700562,0.0,0.0,0.0,-6.414499759674072,6.061310291290283,-0.7826350331306458,1161.0372314453125,0
692.0989999999983,-0.00874327216297388,0.00965031050145626,-0.0005053824279457331,0.0,0.0,0.0,0.0,0.003433006349951029,0.001718129962682724,0.0022632814943790436,1.0005048513412476,0.0,0.0,0.0,-6.408276081085205,6.059499263763428,-0.7788622379302979,1159.9107666015625,0
701.9929999999986,-0.008731485344469547,0.009595193900167942,-0.0005735826562158763,0.0,0.0,0.0,0.0,-0.003949904348701239,0.0004924068343825638,0.004417519085109234,1.0018415451049805,0.0,0.0,0.0,-6.408504009246826,6.042242527008057,-0.7741530537605286,1159.9520263671875,0
711.8719999999994,-0.008725649677217007,0.009564855135977268,-0.0005824200343340635,0.0,0.0,0.0,0.0,0.001039658091031015,-0.00365289393812418,-0.0002836466010194272,0.9999682903289795,0.0,0.0,0.0,-6.400224685668945,6.0418195724487305,-0.7722423672676086,1158.4534912109375,0
721.768,-0.008719549514353275,0.009503886103630066,-0.000641495396848768,0.0,0.0,0.0,0.0,-0.002252631587907672,0.0026884872931987047,0.0015866096364334226,1.0002022981643677,0.0,0.0,0.0,-6.409012794494629,6.024073123931885,-0.7639745473861694,1160.0440673828125,0
731.6459999999988,-0.008716271258890629,0.00946891214698553,-0.0006527187651954591,0.0,0.0,0.0,0.0,0.0012565096840262413,0.003928723279386759,0.0012027134653180838,0.9990808963775635,0.0,0.0,0.0,-6.403354644775391,6.025698661804199,-0.7657623291015625,1159.02001953125,0
741.5429999999997,-0.008695037104189396,0.009467387571930885,-0.0006808441248722374,0.0,0.0,0.0,0.0,-0.0014774124138057232,-0.0016454486176371574,0.0007855751900933683,0.9986593127250671,0.0,0.0,0.0,-6.410843372344971,6.03285551071167,-0.769589900970459,1160.37548828125,0
751.4309999999987,-0.008690821006894112,0.00942982267588377,-0.0006947022629901767,0.0,0.0,0.0,0.0,0.001698197447694838,-0.0018926224438473582,0.0015458987327292562,0.9988069534301758,0.0,0.0,0.0,-6.404204368591309,6.028279781341553,-0.7706074714660645,1159.1737060546875,0
761.3279999999995,-0.008680634200572968,0.009401174262166023,-0.0007193323108367622,0.0,0.0,0.0,0.0,-0.00017987274623010308,0.0017953349743038416,0.00145206309389323,1.0012191534042358,0.0,0.0,0.0,-6.40502405166626,6.020844459533691,-0.7650789618492126,1159.3221435546875,0
771.1959999999999,-0.008676601573824883,0.009361294098198414,-0.0007351514650508761,0.0,0.0,0.0,0.0,-0.00018362347327638417,-0.0013182720867916942,-0.000662311736959964,1.0006654262542725,0.0,0.0,0.0,-6.39794397354126,6.012983322143555,-0.7703859806060791,1158.0406494140625,0
781.0889999999999,-0.008637715131044388,0.009378534741699696,-0.0007764758192934096,0.0,0.0,0.0,0.0,0.0003394033119548112,0.0015411170898005366,-0.0024329968728125095,0.9993785619735718,0.0,0.0,0.0,-6.401514530181885,6.034457683563232,-0.749428391456604,1158.6868896484375,0
790.973,-0.008630125783383846,0.009342885576188564,-0.0007938462658785284,0.0,0.0,0.0,0.0,-0.0023694310802966356,-0.0027213378343731165,-0.0028362637385725975,0.9977482557296753,0.0,0.0,0.0,-6.395318984985352,6.02825927734375,-0.7550277709960938,1157.5655517578125,0
800.8759999999984,-0.008624116890132427,0.00933259166777134,-0.0007850457914173603,0.0,0.0,0.0,0.0,0.0011347101535648108,0.0009803385473787785,-0.0014764767838642001,0.9992721676826477,0.0,0.0,0.0,-6.402153968811035,6.033087730407715,-0.7495167851448059,1158.802734375,0
810.744999999999,-0.008617536164820194,0.0092953285202384,-0.0008023512782528996,0.0,0.0,0.0,0.0,0.0008977344259619713,0.0006075447890907526,0.0020253362599760294,0.9967809915542603,0.0,0.0,0.0,-6.39577054977417,6.026831150054932,-0.747056782245636,1157.647216796875,0
820.637999999999,-0.008592291735112667,0.009286545217037201,-0.0008347835391759872,0.0,0.0,0.0,0.0,0.00014885715791024268,0.001940833986736834,0.00012527288345154375,1.0014753341674805,0.0,0.0,0.0,-6.400472640991211,6.0321574211120605,-0.7436218857765198,1158.498291015625,0
830.518,-0.008582649752497673,0.009250377304852009,-0.0008560317801311612,0.0,0.0,0.0,0.0,0.0020863721147179604,-0.002121005207300186,-0.0012383268913254142,1.0001813173294067,0.0,0.0,0.0,-6.394099712371826,6.028980731964111,-0.7482706904411316,1157.3448486328125,0
840.4129999999986,-0.008564726449549198,0.009289453737437725,-0.0008211053791455925,0.0,0.0,0.0,0.0,-0.0011096036760136485,0.0039878482930362225,-3.1141596991801634e-05,1.0003193616867065,0.0,0.0,0.0,-6.401202201843262,6.046038627624512,-0.7432935833930969,1158.63037109375,0
850.2919999999995,-0.008553636260330677,0.009256195276975632,-0.0008373695309273899,0.0,0.0,0.0,0.0,-0.002345615765079856,-0.0001863350480562076,0.0010027175303548574,0.9999337196350098,0.0,0.0,0.0,-6.394594192504883,6.046258926391602,-0.7515813708305359,1157.4342041015625,0
860.1889999999985,-0.008549117483198643,0.009257547557353973,-0.0008126397733576596,0.0,0.0,0.0,0.0,0.0013259360566735268,-0.00013611585018225014,-0.0013307194458320737,1.0003020763397217,0.0,0.0,0.0,-6.397058963775635,6.052300453186035,-0.7538802027702332,1157.88037109375,0
870.0659999999989,-0.008538533002138138,0.009224769659340382,-0.000825253315269947,0.0,0.0,0.0,0.0,0.004668918438255787,-0.002209099940955639,-0.0022847887594252825,1.001768708229065,0.0,0.0,0.0,-6.39063024520874,6.045517921447754,-0.7519606947898865,1156.716796875,0
879.9609999999993,-0.008533536456525326,0.009235411882400513,-0.0007905085221864283,0.0,0.0,0.0,0.0,3.631133586168289e-05,-0.003063929034397006,-0.0040755607187747955,1.0002431869506836,0.0,0.0,0.0,-6.393659591674805,6.044400691986084,-0.7578957676887512,1157.26513671875,0
889.8499999999985,-0.00852296408265829,0.009203159250319004,-0.0007974686450324953,0.0,0.0,0.0,0.0,3.765033034142107e-05,-0.0013564333785325289,0.0034822269808501005,1.0006226301193237,0.0,0.0,0.0,-6.388245105743408,6.037587642669678,-0.7486701011657715,1156.2850341796875,0
899.7349999999988,-0.008519001305103302,0.009210143238306046,-0.0007687356555834413,0.0,0.0,0.0,0.0,0.0013049931731075048,0.002171109663322568,-0.004709121771156788,1.001642107963562,0.0,0.0,0.0,-6.398685932159424,6.047142505645752,-0.7464504241943359,1158.1748046875,0
909.616,-0.008508285507559776,0.009178927168250084,-0.0007707741460762918,0.0,0.0,0.0,0.0,-0.00037312580388970673,-0.00065864238422364,0.0006221433868631721,1.000353455543518,0.0,0.0,0.0,-6.392822265625,6.04208517074585,-0.7424706220626831,1157.113525390625,0
919.5119999999988,-0.008462256751954556,0.009222319349646568,-0.0007692515500821173,0.0,0.0,0.0,0.0,-0.0020905269775539637,0.0009057046845555305,0.00027800575480796397,0.9998685121536255,0.0,0.0,0.0,-6.39888858795166,6.0658063888549805,-0.7301784157752991,1158.2115478515625,0
929.396999999999,-0.008448746986687183,0.009195474907755852,-0.0007705218740738928,0.0,0.0,0.0,0.0,-0.0037885699421167374,0.0006687210989184678,0.0028374355752021074,0.9996876120567322,0.0,0.0,0.0,-6.392950057983398,6.060518741607666,-0.7304283380508423,1157.13671875,0
939.2919999999995,-0.00841789972037077,0.009230341762304306,-0.0007563349208794534,0.0,0.0,0.0,0.0,-0.0008666034555062652,0.0021349836606532335,0.004405212588608265,1.0008039474487305,0.0,0.0,0.0,-6.3983330726623535,6.081197738647461,-0.7233119606971741,1158.111083984375,0
949.164999999999,-0.008404580876231194,0.009204828180372715,-0.0007567600114271045,0.0,0.0,0.0,0.0,0.002058604033663869,0.0013551797019317746,-0.0028957019094377756,1.001779317855835,0.0,0.0,0.0,-6.390896320343018,6.0763068199157715,-0.7267158627510071,1156.764892578125,0
959.0699999999997,-0.008383882232010365,0.009198603220283985,-0.0007561835809610784,0.0,0.0,0.0,0.0,0.0005107150063849986,0.002847975818440318,-0.00028584670508280396,0.9988264441490173,0.0,0.0,0.0,-6.3986005783081055,6.070377349853516,-0.7296873331069946,1158.159423828125,0
968.9399999999987,-0.008371620438992977,0.009172370657324791,-0.0007549581350758672,0.0,0.0,0.0,0.0,0.0011436017230153084,-0.003928409423679113,-0.00128594518173486,0.9979705214500427,0.0,0.0,0.0,-6.3921284675598145,6.0658721923828125,-0.7346230149269104,1156.9879150390625,0
978.8339999999989,-0.008359330706298351,0.009166963398456573,-0.0007477677427232265,0.0,0.0,0.0,0.0,0.002705211518332362,0.0033109080977737904,-0.0007409100653603673,1.0004643201828003,0.0,0.0,0.0,-6.400175094604492,6.064565181732178,-0.726748526096344,1158.4443359375,0
988.7129999999997,-0.00834543164819479,0.009134274907410145,-0.000747726415283978,0.0,0.0,0.0,0.0,-0.0018896982073783875,0.00034472899278625846,-0.0007970649749040604,1.000232219696045,0.0,0.0,0.0,-6.393886089324951,6.052674293518066,-0.742250919342041,1157.3060302734375,0
998.616,-0.008326453156769276,0.009139887988567352,-0.0007325155311264098,0.0,0.0,0.0,0.0,0.0022787353955209255,-0.0014749079709872603,0.0005114195519126952,0.9988576173782349,0.0,0.0,0.0,-6.396505832672119,6.062236785888672,-0.7473670840263367,1157.7802734375,0
1008.491,-0.008312148973345757,0.009105936624109745,-0.0007313021342270076,0.0,0.0,0.0,0.0,0.002660553902387619,-0.00011220264423172921,0.0007466413080692291,0.9986795783042908,0.0,0.0,0.0,-6.389529228210449,6.050466537475586,-0.7419617176055908,1156.5174560546875,0
1018.3949999999986,-0.008299121633172035,0.009111151099205017,-0.0007188580348156393,0.0,0.0,0.0,0.0,0.00013148659490980208,0.000458177033578977,0.0006294472841545939,0.9997926950454712,0.0,0.0,0.0,-6.398465156555176,6.051260948181152,-0.7420044541358948,1158.1348876953125,0
1028.2649999999994,-0.008287343196570873,0.009077408351004124,-0.0007188248564489186,0.0,0.0,0.0,0.0,0.0005351002910174429,0.0012110767420381308,-2.4123004550347105e-05,0.9995628595352173,0.0,0.0,0.0,-6.391839981079102,6.048445701599121,-0.7364240884780884,1156.935791015625,0
1038.1599999999999,-0.008302813395857811,0.009097174741327763,-0.0006754564237780869,0.0,0.0,0.0,0.0,0.00022060760238673538,-0.002625635825097561,0.0015451561193913221,1.0020500421524048,0.0,0.0,0.0,-6.403499126434326,6.052931308746338,-0.7432669997215271,1159.046142578125,0
1048.0409999999993,-0.008291724137961864,0.009064664132893085,-0.0006704721599817276,0.0,0.0,0.0,0.0,-9.699042493593879e-06,0.0014838437782600522,-0.0012223473750054836,1.002700924873352,0.0,0.0,0.0,-6.396822929382324,6.049990653991699,-0.736061155796051,1157.8377685546875,0
1057.9339999999993,-0.008291341364383698,0.009122779592871666,-0.0006139681208878756,0.0,0.0,0.0,0.0,0.00012443543528206646,-0.0018967188661918044,0.005148165859282017,0.9990103840827942,0.0,0.0,0.0,-6.406702995300293,6.076538562774658,-0.7445666193962097,1159.6259765625,0
1067.8149999999987,-0.008280779235064983,0.009091559797525406,-0.000601117848418653,0.0,0.0,0.0,0.0,-0.0011213140096515417,-0.002179152565076947,-0.0024635791778564453,1.0005556344985962,0.0,0.0,0.0,-6.399274826049805,6.075155258178711,-0.7393763661384583,1158.281494140625,0
1077.7129999999997,-0.008269337937235832,0.009058559313416481,-0.0005879909731447697,0.0,0.0,0.0,0.0,-0.000134185902425088,0.0010838175658136606,-0.0018884728197008371,0.9991198778152466,0.0,0.0,0.0,-6.393186569213867,6.07215690612793,-0.7365432381629944,1157.179443359375,0
1087.5879999999997,-0.008257170207798481,0.009024557657539845,-0.0005749241099692881,0.0,0.0,0.0,0.0,0.0012323097325861454,0.0016680146800354123,0.0009378236718475819,0.9995511174201965,0.0,0.0,0.0,-6.387505531311035,6.063786506652832,-0.7356997132301331,1156.1513671875,0
1097.4829999999984,-0.00824420340359211,0.008989493362605572,-0.0005622902535833418,0.0,0.0,0.0,0.0,-0.004235562402755022,-0.0068878172896802425,-0.002785351825878024,1.0009868144989014,0.0,0.0,0.0,-6.380769729614258,6.0537543296813965,-0.7378003001213074,1154.93212890625,0
1107.3629999999994,-0.008230699226260185,0.008952474221587181,-0.0005494752549566329,0.0,0.0,0.0,0.0,0.0030666470993310213,0.0022559266071766615,-0.0011453806655481458,1.0000158548355103,0.0,0.0,0.0,-6.374120235443115,6.051855564117432,-0.7193904519081116,1153.7283935546875,0
1117.2609999999986,-0.008217564783990383,0.008913127705454826,-0.0005361154908314347,0.0,0.0,0.0,0.0,0.0009637383045628667,0.0006723107071593404,-0.0025333918165415525,0.9978895783424377,0.0,0.0,0.0,-6.367558002471924,6.036043167114258,-0.7237741351127625,1152.54052734375,0
1127.1359999999986,-0.008204846642911434,0.008871805854141712,-0.0005234731361269951,0.0,0.0,0.0,0.0,-0.001904226839542389,0.002987007377669215,0.0012567744124680758,0.9979382753372192,0.0,0.0,0.0,-6.36238431930542,6.026295185089111,-0.7305474281311035,1151.6041259765625,0
1137.0329999999994,-0.00819314643740654,0.008828611113131046,-0.0005127189797349274,0.0,0.0,0.0,0.0,0.002356414683163166,-0.001111173303797841,0.003976103384047747,0.9986010789871216,0.0,0.0,0.0,-6.355477333068848,6.021076202392578,-0.7321299314498901,1150.35400390625,0
1146.911,-0.008182707242667675,0.00878407247364521,-0.0005036387592554092,0.0,0.0,0.0,0.0,0.00240519130602479,0.006862481590360403,0.0002631960960570723,0.9995220303535461,0.0,0.0,0.0,-6.348069190979004,6.011709690093994,-0.7318036556243896,1149.0130615234375,0
1156.8049999999985,-0.008172080852091312,0.008739707991480827,-0.0004955491749569774,0.0,0.0,0.0,0.0,0.0023761135526001453,0.0029806240927428007,0.00015882171283010393,0.9987223148345947,0.0,0.0,0.0,-6.342183589935303,6.002523899078369,-0.7463186383247375,1147.9478759765625,0
1166.6839999999993,-0.008161263540387154,0.008696562610566616,-0.00048802827950567007,0.0,0.0,0.0,0.0,-0.002608891809359193,-0.001946755568496883,0.0010875071166083217,0.9997178912162781,0.0,0.0,0.0,-6.335374355316162,5.9918413162231445,-0.7454037666320801,1146.71533203125,0
1176.5909999999985,-0.00815190002322197,0.008653744123876095,-0.0004809146048501134,0.0,0.0,0.0,0.0,-0.003250707872211933,0.0008158994023688138,0.0031417421996593475,1.0031229257583618,0.0,0.0,0.0,-6.329216003417969,5.990909099578857,-0.7409886121749878,1145.600830078125,0
1186.458999999999,-0.008144654333591461,0.008608954027295113,-0.00047266692854464054,0.0,0.0,0.0,0.0,-0.0004732886445708573,-0.004495303146541119,-0.0033874011132866144,0.9986348152160645,0.0,0.0,0.0,-6.322615623474121,5.995352745056152,-0.7358852028846741,1144.406005859375,0
1196.357,-0.008139090612530708,0.008561313152313232,-0.00046333251520991325,0.0,0.0,0.0,0.0,-0.002224880736321211,-0.0005884007550776005,-0.0013388844672590494,1.0004284381866455,0.0,0.0,0.0,-6.317705154418945,5.9908576011657715,-0.7281335592269897,1143.517333984375,0
1206.2339999999986,-0.008134900592267513,0.008511756546795368,-0.000454107066616416,0.0,0.0,0.0,0.0,0.004102191422134638,-0.0008842255338095129,0.003387138247489929,1.0003970861434937,0.0,0.0,0.0,-6.3114237785339355,5.9927191734313965,-0.7217096090316772,1142.380126953125,0
1216.1279999999988,-0.008131657727062702,0.008461427874863148,-0.0004445950617082417,0.0,0.0,0.0,0.0,-0.0008019640226848423,-0.00020653715182561427,0.0008279397152364254,1.0004929304122925,0.0,0.0,0.0,-6.30462646484375,5.974200248718262,-0.7242785692214966,1141.14990234375,0
1226.0069999999996,-0.008129243738949299,0.008410769514739513,-0.0004345608176663518,0.0,0.0,0.0,0.0,-0.0014077159576117992,0.0016341282753273845,0.0015786384465172887,0.996840238571167,0.0,0.0,0.0,-6.298529148101807,5.970771789550781,-0.7238525748252869,1140.0462646484375,0
1235.9179999999997,-0.008127263747155666,0.008359161205589771,-0.00042534538079053164,0.0,0.0,0.0,0.0,0.0020149522460997105,0.003273911075666547,-0.0005665191565640271,0.9987942576408386,0.0,0.0,0.0,-6.292313575744629,5.968700885772705,-0.7235469818115234,1138.9212646484375,0
1245.7829999999994,-0.008125416934490204,0.008305319584906101,-0.0004179553361609578,0.0,0.0,0.0,0.0,0.0035932648461312056,0.001340335002169013,0.0021152589470148087,0.9994784593582153,0.0,0.0,0.0,-6.285957336425781,5.962796688079834,-0.7366014719009399,1137.770751953125,0
1255.6819999999989,-0.008124378509819508,0.008248863741755486,-0.0004115792689844966,0.0,0.0,0.0,0.0,0.002925717970356345,-0.0014044734416529536,0.0014565949095413089,1.0011165142059326,0.0,0.0,0.0,-6.279628276824951,5.9514994621276855,-0.7372832298278809,1136.6251220703125,0
1265.5589999999993,-0.008123704232275486,0.008190530352294445,-0.00040506134973838925,0.0,0.0,0.0,0.0,0.0005922382115386426,0.00128272850997746,0.0007665252196602523,0.9993572235107422,0.0,0.0,0.0,-6.272983074188232,5.94003963470459,-0.7319319248199463,1135.4224853515625,0
1275.4519999999993,-0.008122934028506279,0.00813076552003622,-0.0003980942419730127,0.0,0.0,0.0,0.0,-0.0012099638115614653,-0.008140080608427525,-0.0007361354073509574,0.9983531832695007,0.0,0.0,0.0,-6.266601085662842,5.929524898529053,-0.7212904691696167,1134.2672119140625,0
1285.3289999999997,-0.008122044615447521,0.008068900555372238,-0.00039168045623227954,0.0,0.0,0.0,0.0,-0.0013102780794724822,-0.004236459266394377,0.0002754965389613062,0.9978389143943787,0.0,0.0,0.0,-6.260423183441162,5.923521041870117,-0.7005900740623474,1133.1490478515625,0
1295.2239999999983,-0.008120746351778507,0.008005063980817795,-0.00038683979073539376,0.0,0.0,0.0,0.0,0.000961070996709168,0.0026024701073765755,0.0009298899094574153,0.9999687671661377,0.0,0.0,0.0,-6.25341796875,5.921683311462402,-0.6882641315460205,1131.8809814453125,0
1305.110999999999,-0.008118917234241962,0.007939078845083714,-0.00038319703890010715,0.0,0.0,0.0,0.0,0.0006429732311517,0.003770190291106701,-0.0016413013217970729,1.0003776550292969,0.0,0.0,0.0,-6.24739933013916,5.916326999664307,-0.6940454840660095,1130.7916259765625,0
1315.003999999999,-0.007381930481642485,0.008890727534890175,-0.0005391625454649329,0.0,0.0,0.0,0.0,0.0025113241281360388,-0.003270849585533142,0.00032244002795778215,0.9992190599441528,0.0,0.0,0.0,-6.263166904449463,6.108199596405029,-0.6108272075653076,1133.6456298828125,0
1324.8769999999986,-0.007348564453423023,0.008861846290528774,-0.0005463450797833502,0.0,0.0,0.0,0.0,0.0004953413153998554,0.0036999830044806004,0.002776304492726922,0.9977047443389893,0.0,0.0,0.0,-6.257778644561768,6.099736213684082,-0.6034079194068909,1132.67041015625,0
1334.777,-0.00731304008513689,0.008832519873976707,-0.0005548708722926676,0.0,0.0,0.0,0.0,-0.0004071473958902061,-0.0014180385041981936,0.0023266945499926805,0.99751216173172,0.0,0.0,0.0,-6.250627517700195,6.0980939865112305,-0.6072047352790833,1131.3759765625,0
1344.6509999999998,-0.007275647483766079,0.008803539909422398,-0.0005653909174725413,0.0,0.0,0.0,0.0,-0.00014429922157432884,0.0016188842710107565,0.0005054770153947175,0.9986904859542847,0.0,0.0,0.0,-6.243810176849365,6.091222286224365,-0.5997377038002014,1130.14208984375,0
1354.5499999999993,-0.007643621880561113,0.008913107216358185,-0.00037416780833154917,0.0,0.0,0.0,0.0,-0.0037592242006212473,-0.0037957956083118916,0.0027397917583584785,0.9997499585151672,0.0,0.0,0.0,-6.27667760848999,6.083827495574951,-0.6504946351051331,1136.091064453125,0
1364.4259999999995,-0.008691934868693352,0.010104147717356682,-0.00043611807632260025,0.0,0.0,0.0,0.0,0.002629501512274146,0.0004632909840438515,-0.0020015225745737553,0.9996194839477539,0.0,0.0,0.0,-6.324337959289551,6.244414329528809,-0.7243381142616272,1144.7178955078125,0
1374.3269999999993,-0.008775421418249607,0.009931662119925022,-0.00040624712710268795,0.0,0.0,0.0,0.0,0.0005633998080156744,0.0011592789087444544,0.0012673960300162435,1.000051736831665,0.0,0.0,0.0,-6.348357200622559,6.198484420776367,-0.7415420413017273,1149.065185546875,0
1384.199999999999,-0.008772016502916813,0.009933458641171455,-0.00038938786019571126,0.0,0.0,0.0,0.0,-0.00021923631720710546,0.0035259381402283907,-0.0011231177486479282,0.9982431530952454,0.0,0.0,0.0,-6.341409206390381,6.1904497146606445,-0.7428210973739624,1147.8076171875,0
1394.0949999999993,-0.008821846917271614,0.00977349653840065,-0.00041895866161212325,0.0,0.0,0.0,0.0,0.0015209679258987308,0.001889644656330347,-0.0015913370298221707,0.9994301795959473,0.0,0.0,0.0,-6.359641075134277,6.151074409484863,-0.7640389204025269,1151.107666015625,0
1403.9749999999985,-0.008820433169603348,0.009767846204340458,-0.00040551606798544526,0.0,0.0,0.0,0.0,0.0005488905590027571,0.001987928058952093,-0.0016602907562628388,0.9989147782325745,0.0,0.0,0.0,-6.353785514831543,6.142843723297119,-0.7679886221885681,1150.0477294921875,0
1413.8709999999992,-0.008818784728646278,0.009761938825249672,-0.0003926203353330493,0.0,0.0,0.0,0.0,-0.0003069631929975003,-0.0013349844375625253,0.0024348641745746136,1.0011491775512695,0.0,0.0,0.0,-6.3476033210754395,6.137177467346191,-0.7705166935920715,1148.9288330078125,0
1423.7489999999998,-0.00881662592291832,0.00975684355944395,-0.00037962751230224967,0.0,0.0,0.0,0.0,0.0022635196801275015,0.003134678350761533,-0.0007070821593515575,0.9987629652023315,0.0,0.0,0.0,-6.341283321380615,6.130988597869873,-0.7663514614105225,1147.784912109375,0
1433.6479999999992,-0.008841712027788162,0.009631136432290077,-0.0004369664820842445,0.0,0.0,0.0,0.0,-0.001063647330738604,0.004308327566832304,-0.00043342611752450466,1.000072717666626,0.0,0.0,0.0,-6.35957670211792,6.085873603820801,-0.7791458964347839,1151.095947265625,0
1443.5239999999994,-0.00884245801717043,0.00962297897785902,-0.00042807351564988494,0.0,0.0,0.0,0.0,0.0016179779777303338,0.004293393809348345,-0.0007522698142565787,0.9994218349456787,0.0,0.0,0.0,-6.353459358215332,6.080863952636719,-0.7943031191825867,1149.98876953125,0
1453.4189999999999,-0.008839565329253674,0.009589502587914467,-0.0004695258685387671,0.0,0.0,0.0,0.0,0.0008300517802126706,0.005990670993924141,0.0011908735614269972,0.9987093210220337,0.0,0.0,0.0,-6.374287128448486,6.062357425689697,-0.8089566230773926,1153.758544921875,0
1463.2979999999989,-0.008840244263410568,0.009578024968504906,-0.00046484515769407153,0.0,0.0,0.0,0.0,-0.002058747923001647,0.0010327204363420606,-0.001088443212211132,0.9993126392364502,0.0,0.0,0.0,-6.367442607879639,6.050721645355225,-0.8220541477203369,1152.519775390625,0
1473.1929999999993,-0.008840203285217285,0.009564763866364956,-0.00046089227544143796,0.0,0.0,0.0,0.0,0.000300316431093961,-0.0001396236038999632,0.001561346580274403,1.0006535053253174,0.0,0.0,0.0,-6.361874103546143,6.051895618438721,-0.820016086101532,1151.5118408203125,0
1483.0720000000001,-0.008840018883347511,0.009549861773848534,-0.0004569476004689932,0.0,0.0,0.0,0.0,0.001221202895976603,-0.002057968406006694,0.0011403604876250029,0.9980475306510925,0.0,0.0,0.0,-6.355996131896973,6.047827243804932,-0.816321611404419,1150.4478759765625,0
1492.9699999999993,-0.008799984119832516,0.009526494890451431,-0.0005716324667446315,0.0,0.0,0.0,0.0,0.0030903092119842768,0.001247465261258185,-0.0009162569185718894,0.9985241293907166,0.0,0.0,0.0,-6.368884563446045,6.039958953857422,-0.8000046014785767,1152.7806396484375,0
1502.8469999999998,-0.008796148002147675,0.009509602561593056,-0.0005777202895842493,0.0,0.0,0.0,0.0,0.0017605707980692387,0.0014229717198759317,4.641546547645703e-05,1.000563383102417,0.0,0.0,0.0,-6.3629326820373535,6.0240092277526855,-0.807148814201355,1151.7034912109375,0
1512.7419999999984,-0.0087958425283432,0.00948257651180029,-0.0005894267815165222,0.0,0.0,0.0,0.0,0.0008127401815727353,-0.0009341559489257634,0.0017018697690218687,1.0025279521942139,0.0,0.0,0.0,-6.381748676300049,6.005055904388428,-0.8120467662811279,1155.109375,0
1522.6229999999996,-0.008790603838860989,0.009463042952120304,-0.0005945087177678943,0.0,0.0,0.0,0.0,-0.0012998523889109492,0.003950674552470446,-0.0014633198734372854,1.0010735988616943,0.0,0.0,0.0,-6.3750410079956055,5.993758678436279,-0.8109182119369507,1153.89501953125,0
1532.518,-0.008783903904259205,0.009442465379834175,-0.0005976862739771605,0.0,0.0,0.0,0.0,0.0015712087042629719,-0.004417800344526768,0.0023204467725008726,0.9987894892692566,0.0,0.0,0.0,-6.369014263153076,5.991051197052002,-0.8207547664642334,1152.8043212890625,0
1542.396999999999,-0.008776349946856499,0.00942075066268444,-0.0006006431067362428,0.0,0.0,0.0,0.0,0.0007956513436511159,-0.005438114982098341,0.0030659378971904516,0.9983293414115906,0.0,0.0,0.0,-6.362212657928467,5.981851577758789,-0.8146173357963562,1151.5731201171875,0
1552.2969999999987,-0.008742108009755611,0.009403818286955357,-0.0006595937884412706,0.0,0.0,0.0,0.0,0.000733779335860163,0.0017690943786874413,0.0013856749283149838,0.9988136887550354,0.0,0.0,0.0,-6.380372047424316,5.97770357131958,-0.7882395386695862,1154.860107421875,0
1562.1709999999985,-0.008733038790524006,0.009377756156027317,-0.0006684327963739634,0.0,0.0,0.0,0.0,-0.003689560806378722,0.0034801869187504053,-0.0030448823235929012,0.9980756044387817,0.0,0.0,0.0,-6.37440824508667,5.9717535972595215,-0.783542811870575,1153.780517578125,0
1572.0649999999987,-0.008728252723813057,0.009384023025631905,-0.0006457159761339426,0.0,0.0,0.0,0.0,-0.0003219027421437204,-0.0052307359874248505,-0.0034750555641949177,0.9997525811195374,0.0,0.0,0.0,-6.392819404602051,5.9830098152160645,-0.7946504950523376,1157.1131591796875,0
1581.9449999999997,-0.008718558587133884,0.009356995113193989,-0.000654600968118757,0.0,0.0,0.0,0.0,0.002349572256207466,-0.0010621293913573027,-0.00152869476005435,0.9971377849578857,0.0,0.0,0.0,-6.387609004974365,5.9793171882629395,-0.7893950939178467,1156.1700439453125,0
1591.839,-0.008716012351214886,0.009359792806208134,-0.0006378114921972156,0.0,0.0,0.0,0.0,-0.0008616994600743055,0.004314339254051447,0.0024224529042840004,0.9980660080909729,0.0,0.0,0.0,-6.401255130767822,5.981492042541504,-0.79385906457901,1158.6400146484375,0
1601.7219999999998,-0.008706309832632542,0.009333054535090923,-0.0006482544704340398,0.0,0.0,0.0,0.0,-0.0037068708334118128,-0.005296426825225353,-0.002845033537596464,0.9995018839836121,0.0,0.0,0.0,-6.3945159912109375,5.9796271324157715,-0.8026185035705566,1157.4200439453125,0
1611.6169999999984,-0.008694259449839592,0.009304591454565525,-0.0006596610182896256,0.0,0.0,0.0,0.0,0.0031209830194711685,0.0016062979120761156,-0.0014091950142756104,1.000163197517395,0.0,0.0,0.0,-6.388493061065674,5.977939128875732,-0.794457733631134,1156.3299560546875,0
1621.4939999999988,-0.008680763654410839,0.00927452277392149,-0.0006709113367833197,0.0,0.0,0.0,0.0,0.0017690496752038598,0.0021642979700118303,-0.0009305687271989882,1.0009492635726929,0.0,0.0,0.0,-6.38208532333374,5.966554641723633,-0.793613612651825,1155.170166015625,0
1631.3889999999992,-0.00868637952953577,0.009251329116523266,-0.0006547339726239443,0.0,0.0,0.0,0.0,0.004497182089835405,0.00015990414249245077,-0.002763015916571021,0.9989866614341736,0.0,0.0,0.0,-6.385786533355713,5.957952976226807,-0.8060876131057739,1155.840087890625,0
1641.268,-0.008672735653817654,0.009219392202794552,-0.0006632225122302771,0.0,0.0,0.0,0.0,-0.0004462157376110554,0.00309569388628006,0.001254416536539793,0.9997135400772095,0.0,0.0,0.0,-6.379660606384277,5.943410873413086,-0.8024600744247437,1154.7313232421875,0
1651.1619999999984,-0.008622701279819012,0.009237566031515598,-0.0006886777700856328,0.0,0.0,0.0,0.0,-0.0029852341394871473,-0.0017520395340397954,0.00020672113168984652,0.999739944934845,0.0,0.0,0.0,-6.392979145050049,5.955724716186523,-0.7899726629257202,1157.14208984375,0
1661.0409999999993,-0.0086060194298625,0.009206751361489296,-0.0006992840208113194,0.0,0.0,0.0,0.0,-0.0009123001946136355,-0.0037590637803077698,-0.0016669066390022635,0.9992548823356628,0.0,0.0,0.0,-6.386545181274414,5.955095291137695,-0.7840780019760132,1155.9774169921875,0
1670.9359999999997,-0.008564796298742294,0.00923125445842743,-0.0007055754540488124,0.0,0.0,0.0,0.0,0.0003877625858876854,-0.002677965210750699,0.002042151754721999,0.9996662735939026,0.0,0.0,0.0,-6.3910722732543945,5.972804069519043,-0.7682493925094604,1156.7967529296875,0
1680.815999999999,-0.008548160083591938,0.009201548993587494,-0.0007173313642852008,0.0,0.0,0.0,0.0,-0.0009115250431932509,-0.0005031295004300773,-0.003554488066583872,0.9995287656784058,0.0,0.0,0.0,-6.3842034339904785,5.966913223266602,-0.7534784078598022,1155.553466796875,0
1690.7199999999993,-0.008529985323548317,0.009217082522809505,-0.0007109016878530383,0.0,0.0,0.0,0.0,-0.0014258967712521553,-0.0032435376197099686,-0.0018370520556345582,1.0010607242584229,0.0,0.0,0.0,-6.390916347503662,5.974546909332275,-0.7423188090324402,1156.7685546875,0
1700.5949999999993,-0.008514626882970333,0.00918707624077797,-0.0007218011887744069,0.0,0.0,0.0,0.0,-0.0013789715012535453,0.00010390233364887536,0.0026629299391061068,1.0013368129730225,0.0,0.0,0.0,-6.384374141693115,5.9674458503723145,-0.7298073768615723,1155.58447265625,0
1710.4929999999986,-0.008458355441689491,0.009231407195329666,-0.000733319204300642,0.0,0.0,0.0,0.0,0.0009196372120641172,-0.0026261964812874794,0.001566405757330358,0.9996175765991211,0.0,0.0,0.0,-6.382882595062256,5.991748809814453,-0.7154242992401123,1155.314453125,0
1720.3709999999992,-0.008441979065537453,0.009203068912029266,-0.0007438251632265747,0.0,0.0,0.0,0.0,0.001067880424670875,0.0013516726903617382,-0.0009524118504486978,1.0001814365386963,0.0,0.0,0.0,-6.376715660095215,5.988430976867676,-0.7066325545310974,1154.1981201171875,0
1730.2609999999986,-0.008400237187743187,0.009236859157681465,-0.0007520202780142426,0.0,0.0,0.0,0.0,-0.0003192427975591272,-0.00019151672313455492,0.0008802991942502558,0.9995662569999695,0.0,0.0,0.0,-6.381462097167969,6.003950119018555,-0.6949871182441711,1155.0574951171875,0
1740.1399999999994,-0.008381745778024197,0.009210941381752491,-0.0007629493484273553,0.0,0.0,0.0,0.0,-0.0003956064465455711,0.0029450186993926764,0.0020069717429578304,1.0007041692733765,0.0,0.0,0.0,-6.3752312660217285,5.998992443084717,-0.6837037801742554,1153.929443359375,0
1750.0379999999986,-0.008347693830728531,0.009238689206540585,-0.0007681015413254499,0.0,0.0,0.0,0.0,-0.00012168960529379547,-0.001937708118930459,-0.000292495678877458,0.9994900226593018,0.0,0.0,0.0,-6.37879753112793,6.01214599609375,-0.6764624118804932,1154.5751953125,0
1759.9139999999989,-0.008326736278831959,0.009212035685777664,-0.0007784849731251597,0.0,0.0,0.0,0.0,0.0022685665171593428,0.0024608203675597906,0.0024309970904141665,0.9987562894821167,0.0,0.0,0.0,-6.372946262359619,6.006972312927246,-0.6696304678916931,1153.515869140625,0
1769.816999999999,-0.008306803181767464,0.009183083660900593,-0.0007895850576460361,0.0,0.0,0.0,0.0,-0.0007131256279535592,0.004292551893740892,-0.0010410761460661888,0.9997612237930298,0.0,0.0,0.0,-6.366876602172852,5.996842861175537,-0.6751441955566406,1152.4173583984375,0
1779.688,-0.008287333883345127,0.009153066202998161,-0.0008013639599084854,0.0,0.0,0.0,0.0,-0.002155018039047718,-0.0030627413652837276,0.0019256368977949023,1.0000759363174438,0.0,0.0,0.0,-6.36125373840332,5.992542743682861,-0.6880244016647339,1151.3995361328125,0
1789.5819999999985,-0.008340475149452686,0.009177629835903645,-0.0007620107498951256,0.0,0.0,0.0,0.0,-0.0008649741648696363,0.003579525975510478,-0.0013975463807582855,1.0006107091903687,0.0,0.0,0.0,-6.368166446685791,5.997215270996094,-0.6949902772903442,1152.6507568359375,0
1799.4669999999987,-0.008321537636220455,0.009151256643235683,-0.0007682485156692564,0.0,0.0,0.0,0.0,-0.0015917103737592697,-0.0006487799109891057,0.0008490688633173704,1.0012425184249878,0.0,0.0,0.0,-6.362236976623535,5.988986492156982,-0.7079932689666748,1151.57763671875,0
1809.3589999999986,-0.008369607850909233,0.009173832833766937,-0.0007369561935774982,0.0,0.0,0.0,0.0,-0.0024859022814780474,-0.0003026381600648165,0.001008249819278717,1.0005148649215698,0.0,0.0,0.0,-6.375689506530762,5.993118762969971,-0.7336868643760681,1154.012451171875,0
1819.235999999999,-0.008353031240403652,0.00914726685732603,-0.0007371613173745573,0.0,0.0,0.0,0.0,0.0016449888935312629,0.0005591964581981301,0.002437958959490061,1.0001615285873413,0.0,0.0,0.0,-6.368769645690918,5.99583101272583,-0.7417460680007935,1152.760009765625,0
1829.146999999999,-0.008430756628513336,0.00919197779148817,-0.0006786579615436494,0.0,0.0,0.0,0.0,-0.0009451739606447518,-0.005061737261712551,0.00103488948661834,1.0017030239105225,0.0,0.0,0.0,-6.371748447418213,5.994818687438965,-0.7558963894844055,1153.299072265625,0
1839.012999999999,-0.008414884097874165,0.00916455127298832,-0.0006712190806865692,0.0,0.0,0.0,0.0,0.0004008615214843303,0.001146996859461069,-0.004133338108658791,1.0007166862487793,0.0,0.0,0.0,-6.365346431732178,5.991067886352539,-0.7348788380622864,1152.140380859375,0
1848.905999999999,-0.008485863916575909,0.00916508212685585,-0.0006348493043333292,0.0,0.0,0.0,0.0,0.00018868040933739394,-0.0019718664698302746,0.00361606664955616,1.000179648399353,0.0,0.0,0.0,-6.377649307250977,5.986344337463379,-0.7510706186294556,1154.3670654296875,0
1858.789999999999,-0.008472162298858166,0.009134002961218357,-0.0006213696906343102,0.0,0.0,0.0,0.0,0.0010256922105327249,-0.004782309755682945,-0.002374785952270031,0.9996874928474426,0.0,0.0,0.0,-6.370276927947998,5.9810967445373535,-0.7486318349838257,1153.0328369140625,0
1868.6799999999985,-0.008458231575787067,0.009101689793169498,-0.0006078272126615047,0.0,0.0,0.0,0.0,0.0009717218345031142,0.00457121804356575,-1.5505303963436745e-05,1.0001065731048584,0.0,0.0,0.0,-6.364128112792969,5.976492881774902,-0.738995373249054,1151.919921875,0
1878.563,-0.00844493880867958,0.009068417362868786,-0.0005943967262282968,0.0,0.0,0.0,0.0,-0.0023402797523885965,-0.003134485799819231,-0.000280585081782192,0.9996809959411621,0.0,0.0,0.0,-6.357166290283203,5.966859340667725,-0.7427027225494385,1150.65966796875,0
1888.4579999999987,-0.008405669592320919,0.00911275576800108,-0.0005764373345300555,0.0,0.0,0.0,0.0,-0.002052262192592025,0.0015484123723581433,-0.00257445708848536,1.0011736154556274,0.0,0.0,0.0,-6.364207744598389,5.990078926086426,-0.7281108498573303,1151.934326171875,0
1898.3439999999991,-0.008393333293497562,0.009082961827516556,-0.0005630625528283417,0.0,0.0,0.0,0.0,-0.0036011883057653904,-0.001669336692430079,-0.0014890070306137204,1.0028340816497803,0.0,0.0,0.0,-6.358198642730713,5.986056804656982,-0.7303785681724548,1150.8465576171875,0
1908.2299999999996,-0.00842567253857851,0.009138482622802258,-0.0005211593816056848,0.0,0.0,0.0,0.0,5.443586269393563e-05,-0.00434064818546176,0.0012338185915723443,1.0032068490982056,0.0,0.0,0.0,-6.351751804351807,5.986416816711426,-0.7248908877372742,1149.6796875,0
1918.1139999999996,-0.008416138589382172,0.009113030508160591,-0.0005000820383429527,0.0,0.0,0.0,0.0,-0.0002373814641032368,-0.0016103099333122373,0.0035189706832170486,0.9984191060066223,0.0,0.0,0.0,-6.344791412353516,5.984058856964111,-0.7137909531593323,1148.4197998046875,0
1928.0119999999988,-0.00845854077488184,0.009157358668744564,-0.000465168384835124,0.0,0.0,0.0,0.0,0.0027782886754721403,-0.0014149989001452923,0.0008179697906598449,0.9983694553375244,0.0,0.0,0.0,-6.360079765319824,5.99604606628418,-0.7052310109138489,1151.1871337890625,0
1937.8819999999996,-0.008448712527751923,0.009132619947195053,-0.00044201803393661976,0.0,0.0,0.0,0.0,0.003249706234782934,-0.0003299323143437505,0.0031945183873176575,1.0006296634674072,0.0,0.0,0.0,-6.353122234344482,5.987739086151123,-0.7011532783508301,1149.9278564453125,0
1947.7839999999997,-0.008403686806559563,0.009134850464761257,-0.0004376550205051899,0.0,0.0,0.0,0.0,0.0006931359530426562,-0.001674866653047502,0.004579296801239252,1.0013824701309204,0.0,0.0,0.0,-6.370396614074707,5.9892964363098145,-0.6978274583816528,1153.054443359375,0
1957.6569999999992,-0.008389659225940704,0.00910679530352354,-0.00041605025762692094,0.0,0.0,0.0,0.0,-0.005512253846973181,0.00029970688046887517,-0.0026760362088680267,1.0000007152557373,0.0,0.0,0.0,-6.363194465637207,5.978426933288574,-0.6885169744491577,1151.7508544921875,0
1967.554,-0.008337323553860188,0.009116139262914658,-0.00040012740646488965,0.0,0.0,0.0,0.0,0.002229343866929412,0.0023140492849051952,0.0003355755761731416,0.9997876286506653,0.0,0.0,0.0,-6.369603633880615,5.997747898101807,-0.6733000874519348,1152.910888671875,0
1977.4309999999987,-0.008321262896060944,0.009088629856705666,-0.00037874726695008576,0.0,0.0,0.0,0.0,-0.00047535321209579706,-0.005392904859036207,0.004387533757835627,0.9991212487220764,0.0,0.0,0.0,-6.363090991973877,5.984792232513428,-0.6776223182678223,1151.732177734375,0
1987.3289999999997,-0.008137366734445095,0.009094907902181149,-0.0003783206921070814,0.0,0.0,0.0,0.0,0.001618512556888163,0.0065836538560688496,0.0010716024553403258,1.0003517866134644,0.0,0.0,0.0,-6.366600513458252,6.009340763092041,-0.6371960043907166,1152.3673095703125,0
1997.2060000000001,-0.008116894401609898,0.00907167885452509,-0.00036370434099808335,0.0,0.0,0.0,0.0,-0.00208772299811244,0.0037539510522037745,0.0024368115700781345,1.0010111331939697,0.0,0.0,0.0,-6.360348224639893,6.00068998336792,-0.6539307832717896,1151.2357177734375,0
2007.1049999999996,-0.007978934794664383,0.009065257385373116,-0.0003696788917295635,0.0,0.0,0.0,0.0,5.768808932771208e-06,0.0002311093412572518,-0.0012905086623504758,0.998725175857544,0.0,0.0,0.0,-6.364336013793945,6.020886421203613,-0.6398937702178955,1151.95751953125,0
2016.9799999999996,-0.007953856140375137,0.009041473269462585,-0.0003594377194531262,0.0,0.0,0.0,0.0,0.0009288670844398439,0.001055629109032452,-0.0011330192210152745,0.998647928237915,0.0,0.0,0.0,-6.3588714599609375,6.010560989379883,-0.6454669237136841,1150.96826171875,0
2026.875,-0.0079262163490057,0.009065583348274231,-0.0003642893861979246,0.0,0.0,0.0,0.0,0.0010942135704681277,-0.003508536843582988,0.0013038234319537878,1.0009537935256958,0.0,0.0,0.0,-6.364403247833252,6.013307571411133,-0.6481382250785828,1151.9696044921875,0
2036.7549999999992,-0.00789988599717617,0.00904187373816967,-0.00035587744787335396,0.0,0.0,0.0,0.0,-0.0008031665347516537,0.0011484333081170917,-0.0005684337229467928,1.000124454498291,0.0,0.0,0.0,-6.357590198516846,6.00405216217041,-0.6431640386581421,1150.7364501953125,0
2046.6509999999998,-0.00787932239472866,0.009065613150596619,-0.0003585982776712626,0.0,0.0,0.0,0.0,-0.0012682604137808084,-0.00200790842063725,0.0012933107791468501,0.9986273050308228,0.0,0.0,0.0,-6.3629150390625,6.012031555175781,-0.6486584544181824,1151.7001953125,0
2056.529999999999,-0.007853067480027676,0.009042463265359402,-0.00034986596438102424,0.0,0.0,0.0,0.0,0.0028175206389278173,-0.008345902897417545,-0.005155672784894705,0.9987054467201233,0.0,0.0,0.0,-6.356609344482422,6.01066255569458,-0.646940290927887,1150.558837890625,0
2066.4259999999995,-0.007827967405319214,0.009018647484481335,-0.00034201177186332643,0.0,0.0,0.0,0.0,-0.0014032069593667984,0.00381268747150898,4.1790852264966816e-05,1.0016820430755615,0.0,0.0,0.0,-6.350982189178467,6.002030849456787,-0.622911810874939,1149.5404052734375,0
2076.3049999999985,-0.007803453132510185,0.008993159048259258,-0.0003338600799906999,0.0,0.0,0.0,0.0,-0.0025068616960197687,0.002117682946845889,0.00017516182560939342,0.9996145963668823,0.0,0.0,0.0,-6.344681262969971,5.997779369354248,-0.6321661472320557,1148.4000244140625,0
2086.199999999999,-0.008018216118216515,0.009015344083309174,-0.000351373921148479,0.0,0.0,0.0,0.0,0.0010931332362815738,-0.001652460196055472,0.00023472070461139083,1.000900387763977,0.0,0.0,0.0,-6.358640670776367,5.985455513000488,-0.6657382249832153,1150.926513671875,0
2096.0779999999995,-0.00800049677491188,0.00898189190775156,-0.0003359392285346985,0.0,0.0,0.0,0.0,-0.001967472955584526,-0.006379163824021816,0.0014431726885959506,0.9986720085144043,0.0,0.0,0.0,-6.3519086837768555,5.978442668914795,-0.6600939035415649,1149.7080078125,0
2105.9849999999988,-0.00814304780215025,0.009011175483465195,-0.0003432587836869061,0.0,0.0,0.0,0.0,-0.001261176890693605,-0.0004483585653360933,0.00035246985498815775,0.9998065829277039,0.0,0.0,0.0,-6.359096527099609,5.974953651428223,-0.6751261949539185,1151.009033203125,0
2115.860999999999,-0.008127883076667786,0.008975389413535595,-0.0003242099774070084,0.0,0.0,0.0,0.0,0.0004621584957931191,0.0022031099069863558,0.0008437875658273697,1.0018113851547241,0.0,0.0,0.0,-6.352563858032227,5.968384265899658,-0.6768174767494202,1149.82666015625,0
2125.75,-0.008121959865093231,0.008995557203888893,-0.0003214574244339019,0.0,0.0,0.0,0.0,0.00016928550030570477,0.0020996653474867344,1.547735882923007e-05,1.000707745552063,0.0,0.0,0.0,-6.364683628082275,5.9745073318481445,-0.6791225671768188,1152.0203857421875,0
2135.6269999999986,-0.008106531575322151,0.008961194194853306,-0.00030066780163906515,0.0,0.0,0.0,0.0,-0.0012184522347524762,-0.0038522030226886272,-0.002111507812514901,0.9993054270744324,0.0,0.0,0.0,-6.358032703399658,5.965198993682861,-0.6831800937652588,1150.8165283203125,0
