timestamp,stateEstimate.x,stateEstimate.y,stateEstimate.z,controller.cmd_thrust,controller.cmd_roll,controller.cmd_pitch,controller.cmd_yaw,controller.r_roll,controller.r_pitch,controller.r_yaw,controller.accelz,controller.actuatorThrust,controller.roll,controller.pitch,controller.yaw,controller.rollRate,controller.pitchRate,controller.yawRate,controller.ctr_yaw
0.0,0.012380520813167095,-0.02546805888414383,0.0016449869144707918,0.0,0.0,0.0,0.0,0.0024089973885565996,0.0019098917255178094,0.0005449679447337985,1.0008540153503418,0.0,0.0,0.0,-34.832706451416016,7.659023761749268,-2.2990667819976807,6304.7890625,0
9.897000000000844,0.012404580600559711,-0.02560402639210224,0.0015457251574844122,0.0,0.0,0.0,0.0,0.0010175856295973063,0.004231718368828297,0.0009775233920663595,0.9974144101142883,0.0,0.0,0.0,-34.81196212768555,7.631056308746338,-2.286668539047241,6301.03466796875,0
19.78100000000086,0.01243909727782011,-0.025470275431871414,0.0016467232489958405,0.0,0.0,0.0,0.0,0.0018660544883459806,-0.002040681429207325,0.00018128434021491557,0.9985482096672058,0.0,0.0,0.0,-34.83522033691406,7.652482032775879,-2.3087239265441895,6305.244140625,0
29.675999999999476,0.012464037165045738,-0.0256025530397892,0.0015489455545321107,0.0,0.0,0.0,0.0,-0.002928250702098012,0.001085377298295498,-0.0016733761876821518,0.9974123239517212,0.0,0.0,0.0,-34.81387710571289,7.623612403869629,-2.297628879547119,6301.38134765625,0
39.550999999999476,0.01246699783951044,-0.025463217869400978,0.0016370447119697928,0.0,0.0,0.0,0.0,-0.00041006130049936473,-0.0058943103067576885,0.00032418823684565723,0.999574601650238,0.0,0.0,0.0,-34.83683776855469,7.648899555206299,-2.327659845352173,6305.537109375,0
49.4380000000001,0.012486987747251987,-0.0255860835313797,0.001555725117214024,0.0,0.0,0.0,0.0,-0.0009339507669210434,-0.003720995504409075,0.0010309801436960697,0.9993748664855957,0.0,0.0,0.0,-34.81324005126953,7.630219459533691,-2.2983691692352295,6301.265625,0
59.335000000000946,0.012491513043642044,-0.025450166314840317,0.001644408330321312,0.0,0.0,0.0,0.0,0.0007397047011181712,0.0025586008559912443,0.0004604319401551038,0.9992563128471375,0.0,0.0,0.0,-34.83806228637695,7.6485090255737305,-2.306985855102539,6305.7587890625,0
69.22199999999975,0.012487717904150486,-0.025609970092773438,0.001571871805936098,0.0,0.0,0.0,0.0,0.0011916334042325616,-0.0061567542143166065,6.591705459868535e-05,1.0007351636886597,0.0,0.0,0.0,-34.816551208496094,7.624200344085693,-2.2959542274475098,6301.86572265625,0
79.11100000000079,0.012464134953916073,-0.025464128702878952,0.0016569674480706453,0.0,0.0,0.0,0.0,0.001212982926517725,0.003339143469929695,0.00016681518172845244,0.9986106157302856,0.0,0.0,0.0,-34.83908462524414,7.644461154937744,-2.3111653327941895,6305.94384765625,0
88.98300000000017,0.012481557205319405,-0.02560386061668396,0.0015651935245841742,0.0,0.0,0.0,0.0,-0.0022570493165403605,0.003662864677608013,-0.001552399480715394,1.0006405115127563,0.0,0.0,0.0,-34.81671905517578,7.619012832641602,-2.295842170715332,6301.89599609375,0
98.8819999999996,0.01247235294431448,-0.02546624280512333,0.0016540380893275142,0.0,0.0,0.0,0.0,-0.0010394889395684004,0.0006799287511967123,-0.002691333880648017,0.9984458088874817,0.0,0.0,0.0,-34.84116744995117,7.639585971832275,-2.3214526176452637,6306.3203125,0
108.75600000000122,0.012495570816099644,-0.025488469749689102,0.0016476726159453392,0.0,0.0,0.0,0.0,-0.002156951930373907,-0.004870216827839613,-0.0007969674188643694,0.999564528465271,0.0,0.0,0.0,-34.80734634399414,7.635391712188721,-2.3168063163757324,6300.19921875,0
118.65400000000045,0.01243479736149311,-0.025393212214112282,0.0016899823676794767,0.0,0.0,0.0,0.0,0.0008487938903272152,0.0011247060028836131,0.0018651674035936594,0.9989967346191406,0.0,0.0,0.0,-34.833152770996094,7.6525702476501465,-2.3320839405059814,6304.87060546875,0
128.53100000000086,0.012448062188923359,-0.025532105937600136,0.001584548968821764,0.0,0.0,0.0,0.0,-0.001294709974899888,0.002396531403064728,0.0018863262375816703,0.9979820847511292,0.0,0.0,0.0,-34.81217575073242,7.623313903808594,-2.3044724464416504,6301.07373046875,0
138.42599999999948,0.012471148744225502,-0.025414150208234787,0.0016762770246714354,0.0,0.0,0.0,0.0,0.0021497050765901804,-0.00020395865431055427,0.0003508799127303064,0.9995288848876953,0.0,0.0,0.0,-34.841094970703125,7.649167537689209,-2.32431960105896,6306.3076171875,0
148.3150000000005,0.012479267083108425,-0.02557036280632019,0.0015812675701454282,0.0,0.0,0.0,0.0,0.004291261546313763,0.001910827006213367,0.0010819698218256235,0.9991779923439026,0.0,0.0,0.0,-34.81868362426758,7.61848783493042,-2.302898645401001,6302.25146484375,0
158.20800000000054,0.012404056265950203,-0.0254509337246418,0.0016305200988426805,0.0,0.0,0.0,0.0,-0.002248570788651705,0.001764512388035655,0.0013484656810760498,0.997862696647644,0.0,0.0,0.0,-34.841495513916016,7.624218940734863,-2.335411310195923,6306.3798828125,0
168.0699999999997,0.012422396801412106,-0.025582386180758476,0.0015342464903369546,0.0,0.0,0.0,0.0,-0.0012478397693485022,-0.005863756872713566,-0.0024974860716611147,0.9987219572067261,0.0,0.0,0.0,-34.81731414794922,7.60516881942749,-2.3098738193511963,6302.00341796875,0
177.97299999999996,0.012385690584778786,-0.025471707805991173,0.0015933229587972164,0.0,0.0,0.0,0.0,-0.0021882362198084593,-0.001826946041546762,0.0002813375322148204,1.0006178617477417,0.0,0.0,0.0,-34.84109115600586,7.618832588195801,-2.311216354370117,6306.306640625,0
187.84799999999996,0.012383263558149338,-0.025650715455412865,0.0014906562864780426,0.0,0.0,0.0,0.0,0.00011836804333142936,-0.003013851121068001,0.0006273537292145193,1.000832200050354,0.0,0.0,0.0,-34.820213317871094,7.5922980308532715,-2.2867355346679688,6302.52783203125,0
197.74099999999999,0.01241703238338232,-0.025513727217912674,0.001599972601979971,0.0,0.0,0.0,0.0,-0.00011188882490387186,0.002130119362846017,0.0028867400251328945,0.9998548626899719,0.0,0.0,0.0,-34.842620849609375,7.615298271179199,-2.2915689945220947,6306.583984375,0
207.6180000000004,0.01242420356720686,-0.025663668289780617,0.0015182348433881998,0.0,0.0,0.0,0.0,0.0011428098659962416,-0.00015872198855504394,-0.0002022206608671695,0.999080240726471,0.0,0.0,0.0,-34.82166290283203,7.595731258392334,-2.281377077102661,6302.79052734375,0
217.51500000000124,0.012433737516403198,-0.02552053891122341,0.0016263042343780398,0.0,0.0,0.0,0.0,-0.000334927870426327,-0.0028612110763788223,0.0012550980318337679,0.9990885853767395,0.0,0.0,0.0,-34.84659957885742,7.616840362548828,-2.288843870162964,6307.3037109375,0
227.39199999999983,0.012462771497666836,-0.02564847841858864,0.0015280432999134064,0.0,0.0,0.0,0.0,-0.004483839031308889,-0.005032550077885389,-0.0006485235062427819,0.9972423911094666,0.0,0.0,0.0,-34.82718276977539,7.601483345031738,-2.254129648208618,6303.7890625,0
237.28100000000086,0.012398570775985718,-0.0255113635212183,0.001598340691998601,0.0,0.0,0.0,0.0,-0.0011586920591071248,0.002804818097501993,0.00024845238658599555,0.9981907606124878,0.0,0.0,0.0,-34.851036071777344,7.62117338180542,-2.267496347427368,6308.107421875,0
247.16400000000067,0.012405147776007652,-0.02565832808613777,0.001517581520602107,0.0,0.0,0.0,0.0,0.00049102638149634,-0.0015469491481781006,0.0013009903486818075,0.9970474243164062,0.0,0.0,0.0,-34.829437255859375,7.600059986114502,-2.2543435096740723,6304.19775390625,0
257.0580000000009,0.012415088713169098,-0.025539353489875793,0.0016052161809056997,0.0,0.0,0.0,0.0,-0.0012575966538861394,0.0011060858378186822,-0.00010925778042292222,1.000893235206604,0.0,0.0,0.0,-34.83744812011719,7.612527370452881,-2.2636709213256836,6305.6474609375,0
266.9349999999995,0.012378218583762646,-0.02574223466217518,0.0015553988050669432,0.0,0.0,0.0,0.0,0.0004410814435686916,0.0019345520995557308,-0.0006509393570013344,1.0003334283828735,0.0,0.0,0.0,-34.817527770996094,7.582575798034668,-2.247746706008911,6302.04248046875,0
276.83699999999953,0.012404718436300755,-0.02560233511030674,0.001669996534474194,0.0,0.0,0.0,0.0,0.0018062955932691693,0.0066215042024850845,0.0022005466744303703,0.9982431530952454,0.0,0.0,0.0,-34.830726623535156,7.604852199554443,-2.259244918823242,6304.43115234375,0
286.70100000000093,0.012471227906644344,-0.025692569091916084,0.0015491533558815718,0.0,0.0,0.0,0.0,-0.00034031548420898616,0.004256023559719324,0.001652944483794272,0.998847484588623,0.0,0.0,0.0,-34.81246566772461,7.590640068054199,-2.2548727989196777,6301.1259765625,0
296.6040000000012,0.012444772757589817,-0.025530138984322548,0.0016513707814738154,0.0,0.0,0.0,0.0,-0.00034965938539244235,-0.0002023914858000353,-0.002138378331437707,0.9991115927696228,0.0,0.0,0.0,-34.836639404296875,7.6116509437561035,-2.2891592979431152,6305.5009765625,0
306.47999999999956,0.012462638318538666,-0.025678914040327072,0.001566119259223342,0.0,0.0,0.0,0.0,-0.001650413265451789,-0.0031015516724437475,0.005090365186333656,1.0001827478408813,0.0,0.0,0.0,-34.81871032714844,7.593756198883057,-2.273223638534546,6302.25537109375,0
316.3810000000012,0.012448777444660664,-0.02551352232694626,0.0016776197589933872,0.0,0.0,0.0,0.0,-0.0016247553285211325,-0.0014778105542063713,-0.003574471455067396,0.998650074005127,0.0,0.0,0.0,-34.843868255615234,7.616036891937256,-2.296098232269287,6306.8095703125,0
326.2479999999996,0.012441116385161877,-0.02566557563841343,0.0016296857502311468,0.0,0.0,0.0,0.0,0.002766546094790101,0.0009378016111440957,-0.0003584258956834674,0.9992486238479614,0.0,0.0,0.0,-34.82150650024414,7.5928053855896,-2.282916784286499,6302.76220703125,0
336.15400000000045,0.012453407049179077,-0.0255600418895483,0.001721823588013649,0.0,0.0,0.0,0.0,-0.002670565154403448,-0.00336256786249578,0.0011751106940209866,0.9994890093803406,0.0,0.0,0.0,-34.83620834350586,7.60552978515625,-2.297039031982422,6305.4228515625,0
346.02800000000025,0.012462637387216091,-0.0256968904286623,0.0016600738745182753,0.0,0.0,0.0,0.0,0.001960613764822483,0.0002436752984067425,0.0007659117109142244,0.997145414352417,0.0,0.0,0.0,-34.814903259277344,7.589941501617432,-2.286314010620117,6301.5673828125,0
355.9230000000007,0.012512470595538616,-0.025613322854042053,0.0017553523648530245,0.0,0.0,0.0,0.0,0.0019179352093487978,-0.0024877781979739666,-0.0005529902991838753,0.9989343285560608,0.0,0.0,0.0,-34.827308654785156,7.608187675476074,-2.2878847122192383,6303.8125,0
365.7950000000001,0.012563996016979218,-0.02572355791926384,0.001647651894018054,0.0,0.0,0.0,0.0,-0.003705431241542101,-0.0014770978596061468,-0.0012586915399879217,1.000433087348938,0.0,0.0,0.0,-34.80625915527344,7.59407901763916,-2.258594512939453,6300.00244140625,0
375.6949999999997,0.012523614801466465,-0.02555571310222149,0.001747754868119955,0.0,0.0,0.0,0.0,2.630176277307328e-05,-0.002819209825247526,9.7284784715157e-05,0.9989185929298401,0.0,0.0,0.0,-34.8177604675293,7.619955062866211,-2.280684471130371,6302.083984375,0
385.5720000000001,0.012538690119981766,-0.025710459798574448,0.0016581729287281632,0.0,0.0,0.0,0.0,-0.00011638795695034787,0.002736367518082261,0.00023790515842847526,1.0006664991378784,0.0,0.0,0.0,-34.79689025878906,7.594653606414795,-2.2566912174224854,6298.30615234375,0
395.47500000000036,0.012470463290810585,-0.0255572646856308,0.0017453751061111689,0.0,0.0,0.0,0.0,-0.00019342963059898466,0.002606367226690054,-0.00028726874734275043,0.9977858662605286,0.0,0.0,0.0,-34.8233642578125,7.612692356109619,-2.2938740253448486,6303.09814453125,0
405.33899999999994,0.012512575834989548,-0.025668013840913773,0.001631730585359037,0.0,0.0,0.0,0.0,0.0018550499808043242,0.00024132725957315415,0.0009697368368506432,0.9983488321304321,0.0,0.0,0.0,-34.804908752441406,7.601484298706055,-2.2785916328430176,6299.7578125,0
415.2340000000004,0.01254564430564642,-0.025577619671821594,0.0017229730729013681,0.0,0.0,0.0,0.0,0.0005428428412415087,0.006565751973539591,-0.001566028455272317,1.0002479553222656,0.0,0.0,0.0,-34.82052993774414,7.617053985595703,-2.2871015071868896,6302.58544921875,0
425.112000000001,0.012553628534078598,-0.025715263560414314,0.001642160932533443,0.0,0.0,0.0,0.0,0.0007079672068357468,0.0010375888086855412,0.00044301137677393854,0.9995214939117432,0.0,0.0,0.0,-34.80356216430664,7.597139358520508,-2.2850723266601562,6299.513671875,0
435.0120000000006,0.012396840378642082,-0.02554161101579666,0.0016985796391963959,0.0,0.0,0.0,0.0,0.00338325765915215,-0.0011672531254589558,-0.0013388402294367552,0.9974327683448792,0.0,0.0,0.0,-34.82985305786133,7.608564376831055,-2.3321797847747803,6304.27294921875,0
444.88900000000103,0.0124386390671134,-0.025647295638918877,0.0015736367786303163,0.0,0.0,0.0,0.0,0.0008438449585810304,0.005541760940104723,0.0032091119792312384,0.9985789060592651,0.0,0.0,0.0,-34.809539794921875,7.58815860748291,-2.317441463470459,6300.5966796875,0
454.78200000000106,0.012433933094143867,-0.02549949288368225,0.001677675056271255,0.0,0.0,0.0,0.0,0.001232100767083466,-0.0016891204286366701,0.002550017088651657,0.9989073276519775,0.0,0.0,0.0,-34.839412689208984,7.60930061340332,-2.3540220260620117,6306.0029296875,0
464.6650000000009,0.012434792704880238,-0.025642961263656616,0.0015829529147595167,0.0,0.0,0.0,0.0,0.002819997491315007,0.0025937948375940323,0.0004481742507778108,0.9997748732566833,0.0,0.0,0.0,-34.81758499145508,7.590070724487305,-2.3321475982666016,6302.05224609375,0
494.32700000000114,0.01238568127155304,-0.02557442896068096,0.0017222249880433083,0.0,0.0,0.0,0.0,-0.00206434796564281,-0.002142357872799039,-0.0002459034149069339,0.9993106126785278,0.0,0.0,0.0,-34.829586029052734,7.594234466552734,-2.3372251987457275,6304.224609375,0
504.21000000000095,0.012437190860509872,-0.025649623945355415,0.0016069390112534165,0.0,0.0,0.0,0.0,-0.002520941197872162,-0.00679003493860364,-0.0016500408528372645,0.9978030920028687,0.0,0.0,0.0,-34.808528900146484,7.589024066925049,-2.314239740371704,6300.4130859375,0
514.107,0.012429441325366497,-0.02552465908229351,0.001706316601485014,0.0,0.0,0.0,0.0,0.003244290826842189,0.0006158957839943469,2.5208883016603068e-05,0.9962841868400574,0.0,0.0,0.0,-34.83694839477539,7.611055374145508,-2.3110971450805664,6305.556640625,0
523.982,0.012455027550458908,-0.025651128962635994,0.0015879982383921742,0.0,0.0,0.0,0.0,-0.0014416645281016827,-0.0068709757179021835,-0.002955954521894455,0.9988384246826172,0.0,0.0,0.0,-34.8173942565918,7.590969562530518,-2.298898220062256,6302.01806640625,0
533.8729999999996,0.012448358349502087,-0.025528907775878906,0.001685993280261755,0.0,0.0,0.0,0.0,-0.002113986760377884,-0.0031026594806462526,0.00039145248592831194,0.9996785521507263,0.0,0.0,0.0,-34.8468132019043,7.610863208770752,-2.2985050678253174,6307.3427734375,0
543.7479999999996,0.012428885325789452,-0.025673259049654007,0.0016254374058917165,0.0,0.0,0.0,0.0,0.001099051907658577,0.001460696686990559,-0.0010672635398805141,1.0006797313690186,0.0,0.0,0.0,-34.825016021728516,7.592599391937256,-2.273833990097046,6303.3974609375,0
553.6499999999996,0.012495327740907669,-0.025607377290725708,0.0017256380524486303,0.0,0.0,0.0,0.0,0.0008449596352875233,-0.0005784086533822119,7.607652514707297e-05,1.0000492334365845,0.0,0.0,0.0,-34.84009552001953,7.605235576629639,-2.2778213024139404,6306.12646484375,0
563.5200000000004,0.012518955394625664,-0.025729132816195488,0.0016244936268776655,0.0,0.0,0.0,0.0,-0.00013379144365899265,0.002777752699330449,0.00019931925635319203,0.9988577365875244,0.0,0.0,0.0,-34.81822967529297,7.586987018585205,-2.2559046745300293,6302.16845703125,0
573.4210000000003,0.012452378869056702,-0.02563164196908474,0.0016833366826176643,0.0,0.0,0.0,0.0,0.0027618834283202887,-0.0016757083358243108,0.0014909078599885106,0.999091625213623,0.0,0.0,0.0,-34.83189392089844,7.593486785888672,-2.2932045459747314,6304.6416015625,0
583.3040000000001,0.01247349102050066,-0.02575296349823475,0.0015822757268324494,0.0,0.0,0.0,0.0,-0.0004412554844748229,0.007621945813298225,0.0016507188556715846,0.9966594576835632,0.0,0.0,0.0,-34.81401443481445,7.574150085449219,-2.2799148559570312,6301.40625,0
593.1939999999995,0.012491591274738312,-0.025650279596447945,0.0016807906795293093,0.0,0.0,0.0,0.0,-0.00048238906310871243,-0.0016002841293811798,0.00313101289793849,0.9999672174453735,0.0,0.0,0.0,-34.823760986328125,7.591300010681152,-2.3079493045806885,6303.169921875,0
603.0689999999995,0.01249686349183321,-0.025774311274290085,0.0016016536392271519,0.0,0.0,0.0,0.0,0.0036632209084928036,0.002318277256563306,-0.0010454487055540085,1.0001604557037354,0.0,0.0,0.0,-34.80194854736328,7.573770046234131,-2.2879040241241455,6299.2216796875,0
612.9619999999995,0.012412422336637974,-0.025602148845791817,0.0017011344898492098,0.0,0.0,0.0,0.0,-0.0018152506090700626,0.0011368404375389218,0.002864980837330222,1.0004491806030273,0.0,0.0,0.0,-34.82861328125,7.591402053833008,-2.322878837585449,6304.048828125,0
622.8420000000006,0.012439636513590813,-0.025716127827763557,0.001593849272467196,0.0,0.0,0.0,0.0,0.0006760547985322773,-0.0017554641235619783,0.0031383514869958162,0.9995477795600891,0.0,0.0,0.0,-34.810508728027344,7.580687999725342,-2.3079636096954346,6300.77197265625,0
632.7360000000008,0.012465111911296844,-0.02557615377008915,0.001721097738482058,0.0,0.0,0.0,0.0,-0.00023299589520320296,-0.0005413388716988266,0.0008736017043702304,0.9988686442375183,0.0,0.0,0.0,-34.822837829589844,7.606215953826904,-2.3187484741210938,6303.0029296875,0
642.6149999999998,0.012498973868787289,-0.025683483108878136,0.0016126912087202072,0.0,0.0,0.0,0.0,0.0028205709531903267,-0.0008417305070906878,0.005113056395202875,0.9981899261474609,0.0,0.0,0.0,-34.80353546142578,7.593721866607666,-2.303579568862915,6299.509765625,0
652.5079999999998,0.012441481463611126,-0.02554965391755104,0.001694978098385036,0.0,0.0,0.0,0.0,0.0012213875306770205,0.0076859029941260815,-0.0012028104392811656,1.0008686780929565,0.0,0.0,0.0,-34.81532287597656,7.605118274688721,-2.3304123878479004,6301.64306640625,0
662.389000000001,0.01249738410115242,-0.02565227448940277,0.0015509333461523056,0.0,0.0,0.0,0.0,0.0016332595841959119,0.007902340963482857,-0.0017233038088306785,0.9992677569389343,0.0,0.0,0.0,-34.79511642456055,7.588376045227051,-2.323493242263794,6297.98486328125,0
672.2820000000011,0.0123711246997118,-0.025459760800004005,0.0016322926385328174,0.0,0.0,0.0,0.0,0.0003169426927343011,-0.004067152738571167,0.0021691310685127974,0.998306393623352,0.0,0.0,0.0,-34.8233757019043,7.606914043426514,-2.3782095909118652,6303.1005859375,0
682.1669999999995,0.012362024746835232,-0.025615382939577103,0.0015415842644870281,0.0,0.0,0.0,0.0,-0.00017088308231905103,0.0028621519450098276,0.004351039882749319,0.9992304444313049,0.0,0.0,0.0,-34.80184555053711,7.584670066833496,-2.348701238632202,6299.20361328125,0
692.0550000000003,0.012317473068833351,-0.02545977383852005,0.001638139714486897,0.0,0.0,0.0,0.0,0.00360972061753273,0.0002668148372322321,-0.0006563273491337895,1.0018342733383179,0.0,0.0,0.0,-34.825714111328125,7.6042399406433105,-2.3765313625335693,6303.5234375,0
701.9390000000003,0.012322071939706802,-0.025588523596525192,0.0015408124309033155,0.0,0.0,0.0,0.0,-0.002090520691126585,-0.002667512744665146,-0.0009034102549776435,0.9996002912521362,0.0,0.0,0.0,-34.807838439941406,7.576974868774414,-2.36373233795166,6300.2880859375,0
711.8220000000001,0.012306463904678822,-0.02543392963707447,0.0016553394962102175,0.0,0.0,0.0,0.0,-0.00020978935936000198,-0.0008861744427122176,-0.000539895670954138,0.9990980625152588,0.0,0.0,0.0,-34.83697509765625,7.602089881896973,-2.382861614227295,6305.56201171875,0
721.7119999999995,0.012331715784966946,-0.025531144812703133,0.001548179890960455,0.0,0.0,0.0,0.0,0.0006083607440814376,-0.008518295362591743,0.0017617199337109923,1.0012898445129395,0.0,0.0,0.0,-34.81666946411133,7.590888977050781,-2.3723323345184326,6301.88671875,0
731.603000000001,0.012374687008559704,-0.025400394573807716,0.0016739675775170326,0.0,0.0,0.0,0.0,0.003578491508960724,-0.004006165079772472,0.0026111435145139694,1.0005029439926147,0.0,0.0,0.0,-34.84050750732422,7.615090370178223,-2.3705828189849854,6306.20068359375,0
741.487000000001,0.01231514010578394,-0.02561667189002037,0.0016225097933784127,0.0,0.0,0.0,0.0,-0.0021310499869287014,-0.002882852451875806,0.0017650537192821503,1.0016367435455322,0.0,0.0,0.0,-34.81725311279297,7.57163667678833,-2.3475725650787354,6301.99169921875,0
751.3690000000006,0.01236850768327713,-0.025551840662956238,0.001722739776596427,0.0,0.0,0.0,0.0,-0.0022249508183449507,-0.0017344646621495485,-0.0011254381388425827,0.9998878240585327,0.0,0.0,0.0,-34.82826614379883,7.589623928070068,-2.343219518661499,6303.98583984375,0
761.255000000001,0.012368462979793549,-0.025689369067549706,0.0016497443430125713,0.0,0.0,0.0,0.0,0.0015285611152648926,-0.004676166456192732,0.0007453726138919592,1.0005134344100952,0.0,0.0,0.0,-34.80828857421875,7.573250770568848,-2.323767900466919,6300.369140625,0
771.1490000000013,0.01238626055419445,-0.02558380924165249,0.0017596088582649827,0.0,0.0,0.0,0.0,-0.00021623850625474006,-0.00670491112396121,0.001888813334517181,0.9988086819648743,0.0,0.0,0.0,-34.82167053222656,7.589466094970703,-2.3317039012908936,6302.7919921875,0
781.0240000000013,0.012432186864316463,-0.025683674961328506,0.0016462949570268393,0.0,0.0,0.0,0.0,-0.002840812550857663,0.0011480051325634122,0.0033848914317786694,0.9982501864433289,0.0,0.0,0.0,-34.79887771606445,7.578310966491699,-2.2954537868499756,6298.66650390625,0
790.9150000000009,0.012353544123470783,-0.025547729805111885,0.0017259306041523814,0.0,0.0,0.0,0.0,0.0031292056664824486,0.0017946161096915603,0.0010766272898763418,1.0003966093063354,0.0,0.0,0.0,-34.825592041015625,7.59468412399292,-2.322999954223633,6303.50146484375,0
800.8009999999995,0.012400341220200062,-0.025633497163653374,0.0016160691156983376,0.0,0.0,0.0,0.0,-0.0009146626107394695,-0.0018212944269180298,0.004191700369119644,0.9999902844429016,0.0,0.0,0.0,-34.80973434448242,7.583348751068115,-2.307781934738159,6300.6318359375,0
810.6900000000005,0.012457257136702538,-0.025514543056488037,0.001740829786285758,0.0,0.0,0.0,0.0,0.00020460055384319276,-0.0022838993463665247,-0.0008272075210697949,0.9997951984405518,0.0,0.0,0.0,-34.820587158203125,7.612881183624268,-2.3054885864257812,6302.595703125,0
820.5699999999997,0.012479267083108425,-0.025645175948739052,0.001642684917896986,0.0,0.0,0.0,0.0,-0.0002976611431222409,0.0029511875472962856,0.0010355826234444976,0.9991937875747681,0.0,0.0,0.0,-34.80649185180664,7.604040145874023,-2.2785563468933105,6300.0439453125,0
830.4549999999999,0.012459852732717991,-0.02552288956940174,0.0017378421034663916,0.0,0.0,0.0,0.0,-0.0018739938968792558,-0.0028868387453258038,0.0075726937502622604,0.9986938238143921,0.0,0.0,0.0,-34.8338623046875,7.623097896575928,-2.3020360469818115,6304.99853515625,0
840.3450000000012,0.012497414834797382,-0.02562839724123478,0.0016269844491034746,0.0,0.0,0.0,0.0,-0.003422922221943736,-0.003161940723657608,-0.002413070760667324,0.9971184134483337,0.0,0.0,0.0,-34.8136100769043,7.611076831817627,-2.2772839069366455,6301.3330078125,0
850.2360000000008,0.012461429461836815,-0.02551334723830223,0.001699511893093586,0.0,0.0,0.0,0.0,-0.0017046647844836116,-0.0025982342194765806,-0.0003446161572355777,0.9966195821762085,0.0,0.0,0.0,-34.82589340209961,7.631401062011719,-2.287404775619507,6303.55615234375,0
860.1190000000006,0.01250285655260086,-0.025589780882000923,0.0015950980596244335,0.0,0.0,0.0,0.0,0.0014631561934947968,-0.0006135399453341961,0.00024361623218283057,0.9986473917961121,0.0,0.0,0.0,-34.803707122802734,7.624264240264893,-2.2707266807556152,6299.54052734375,0
870.0040000000008,0.01247644517570734,-0.025462061166763306,0.001674319850280881,0.0,0.0,0.0,0.0,-0.0006859925924800336,0.002405240200459957,0.0027584393974393606,1.000038981437683,0.0,0.0,0.0,-34.832847595214844,7.642401218414307,-2.2801709175109863,6304.81494140625,0
879.8819999999996,0.012483351863920689,-0.025585655122995377,0.0015841289423406124,0.0,0.0,0.0,0.0,-0.0011206376366317272,0.0027050054632127285,0.00104305031709373,0.999854326248169,0.0,0.0,0.0,-34.81505584716797,7.621237754821777,-2.275937795639038,6301.59423828125,0
889.7710000000006,0.012461895123124123,-0.025476248934864998,0.0016534494934603572,0.0,0.0,0.0,0.0,0.001005256548523903,-0.001820736681111157,-0.0007805769564583898,0.9996411204338074,0.0,0.0,0.0,-34.827781677246094,7.636786460876465,-2.2892544269561768,6303.8984375,0
899.6610000000001,0.012452211230993271,-0.025622930377721786,0.0015691696899011731,0.0,0.0,0.0,0.0,0.0019469504477456212,-0.005052461754530668,-0.0013082990190014243,1.00018310546875,0.0,0.0,0.0,-34.809608459472656,7.6067328453063965,-2.265075445175171,6300.60791015625,0
909.5490000000009,0.012436301447451115,-0.02546168863773346,0.0016760383732616901,0.0,0.0,0.0,0.0,0.0009033405804075301,-0.005167123395949602,-0.0005442406400106847,0.9971441030502319,0.0,0.0,0.0,-34.84103775024414,7.62693977355957,-2.275597333908081,6306.29736328125,0
919.4359999999997,0.012477105483412743,-0.025574255734682083,0.0015353214694187045,0.0,0.0,0.0,0.0,0.0019529206911101937,0.0035815297160297632,0.0022804131731390953,1.0001282691955566,0.0,0.0,0.0,-34.821922302246094,7.6095075607299805,-2.246793746948242,6302.837890625,0
929.3230000000003,0.012481153942644596,-0.025460897013545036,0.0016168784350156784,0.0,0.0,0.0,0.0,0.002963285893201828,0.004192198161035776,0.0008390619186684489,0.9994253516197205,0.0,0.0,0.0,-34.835411071777344,7.619874954223633,-2.271766424179077,6305.279296875,0
939.210000000001,0.012478318996727467,-0.02559821680188179,0.0015254569007083774,0.0,0.0,0.0,0.0,0.0010428476380184293,-0.007715398911386728,-0.0012123722117394209,0.9988150000572205,0.0,0.0,0.0,-34.81671142578125,7.589319229125977,-2.26149320602417,6301.89453125,0
949.098,0.012464937753975391,-0.025447405874729156,0.0016217739321291447,0.0,0.0,0.0,0.0,0.0016484055668115616,0.0014689018717035651,-0.0005867943982593715,0.9978974461555481,0.0,0.0,0.0,-34.84455108642578,7.605778217315674,-2.2597250938415527,6306.93359375,0
958.9850000000006,0.012446685694158077,-0.025603802874684334,0.0015437325928360224,0.0,0.0,0.0,0.0,3.6009714676765725e-05,0.004782781470566988,0.002014365280047059,0.9986997842788696,0.0,0.0,0.0,-34.8257942199707,7.579856872558594,-2.24241304397583,6303.5380859375,0
968.8729999999996,0.012392580509185791,-0.025458693504333496,0.0016191083705052733,0.0,0.0,0.0,0.0,-0.002299865474924445,-0.0022107474505901337,0.0018159598112106323,1.001107931137085,0.0,0.0,0.0,-34.85512161254883,7.593398571014404,-2.2780239582061768,6308.8466796875,0
978.7510000000002,0.012367627583444118,-0.025600401684641838,0.001561203389428556,0.0,0.0,0.0,0.0,0.0011080430122092366,0.00074022077023983,-0.0021839425899088383,0.9993882775306702,0.0,0.0,0.0,-34.833396911621094,7.571568012237549,-2.258493661880493,6304.9140625,0
988.643,0.012414653785526752,-0.02547672763466835,0.0016757315024733543,0.0,0.0,0.0,0.0,-0.0014572246000170708,0.0027393184136599302,-0.0008386218687519431,1.0000978708267212,0.0,0.0,0.0,-34.86175537109375,7.588222503662109,-2.268636465072632,6310.046875,0
998.5280000000002,0.012374368496239185,-0.025656644254922867,0.0016245055012404919,0.0,0.0,0.0,0.0,0.000643941224552691,-0.00041360873728990555,0.0019718469120562077,1.0009849071502686,0.0,0.0,0.0,-34.8427619934082,7.554378032684326,-2.2695682048797607,6306.60986328125,0
1008.4110000000001,0.012408176437020302,-0.02554701641201973,0.0017307403031736612,0.0,0.0,0.0,0.0,-0.0037362936418503523,-0.0017765727825462818,0.0010881987400352955,0.9994663596153259,0.0,0.0,0.0,-34.85616683959961,7.574547290802002,-2.2733702659606934,6309.03564453125,0
1018.3019999999997,0.012401100248098373,-0.025682928040623665,0.0016681647393852472,0.0,0.0,0.0,0.0,-0.0030145030468702316,0.0037987276446074247,-0.002391267102211714,0.9984239339828491,0.0,0.0,0.0,-34.8348388671875,7.55826997756958,-2.257855176925659,6305.17529296875,0
1028.1910000000007,0.012410763651132584,-0.025571836158633232,0.0017690758686512709,0.0,0.0,0.0,0.0,-0.0018267763080075383,-0.0015625425148755312,-0.0026737963780760765,1.001359224319458,0.0,0.0,0.0,-34.850032806396484,7.573235988616943,-2.2866098880767822,6307.92529296875,0
1038.0650000000005,0.012413845397531986,-0.025702958926558495,0.0017001323867589235,0.0,0.0,0.0,0.0,-0.0020245658233761787,0.00040957806049846113,0.0011084486031904817,1.0000548362731934,0.0,0.0,0.0,-34.82902526855469,7.556502819061279,-2.27587890625,6304.123046875,0
1047.9560000000001,0.012456581927835941,-0.025586843490600586,0.0018194951117038727,0.0,0.0,0.0,0.0,0.0002832568425219506,0.003504955442622304,0.00032302021281793714,0.9993813037872314,0.0,0.0,0.0,-34.840118408203125,7.579941749572754,-2.2937281131744385,6306.130859375,0
1057.844000000001,0.012475432828068733,-0.02571200765669346,0.0017432483145967126,0.0,0.0,0.0,0.0,0.0024861935526132584,0.004707652144134045,-0.0020522833801805973,0.9990161061286926,0.0,0.0,0.0,-34.82450866699219,7.5609564781188965,-2.2840168476104736,6303.3056640625,0
1067.7350000000006,0.012413190677762032,-0.025564342737197876,0.0018353232881054282,0.0,0.0,0.0,0.0,0.0003755430516321212,0.0030598908197134733,-1.9588458599173464e-05,0.9998721480369568,0.0,0.0,0.0,-34.85028076171875,7.573209762573242,-2.315255880355835,6307.9697265625,0
1077.6110000000008,0.012467142194509506,-0.025668084621429443,0.0017156661488115788,0.0,0.0,0.0,0.0,0.0013205843279138207,-0.001974142389371991,0.0040859016589820385,0.9993337988853455,0.0,0.0,0.0,-34.83283615112305,7.56052303314209,-2.3068408966064453,6304.81298828125,0
1087.5079999999998,0.012375696562230587,-0.025546185672283173,0.0017762125935405493,0.0,0.0,0.0,0.0,0.001825600047595799,0.0009681908995844424,0.0006202238728292286,0.9997190237045288,0.0,0.0,0.0,-34.856346130371094,7.56751823425293,-2.335045337677002,6309.06787109375,0
1097.3919999999998,0.012420971877872944,-0.025655951350927353,0.001656811684370041,0.0,0.0,0.0,0.0,-0.0011270367540419102,-0.002207760699093342,-0.0024817048106342554,0.9980136752128601,0.0,0.0,0.0,-34.836158752441406,7.550070762634277,-2.319120168685913,6305.4140625,0
1107.2690000000002,0.012349420227110386,-0.025533895939588547,0.0017224140465259552,0.0,0.0,0.0,0.0,0.002015739679336548,-0.0033531375229358673,0.0017174753593280911,0.9998521208763123,0.0,0.0,0.0,-34.862159729003906,7.5660881996154785,-2.341303825378418,6310.1201171875,0
1117.1560000000009,0.012360588647425175,-0.025652658194303513,0.0016430678078904748,0.0,0.0,0.0,0.0,-0.0011358029441908002,-0.00270599452778697,-0.0006399652338586748,1.0001044273376465,0.0,0.0,0.0,-34.83876419067383,7.546627521514893,-2.315772771835327,6305.8857421875,0
1127.0439999999999,0.012330018915235996,-0.025530792772769928,0.0017292650882154703,0.0,0.0,0.0,0.0,-0.0019553026650100946,0.003268058877438307,0.001446273410692811,0.9983287453651428,0.0,0.0,0.0,-34.86837387084961,7.562136173248291,-2.3225436210632324,6311.2451171875,0
1136.938,0.012337896972894669,-0.025558870285749435,0.0017277817241847515,0.0,0.0,0.0,0.0,0.0031830156221985817,0.0004292275116313249,0.0022448725067079067,0.9979844093322754,0.0,0.0,0.0,-34.83378982543945,7.559821128845215,-2.3217597007751465,6304.98583984375,0
1146.8220000000001,0.012401589192450047,-0.025651132687926292,0.001567687140777707,0.0,0.0,0.0,0.0,-0.0007198285311460495,0.0016496895113959908,-0.0006910699303261936,1.0007178783416748,0.0,0.0,0.0,-34.812740325927734,7.540380477905273,-2.292156934738159,6301.17529296875,0
1156.7110000000011,0.012414450757205486,-0.025686156004667282,0.0015527261421084404,0.0,0.0,0.0,0.0,-5.991996295051649e-05,0.0018090340308845043,-1.935058691060476e-08,1.000307559967041,0.0,0.0,0.0,-34.778770446777344,7.5359344482421875,-2.284607410430908,6295.02685546875,0
1166.585000000001,0.012496158480644226,-0.025779370218515396,0.001380598172545433,0.0,0.0,0.0,0.0,0.00014152139192447066,-0.002587784081697464,-0.0006167684914544225,0.9985945820808411,0.0,0.0,0.0,-34.76486587524414,7.532093048095703,-2.2451446056365967,6292.509765625,0
1176.4700000000012,0.012513713911175728,-0.02582317590713501,0.0013536348706111312,0.0,0.0,0.0,0.0,-0.0005671253311447799,0.003910981584340334,-0.0022944787051528692,0.9983004331588745,0.0,0.0,0.0,-34.7298698425293,7.526769638061523,-2.232126474380493,6286.17529296875,0
1186.3610000000008,0.012542739510536194,-0.02592710219323635,0.0012599185574799776,0.0,0.0,0.0,0.0,-0.001822853460907936,-0.0006087789661251009,-0.003579044481739402,0.997958242893219,0.0,0.0,0.0,-34.7149658203125,7.512251377105713,-2.2171080112457275,6283.4775390625,0
1196.25,0.012559700757265091,-0.02597850002348423,0.0012253180611878633,0.0,0.0,0.0,0.0,0.000755641027353704,0.0005984934978187084,-0.0011499288957566023,1.0009703636169434,0.0,0.0,0.0,-34.681888580322266,7.5049004554748535,-2.2058417797088623,6277.49072265625,0
1206.1280000000006,0.012586040422320366,-0.026059512048959732,0.0011542867869138718,0.0,0.0,0.0,0.0,0.0006737264920957386,0.0002918927639257163,0.00030079446150921285,1.0010297298431396,0.0,0.0,0.0,-34.67216110229492,7.4934821128845215,-2.198232889175415,6275.73046875,0
1216.0280000000002,0.012603278271853924,-0.026116041466593742,0.001118131447583437,0.0,0.0,0.0,0.0,0.0022246467415243387,0.002622527303174138,0.00044259041897021234,0.9987326264381409,0.0,0.0,0.0,-34.63837814331055,7.485483646392822,-2.1898536682128906,6269.61474609375,0
1225.907000000001,0.012606938369572163,-0.026174692437052727,0.0010941990185528994,0.0,0.0,0.0,0.0,0.005044843535870314,-0.0024664050433784723,-0.001201980048790574,0.9960297346115112,0.0,0.0,0.0,-34.62995910644531,7.468291759490967,-2.2049832344055176,6268.09130859375,0
1235.7900000000009,0.012621713802218437,-0.02623496949672699,0.001056417590007186,0.0,0.0,0.0,0.0,0.0015057714190334082,-0.0007096980116330087,-0.0026982256677001715,0.9987698197364807,0.0,0.0,0.0,-34.5958251953125,7.454911231994629,-2.196727991104126,6261.9130859375,0
1245.6820000000007,0.012577859684824944,-0.026309633627533913,0.001073526102118194,0.0,0.0,0.0,0.0,-0.0020099831745028496,-0.0009903119644150138,-0.0012842635624110699,1.000082015991211,0.0,0.0,0.0,-34.58842086791992,7.423085689544678,-2.211805582046509,6260.5732421875,0
1255.562,0.012586279772222042,-0.026377305388450623,0.0010384016204625368,0.0,0.0,0.0,0.0,-0.0003276046772953123,0.0015872195363044739,0.0008039632812142372,1.0010861158370972,0.0,0.0,0.0,-34.55388259887695,7.418091297149658,-2.2082607746124268,6254.32177734375,0
1265.451000000001,0.0126086650416255,-0.026364514604210854,0.0010407299268990755,0.0,0.0,0.0,0.0,0.00024232234864030033,0.0056649767793715,-0.0015586708905175328,1.0006810426712036,0.0,0.0,0.0,-34.54579544067383,7.4366254806518555,-2.2190587520599365,6252.857421875,0
1275.3360000000011,0.012618997134268284,-0.02643115445971489,0.0010098228231072426,0.0,0.0,0.0,0.0,-0.0011709291720762849,-0.00117198983207345,-0.0017251898534595966,0.996677815914154,0.0,0.0,0.0,-34.51221466064453,7.4344987869262695,-2.2282631397247314,6246.77978515625,0
1285.2200000000012,0.012651640921831131,-0.02640463039278984,0.0010131793096661568,0.0,0.0,0.0,0.0,-0.0005686731892637908,-0.003075922606512904,-0.0024729121942073107,0.9977055191993713,0.0,0.0,0.0,-34.509246826171875,7.463006496429443,-2.2333996295928955,6246.24267578125,0
1295.1049999999996,0.012664762325584888,-0.026469888165593147,0.0009804945439100266,0.0,0.0,0.0,0.0,0.0007049147388897836,0.0009265621774829924,-0.00462820939719677,1.0002881288528442,0.0,0.0,0.0,-34.47590255737305,7.454923629760742,-2.2217037677764893,6240.20703125,0
1305.0020000000004,0.012693648226559162,-0.026422709226608276,0.0009962175972759724,0.0,0.0,0.0,0.0,-0.00016578141367062926,0.00017512854537926614,0.0008181000594049692,0.9999751448631287,0.0,0.0,0.0,-34.476802825927734,7.477711200714111,-2.237771511077881,6240.36962890625,0
1314.884,0.01270633190870285,-0.026482397690415382,0.000966083025559783,0.0,0.0,0.0,0.0,0.0015205410309135914,-0.0022749381605535746,0.00230081332847476,1.0009936094284058,0.0,0.0,0.0,-34.44169616699219,7.473552703857422,-2.2275209426879883,6234.015625,0
1324.768,0.012703814543783665,-0.026464367285370827,0.0009930400410667062,0.0,0.0,0.0,0.0,0.002005239948630333,0.005245094187557697,0.005883925128728151,1.000502347946167,0.0,0.0,0.0,-34.439300537109375,7.480935573577881,-2.245274543762207,6233.58203125,0
1334.6499999999996,0.012715299613773823,-0.026522623375058174,0.0009686889825388789,0.0,0.0,0.0,0.0,-0.0013170556630939245,-0.0034355923999100924,0.0009437346016056836,0.9978860020637512,0.0,0.0,0.0,-34.403831481933594,7.468611240386963,-2.2529656887054443,6227.16162109375,0
1344.541000000001,0.012726309709250927,-0.02658347599208355,0.0009436605614610016,0.0,0.0,0.0,0.0,0.003078276291489601,-0.0015900887083262205,-0.0003170306736137718,0.997072160243988,0.0,0.0,0.0,-34.37017059326172,7.463005065917969,-2.2359447479248047,6221.0693359375,0
1354.42,0.012736454606056213,-0.026645351201295853,0.0009167584357783198,0.0,0.0,0.0,0.0,-0.0004308098868932575,-0.0035214012023061514,0.0017114743823185563,0.9997506737709045,0.0,0.0,0.0,-34.335845947265625,7.4488749504089355,-2.229050636291504,6214.8564453125,0
1364.3160000000007,0.012432796880602837,-0.02596372738480568,0.0012814237270504236,0.0,0.0,0.0,0.0,0.0008373077143914998,0.003737716469913721,-0.0019525957759469748,1.0000797510147095,0.0,0.0,0.0,-34.38249969482422,7.577144145965576,-2.381814479827881,6223.30126953125,0
1374.1990000000005,0.012426464818418026,-0.02598070353269577,0.001282950397580862,0.0,0.0,0.0,0.0,-0.00020397179469000548,-0.0005554414237849414,-0.0035394581500440836,1.0002975463867188,0.0,0.0,0.0,-34.348960876464844,7.571233749389648,-2.3820836544036865,6217.23046875,0
1384.0959999999995,0.012381254695355892,-0.025716951116919518,0.0015504197217524052,0.0,0.0,0.0,0.0,0.0007240524282678962,0.0017960056429728866,0.0008450779714621603,1.000649094581604,0.0,0.0,0.0,-34.39768600463867,7.625897407531738,-2.4151082038879395,6226.0498046875,0
1393.9709999999995,0.012370722368359566,-0.025721373036503792,0.0015697958879172802,0.0,0.0,0.0,0.0,-0.0008255283464677632,-0.005059945862740278,-0.0008233620901592076,1.0010840892791748,0.0,0.0,0.0,-34.363494873046875,7.6199846267700195,-2.4068007469177246,6219.86083984375,0
1403.8549999999996,0.012357848696410656,-0.02572813257575035,0.0015901559963822365,0.0,0.0,0.0,0.0,0.0033563158940523863,0.0012752313632518053,-0.002406087704002857,0.9987610578536987,0.0,0.0,0.0,-34.33023452758789,7.616655349731445,-2.3925235271453857,6213.84130859375,0
1413.741,0.012342985719442368,-0.025736790150403976,0.0016105701215565205,0.0,0.0,0.0,0.0,-0.0003058488364331424,-0.0014578865375369787,-0.0016550181899219751,1.00014328956604,0.0,0.0,0.0,-34.2963981628418,7.609034061431885,-2.385876417160034,6207.71630859375,0
1423.6380000000008,0.012328028678894043,-0.02574613317847252,0.001630906481295824,0.0,0.0,0.0,0.0,0.0003538073506206274,-0.004410653840750456,0.0010752391535788774,1.000022292137146,0.0,0.0,0.0,-34.261871337890625,7.600268840789795,-2.3846795558929443,6201.466796875,0
1433.5190000000002,0.01231362484395504,-0.025755424052476883,0.0016515334136784077,0.0,0.0,0.0,0.0,0.0014299385948106647,0.0014653654070571065,-0.0006974388961680233,1.0001015663146973,0.0,0.0,0.0,-34.22711944580078,7.587140083312988,-2.3758130073547363,6195.1767578125,0
1443.4060000000009,0.012298747897148132,-0.025766100734472275,0.0016724744345992804,0.0,0.0,0.0,0.0,0.0007886398234404624,-0.0003463905304670334,0.0018183535430580378,1.0008299350738525,0.0,0.0,0.0,-34.193572998046875,7.576004981994629,-2.3715202808380127,6189.1044921875,0
1453.2880000000005,0.012282650917768478,-0.02577998861670494,0.0016944670351222157,0.0,0.0,0.0,0.0,-0.003081322181969881,-0.0019142774399369955,-0.0012938014697283506,1.001339316368103,0.0,0.0,0.0,-34.1598014831543,7.571869373321533,-2.3569085597991943,6182.9921875,0
1463.1769999999997,0.012265847064554691,-0.025796940550208092,0.001717858132906258,0.0,0.0,0.0,0.0,-0.001664169947616756,-0.0008711428963579237,0.000376233336282894,0.9993017911911011,0.0,0.0,0.0,-34.125999450683594,7.569889545440674,-2.345254898071289,6176.87353515625,0
1473.058000000001,0.012249383144080639,-0.025815865024924278,0.001741691492497921,0.0,0.0,0.0,0.0,0.0015518921427428722,0.005605760030448437,-3.559066681191325e-05,0.9982454776763916,0.0,0.0,0.0,-34.092769622802734,7.565629005432129,-2.332878828048706,6170.859375,0
1482.9449999999997,0.012233919464051723,-0.025836165994405746,0.001764761982485652,0.0,0.0,0.0,0.0,-0.0007956772460602224,-0.001024336088448763,-0.00228496384806931,0.9983986020088196,0.0,0.0,0.0,-34.059383392333984,7.558375835418701,-2.33860445022583,6164.81689453125,0
1492.8360000000011,0.012219003401696682,-0.02585725113749504,0.0017865978879854083,0.0,0.0,0.0,0.0,-0.0015389941399917006,-0.0013171829050406814,-0.001092414604499936,0.9977991580963135,0.0,0.0,0.0,-34.026710510253906,7.5541582107543945,-2.3264594078063965,6158.90185546875,0
1502.7200000000012,0.012203854508697987,-0.02587958425283432,0.001806966494768858,0.0,0.0,0.0,0.0,0.0018388306489214301,-0.0016855988651514053,0.005280415993183851,0.9988440275192261,0.0,0.0,0.0,-33.993858337402344,7.546864986419678,-2.317265748977661,6152.9560546875,0
1512.6110000000008,0.012187853455543518,-0.025904908776283264,0.0018261773511767387,0.0,0.0,0.0,0.0,0.0015276301419362426,0.00586351566016674,-0.001293432665988803,0.9986405372619629,0.0,0.0,0.0,-33.95915603637695,7.540115833282471,-2.30896258354187,6146.6748046875,0
1522.4899999999998,0.012172347865998745,-0.02593405917286873,0.001844500657171011,0.0,0.0,0.0,0.0,-0.0015326233115047216,0.0028008955996483564,-0.000933318689931184,0.9994109272956848,0.0,0.0,0.0,-33.926395416259766,7.529393196105957,-2.3218131065368652,6140.74560546875,0
1532.3760000000002,0.012157843448221684,-0.025966521352529526,0.0018621855415403843,0.0,0.0,0.0,0.0,-0.00020787691755685955,-0.0008320612250827253,-0.00063368771225214,1.0012937784194946,0.0,0.0,0.0,-33.8931770324707,7.52133846282959,-2.3297860622406006,6134.732421875,0
1542.2669999999998,0.012141920626163483,-0.02600182592868805,0.0018803696148097515,0.0,0.0,0.0,0.0,-0.0004850801778957248,-0.0029146061278879642,0.0032256271224468946,0.9998927712440491,0.0,0.0,0.0,-33.86048889160156,7.518260478973389,-2.3241240978240967,6128.81640625,0
1552.1509999999998,0.012124541215598583,-0.026039965450763702,0.001899444730952382,0.0,0.0,0.0,0.0,0.0012384348083287477,0.004574285354465246,0.0016096397303044796,1.0015090703964233,0.0,0.0,0.0,-33.82543182373047,7.510726451873779,-2.3006751537323,6122.470703125,0
1562.0310000000009,0.012371089309453964,-0.025941377505660057,0.001184497494250536,0.0,0.0,0.0,0.0,0.0006857475382275879,0.0007453560247085989,-0.000497258675750345,0.9982649087905884,0.0,0.0,0.0,-33.87748336791992,7.544283866882324,-2.2761013507843018,6131.89208984375,0
1571.9210000000003,0.012363863177597523,-0.02597760036587715,0.0011743120849132538,0.0,0.0,0.0,0.0,0.0028390365187078714,-0.0017911774339154363,-0.002829434350132942,1.0000079870224,0.0,0.0,0.0,-33.84454345703125,7.539768218994141,-2.274306535720825,6125.93017578125,0
1581.804,0.012333933264017105,-0.026058323681354523,0.0011465841671451926,0.0,0.0,0.0,0.0,0.0018538790754973888,-0.0024164433125406504,0.00446602376177907,0.9987474679946899,0.0,0.0,0.0,-33.8992919921875,7.518497467041016,-2.2676773071289062,6135.83935546875,0
1591.7029999999995,0.012326671741902828,-0.026100458577275276,0.0011346443789079785,0.0,0.0,0.0,0.0,-0.0015250769210979342,-0.00202458119019866,0.0023377675097435713,0.9988622069358826,0.0,0.0,0.0,-33.86495590209961,7.50516414642334,-2.257242202758789,6129.62451171875,0
1601.58,0.012317988090217113,-0.026144398376345634,0.0011219554580748081,0.0,0.0,0.0,0.0,0.0006410458590835333,0.0005441276007331908,-0.0005705626681447029,1.0008411407470703,0.0,0.0,0.0,-33.830955505371094,7.498621940612793,-2.247443437576294,6123.47021484375,0
1611.4680000000008,0.012362941168248653,-0.025744007900357246,0.001667781500145793,0.0,0.0,0.0,0.0,0.0004447039682418108,0.0010278609115630388,0.002044260036200285,1.0020785331726074,0.0,0.0,0.0,-33.9608268737793,7.582770347595215,-2.311161994934082,6146.97705078125,0
1621.3459999999995,0.012354676611721516,-0.025768935680389404,0.0016836029244586825,0.0,0.0,0.0,0.0,0.0019455656874924898,-0.004597358405590057,-0.0009000739664770663,0.9993190765380859,0.0,0.0,0.0,-33.92677307128906,7.5748114585876465,-2.30285382270813,6140.81298828125,0
1631.2399999999998,0.012355493381619453,-0.02562994323670864,0.0019169474253430963,0.0,0.0,0.0,0.0,-0.0003932708059437573,0.005177793093025684,0.003555210307240486,0.9999704957008362,0.0,0.0,0.0,-34.050716400146484,7.601717948913574,-2.3204610347747803,6163.2470703125,0
1641.1220000000012,0.012348590418696404,-0.02565082348883152,0.0019447233062237501,0.0,0.0,0.0,0.0,7.253503281390294e-05,-0.0038563874550163746,-0.001057281973771751,0.999541163444519,0.0,0.0,0.0,-34.01539611816406,7.589879512786865,-2.3271420001983643,6156.85400390625,0
1651.0159999999996,0.012422053143382072,-0.02561918832361698,0.002069872571155429,0.0,0.0,0.0,0.0,0.0020738064777106047,-0.00500130420550704,0.0014347049873322248,0.999451756477356,0.0,0.0,0.0,-34.10909652709961,7.605349063873291,-2.315962314605713,6173.814453125,0
1660.8919999999998,0.012416481040418148,-0.025640955194830894,0.002103261649608612,0.0,0.0,0.0,0.0,-0.0008585936157032847,0.002532670274376869,-0.0012407872127369046,0.9993829727172852,0.0,0.0,0.0,-34.07576370239258,7.60047721862793,-2.3042099475860596,6167.78125,0
1670.786,0.012373898178339005,-0.025585997849702835,0.002219229005277157,0.0,0.0,0.0,0.0,-0.00014460556849371642,0.0005738255567848682,0.00029903720133006573,0.9983415603637695,0.0,0.0,0.0,-34.19065856933594,7.611224174499512,-2.3277316093444824,6188.5771484375,0
1680.6640000000007,0.012365941889584064,-0.025605883449316025,0.0022571643348783255,0.0,0.0,0.0,0.0,0.002383036306127906,0.00740788085386157,-0.0007702841539867222,0.9984843134880066,0.0,0.0,0.0,-34.156734466552734,7.606818199157715,-2.322685718536377,6182.43701171875,0
1690.5599999999995,0.012350664474070072,-0.025602862238883972,0.0023228293284773827,0.0,0.0,0.0,0.0,0.00015513920516241342,-0.0043333410285413265,0.0007976084016263485,0.9987048506736755,0.0,0.0,0.0,-34.23696517944336,7.5955915451049805,-2.3475332260131836,6196.958984375,0
1700.437,0.01234479621052742,-0.02562267705798149,0.0023607066832482815,0.0,0.0,0.0,0.0,-0.002764958655461669,-0.006341772153973579,0.00038609467446804047,0.9971417188644409,0.0,0.0,0.0,-34.20264434814453,7.587801933288574,-2.332061767578125,6190.7470703125,0
1710.335000000001,0.012319664470851421,-0.025631384924054146,0.002408063504844904,0.0,0.0,0.0,0.0,0.001083732582628727,0.001570245367474854,-0.0018548115622252226,0.9987426400184631,0.0,0.0,0.0,-34.27421569824219,7.58419942855835,-2.330017328262329,6203.701171875,0
1720.210000000001,0.012314130552113056,-0.02565699629485607,0.0024469448253512383,0.0,0.0,0.0,0.0,-0.0018109285738319159,0.0026967378798872232,-0.006383129861205816,1.0003126859664917,0.0,0.0,0.0,-34.23935317993164,7.572079181671143,-2.335660696029663,6197.390625,0
1730.103000000001,0.012261861003935337,-0.025653410702943802,0.0025000437162816525,0.0,0.0,0.0,0.0,-0.002176787005737424,-0.0015548522351309657,-0.0007256091921590269,1.0000121593475342,0.0,0.0,0.0,-34.33590316772461,7.568687915802002,-2.3679041862487793,6214.8671875,0
1739.9809999999998,0.012253563851118088,-0.025677431374788284,0.0025371741503477097,0.0,0.0,0.0,0.0,0.0018437269609421492,0.004842549096792936,-0.002191907027736306,0.9987576007843018,0.0,0.0,0.0,-34.301513671875,7.564409255981445,-2.358703136444092,6208.64208984375,0
1749.8760000000002,0.012266538105905056,-0.025691526010632515,0.002595905214548111,0.0,0.0,0.0,0.0,-0.0021038223057985306,-0.0015862672589719296,-0.0009395310189574957,1.0004342794418335,0.0,0.0,0.0,-34.37385940551758,7.555464267730713,-2.3657028675079346,6221.7373046875,0
1759.7530000000006,0.012260572984814644,-0.025720324367284775,0.0026343928184360266,0.0,0.0,0.0,0.0,0.001440941239707172,6.487808423116803e-05,-0.0007160896202549338,1.0022474527359009,0.0,0.0,0.0,-34.33992385864258,7.54978609085083,-2.3554089069366455,6215.5947265625,0
1769.657000000001,0.012256546877324581,-0.025746943429112434,0.0026783677749335766,0.0,0.0,0.0,0.0,-0.0003976131265517324,-0.0015461399452760816,0.0017407936975359917,1.0005238056182861,0.0,0.0,0.0,-34.40629196166992,7.538920879364014,-2.364426612854004,6227.60693359375,0
1779.5329999999994,0.012249630875885487,-0.025779621675610542,0.0027201552875339985,0.0,0.0,0.0,0.0,-0.0020820368081331253,-0.0043564047664403915,-0.0030376433860510588,1.0000516176223755,0.0,0.0,0.0,-34.37154006958008,7.53726863861084,-2.3560688495635986,6221.31689453125,0
1789.4349999999995,0.012238569557666779,-0.0257742740213871,0.0027995873242616653,0.0,0.0,0.0,0.0,-0.002112634712830186,0.0014267462538555264,-0.0013837151927873492,0.9997336864471436,0.0,0.0,0.0,-34.46553039550781,7.547337532043457,-2.364962339401245,6238.3291015625,0
1799.3070000000007,0.012230427004396915,-0.025805842131376266,0.002845316892489791,0.0,0.0,0.0,0.0,0.0018528200453147292,0.00018018303671851754,-0.0014653686666861176,1.0010122060775757,0.0,0.0,0.0,-34.43149185180664,7.544065952301025,-2.3637633323669434,6232.16796875,0
1809.1990000000005,0.012219728901982307,-0.025832457467913628,0.002890093019232154,0.0,0.0,0.0,0.0,-0.0005495377699844539,-0.001467298367060721,-0.0003640477661974728,1.001831293106079,0.0,0.0,0.0,-34.493045806884766,7.530021667480469,-2.3694117069244385,6243.3095703125,0
1819.0789999999997,0.012449825182557106,-0.02553551085293293,0.0020769163966178894,0.0,0.0,0.0,0.0,0.0030286149121820927,0.0018420229898765683,0.003605947829782963,0.9997942447662354,0.0,0.0,0.0,-34.500919342041016,7.5871477127075195,-2.365262031555176,6244.73486328125,0
1828.9680000000008,0.012340333312749863,-0.025504373013973236,0.0020939651876688004,0.0,0.0,0.0,0.0,-0.0006393114454112947,-0.005066035781055689,0.0025332735385745764,0.9999188780784607,0.0,0.0,0.0,-34.57607650756836,7.5820112228393555,-2.3866350650787354,6258.3388671875,0
1838.8549999999996,0.012382801622152328,-0.025593159720301628,0.0019039723556488752,0.0,0.0,0.0,0.0,-0.0015605671796947718,0.0008727792883291841,0.0010834084823727608,0.9996462464332581,0.0,0.0,0.0,-34.57957077026367,7.567590236663818,-2.3574612140655518,6258.9716796875,0
1848.7440000000006,0.012374432757496834,-0.025550970807671547,0.001975605497136712,0.0,0.0,0.0,0.0,-0.00019439676543697715,-0.0030092608649283648,0.001492547569796443,0.9986222386360168,0.0,0.0,0.0,-34.62405776977539,7.573131561279297,-2.3662638664245605,6267.02294921875,0
1858.6180000000004,0.01237927470356226,-0.02570253238081932,0.0018467595800757408,0.0,0.0,0.0,0.0,0.0016509147826582193,0.007203031796962023,0.0008182596648111939,0.9981771111488342,0.0,0.0,0.0,-34.622398376464844,7.555927276611328,-2.3495445251464844,6266.72314453125,0
1868.5169999999998,0.012407428584992886,-0.025611327961087227,0.0019574989564716816,0.0,0.0,0.0,0.0,0.001010135398246348,-0.0031031633261591196,0.0019501365022733808,1.0006157159805298,0.0,0.0,0.0,-34.66240310668945,7.552441596984863,-2.3743743896484375,6273.96435546875,0
1878.3970000000008,0.012473413720726967,-0.025686604902148247,0.0017888920847326517,0.0,0.0,0.0,0.0,-0.00028655986534431577,0.0030910163186490536,-0.0019692869391292334,0.9985032081604004,0.0,0.0,0.0,-34.653804779052734,7.5423126220703125,-2.354621410369873,6272.40771484375,0
1888.2839999999997,0.012407856062054634,-0.02555719204246998,0.0018688335549086332,0.0,0.0,0.0,0.0,-0.00013958248018752784,0.0025829090736806393,-0.0008570994832552969,0.9984700083732605,0.0,0.0,0.0,-34.71115493774414,7.546994686126709,-2.373684883117676,6282.7880859375,0
1898.1630000000005,0.01245911791920662,-0.025655096396803856,0.0017090945038944483,0.0,0.0,0.0,0.0,0.0024963717442005873,0.004000317770987749,0.0013815643033012748,1.0002853870391846,0.0,0.0,0.0,-34.69852066040039,7.540655136108398,-2.371999979019165,6280.5009765625,0
1908.0640000000003,0.012400378473103046,-0.025518864393234253,0.0017876415513455868,0.0,0.0,0.0,0.0,-0.0006256048218347132,-0.0026341406628489494,-0.00330136576667428,0.9990643858909607,0.0,0.0,0.0,-34.74567794799805,7.540018558502197,-2.399188280105591,6289.03662109375,0
1917.937,0.012437300756573677,-0.02562604285776615,0.001641945680603385,0.0,0.0,0.0,0.0,0.0013009246904402971,-0.0005294965812936425,0.0019250058103352785,0.9999455809593201,0.0,0.0,0.0,-34.72995376586914,7.534056663513184,-2.374087333679199,6286.19091796875,0
1927.8360000000011,0.012427178211510181,-0.025528401136398315,0.0017153059598058462,0.0,0.0,0.0,0.0,0.0006592493737116456,0.0046993144787848,0.0012879610294476151,0.9988947510719299,0.0,0.0,0.0,-34.75702667236328,7.536447048187256,-2.377200126647949,6291.09033203125,0
1937.7150000000001,0.012446993961930275,-0.025650477036833763,0.0015905436594039202,0.0,0.0,0.0,0.0,0.0020743783097714186,-0.0028072716668248177,0.0029356477316468954,0.9991036653518677,0.0,0.0,0.0,-34.739322662353516,7.524919033050537,-2.3680436611175537,6287.88623046875,0
1947.6049999999996,0.012417865917086601,-0.025504067540168762,0.0016827366780489683,0.0,0.0,0.0,0.0,0.0012975287390872836,-0.002225693082436919,0.0029882369562983513,0.9979345798492432,0.0,0.0,0.0,-34.78173828125,7.533611297607422,-2.380051612854004,6295.56396484375,0
1957.482,0.01242156233638525,-0.02565368264913559,0.0015663449885323644,0.0,0.0,0.0,0.0,0.0008335139136761427,0.007124891504645348,0.001459444989450276,0.9983546137809753,0.0,0.0,0.0,-34.76456832885742,7.512701988220215,-2.361873149871826,6292.45556640625,0
1967.384,0.0124205918982625,-0.025539908558130264,0.001647871220484376,0.0,0.0,0.0,0.0,-0.001344934105873108,0.0016746099572628736,-0.0009330594912171364,0.9993398189544678,0.0,0.0,0.0,-34.78609848022461,7.521726131439209,-2.388836622238159,6296.35302734375,0
1977.255000000001,0.01242732536047697,-0.02568420022726059,0.0015434934757649899,0.0,0.0,0.0,0.0,0.0024004681035876274,0.0007162964902818203,-0.0016260499833151698,1.0009808540344238,0.0,0.0,0.0,-34.769412994384766,7.5056071281433105,-2.3826215267181396,6293.33251953125,0
1987.148000000001,0.012417067773640156,-0.02553430385887623,0.001645818236283958,0.0,0.0,0.0,0.0,0.00044426246313378215,-0.002212159102782607,-0.00019072189752478153,1.0009100437164307,0.0,0.0,0.0,-34.8053092956543,7.517572402954102,-2.401729106903076,6299.83056640625,0
1997.0290000000005,0.01241802517324686,-0.025517432019114494,0.001658959430642426,0.0,0.0,0.0,0.0,0.0013397225411608815,-0.0008378879865631461,0.0012479412835091352,0.9991432428359985,0.0,0.0,0.0,-34.84306335449219,7.521815776824951,-2.4001305103302,6306.6640625,0
2006.92,0.012431751005351543,-0.025555158033967018,0.0016476482851430774,0.0,0.0,0.0,0.0,0.00012951399548910558,-0.0017230205703526735,-0.0013247388415038586,0.9978229999542236,0.0,0.0,0.0,-34.80766677856445,7.512786865234375,-2.395416736602783,6300.25732421875,0
2016.8009999999995,0.012347652576863766,-0.025456329807639122,0.0016493782168254256,0.0,0.0,0.0,0.0,-2.1727268176618963e-05,-0.003520996542647481,0.0008839927613735199,0.9988898038864136,0.0,0.0,0.0,-34.84877014160156,7.526755332946777,-2.4153573513031006,6307.697265625,0
2026.6990000000005,0.012356739491224289,-0.025490274652838707,0.0016366972122341394,0.0,0.0,0.0,0.0,-0.0020815839525312185,0.0023105901200324297,0.0017180938739329576,0.9976174235343933,0.0,0.0,0.0,-34.81478500366211,7.517429828643799,-2.40480899810791,6301.5458984375,0
2036.5779999999995,0.012335831299424171,-0.025478683412075043,0.001612951746210456,0.0,0.0,0.0,0.0,0.001058930647559464,0.0012166914530098438,0.0011387449922040105,0.9996693134307861,0.0,0.0,0.0,-34.854713439941406,7.523126602172852,-2.4146337509155273,6308.7724609375,0
2046.469000000001,0.012343056499958038,-0.02551726996898651,0.00159734976477921,0.0,0.0,0.0,0.0,0.0011954823276028037,0.0002871945616789162,0.0022613275796175003,1.0000666379928589,0.0,0.0,0.0,-34.81998825073242,7.516262531280518,-2.411790132522583,6302.48779296875,0
2056.3469999999998,0.01235878374427557,-0.02551284246146679,0.0016540378564968705,0.0,0.0,0.0,0.0,0.0035772526171058416,0.0008296010200865567,0.00036275023012422025,1.0008018016815186,0.0,0.0,0.0,-34.86460876464844,7.52094030380249,-2.411878824234009,6310.56298828125,0
2066.24,0.012364369817078114,-0.025555143132805824,0.0016452213749289513,0.0,0.0,0.0,0.0,-0.000563104753382504,0.0045133111998438835,-0.0032083361875265837,1.0019570589065552,0.0,0.0,0.0,-34.82975387573242,7.509397029876709,-2.4025282859802246,6304.25537109375,0
2076.1190000000006,0.012360655702650547,-0.025549817830324173,0.001702772919088602,0.0,0.0,0.0,0.0,0.0001339773734798655,0.0021595496218651533,0.0030263205990195274,0.9996886253356934,0.0,0.0,0.0,-34.87226104736328,7.514380931854248,-2.4193313121795654,6311.9482421875,0
2086.013000000001,0.012362771667540073,-0.025592153891921043,0.0017012422904372215,0.0,0.0,0.0,0.0,0.000631519767921418,-0.00618025241419673,0.004693254828453064,0.9968743920326233,0.0,0.0,0.0,-34.837215423583984,7.504863262176514,-2.4251270294189453,6305.60595703125,0
2095.8909999999996,0.012379554100334644,-0.025598732754588127,0.0017507828306406736,0.0,0.0,0.0,0.0,0.0015403671422973275,0.0035506845451891422,0.0016140587395057082,0.9985097050666809,0.0,0.0,0.0,-34.87451171875,7.512110710144043,-2.414275646209717,6312.3564453125,0
2105.785,0.012380863539874554,-0.025645563378930092,0.0017505818977952003,0.0,0.0,0.0,0.0,0.000175601351656951,0.002281567780300975,-0.0008778595365583897,1.0001418590545654,0.0,0.0,0.0,-34.83917999267578,7.500319004058838,-2.421909809112549,6305.96142578125,0
2115.661,0.012422195635735989,-0.02555769868195057,0.0017184149473905563,0.0,0.0,0.0,0.0,-0.0020973123610019684,-0.00580658158287406,0.003384585492312908,0.9990639090538025,0.0,0.0,0.0,-34.8807373046875,7.522988796234131,-2.4424495697021484,6313.48291015625,0
2125.5560000000005,0.01242544874548912,-0.025601599365472794,0.0017158084083348513,0.0,0.0,0.0,0.0,0.001677636057138443,-0.004439922049641609,0.0016481524799019098,0.998347818851471,0.0,0.0,0.0,-34.84540939331055,7.522465229034424,-2.425323963165283,6307.087890625,0
2135.438,0.012403653003275394,-0.025569582358002663,0.0016989093273878098,0.0,0.0,0.0,0.0,-0.0008278400055132806,0.004243555478751659,0.0006803217111155391,0.9972009658813477,0.0,0.0,0.0,-34.86827850341797,7.533820152282715,-2.4220802783966064,6311.2275390625,0
2145.3330000000005,0.012408782728016376,-0.025611307471990585,0.0016925623640418053,0.0,0.0,0.0,0.0,-0.0022994508035480976,0.005869023501873016,0.0011741436319425702,0.9978891015052795,0.0,0.0,0.0,-34.83283996582031,7.5282745361328125,-2.431560516357422,6304.81396484375,0
2155.2170000000006,0.0124097540974617,-0.025548672303557396,0.0016502044163644314,0.0,0.0,0.0,0.0,0.00020548657630570233,0.002242597285658121,-0.0024624005891382694,0.9983649849891663,0.0,0.0,0.0,-34.8583869934082,7.545100688934326,-2.4515624046325684,6309.43798828125,0
2165.107,0.012416313402354717,-0.025589505210518837,0.0016380602028220892,0.0,0.0,0.0,0.0,0.0006442374433390796,-0.0003384996089152992,0.0007193897617980838,0.9994289875030518,0.0,0.0,0.0,-34.82504653930664,7.53188419342041,-2.45085072517395,6303.40234375,0
2174.982,0.012472044676542282,-0.025562552735209465,0.0016193031333386898,0.0,0.0,0.0,0.0,-0.0016618508379906416,-0.0028201965615153313,-0.000686472631059587,0.9998703002929688,0.0,0.0,0.0,-34.868350982666016,7.545536994934082,-2.4461398124694824,6311.24072265625,0
2184.8729999999996,0.01248113065958023,-0.02560088224709034,0.001606383128091693,0.0,0.0,0.0,0.0,-0.0011178147979080677,-0.0023920335806906223,0.002767300233244896,0.9988691806793213,0.0,0.0,0.0,-34.83393478393555,7.5412116050720215,-2.4339776039123535,6305.01171875,0
2194.7530000000006,0.012465774081647396,-0.025602281093597412,0.0016101987566798925,0.0,0.0,0.0,0.0,0.0024086972698569298,0.00049753108760342,-0.0028809644281864166,1.0000050067901611,0.0,0.0,0.0,-34.87474060058594,7.547509670257568,-2.436490297317505,6312.3974609375,0
