timestamp,stateEstimate.x,stateEstimate.y,stateEstimate.z,controller.cmd_thrust,controller.cmd_roll,controller.cmd_pitch,controller.cmd_yaw,controller.r_roll,controller.r_pitch,controller.r_yaw,controller.accelz,controller.actuatorThrust,controller.roll,controller.pitch,controller.yaw,controller.rollRate,controller.pitchRate,controller.yawRate,controller.ctr_yaw
0.0,-0.00024225094239227474,-0.00011273149721091613,-3.648647907539271e-05,0.0,0.0,0.0,0.0,-0.0013845922658219934,-0.0010204669088125229,-0.00023049332958180457,0.9999657273292542,0.0,0.0,0.0,0.2976876497268677,1.8131462335586548,4.913991451263428,-53.88205337524414,0
9.903000000000247,-0.0001506162079749629,-0.00013504980597645044,1.5338484445237555e-05,0.0,0.0,0.0,0.0,0.0017490884056314826,0.0020668155048042536,0.0004677734395954758,1.0004554986953735,0.0,0.0,0.0,0.2900010049343109,1.813260793685913,4.92210054397583,-52.49075698852539,0
19.834999999999127,-0.0001593800407135859,-7.702852599322796e-05,-2.2968124540057033e-05,0.0,0.0,0.0,0.0,0.0007129334844648838,0.0005064522265456617,-0.0016759029822424054,0.9979265332221985,0.0,0.0,0.0,0.28948408365249634,1.8104526996612549,4.910377502441406,-52.397193908691406,0
29.72700000000077,-0.0002208189107477665,-8.520773553755134e-05,-1.761284511303529e-05,0.0,0.0,0.0,0.0,-9.581595804775134e-05,0.0009257452911697328,-0.002383396727964282,0.9980860352516174,0.0,0.0,0.0,0.2883685231208801,1.8032441139221191,4.906854152679443,-52.19527053833008,0
39.655000000000655,-0.0002572452067397535,-9.120187314692885e-05,-5.5367818276863545e-05,0.0,0.0,0.0,0.0,-0.005824208725243807,-0.004062287509441376,0.005704883020371199,0.9996208548545837,0.0,0.0,0.0,0.2875990569591522,1.8040385246276855,4.895887851715088,-52.055999755859375,0
49.55999999999949,-0.00014856115740258247,-0.00013486047100741416,5.887400220672134e-06,0.0,0.0,0.0,0.0,-0.0015228172997012734,-0.0008664039778523147,-0.002697733463719487,0.9988837838172913,0.0,0.0,0.0,0.2884731590747833,1.810494065284729,4.895463943481445,-52.21421432495117,0
59.47400000000016,-0.0001666342286625877,-8.77562997629866e-05,-2.8352582376101054e-05,0.0,0.0,0.0,0.0,0.0008616918930783868,-0.002157632727175951,-0.0019185991259291768,0.9990406036376953,0.0,0.0,0.0,0.2873764634132385,1.8119484186172485,4.892550468444824,-52.015716552734375,0
69.38800000000083,-0.00013648504682350904,-0.00015082405298016965,-2.145382677554153e-05,0.0,0.0,0.0,0.0,0.0041969227604568005,-0.0034881867468357086,-0.00046135924640111625,0.9994227886199951,0.0,0.0,0.0,0.28734317421913147,1.8090708255767822,4.880177974700928,-52.00968933105469,0
79.29600000000028,-0.00017800307250581682,-0.00016902841161936522,-5.743419023929164e-05,0.0,0.0,0.0,0.0,0.00181011448148638,-0.0004477594920899719,-0.0034759079571813345,1.000287413597107,0.0,0.0,0.0,0.28691068291664124,1.8005183935165405,4.881330490112305,-51.93140411376953,0
89.20800000000054,-0.00015104986960068345,-0.00014834586181677878,-2.0691948520834558e-05,0.0,0.0,0.0,0.0,-0.0028286012820899487,-0.002454493660479784,0.0012968041701242328,1.0007777214050293,0.0,0.0,0.0,0.27974504232406616,1.8000997304916382,4.893921375274658,-50.6344108581543,0
99.1239999999998,-0.00013404234778136015,-6.725744606228545e-05,-0.00010253120126435533,0.0,0.0,0.0,0.0,-0.0009883365128189325,0.003992551472038031,-0.0017679049633443356,0.9999492764472961,0.0,0.0,0.0,0.279634565114975,1.802748680114746,4.888883590698242,-50.61441421508789,0
109.03299999999945,-0.00010883959475904703,-8.731884736334905e-05,-8.776233880780637e-05,0.0,0.0,0.0,0.0,-0.0020469462033361197,-0.0017277757870033383,8.305030496558174e-05,0.9994657039642334,0.0,0.0,0.0,0.27847370505332947,1.7995221614837646,4.8739166259765625,-50.404293060302734,0
118.94599999999991,-0.0001285716862184927,-6.308802403509617e-05,-0.00014535911031998694,0.0,0.0,0.0,0.0,0.0009109620004892349,0.0014045999851077795,-0.002535140374675393,0.9996296167373657,0.0,0.0,0.0,0.27794700860977173,1.8028688430786133,4.877312660217285,-50.308963775634766,0
128.86000000000058,-6.582801142940298e-05,-0.00011715405707946047,-0.00013281185238156468,0.0,0.0,0.0,0.0,0.0008205562480725348,0.0027181438636034727,-0.0031069370452314615,0.9980984330177307,0.0,0.0,0.0,0.27644696831703186,1.7953437566757202,4.872435092926025,-50.03744888305664,0
138.77499999999964,-0.00013980077346786857,-0.00013856204168405384,-0.00013446192315313965,0.0,0.0,0.0,0.0,-0.0025501404888927937,-0.0009069728548638523,0.002506340853869915,0.999107837677002,0.0,0.0,0.0,0.27535560727119446,1.7907789945602417,4.864565372467041,-49.83991241455078,0
148.6869999999999,-0.00020658294670283794,-0.0001443844084860757,-0.0001431541022611782,0.0,0.0,0.0,0.0,0.004326981026679277,-0.0033705972600728273,0.0012287091230973601,0.9999838471412659,0.0,0.0,0.0,0.27696165442466736,1.7923455238342285,4.8576555252075195,-50.13060760498047,0
158.59799999999996,-0.00021877733524888754,-0.00010349508374929428,-0.000221627953578718,0.0,0.0,0.0,0.0,0.0007529692375101149,0.0012769782915711403,-0.00403091125190258,0.9995164275169373,0.0,0.0,0.0,0.2767588198184967,1.7869654893875122,4.864870548248291,-50.09389877319336,0
168.51000000000022,-0.00013705433229915798,-5.6388340453850105e-05,-0.00014782525249756873,0.0,0.0,0.0,0.0,-0.0010697752004489303,-0.0033487535547465086,-0.0005907340673729777,1.0006340742111206,0.0,0.0,0.0,0.2755497992038727,1.783708930015564,4.855779647827148,-49.875057220458984,0
178.42200000000048,-0.00016421591863036156,-1.6350331861758605e-05,-0.0001944434770848602,0.0,0.0,0.0,0.0,0.0020302075427025557,0.0005225312197580934,-0.0009165948140434921,1.0004327297210693,0.0,0.0,0.0,0.274667352437973,1.7819862365722656,4.859729766845703,-49.71533203125,0
188.33799999999974,-0.00012109567614970729,-7.10282038198784e-05,-0.00019393404363654554,0.0,0.0,0.0,0.0,0.0024981405586004257,0.0032797823660075665,-0.0018203206127509475,0.9991211295127869,0.0,0.0,0.0,0.27417823672294617,1.774157166481018,4.852200508117676,-49.626808166503906,0
198.2469999999994,-0.0001651136262807995,-6.611857679672539e-05,-0.0002326977701159194,0.0,0.0,0.0,0.0,-0.0015653815353289247,0.0027097174897789955,-0.002125744940713048,0.9976547360420227,0.0,0.0,0.0,0.2730904221534729,1.7678440809249878,4.8453803062438965,-49.42991256713867,0
208.15899999999965,-0.00013492998550646007,-2.9593520594062284e-05,-0.0002017377264564857,0.0,0.0,0.0,0.0,-0.004212247673422098,0.003063041251152754,-0.0028328741900622845,1.0010082721710205,0.0,0.0,0.0,0.27211201190948486,1.7639241218566895,4.83788537979126,-49.25281524658203,0
218.0650000000005,-0.0001749099901644513,-7.858953722461592e-06,-0.0002401344827376306,0.0,0.0,0.0,0.0,5.469673396873986e-06,0.0003597657778300345,0.004649889189749956,1.0002799034118652,0.0,0.0,0.0,0.2779771387577057,1.7700330018997192,4.8377909660339355,-50.31441116333008,0
227.99599999999919,-0.00010931432188954204,-1.8872869986807927e-05,-0.0002152122324332595,0.0,0.0,0.0,0.0,-0.0024357656948268414,0.0013811890967190266,-0.0017440278315916657,0.9998418688774109,0.0,0.0,0.0,0.278160959482193,1.765494465827942,4.83470344543457,-50.347686767578125,0
237.89300000000003,-0.00019599992083385587,-3.6808789445785806e-05,-0.00019989731663372368,0.0,0.0,0.0,0.0,0.0006375729572027922,-0.002464479533955455,0.001027689315378666,0.9993920922279358,0.0,0.0,0.0,0.28444793820381165,1.7593517303466797,4.831003665924072,-51.48564529418945,0
247.82200000000012,-0.0002628667571116239,-3.956431828555651e-05,-0.00020730528922285885,0.0,0.0,0.0,0.0,-0.0025197674985975027,0.006828800309449434,0.0031829604413360357,1.0022389888763428,0.0,0.0,0.0,0.2836858928203583,1.7551792860031128,4.826240062713623,-51.34770965576172,0
257.71500000000015,-0.00032473058672621846,-2.8656668291660026e-05,-0.00021739058138336986,0.0,0.0,0.0,0.0,0.0009461042936891317,0.001122817164286971,-0.0019813363905996084,1.001255989074707,0.0,0.0,0.0,0.28414487838745117,1.752838373184204,4.817317485809326,-51.4307861328125,0
267.6419999999998,-0.00011978065595030785,-0.00010898874461418018,-0.00013044515799265355,0.0,0.0,0.0,0.0,-0.0018269844586029649,0.00588023429736495,-0.0028222566470503807,0.9988543391227722,0.0,0.0,0.0,0.28287777304649353,1.7406572103500366,4.864062786102295,-51.20143508911133,0
277.54299999999967,-0.00020796047465410084,-0.00012541655451059341,-8.707927190698683e-05,0.0,0.0,0.0,0.0,-0.001232579001225531,-0.003155276644974947,-0.0006390881026163697,1.0012633800506592,0.0,0.0,0.0,0.28212907910346985,1.7399357557296753,4.853113174438477,-51.06592559814453,0
287.46800000000076,-0.00013400368334259838,-0.00013291047071106732,-3.786096931435168e-05,0.0,0.0,0.0,0.0,0.0016280215932056308,-0.0067526898346841335,0.001861282275058329,1.001937747001648,0.0,0.0,0.0,0.28194570541381836,1.7399133443832397,4.846956729888916,-51.03273010253906,0
297.3700000000008,-0.0001539555669296533,-9.661649528425187e-05,-6.440464494517073e-05,0.0,0.0,0.0,0.0,0.00502416305243969,0.003643567441031337,0.0020992914214730263,1.0017461776733398,0.0,0.0,0.0,0.2824796140193939,1.7387794256210327,4.849728584289551,-51.12937545776367,0
307.28900000000067,-0.00010253497748635709,-7.790848758304492e-05,-1.0927240509772673e-05,0.0,0.0,0.0,0.0,9.868558117887005e-05,-0.00018465217726770788,0.0006132209673523903,0.9986449480056763,0.0,0.0,0.0,0.28308364748954773,1.7314951419830322,4.847517967224121,-51.238704681396484,0
317.1949999999997,-0.0001391573459841311,-5.457023871713318e-05,-1.7178548660012893e-05,0.0,0.0,0.0,0.0,0.0030083495657891035,0.00186310731805861,-0.0012393193319439888,0.9979544281959534,0.0,0.0,0.0,0.27592766284942627,1.7337026596069336,4.841246128082275,-49.943458557128906,0
327.1090000000004,-0.00019825455092359334,-6.22954175923951e-05,-7.1370868681697175e-06,0.0,0.0,0.0,0.0,0.0007610734319314361,0.004529651720076799,-0.0015468407655134797,1.0021517276763916,0.0,0.0,0.0,0.2738548219203949,1.730189323425293,4.831881046295166,-49.56826400756836,0
337.02000000000044,-0.0002380275254836306,-8.467106817988679e-05,-3.7795962271047756e-05,0.0,0.0,0.0,0.0,0.003081519855186343,-0.007252513896673918,0.005362722557038069,1.0005311965942383,0.0,0.0,0.0,0.27306145429611206,1.7295160293579102,4.819969177246094,-49.42466735839844,0
346.9449999999997,-7.170673052314669e-05,-0.00015770200116094202,4.783704207511619e-05,0.0,0.0,0.0,0.0,-0.0011204995680600405,-0.001782595762051642,0.0008248225203715265,0.9998714923858643,0.0,0.0,0.0,0.2720853090286255,1.714130163192749,4.86729621887207,-49.247982025146484,0
356.84000000000015,-8.505900768795982e-05,-0.00010999682854162529,2.742493052210193e-05,0.0,0.0,0.0,0.0,0.002533813938498497,-0.003303771372884512,-0.0017350170528516173,0.9997586011886597,0.0,0.0,0.0,0.2729674279689789,1.7155667543411255,4.870480537414551,-49.40764617919922,0
366.7639999999992,-0.00011224686750210822,-0.0001273532398045063,4.046392859891057e-05,0.0,0.0,0.0,0.0,0.0004260571440681815,0.00546662462875247,-0.003834302304312587,1.0003238916397095,0.0,0.0,0.0,0.272657573223114,1.7085026502609253,4.878447532653809,-49.3515625,0
376.66899999999987,-0.00013318375567905605,-0.00010417189332656562,1.354056439595297e-05,0.0,0.0,0.0,0.0,-0.0008159229182638228,-0.0017109381733462214,-0.0012027084594592452,1.000834584236145,0.0,0.0,0.0,0.27152180671691895,1.7101083993911743,4.860941410064697,-49.1459846496582,0
386.59499999999935,-0.00012125040666433051,-0.00014810347056481987,2.8530550480354577e-05,0.0,0.0,0.0,0.0,0.001763477106578648,-0.0021880334243178368,-0.0014049396850168705,0.9996787905693054,0.0,0.0,0.0,0.2715868353843689,1.70735764503479,4.866901397705078,-49.15775680541992,0
396.4899999999998,-7.878991164034232e-05,-4.948281275574118e-05,-6.32226001471281e-05,0.0,0.0,0.0,0.0,-0.0017300586914643645,-7.10178937879391e-05,-0.004171552136540413,0.9979093670845032,0.0,0.0,0.0,0.2715103328227997,1.7006062269210815,4.870235919952393,-49.1439094543457,0
406.40999999999985,-5.043253258918412e-05,-0.00013789894001092762,-6.61528465570882e-05,0.0,0.0,0.0,0.0,-0.00038301415042951703,-0.001211867667734623,-0.0005146585172042251,0.9981463551521301,0.0,0.0,0.0,0.26919564604759216,1.7003858089447021,4.864311695098877,-48.72494888305664,0
416.3250000000007,-4.667756729759276e-05,-6.969598325667903e-05,-0.00012208253610879183,0.0,0.0,0.0,0.0,9.782769484445453e-05,-0.0006543081253767014,0.002156314207240939,0.9997662305831909,0.0,0.0,0.0,0.2698785364627838,1.698106050491333,4.862872123718262,-48.84854507446289,0
426.2450000000008,-6.478066643467173e-05,-8.337789768120274e-05,-0.00011925795843126252,0.0,0.0,0.0,0.0,0.0029370111878961325,-0.0010685109300538898,0.001276606461033225,0.9990832805633545,0.0,0.0,0.0,0.2685675323009491,1.6958892345428467,4.853387832641602,-48.61125564575195,0
436.14799999999923,-0.00012066117051290348,-8.262296614702791e-05,-0.00012510437227319926,0.0,0.0,0.0,0.0,0.0033820283133536577,-0.0004220937262289226,-0.002157206181436777,0.9995918273925781,0.0,0.0,0.0,0.26851800084114075,1.6864006519317627,4.850088596343994,-48.602291107177734,0
446.0619999999999,-8.72035016072914e-05,-0.00010268553160130978,-0.00010590215970296413,0.0,0.0,0.0,0.0,-0.0025104039814323187,-0.0021492706146091223,0.0025443481281399727,0.999179482460022,0.0,0.0,0.0,0.2684061527252197,1.6830623149871826,4.846380710601807,-48.58204650878906,0
455.96199999999953,-0.00014014402404427528,-8.587082265876234e-05,-0.00011227413779124618,0.0,0.0,0.0,0.0,-0.0026214064564555883,0.0009921734454110265,0.0013082389486953616,1.0011295080184937,0.0,0.0,0.0,0.26191675662994385,1.6833866834640503,4.84414005279541,-47.40745162963867,0
465.8790000000008,-0.00014403887325897813,-8.42356967041269e-05,-9.691733430372551e-05,0.0,0.0,0.0,0.0,0.0014172407099977136,-0.002706348430365324,-0.001209380803629756,1.000963568687439,0.0,0.0,0.0,0.2624378204345703,1.6832590103149414,4.847923755645752,-47.50177001953125,0
475.7950000000001,-0.00020036639762111008,-8.808987331576645e-05,-0.00011067371815443039,0.0,0.0,0.0,0.0,0.004328593611717224,-0.0007063466473482549,0.0011531137861311436,0.9994863271713257,0.0,0.0,0.0,0.26191574335098267,1.6777598857879639,4.849269866943359,-47.40727233886719,0
485.7009999999991,-0.00026670884108170867,-9.381250129081309e-05,-0.0001127768773585558,0.0,0.0,0.0,0.0,0.00016035129374358803,-0.0011331960558891296,0.0010723986197263002,1.0008970499038696,0.0,0.0,0.0,0.2624579071998596,1.6710350513458252,4.848869323730469,-47.50540542602539,0
495.6190000000006,-7.551434100605547e-05,-0.00011499605170683935,-7.131647726055235e-05,0.0,0.0,0.0,0.0,0.0005793882883153856,-0.0034595292527228594,-0.004759604576975107,0.9993481040000916,0.0,0.0,0.0,0.25985825061798096,1.6582279205322266,4.893734455108643,-47.03486251831055,0
505.52700000000004,-0.00013354458496905863,-0.00012616760795935988,-6.932478572707623e-05,0.0,0.0,0.0,0.0,0.002283516339957714,0.003366220975294709,0.005585403647273779,1.0021599531173706,0.0,0.0,0.0,0.258719801902771,1.6608161926269531,4.892980575561523,-46.828800201416016,0
515.4539999999997,-2.748338556557428e-05,-0.00013268738985061646,-4.933631862513721e-05,0.0,0.0,0.0,0.0,0.0015104761114344,-0.0066185519099235535,0.0017049905145540833,1.0022844076156616,0.0,0.0,0.0,0.2601160407066345,1.6610580682754517,4.88455057144165,-47.081520080566406,0
525.3510000000006,-8.513769716955721e-05,-0.00014635853585787117,-4.3293373892083764e-05,0.0,0.0,0.0,0.0,0.004959847312420607,0.0007122612441889942,0.00047710633953101933,1.0024276971817017,0.0,0.0,0.0,0.2598082423210144,1.654067873954773,4.882264614105225,-47.02580642700195,0
535.2659999999996,5.735219019697979e-06,-9.870764915831387e-05,-8.616722334409133e-05,0.0,0.0,0.0,0.0,-0.003799047786742449,-0.0013663998106494546,0.0032326835207641125,0.9995226860046387,0.0,0.0,0.0,0.26696333289146423,1.6522741317749023,4.886808395385742,-48.320892333984375,0
545.1800000000003,-5.494511788128875e-05,-0.00011030369932996109,-7.984057447174564e-05,0.0,0.0,0.0,0.0,-0.0001378183369524777,-0.003501680213958025,3.1962663342710584e-05,0.9977246522903442,0.0,0.0,0.0,0.2674311697483063,1.6511424779891968,4.880250930786133,-48.40557098388672,0
555.0930000000008,-2.6703201001510024e-05,-0.00014941660629119724,-4.617236118065193e-05,0.0,0.0,0.0,0.0,0.0011995745589956641,-0.002294843550771475,-0.002415139926597476,1.0003044605255127,0.0,0.0,0.0,0.2675877511501312,1.652425765991211,4.8813347816467285,-48.43391418457031,0
565.009,-9.020614379551262e-05,-0.00016582707758061588,-4.005118535133079e-05,0.0,0.0,0.0,0.0,-0.0033126999624073505,0.0019011280965059996,-0.0028856375720351934,0.9986867904663086,0.0,0.0,0.0,0.2670881152153015,1.651639461517334,4.877023220062256,-48.34347915649414,0
574.914999999999,-0.00012001972936559469,-0.0001229900517500937,-6.234375177882612e-05,0.0,0.0,0.0,0.0,0.0003083504852838814,-0.0006545473006553948,-0.0003800899430643767,0.9998010993003845,0.0,0.0,0.0,0.2673734426498413,1.6505413055419922,4.865602970123291,-48.39512634277344,0
584.8330000000005,-0.00018653694132808596,-0.00014156781253404915,-5.926188896410167e-05,0.0,0.0,0.0,0.0,0.0008172151865437627,0.0012910397490486503,-0.001359491958282888,0.9995002746582031,0.0,0.0,0.0,0.2671402394771576,1.6474859714508057,4.861492156982422,-48.35291290283203,0
594.741,-0.00011068749881815165,-8.752044232096523e-05,-2.778059024421964e-05,0.0,0.0,0.0,0.0,0.003565911203622818,-0.004073708318173885,0.00030830028117634356,0.9989068508148193,0.0,0.0,0.0,0.2670705020427704,1.6451807022094727,4.858726978302002,-48.340293884277344,0
604.6550000000007,-0.00017618245328776538,-0.00010777803254313767,-2.316990321560297e-05,0.0,0.0,0.0,0.0,-0.001683069858700037,0.0028287700843065977,-0.0001811627735150978,1.0007067918777466,0.0,0.0,0.0,0.2671929895877838,1.643039584159851,4.858002185821533,-48.362457275390625,0
614.5630000000001,-0.00012067469651810825,-0.00010094774916069582,-3.786674642469734e-05,0.0,0.0,0.0,0.0,0.00027291211881674826,0.00135618110653013,-0.0007894766167737544,0.9998267292976379,0.0,0.0,0.0,0.2671044170856476,1.6387666463851929,4.851185321807861,-48.346431732177734,0
624.4850000000006,-0.000185924960533157,-0.00012451072689145803,-3.479803854133934e-05,0.0,0.0,0.0,0.0,0.00017031833704095334,-0.0022043143399059772,0.0017693700501695275,0.9998555183410645,0.0,0.0,0.0,0.266340970993042,1.637290596961975,4.842931747436523,-48.208248138427734,0
634.3880000000008,-0.0002072507923003286,-8.77435231814161e-05,-7.155079947551712e-05,0.0,0.0,0.0,0.0,0.003681033384054899,-0.0009035060647875071,0.0006289986195042729,1.0022644996643066,0.0,0.0,0.0,0.2662527859210968,1.6369177103042603,4.8445539474487305,-48.192283630371094,0
644.3099999999995,-0.0002750554704107344,-0.00011245864152442664,-7.029654079815373e-05,0.0,0.0,0.0,0.0,-0.0005991862271912396,0.0017900279490277171,-0.00029578059911727905,1.0023119449615479,0.0,0.0,0.0,0.26509830355644226,1.6346853971481323,4.851928234100342,-47.98332214355469,0
654.2189999999991,-9.163127833744511e-05,-6.470685184467584e-05,-8.891995094018057e-05,0.0,0.0,0.0,0.0,0.0003593409201130271,0.0007262254948727787,-0.0008469098247587681,1.0002772808074951,0.0,0.0,0.0,0.2720491290092468,1.6532565355300903,4.856466770172119,-49.241432189941406,0
664.1360000000004,-0.0001272327353945002,-4.984797487850301e-05,-0.00010360452142776921,0.0,0.0,0.0,0.0,-0.0009879623539745808,0.005124278832226992,0.0015084597980603576,1.0006191730499268,0.0,0.0,0.0,0.2714071571826935,1.6525605916976929,4.853209018707275,-49.1252326965332,0
674.0429999999997,-4.902734508505091e-05,-0.00011629126674961299,-7.545876724179834e-05,0.0,0.0,0.0,0.0,-0.003206658875569701,-0.00421871105208993,0.0025310989003628492,1.0005123615264893,0.0,0.0,0.0,0.27178147435188293,1.6420153379440308,4.8398284912109375,-49.19298553466797,0
683.9580000000005,-0.00010804209159687161,-0.00014091591583564878,-6.958974699955434e-05,0.0,0.0,0.0,0.0,0.004199218470603228,-0.00033602616167627275,0.00096139992820099,1.0002124309539795,0.0,0.0,0.0,0.27292194962501526,1.6476459503173828,4.839500427246094,-49.3994140625,0
693.8619999999992,-2.3006534320302308e-05,-0.00015109906962607056,-4.2120242142118514e-05,0.0,0.0,0.0,0.0,0.000978222582489252,0.0011504492722451687,-0.00026629213243722916,1.001161813735962,0.0,0.0,0.0,0.27363094687461853,1.6440078020095825,4.838276386260986,-49.527740478515625,0
703.780999999999,-4.571972385747358e-05,-0.00011526172602316365,-5.955628148512915e-05,0.0,0.0,0.0,0.0,-0.002058920683339238,-2.4952680178103037e-05,0.00022988558339420706,1.0007838010787964,0.0,0.0,0.0,0.27252814173698425,1.6414868831634521,4.831421375274658,-49.32814025878906,0
713.6859999999997,-0.00010490197746548802,-0.00014043293776921928,-5.218003207119182e-05,0.0,0.0,0.0,0.0,-0.003881250275298953,-0.0014920071698725224,-3.569253021851182e-05,1.0011874437332153,0.0,0.0,0.0,0.2726791501045227,1.6344517469406128,4.827946186065674,-49.35546875,0
723.6080000000002,-0.00013220497930888087,-0.0001169395909528248,-7.605522114317864e-05,0.0,0.0,0.0,0.0,0.0018213501898571849,0.0035572517663240433,0.0011967169120907784,0.9989960193634033,0.0,0.0,0.0,0.2727530896663666,1.642229437828064,4.825952053070068,-49.36885452270508,0
733.5120000000006,-0.00012107189832022414,-0.00010827756341313943,-2.7715146643458866e-05,0.0,0.0,0.0,0.0,0.0006640688516199589,-0.005386750213801861,-0.00011841273226309568,1.000293254852295,0.0,0.0,0.0,0.27192702889442444,1.6371517181396484,4.819129467010498,-49.219329833984375,0
743.4320000000007,-0.00010348714567953721,-7.9926016042009e-05,-0.00010446001397212967,0.0,0.0,0.0,0.0,0.0003044994955416769,0.002556365914642811,-9.289359149988741e-05,1.0013235807418823,0.0,0.0,0.0,0.2773934602737427,1.646831750869751,4.825721263885498,-50.208763122558594,0
753.3359999999993,-0.00016279627743642777,-0.0001041028808685951,-0.00010093949822476134,0.0,0.0,0.0,0.0,0.0025491262786090374,0.003108004340901971,-0.00028244988061487675,1.0015078783035278,0.0,0.0,0.0,0.27821600437164307,1.6460280418395996,4.8239617347717285,-50.3576545715332,0
763.2690000000002,-0.00019312367658130825,-7.019568147370592e-05,-0.00012004894233541563,0.0,0.0,0.0,0.0,-0.0011835274053737521,-0.0023043006658554077,0.00647364929318428,1.0014528036117554,0.0,0.0,0.0,0.2710380256175995,1.659490704536438,4.81838846206665,-49.05842208862305,0
773.1610000000001,-7.020476914476603e-05,-0.00012290071754250675,-4.575452476274222e-05,0.0,0.0,0.0,0.0,-0.0006571341073140502,-0.003007657593116164,0.0024721173103898764,0.9995207190513611,0.0,0.0,0.0,0.2688562273979187,1.6479007005691528,4.858005523681641,-48.663509368896484,0
783.0840000000007,-9.129380487138405e-05,-9.224992390954867e-05,-5.836035415995866e-05,0.0,0.0,0.0,0.0,-0.00032865232788026333,-0.0054441834799945354,-0.0003087521472480148,1.0008503198623657,0.0,0.0,0.0,0.2627635598182678,1.6632273197174072,4.859656810760498,-47.560726165771484,0
792.9869999999992,-5.817126657348126e-05,-0.00012117590813431889,-2.3657716155867092e-05,0.0,0.0,0.0,0.0,0.00034640220110304654,0.0006495792767964303,0.0015210001729428768,0.9995662569999695,0.0,0.0,0.0,0.2621828019618988,1.6655571460723877,4.866860389709473,-47.45560836791992,0
802.9030000000002,-9.221527579938993e-05,-0.00014650840603280813,-4.241307033225894e-05,0.0,0.0,0.0,0.0,0.002053123665973544,0.0024920364376157522,0.0029211295768618584,0.9992590546607971,0.0,0.0,0.0,0.26324307918548584,1.6643177270889282,4.857237339019775,-47.64752197265625,0
812.8169999999991,-5.9803336625918746e-05,-0.00014298682799562812,3.6528290365822613e-06,0.0,0.0,0.0,0.0,-0.0018147323280572891,-0.003663423238322139,0.0011853056494146585,1.0002789497375488,0.0,0.0,0.0,0.25620633363723755,1.6693483591079712,4.862765312194824,-46.37385559082031,0
822.7309999999998,-0.00011747252574423328,-0.000165397665114142,1.7588330592843704e-05,0.0,0.0,0.0,0.0,0.002203738782554865,-0.00010775715054478496,0.00045539261191152036,0.9998984336853027,0.0,0.0,0.0,0.24875737726688385,1.6713736057281494,4.85519552230835,-45.02558135986328,0
832.6389999999992,-0.00013201002730056643,-0.00016393777332268655,5.041504118707962e-05,0.0,0.0,0.0,0.0,0.0005717047024518251,-0.002353472402319312,0.000489100522827357,0.9991452693939209,0.0,0.0,0.0,0.2481924444437027,1.6682190895080566,4.844408988952637,-44.92332458496094,0
842.5599999999995,-0.00017027062131091952,-0.0001668123441049829,3.9732858567731455e-05,0.0,0.0,0.0,0.0,-0.0017549293115735054,-0.004019138868898153,-0.0015240826178342104,1.00068199634552,0.0,0.0,0.0,0.24822013080120087,1.668555736541748,4.850112438201904,-44.92833709716797,0
852.4629999999997,-0.00016193167539313436,-0.00017696915892884135,7.770540105411783e-05,0.0,0.0,0.0,0.0,0.0021512452512979507,-0.0007007444510236382,-0.0008181899902410805,1.0007073879241943,0.0,0.0,0.0,0.24834616482257843,1.6755545139312744,4.860860824584961,-44.951148986816406,0
862.3899999999994,-0.00016314629465341568,-0.00017000845400616527,1.9262381101725623e-05,0.0,0.0,0.0,0.0,0.0011528623290359974,-0.0004441871715243906,-0.0012939146254211664,1.0017515420913696,0.0,0.0,0.0,0.24728068709373474,1.6701980829238892,4.856829643249512,-44.758296966552734,0
872.2849999999999,-0.00022517185425385833,-0.00019810654339380562,2.856408173101954e-05,0.0,0.0,0.0,0.0,0.002401315839961171,-0.0014364878879860044,-0.0006797105306759477,0.9991698861122131,0.0,0.0,0.0,0.24629062414169312,1.6664378643035889,4.8509416580200195,-44.57909393310547,0
882.2109999999993,-0.00022903754143044353,-0.00017767430108506233,-3.409180499147624e-05,0.0,0.0,0.0,0.0,-0.0008430148009210825,-0.0016720591811463237,-0.002151776570826769,0.9981036186218262,0.0,0.0,0.0,0.24643854796886444,1.667852759361267,4.841305732727051,-44.605865478515625,0
892.1110000000008,-8.963802974903956e-05,-0.00021160070900805295,5.791135845356621e-05,0.0,0.0,0.0,0.0,0.0040229992009699345,0.0004012990393675864,-0.0005894022178836167,0.9971465468406677,0.0,0.0,0.0,0.24641303718090057,1.6694366931915283,4.871276378631592,-44.60124969482422,0
902.0450000000001,-7.116557389963418e-05,-0.00014040086534805596,8.962013453128748e-06,0.0,0.0,0.0,0.0,0.0010073904413729906,5.60230364499148e-05,-0.003677061293274164,1.0013771057128906,0.0,0.0,0.0,0.24615637958049774,1.659993290901184,4.87182092666626,-44.5547981262207,0
911.9369999999999,-0.0001239793054992333,-0.00016793413669802248,1.15840357466368e-05,0.0,0.0,0.0,0.0,-3.243342871428467e-05,0.001342768664471805,0.005011620931327343,1.0046839714050293,0.0,0.0,0.0,0.24472889304161072,1.6544690132141113,4.8715128898620605,-44.29641342163086,0
921.8600000000006,-0.0001293288660235703,-0.00011441406968515366,-2.9400020139291883e-05,0.0,0.0,0.0,0.0,0.0018532508984208107,-0.0034778418485075235,-0.0008607064373791218,1.0032395124435425,0.0,0.0,0.0,0.24518424272537231,1.6567392349243164,4.870022296905518,-44.37883758544922,0
931.7600000000002,-3.859787102555856e-05,-0.0001663142174948007,2.346443034184631e-05,0.0,0.0,0.0,0.0,0.0016014615539461374,0.0012524562189355493,0.0016924819210544229,1.0031853914260864,0.0,0.0,0.0,0.24464042484760284,1.6528457403182983,4.871851921081543,-44.28040313720703,0
941.6880000000001,-4.314055331633426e-06,-0.00012045250332448632,-5.095873348182067e-05,0.0,0.0,0.0,0.0,-0.0009464731556363404,7.258389086928219e-05,-0.0010355690028518438,1.002476453781128,0.0,0.0,0.0,0.2449595183134079,1.6452810764312744,4.858242988586426,-44.338157653808594,0
951.5939999999991,-2.9433673262246884e-05,-0.0001318269205512479,-3.3614964195294306e-05,0.0,0.0,0.0,0.0,-0.00262358202598989,-0.005566716194152832,0.0008090176270343363,1.0020506381988525,0.0,0.0,0.0,0.24357594549655914,1.646098017692566,4.8517560958862305,-44.087730407714844,0
961.5110000000004,-1.539665572636295e-05,-8.562361472286284e-05,-8.516075467923656e-05,0.0,0.0,0.0,0.0,-2.3088272428140044e-05,0.0001499816426075995,0.001046780962496996,1.0006372928619385,0.0,0.0,0.0,0.25283780694007874,1.6540780067443848,4.867527484893799,-45.7641487121582,0
971.4110000000001,-3.2236221159109846e-05,-0.00011560146231204271,-7.336281851166859e-05,0.0,0.0,0.0,0.0,0.004252729006111622,-0.0072359079495072365,0.002476732013747096,1.0016664266586304,0.0,0.0,0.0,0.2532310485839844,1.6583603620529175,4.865955352783203,-45.835323333740234,0
981.3320000000003,-6.094285345170647e-05,-0.00010325898620067164,-8.674815035192296e-05,0.0,0.0,0.0,0.0,2.1678068151231855e-05,0.0020796938333660364,0.004772271029651165,0.9988052248954773,0.0,0.0,0.0,0.2546263039112091,1.6523953676223755,4.8680877685546875,-46.087867736816406,0
991.2350000000006,-0.00011906011786777526,-0.000131591921672225,-7.853894931031391e-05,0.0,0.0,0.0,0.0,-0.0002129332278855145,-0.004569880198687315,0.0016229843022301793,1.000353217124939,0.0,0.0,0.0,0.2549942135810852,1.6546200513839722,4.871189594268799,-46.15446090698242,0
1001.1700000000001,-0.00011998508853139356,-0.00010429890971863642,-0.00014045789430383593,0.0,0.0,0.0,0.0,0.0011581160360947251,0.00039032811764627695,-0.0012407239992171526,0.9995833039283752,0.0,0.0,0.0,0.2556537091732025,1.6452465057373047,4.873749732971191,-46.273834228515625,0
1011.0599999999995,-5.655184213537723e-05,-0.00012431570212356746,-8.567573240725324e-05,0.0,0.0,0.0,0.0,0.0013280112762004137,-0.0006935084238648415,0.0007446092204190791,0.999402642250061,0.0,0.0,0.0,0.25426268577575684,1.642376184463501,4.861857891082764,-46.02205276489258,0
1020.9850000000006,-8.539428381482139e-05,-9.703763498691842e-05,-8.838023495627567e-05,0.0,0.0,0.0,0.0,-0.0026113346684724092,0.002274954691529274,0.0017293138662353158,0.9994182586669922,0.0,0.0,0.0,0.2543896734714508,1.639611005783081,4.859155178070068,-46.04503631591797,0
1030.8889999999992,-8.200533193303272e-05,-9.538001904729754e-05,-5.524545122170821e-05,0.0,0.0,0.0,0.0,0.00147676607593894,-0.0008109718910418451,0.002375118900090456,0.9994110465049744,0.0,0.0,0.0,0.25534704327583313,1.6453827619552612,4.852570056915283,-46.21832275390625,0
1040.807999999999,-0.00011124127922812477,-9.104532364290208e-05,-7.23546909284778e-05,0.0,0.0,0.0,0.0,-0.0024628753308206797,-0.0034010785166174173,-0.004206755664199591,1.000963568687439,0.0,0.0,0.0,0.25514018535614014,1.6468795537948608,4.840230941772461,-46.18088150024414,0
1050.7119999999995,-6.441574805648997e-05,-0.00011687319783959538,-3.73555812984705e-05,0.0,0.0,0.0,0.0,0.0022107961121946573,0.001991070806980133,-0.002416987204924226,1.0013689994812012,0.0,0.0,0.0,0.2543574869632721,1.6410431861877441,4.843241214752197,-46.03921127319336,0
1060.6360000000004,-9.59422904998064e-05,-0.00010252067295368761,-4.901862848782912e-05,0.0,0.0,0.0,0.0,-0.0012191321002319455,-0.0016441900515928864,0.0023561555426567793,0.9993070960044861,0.0,0.0,0.0,0.247312992811203,1.6471868753433228,4.841554641723633,-44.7641487121582,0
1070.5380000000005,-5.869647065992467e-05,-0.00013173722254578024,-1.59343453560723e-05,0.0,0.0,0.0,0.0,0.0025136463809758425,-4.927631016471423e-05,0.0027476001996546984,0.9985731840133667,0.0,0.0,0.0,0.24759501218795776,1.6497923135757446,4.841884613037109,-44.815189361572266,0
1080.464,-7.724413444520906e-05,-0.00010629132157191634,-4.3185809772694483e-05,0.0,0.0,0.0,0.0,0.003070632927119732,-0.0020293372217565775,0.0012482514139264822,1.0010111331939697,0.0,0.0,0.0,0.24834996461868286,1.6468017101287842,4.841296195983887,-44.951839447021484,0
1090.3619999999992,-6.507392390631139e-05,-0.00013535621110349894,-1.7452681277063675e-05,0.0,0.0,0.0,0.0,0.0025173949543386698,-0.002506777411326766,0.0005312365246936679,1.0008329153060913,0.0,0.0,0.0,0.24816767871379852,1.6483490467071533,4.840504169464111,-44.91884231567383,0
1100.2829999999994,-9.616211173124611e-05,-0.00014511728659272194,-4.7851179260760546e-05,0.0,0.0,0.0,0.0,-0.002234725747257471,-0.0007948403363116086,-0.001336943474598229,0.9984775185585022,0.0,0.0,0.0,0.24927683174610138,1.6488157510757446,4.845139980316162,-45.119606018066406,0
1110.1849999999995,-2.905251494667027e-05,-0.000152045045979321,3.628683543865918e-06,0.0,0.0,0.0,0.0,-0.0003537973389029503,0.0017908969894051552,0.0014840115327388048,0.9983111023902893,0.0,0.0,0.0,0.24928462505340576,1.6438008546829224,4.847170829772949,-45.12101364135742,0
1120.107,-5.672114639310166e-05,-0.00014342145004775375,-2.458713061059825e-05,0.0,0.0,0.0,0.0,-0.0022959208581596613,0.0012353501515462995,0.0029617412947118282,0.9981175661087036,0.0,0.0,0.0,0.24952451884746552,1.6422187089920044,4.833516597747803,-45.164432525634766,0
1130.0100000000002,-0.00012039666034979746,-0.00017215142725035548,-2.098058394039981e-05,0.0,0.0,0.0,0.0,0.0028668760787695646,-0.0013203656999394298,0.00033352611353620887,1.0002843141555786,0.0,0.0,0.0,0.24900376796722412,1.6417598724365234,4.825934410095215,-45.0701789855957,0
1139.9339999999993,-0.00011149328202009201,-0.00012074275582563132,-0.00010094386379932985,0.0,0.0,0.0,0.0,-0.0009587068925611675,0.0026590952184051275,0.0009537599398754537,1.0004587173461914,0.0,0.0,0.0,0.24849696457386017,1.6408209800720215,4.8186845779418945,-44.97844314575195,0
1149.8400000000001,-0.0001742161257425323,-0.000145573474583216,-0.00010439464676892385,0.0,0.0,0.0,0.0,-0.0023479696828871965,0.0007810478564351797,-0.0012207728577777743,1.0003465414047241,0.0,0.0,0.0,0.24859997630119324,1.6396276950836182,4.805739402770996,-44.99708938598633,0
1159.7549999999992,-0.00021188255050219595,-0.00011235322745051235,-0.00013078154006507248,0.0,0.0,0.0,0.0,0.0033340284135192633,-0.0009766242001205683,-0.00021095783449709415,1.0005217790603638,0.0,0.0,0.0,0.2550845742225647,1.6588234901428223,4.809403419494629,-46.170814514160156,0
1169.6669999999995,-0.00012654863530769944,-0.00013735856919083744,-5.8909481595037505e-05,0.0,0.0,0.0,0.0,-0.00015525445633102208,0.004433579742908478,0.0020750451367348433,1.0016810894012451,0.0,0.0,0.0,0.25277474522590637,1.654877781867981,4.8361382484436035,-45.75273132324219,0
1179.5810000000001,-0.0001416914165019989,-0.00010804081102833152,-9.351140033686534e-05,0.0,0.0,0.0,0.0,-0.0009502402972429991,-0.0027633560821413994,-0.003688712138682604,0.9994797706604004,0.0,0.0,0.0,0.25861218571662903,1.6662514209747314,4.848211288452148,-46.809322357177734,0
1189.4840000000004,-0.00019900038023479283,-0.000128546409541741,-9.320272511104122e-05,0.0,0.0,0.0,0.0,0.003794525284320116,0.00707229832187295,-0.00015569401148241013,0.9995839595794678,0.0,0.0,0.0,0.2583376169204712,1.6631377935409546,4.836153984069824,-46.75962448120117,0
1199.4050000000007,-0.00020258224685676396,-0.00010212062625214458,-0.00016927819524426013,0.0,0.0,0.0,0.0,0.0019848926458507776,0.0016915432643145323,-0.004207823891192675,0.9997540712356567,0.0,0.0,0.0,0.26781347393989563,1.66810142993927,4.8403730392456055,-48.47476577758789,0
1209.3150000000005,-4.222057032166049e-05,-0.0001502207451267168,-9.21340542845428e-05,0.0,0.0,0.0,0.0,0.0008520420524291694,0.0013015193399041891,-0.0003251125162933022,1.0009715557098389,0.0,0.0,0.0,0.26938149333000183,1.6537681818008423,4.86679744720459,-48.758583068847656,0
1219.2369999999992,-3.7869391235290095e-05,-0.00010317531996406615,-0.00013754215615335852,0.0,0.0,0.0,0.0,-0.0012298580259084702,0.0007424975628964603,-0.003780500264838338,1.001471996307373,0.0,0.0,0.0,0.2762489914894104,1.665126919746399,4.8725666999816895,-50.00162124633789,0
1229.1380000000008,3.476193160167895e-05,-0.00010339503933209926,-0.00010236546222586185,0.0,0.0,0.0,0.0,-0.0009170258999802172,-0.004501159768551588,-0.0020425659604370594,0.999733567237854,0.0,0.0,0.0,0.2761839032173157,1.6629232168197632,4.868335723876953,-49.989837646484375,0
1239.063,2.1335394194466062e-05,-8.766906830715016e-05,-0.00013727115583606064,0.0,0.0,0.0,0.0,0.0017726432997733355,0.0018297317437827587,-0.0011971814092248678,1.0023237466812134,0.0,0.0,0.0,0.2743847370147705,1.6588969230651855,4.86933708190918,-49.6641845703125,0
1248.9660000000003,-2.923519969044719e-05,-0.00010526432743063197,-0.0001386803633067757,0.0,0.0,0.0,0.0,-0.001116288243792951,0.0015219830675050616,-0.0017622552113607526,1.0001355409622192,0.0,0.0,0.0,0.2733994722366333,1.655725359916687,4.86989164352417,-49.485843658447266,0
1258.8950000000004,-8.191140659619123e-05,-0.00011406532576074824,-0.00013654811482410878,0.0,0.0,0.0,0.0,-0.002266591414809227,-0.0037003543693572283,-8.28155389172025e-05,1.0002433061599731,0.0,0.0,0.0,0.2726914882659912,1.6554595232009888,4.856805324554443,-49.35770034790039,0
1268.7960000000003,1.5915210269668023e-06,-0.00015208717377390712,-8.307585085276514e-05,0.0,0.0,0.0,0.0,-0.00038517810753546655,0.007074710913002491,-0.0002770893624983728,1.000683069229126,0.0,0.0,0.0,0.2720144987106323,1.6559191942214966,4.860348224639893,-49.23516845703125,0
1278.7109999999993,-7.86578530096449e-05,-0.0001872400171123445,-4.552913742372766e-05,0.0,0.0,0.0,0.0,-0.0010882634669542313,-0.001929194899275899,0.0029743704944849014,0.9987064003944397,0.0,0.0,0.0,0.2710653841495514,1.6572909355163574,4.859111785888672,-49.06337356567383,0
1288.6139999999996,-0.00013503554509952664,-0.00021279248176142573,-3.7654222978744656e-05,0.0,0.0,0.0,0.0,0.0029534820932894945,0.0025984772946685553,-0.0014207538915798068,1.0004682540893555,0.0,0.0,0.0,0.2716694474220276,1.6607071161270142,4.84601354598999,-49.172706604003906,0
1298.5319999999992,-0.00019397385767661035,-0.0002365110703976825,-2.9575039661722258e-05,0.0,0.0,0.0,0.0,-0.00046750003821216524,-0.004470751155167818,-0.0004169827443547547,1.0034661293029785,0.0,0.0,0.0,0.2709810733795166,1.6537091732025146,4.836518287658691,-49.04811096191406,0
1308.438,-9.809234325075522e-05,-0.00027175445575267076,4.860974877374247e-05,0.0,0.0,0.0,0.0,0.0001590300671523437,0.0007418924942612648,0.0004375388380140066,1.0016244649887085,0.0,0.0,0.0,0.26992520689964294,1.6526203155517578,4.832936763763428,-48.85700225830078,0
1318.3610000000008,-7.62100171414204e-05,-0.00019416540453676134,1.9986123334092554e-06,0.0,0.0,0.0,0.0,-0.000134591682581231,-0.0023562379647046328,-0.0010650004260241985,1.0020469427108765,0.0,0.0,0.0,0.2698792517185211,1.645897388458252,4.829111099243164,-48.84867858886719,0
1328.2600000000002,-9.196229075314477e-05,-0.00021501399169210345,2.5781619115150534e-05,0.0,0.0,0.0,0.0,-0.0010911053977906704,0.003215622855350375,0.002601668005809188,1.0008476972579956,0.0,0.0,0.0,0.2712070047855377,1.6444274187088013,4.821877956390381,-49.08900833129883,0
1338.1810000000005,-4.0691036701900885e-05,-0.00012597290333360434,-5.8970152167603374e-05,0.0,0.0,0.0,0.0,-0.0017260984750464559,-0.0014834841713309288,0.00030040557612665,0.9982133507728577,0.0,0.0,0.0,0.2769958972930908,1.6597660779953003,4.823324203491211,-50.13680648803711,0
1348.0849999999991,-5.799440259579569e-05,-0.0001278173440368846,-3.487638241495006e-05,0.0,0.0,0.0,0.0,-0.0013428176753222942,0.0021095394622534513,-0.000362843566108495,0.9980527758598328,0.0,0.0,0.0,0.27714818716049194,1.6559640169143677,4.830092430114746,-50.16436767578125,0
1358.0130000000008,-4.623933637049049e-05,-9.339638927485794e-05,-9.833529475145042e-05,0.0,0.0,0.0,0.0,-0.0004590674943756312,0.004735327325761318,-0.0014121708227321506,1.0004328489303589,0.0,0.0,0.0,0.28376978635787964,1.6715316772460938,4.842576503753662,-51.36289596557617,0
1367.9099999999999,-3.692938116728328e-05,-0.00012181093916296959,-8.078637620201334e-05,0.0,0.0,0.0,0.0,0.0024509334471076727,0.00015723274555057287,0.00168562401086092,1.0003241300582886,0.0,0.0,0.0,0.28251850605010986,1.6727006435394287,4.824457168579102,-51.136409759521484,0
1377.8340000000007,-4.084113970748149e-05,-9.727490396471694e-05,-0.00013442846830002964,0.0,0.0,0.0,0.0,0.0018605903023853898,0.0026037597563117743,-0.0019282427383586764,0.998731791973114,0.0,0.0,0.0,0.28171342611312866,1.6643426418304443,4.818234443664551,-50.990692138671875,0
1387.7360000000008,-0.0001012595821521245,-0.00012204136874061078,-0.00013489151024259627,0.0,0.0,0.0,0.0,-0.004905130714178085,0.002270135562866926,0.00035822243080474436,1.0007543563842773,0.0,0.0,0.0,0.2819463908672333,1.6589916944503784,4.804085731506348,-51.03285598754883,0
1397.6569999999992,-0.00014468662266153842,-0.00010337229468859732,-0.00014713055861648172,0.0,0.0,0.0,0.0,-0.001957542262971401,-0.003922863397747278,-0.000387407373636961,0.9999851584434509,0.0,0.0,0.0,0.2807644307613373,1.660485863685608,4.7886576652526855,-50.81891632080078,0
1407.5589999999993,-9.83509817160666e-05,-0.00010380599269410595,-9.246331319445744e-05,0.0,0.0,0.0,0.0,-0.00024372509506065398,-0.0042151580564677715,-0.0008328820113092661,1.0003947019577026,0.0,0.0,0.0,0.2806702256202698,1.66907799243927,4.791058540344238,-50.80187225341797,0
1417.4879999999994,-7.84128496889025e-05,-3.572630157577805e-05,-0.00015933543909341097,0.0,0.0,0.0,0.0,0.00121028209105134,-0.0015240776119753718,0.001798075856640935,1.0007622241973877,0.0,0.0,0.0,0.2805032730102539,1.6743744611740112,4.7926740646362305,-50.77164840698242,0
1427.3960000000006,-0.00013691376079805195,-5.832170063513331e-05,-0.00016007438534870744,0.0,0.0,0.0,0.0,-0.00033267776598222554,-0.0015060023870319128,-0.0017130323685705662,1.0006855726242065,0.0,0.0,0.0,0.2796790897846222,1.6709685325622559,4.796929359436035,-50.62247085571289,0
1437.307999999999,-0.00015378785610664636,-3.3290867577306926e-05,-0.00021009412012062967,0.0,0.0,0.0,0.0,6.129045505076647e-05,0.009401130490005016,-0.0030331271700561047,0.9984093904495239,0.0,0.0,0.0,0.27865442633628845,1.6731382608413696,4.794438362121582,-50.43700408935547,0
1447.2109999999993,-4.2451254557818174e-05,-6.990823021624237e-05,-0.00014452479081228375,0.0,0.0,0.0,0.0,-0.0013082132209092379,-0.0046270159073174,0.0014564191224053502,0.9994951486587524,0.0,0.0,0.0,0.27831390500068665,1.668447732925415,4.7734270095825195,-50.37537384033203,0
1457.1319999999996,-5.032793342252262e-05,-1.569836604176089e-05,-0.00018261933291796595,0.0,0.0,0.0,0.0,0.0018035356188192964,0.0006050674128346145,0.003398309927433729,0.9996457099914551,0.0,0.0,0.0,0.2786291837692261,1.6625356674194336,4.7749457359313965,-50.432437896728516,0
1467.0390000000007,-4.1967392462538555e-05,-3.72444701497443e-05,-0.0001667332835495472,0.0,0.0,0.0,0.0,0.0020587188191711903,-9.442736336495727e-05,0.0007273959345184267,0.9997405409812927,0.0,0.0,0.0,0.27848848700523376,1.6558752059936523,4.763490200042725,-50.40696716308594,0
1476.9599999999991,-6.887110794195905e-05,-5.8955465647159144e-06,-0.0001936933840624988,0.0,0.0,0.0,0.0,-0.00199117255397141,0.0017407512059435248,0.003036217065528035,0.9995999932289124,0.0,0.0,0.0,0.2783440947532654,1.6581764221191406,4.763225555419922,-50.38083267211914,0
1486.8580000000002,-3.749815732589923e-06,-4.207912934361957e-05,-0.00016455598233733326,0.0,0.0,0.0,0.0,-0.0011828119168058038,-0.0005025410791859031,0.0008070107433013618,1.0011428594589233,0.0,0.0,0.0,0.2785097658634186,1.6582272052764893,4.763490676879883,-50.410823822021484,0
1496.7790000000005,-8.966356108430773e-05,-0.0001041519280988723,-0.00014750563423149288,0.0,0.0,0.0,0.0,0.0007501884247176349,0.004304390400648117,-0.0024412749335169792,1.0011569261550903,0.0,0.0,0.0,0.27810758352279663,1.6560838222503662,4.760824203491211,-50.3380241394043,0
1506.6849999999995,-5.0920014473376796e-05,-0.00011953894863836467,-0.00011362107761669904,0.0,0.0,0.0,0.0,-0.00039062535506673157,-0.0010871125850826502,-0.0018780181417241693,0.9982842206954956,0.0,0.0,0.0,0.27795282006263733,1.6565704345703125,4.759350776672363,-50.31001663208008,0
1516.6139999999996,-0.0001043514275806956,-0.00013005420623812824,-0.00011785655078710988,0.0,0.0,0.0,0.0,-0.001469948678277433,0.002319957362487912,0.004057440906763077,0.9986004829406738,0.0,0.0,0.0,0.2772822380065918,1.6521040201187134,4.7545976638793945,-50.18863296508789,0
1526.509,-0.0001691043726168573,-0.00015772809274494648,-0.00011549692862899974,0.0,0.0,0.0,0.0,-0.003058017697185278,-0.003460953012108803,0.0012031405931338668,0.9989315271377563,0.0,0.0,0.0,0.278286337852478,1.655350923538208,4.749061107635498,-50.37038040161133,0
1536.4349999999995,-0.00021059438586235046,-0.00010949583520414308,-0.0001342052419204265,0.0,0.0,0.0,0.0,-0.001608013641089201,-0.00027495293761603534,0.000717042712494731,0.9981451630592346,0.0,0.0,0.0,0.27779853343963623,1.6509649753570557,4.7531819343566895,-50.28208923339844,0
1546.3369999999995,-0.00012103952030884102,-0.0001177211306639947,-5.9004389186156914e-05,0.0,0.0,0.0,0.0,-0.0002526952594053,-0.004589207470417023,0.0009399887057952583,1.0003063678741455,0.0,0.0,0.0,0.27806055545806885,1.653563380241394,4.751267910003662,-50.32951354980469,0
1556.259,-0.00019100806093774736,-0.0001393109414493665,-4.5515247620642185e-05,0.0,0.0,0.0,0.0,0.001989664975553751,0.0007434255676344037,-0.003803945379331708,0.9999171495437622,0.0,0.0,0.0,0.27782005071640015,1.6522369384765625,4.751706600189209,-50.28598403930664,0
1566.161,-5.214224074734375e-05,-0.00015137970331124961,2.8676844522124156e-05,0.0,0.0,0.0,0.0,0.0008678815211169422,0.0037656272761523724,0.0011495475191622972,0.9991426467895508,0.0,0.0,0.0,0.2782370448112488,1.6467443704605103,4.749460220336914,-50.36145782470703,0
1576.0820000000003,-0.00011107563477708027,-0.00015440641436725855,4.0347174945054576e-05,0.0,0.0,0.0,0.0,0.0005240082391537726,-0.00015681957302149385,7.188676681835204e-05,0.9990395307540894,0.0,0.0,0.0,0.2778429687023163,1.6475309133529663,4.730891227722168,-50.290130615234375,0
1585.9840000000004,-0.00017703742196317762,-0.00017944052524399012,4.9758480599848554e-05,0.0,0.0,0.0,0.0,-0.002230364829301834,-0.0046804859302937984,0.0019183952827006578,1.0003012418746948,0.0,0.0,0.0,0.2772393226623535,1.6408604383468628,4.729888916015625,-50.180870056152344,0
1595.914999999999,-0.00018643963267095387,-0.00016043770301621407,-1.5616607925039716e-05,0.0,0.0,0.0,0.0,0.002637923462316394,0.0063705784268677235,0.003748105838894844,0.9997460842132568,0.0,0.0,0.0,0.27718082070350647,1.6444482803344727,4.735787868499756,-50.17028045654297,0
1605.8109999999997,-0.0002535349631216377,-0.0001865911908680573,-1.2015940228593536e-05,0.0,0.0,0.0,0.0,-0.0002314200100954622,-0.0009000972495414317,-0.0026432713493704796,1.000364899635315,0.0,0.0,0.0,0.27799510955810547,1.6372485160827637,4.723059177398682,-50.317665100097656,0
1615.7299999999996,-0.0002754463057499379,-0.00014554023800883442,-6.63881073705852e-05,0.0,0.0,0.0,0.0,0.0009341834811493754,-0.0009587665554136038,-0.0020856340415775776,1.001829981803894,0.0,0.0,0.0,0.2777878940105438,1.634272575378418,4.715865135192871,-50.2801628112793,0
1625.6350000000002,-0.00034274987410753965,-0.000171276114997454,-6.670539733022451e-05,0.0,0.0,0.0,0.0,-0.0015825640875846148,-0.002310071839019656,-0.005373750347644091,1.0005888938903809,0.0,0.0,0.0,0.2766280174255371,1.6311370134353638,4.71505880355835,-50.07021713256836,0
1635.562,-0.00032660894794389606,-6.320358079392463e-05,-0.0001662913418840617,0.0,0.0,0.0,0.0,-0.0007314542308449745,0.0019876258447766304,0.0022181395906955004,1.0011063814163208,0.0,0.0,0.0,0.27375614643096924,1.6800720691680908,4.753194808959961,-49.55040740966797,0
1645.4609999999993,-0.0003873208479490131,-8.052513294387609e-05,-0.00017384500824846327,0.0,0.0,0.0,0.0,0.0003975049185100943,0.0010483753867447376,-0.0014190174406394362,1.0017012357711792,0.0,0.0,0.0,0.2735462486743927,1.6734745502471924,4.739459991455078,-49.512413024902344,0
1655.3880000000008,-0.0004158886440563947,-3.1772837246535346e-05,-0.0002157630369765684,0.0,0.0,0.0,0.0,-0.0013952512526884675,0.00022383312170859426,-0.0012727960711345077,0.9990776777267456,0.0,0.0,0.0,0.2724483013153076,1.6649196147918701,4.726782321929932,-49.31368637084961,0
1665.2829999999994,-0.00047769586672075093,-4.546608397504315e-05,-0.00022492419520858675,0.0,0.0,0.0,0.0,0.0015366245061159134,0.0025852781254798174,-0.0025034290738403797,0.999815046787262,0.0,0.0,0.0,0.27137717604637146,1.6620368957519531,4.714575290679932,-49.119808197021484,0
1675.2060000000001,-0.0004713750968221575,2.9060309316264465e-05,-0.00031248011509887874,0.0,0.0,0.0,0.0,0.0004209158068988472,-0.008136983029544353,0.001332379993982613,1.001110315322876,0.0,0.0,0.0,0.2663547396659851,1.6960097551345825,4.754262924194336,-48.21074295043945,0
1685.1080000000002,-0.0005304664955474436,2.2460058971773833e-05,-0.0003290163294877857,0.0,0.0,0.0,0.0,0.001371994731016457,0.004303863272070885,-0.004173965193331242,1.00180983543396,0.0,0.0,0.0,0.26525261998176575,1.6968780755996704,4.754692554473877,-48.01124954223633,0
1695.0319999999992,-0.0005704195937141776,1.8783961422741413e-05,-0.00037630877341143787,0.0,0.0,0.0,0.0,0.0009009868372231722,0.0005518937250599265,0.0009477547719143331,1.0023274421691895,0.0,0.0,0.0,0.2555354833602905,1.6947953701019287,4.751617431640625,-46.25243377685547,0
1704.9410000000007,-0.0006330905598588288,9.801657142816111e-06,-0.0003927765355911106,0.0,0.0,0.0,0.0,-0.0011036292416974902,-0.0043678879737854,0.0023274188861250877,1.0019469261169434,0.0,0.0,0.0,0.25656938552856445,1.6945147514343262,4.75355863571167,-46.439571380615234,0
1714.8639999999996,-0.0007047543185763061,1.2453306226234417e-05,-0.00039746647235006094,0.0,0.0,0.0,0.0,0.0021582324989140034,0.002365906722843647,0.0018074186518788338,1.0026741027832031,0.0,0.0,0.0,0.25868648290634155,1.6935515403747559,4.74709415435791,-46.82276916503906,0
1724.759,-0.0007731087389402092,2.3639695427846164e-06,-0.0004084876272827387,0.0,0.0,0.0,0.0,0.0013897923054173589,-0.002241662470623851,0.002358668018132448,1.0006990432739258,0.0,0.0,0.0,0.25866904854774475,1.6825318336486816,4.740153789520264,-46.81961441040039,0
1734.682999999999,-0.0007990996818989515,4.031341086374596e-05,-0.00045869307359680533,0.0,0.0,0.0,0.0,-0.001472959411330521,-0.000656024320051074,0.001674717292189598,1.0005816221237183,0.0,0.0,0.0,0.2591860592365265,1.684991717338562,4.749964237213135,-46.91318893432617,0
1744.5859999999993,-0.0008675844292156398,3.115567233180627e-05,-0.00047109415754675865,0.0,0.0,0.0,0.0,-0.0006765585276298225,-0.002124811289831996,0.0001677241234574467,1.0022891759872437,0.0,0.0,0.0,0.25832048058509827,1.6849312782287598,4.738855361938477,-46.75651931762695,0
1754.5069999999996,-0.0008944207802414894,7.631911284988746e-05,-0.0005186221096664667,0.0,0.0,0.0,0.0,-0.0020637777633965015,0.00269225612282753,0.0027056019753217697,1.0017521381378174,0.0,0.0,0.0,0.2577982246875763,1.6819697618484497,4.733825206756592,-46.66199493408203,0
1764.4089999999997,-0.0009636595495976508,6.902767199790105e-05,-0.0005313924630172551,0.0,0.0,0.0,0.0,0.0010955586330965161,0.0022882360499352217,-8.441966201644391e-05,0.9997065663337708,0.0,0.0,0.0,0.2587338089942932,1.6825200319290161,4.730507850646973,-46.83133316040039,0
1774.3240000000005,-0.0009970675455406308,7.508579437853768e-05,-0.0005877525545656681,0.0,0.0,0.0,0.0,0.00011379025090718642,0.0011014201445505023,0.00047269006608985364,0.9994326233863831,0.0,0.0,0.0,0.2589077353477478,1.670920729637146,4.717141628265381,-46.862815856933594,0
1784.2330000000002,-0.0010680516716092825,6.72201276756823e-05,-0.0006037363782525063,0.0,0.0,0.0,0.0,-0.0009692102903500199,0.0042274207808077335,-0.0011366955004632473,1.0007721185684204,0.0,0.0,0.0,0.2588479518890381,1.6711612939834595,4.709769248962402,-46.851993560791016,0
1794.1550000000007,-0.0011414560722187161,5.828564098919742e-05,-0.0006200736970640719,0.0,0.0,0.0,0.0,-0.0005313301226124167,-0.0005860764649696648,-8.849575533531606e-05,1.0003869533538818,0.0,0.0,0.0,0.25786226987838745,1.6765087842941284,4.699214458465576,-46.673580169677734,0
1804.062,-0.001217393670231104,4.822433402296156e-05,-0.000636088487226516,0.0,0.0,0.0,0.0,-0.002347393427044153,0.006102250888943672,0.0030798655934631824,0.9994453191757202,0.0,0.0,0.0,0.25743040442466736,1.6742933988571167,4.688442707061768,-46.59541320800781,0
1813.9809999999998,-0.00129599473439157,3.594062945921905e-05,-0.0006515830755233765,0.0,0.0,0.0,0.0,-0.0011914613423869014,0.002063184278085828,0.00027693179436028004,0.9998099207878113,0.0,0.0,0.0,0.2582508325576782,1.675902247428894,4.666055679321289,-46.74391174316406,0
1823.8829999999998,-0.00018346411525271833,-0.00022511112911161035,0.00018514954717829823,0.0,0.0,0.0,0.0,0.000767882913351059,-0.0035510871093720198,-0.002939356956630945,0.9995112419128418,0.0,0.0,0.0,0.2574256658554077,1.6372877359390259,4.857431888580322,-46.59455871582031,0
1833.8029999999999,-0.00021328916773200035,-0.00024913440574891865,0.00020328292157500982,0.0,0.0,0.0,0.0,0.0012877825647592545,0.00027068908093497157,0.005882835015654564,1.0008865594863892,0.0,0.0,0.0,0.2570861577987671,1.6287134885787964,4.8552374839782715,-46.53310775756836,0
1843.7099999999991,-0.00024430546909570694,-0.0002750304411165416,0.0002215700806118548,0.0,0.0,0.0,0.0,0.000737513939384371,0.0007848104578442872,0.0029413707088679075,1.0011917352676392,0.0,0.0,0.0,0.25538063049316406,1.6210676431655884,4.853185653686523,-46.224403381347656,0
1853.6209999999992,-0.00028059352189302444,-0.0003058796573895961,0.0002425777493044734,0.0,0.0,0.0,0.0,0.002262724097818136,0.0013675567461177707,-7.938331691548228e-05,1.0013176202774048,0.0,0.0,0.0,0.25559431314468384,1.616157054901123,4.842615127563477,-46.26307678222656,0
1863.536,-0.0002158245915779844,-0.00029521656688302755,0.0003271771129220724,0.0,0.0,0.0,0.0,-1.710805190668907e-05,-0.00423876428976655,0.0023912067990750074,0.9998721480369568,0.0,0.0,0.0,0.2539975047111511,1.6191107034683228,4.835116863250732,-45.974056243896484,0
1873.4470000000001,-0.00025078936596401036,-0.00032512578763999045,0.0003526662476360798,0.0,0.0,0.0,0.0,-0.002424798207357526,0.00278776278719306,-0.00036697878385894,0.9994046688079834,0.0,0.0,0.0,0.25498196482658386,1.620931625366211,4.838109016418457,-46.152244567871094,0
1883.3590000000004,-0.0002641853061504662,-0.0003001060977112502,0.00041386610246263444,0.0,0.0,0.0,0.0,-8.310536213684827e-05,-0.0066880532540380955,-0.0017185964388772845,0.9999918937683105,0.0,0.0,0.0,0.25406306982040405,1.6232826709747314,4.828167915344238,-45.985923767089844,0
1893.2729999999992,-0.00030401608091779053,-0.0003310484462417662,0.0004418467578943819,0.0,0.0,0.0,0.0,-0.001070246216841042,-0.0013313696254044771,0.003367794444784522,0.9990702271461487,0.0,0.0,0.0,0.25387823581695557,1.6226332187652588,4.833292007446289,-45.95246505737305,0
1903.1859999999997,-0.0003109739045612514,-0.00032634485978633165,0.0004965174593962729,0.0,0.0,0.0,0.0,-0.0035060422960668802,0.0014872308820486069,-0.0018517532153055072,0.9997696280479431,0.0,0.0,0.0,0.24750719964504242,1.6369799375534058,4.835111618041992,-44.79929733276367,0
1913.1020000000008,-0.000354977382812649,-0.00035766029031947255,0.0005259385798126459,0.0,0.0,0.0,0.0,-0.00027189531829208136,0.006435165647417307,0.002887505339458585,0.9998209476470947,0.0,0.0,0.0,0.2465599924325943,1.6406539678573608,4.836882591247559,-44.627845764160156,0
1923.0149999999994,-0.00033465048181824386,-0.000376406911527738,0.0005852457252331078,0.0,0.0,0.0,0.0,-0.001109645701944828,-0.0011148609919473529,-0.000661476282402873,1.0014821290969849,0.0,0.0,0.0,0.24691863358020782,1.632680892944336,4.828569412231445,-44.6927604675293,0
1932.9269999999997,-0.0003790964838117361,-0.00040992035064846277,0.0006179097690619528,0.0,0.0,0.0,0.0,0.00017906635184772313,0.005133621860295534,-0.0029260816518217325,1.000639796257019,0.0,0.0,0.0,0.2462226003408432,1.63179349899292,4.817147731781006,-44.5667839050293,0
1942.8410000000003,-0.00038067216519266367,-0.0004280395223759115,0.0006868012715131044,0.0,0.0,0.0,0.0,0.0014428291469812393,0.0019393592374399304,0.0022909119725227356,0.9999327063560486,0.0,0.0,0.0,0.24588130414485931,1.6326254606246948,4.810078144073486,-44.5050048828125,0
1952.7489999999998,-0.00042724289232864976,-0.000463311152998358,0.0007245638407766819,0.0,0.0,0.0,0.0,0.001914827385917306,0.005449292715638876,-0.0020668937359005213,1.0000685453414917,0.0,0.0,0.0,0.2465917468070984,1.6242159605026245,4.792260646820068,-44.63359451293945,0
1962.6730000000007,-0.000435443565947935,-0.00048509708722122014,0.0008089645998552442,0.0,0.0,0.0,0.0,-0.00046208855928853154,-0.0023174940142780542,-0.0019819799344986677,1.0004562139511108,0.0,0.0,0.0,0.2459094524383545,1.621206521987915,4.778459072113037,-44.510101318359375,0
1972.5720000000001,-0.0004830050456803292,-0.0005245457869023085,0.0008515631780028343,0.0,0.0,0.0,0.0,0.0007345945341512561,0.0007153197075240314,0.00035193958319723606,1.0000554323196411,0.0,0.0,0.0,0.24633406102657318,1.6214568614959717,4.766331672668457,-44.586952209472656,0
1982.491,-0.000487717887153849,-0.0005366799887269735,0.0009619258344173431,0.0,0.0,0.0,0.0,-0.004254960920661688,-0.003491884097456932,-0.0011443966068327427,0.9996838569641113,0.0,0.0,0.0,0.24667875468730927,1.6163206100463867,4.761274337768555,-44.64934158325195,0
1992.402,-0.0005343148950487375,-0.0005757572944276035,0.0010110854636877775,0.0,0.0,0.0,0.0,0.0016480591148138046,0.0012293270556256175,-0.0021901794243603945,1.0011612176895142,0.0,0.0,0.0,0.24701941013336182,1.6193605661392212,4.761867523193359,-44.71100616455078,0
2002.3160000000007,-0.0005624177283607423,-0.0006062205065973103,0.0010946213733404875,0.0,0.0,0.0,0.0,-0.0013046566164121032,0.0007862987695261836,-0.003181688254699111,0.9976462125778198,0.0,0.0,0.0,0.24592599272727966,1.621925950050354,4.7461771965026855,-44.513092041015625,0
2012.2260000000006,-0.0006111607071943581,-0.0006453852402046323,0.0011473142076283693,0.0,0.0,0.0,0.0,0.0009978016605600715,0.0017625554464757442,-0.0006694411858916283,0.9994155764579773,0.0,0.0,0.0,0.24495890736579895,1.6231067180633545,4.736435413360596,-44.33804702758789,0
2022.1419999999998,-0.0006316198850981891,-0.0006676866323687136,0.001251694979146123,0.0,0.0,0.0,0.0,-0.00014932728663552552,-0.001506262575276196,0.005357412621378899,0.9999549388885498,0.0,0.0,0.0,0.24426110088825226,1.6225098371505737,4.723790645599365,-44.21174621582031,0
2032.0499999999993,-9.800331463338807e-05,-0.00023782229982316494,0.00011477336374809965,0.0,0.0,0.0,0.0,-0.0005883719422854483,-0.001128080883063376,0.00045851492905057967,1.0007802248001099,0.0,0.0,0.0,0.2364436388015747,1.7148704528808594,4.799112796783447,-42.79677200317383,0
2041.9689999999991,-0.0001284098398173228,-0.0002577292616479099,0.00012590395635925233,0.0,0.0,0.0,0.0,0.0008016247884370387,-0.0008530690101906657,-0.003133096732199192,1.00204598903656,0.0,0.0,0.0,0.23642487823963165,1.7113823890686035,4.803753852844238,-42.793373107910156,0
2051.876,-1.3618701814266387e-05,-0.00018764633568935096,5.614939800580032e-05,0.0,0.0,0.0,0.0,0.0021518338471651077,-0.0012864198070019484,0.0011362560326233506,1.001550555229187,0.0,0.0,0.0,0.23530779778957367,1.7060753107070923,4.795904159545898,-42.59117889404297,0
2061.8009999999995,-4.546228956314735e-05,-0.00020784596563316882,6.742386904079467e-05,0.0,0.0,0.0,0.0,-0.000565070251468569,-0.0013641724362969398,0.004111687187105417,1.0012699365615845,0.0,0.0,0.0,0.23543936014175415,1.703222393989563,4.790738105773926,-42.614990234375,0
2071.6939999999995,-3.053140244446695e-05,-0.0001572039327584207,3.311817636131309e-05,0.0,0.0,0.0,0.0,-0.0007679089321754873,-0.003803338622674346,0.004168232437223196,1.0018864870071411,0.0,0.0,0.0,0.2369108945131302,1.702510952949524,4.79054594039917,-42.881343841552734,0
2081.620999999999,-9.855021926341578e-05,-0.00020699405285995454,1.8567408915259875e-05,0.0,0.0,0.0,0.0,-0.00035233335802331567,-0.0031520924530923367,-0.0015122151235118508,1.0011001825332642,0.0,0.0,0.0,0.23771055042743683,1.7048288583755493,4.7921037673950195,-43.02608108520508,0
2091.5200000000004,-9.513745317235589e-05,-0.00018040162103716284,-1.1081026968895458e-05,0.0,0.0,0.0,0.0,-0.0035610590130090714,-0.003768729278817773,-9.057003626367077e-05,1.0003422498703003,0.0,0.0,0.0,0.2365763634443283,1.7003817558288574,4.795654296875,-42.8207893371582,0
2101.4429999999993,-0.00013602479884866625,-0.0002034827775787562,-8.874685590853915e-07,0.0,0.0,0.0,0.0,-0.0012135583674535155,-0.0013513832818716764,-0.00012635611346922815,0.9987558722496033,0.0,0.0,0.0,0.23701395094394684,1.7032668590545654,4.789982318878174,-42.89999771118164,0
2111.3510000000006,-7.03412079019472e-05,-0.00011619187716860324,6.204251803865191e-06,0.0,0.0,0.0,0.0,-0.0007099012145772576,6.537169974762946e-05,-0.0004145425627939403,1.0002933740615845,0.0,0.0,0.0,0.23695865273475647,1.699761152267456,4.789436340332031,-42.88998794555664,0
