timestamp,stateEstimate.x,stateEstimate.y,stateEstimate.z,controller.cmd_thrust,controller.cmd_roll,controller.cmd_pitch,controller.cmd_yaw,controller.r_roll,controller.r_pitch,controller.r_yaw,controller.accelz,controller.actuatorThrust,controller.roll,controller.pitch,controller.yaw,controller.rollRate,controller.pitchRate,controller.yawRate,controller.ctr_yaw
0.0,-0.010519408620893955,-0.003789811162278056,7.362326141446829e-05,0.0,0.0,0.0,0.0,5.584431710303761e-05,0.003399273380637169,0.0002160640578949824,0.9995160102844238,0.0,0.0,0.0,7.545633792877197,1.821107029914856,6.09609317779541,-1365.7747802734375,0
9.915000000000873,-0.010481675155460835,-0.0037492907140403986,-4.338261715020053e-05,0.0,0.0,0.0,0.0,0.0012388714822009206,0.0005502492422237992,-0.0009738342487253249,0.9995184540748596,0.0,0.0,0.0,7.561885356903076,1.8268623352050781,6.104139804840088,-1368.71630859375,0
19.809000000001106,-0.010516725480556488,-0.003768185619264841,-4.206520316074602e-05,0.0,0.0,0.0,0.0,0.0015359730459749699,-0.0019126288825646043,-0.0009383995784446597,1.0013272762298584,0.0,0.0,0.0,7.555543899536133,1.8225781917572021,6.10132360458374,-1367.5684814453125,0
29.736000000000786,-0.010511393658816814,-0.003742651315405965,-0.00010707500769058242,0.0,0.0,0.0,0.0,0.0003513636183924973,-0.00019141582015436143,-0.0010673875221982598,0.9988900423049927,0.0,0.0,0.0,7.570806503295898,1.8267254829406738,6.107670783996582,-1370.3310546875,0
39.63800000000083,-0.010449442081153393,-0.0036993410903960466,-4.498975249589421e-05,0.0,0.0,0.0,0.0,0.0002517073880881071,-0.0053703803569078445,-0.0017784006195142865,0.9997187852859497,0.0,0.0,0.0,7.579111099243164,1.8358978033065796,6.104371547698975,-1371.8341064453125,0
49.56700000000092,-0.010457346215844154,-0.0036995280534029007,-7.741059380350634e-05,0.0,0.0,0.0,0.0,0.0003507874207571149,-0.004171348642557859,-0.0023014359176158905,1.0000752210617065,0.0,0.0,0.0,7.595607757568359,1.8401962518692017,6.114796161651611,-1374.820068359375,0
59.46700000000055,-0.010434433817863464,-0.00365684786811471,-4.858722604694776e-05,0.0,0.0,0.0,0.0,0.003287769854068756,0.0007472293800674379,0.002869695657864213,1.0000581741333008,0.0,0.0,0.0,7.601969242095947,1.8539973497390747,6.12060022354126,-1375.9715576171875,0
69.38000000000102,-0.01047205924987793,-0.0036729301791638136,-4.683197403210215e-05,0.0,0.0,0.0,0.0,-0.000789584475569427,0.00520765595138073,0.0013906547101214528,0.9994724988937378,0.0,0.0,0.0,7.59410285949707,1.851650595664978,6.119376182556152,-1374.547607421875,0
79.28400000000147,-0.010418297722935677,-0.0036837817169725895,-3.3110940421465784e-05,0.0,0.0,0.0,0.0,-0.0026266411878168583,-0.00038300963933579624,-0.0016278999391943216,0.9977578520774841,0.0,0.0,0.0,7.600404262542725,1.8466333150863647,6.109983921051025,-1375.6883544921875,0
89.21000000000095,-0.010478470474481583,-0.003747121663764119,-1.662925205891952e-05,0.0,0.0,0.0,0.0,0.00012790958862751722,-0.001956311520189047,-0.0009044151520356536,1.000636100769043,0.0,0.0,0.0,7.6154608726501465,1.8411465883255005,6.112070560455322,-1378.41357421875,0
99.10699999999997,-0.010518756695091724,-0.0037638458888977766,-1.4262528566177934e-05,0.0,0.0,0.0,0.0,0.003567136824131012,0.0015553032280877233,-0.0014699192252010107,1.0005019903182983,0.0,0.0,0.0,7.607940673828125,1.849811315536499,6.112565040588379,-1377.0523681640625,0
109.03600000000006,-0.010554522275924683,-0.0038121321704238653,-3.142773130093701e-05,0.0,0.0,0.0,0.0,-0.0018925467738881707,-0.00104933709371835,-0.0009731556056067348,0.9957022666931152,0.0,0.0,0.0,7.619426727294922,1.8381997346878052,6.112068176269531,-1379.13134765625,0
118.9310000000005,-0.010597032494843006,-0.003831644309684634,-3.0389364837901667e-05,0.0,0.0,0.0,0.0,0.0021343939006328583,-0.0026656955014914274,-0.0034490851685404778,0.9985889792442322,0.0,0.0,0.0,7.612629413604736,1.833964228630066,6.095438003540039,-1377.901123046875,0
128.8630000000012,-0.010641797445714474,-0.003850531531497836,-3.1718362151877955e-05,0.0,0.0,0.0,0.0,-0.0002763920638244599,-0.0060382746160030365,-0.0018452213844284415,1.000274896621704,0.0,0.0,0.0,7.603396892547607,1.8356024026870728,6.085999011993408,-1376.22998046875,0
138.75500000000102,-0.010693288408219814,-0.0038702574092894793,-3.50967347912956e-05,0.0,0.0,0.0,0.0,0.0014646926429122686,0.00311455805785954,0.000841663044411689,1.0000479221343994,0.0,0.0,0.0,7.594363212585449,1.8274531364440918,6.095126152038574,-1374.5947265625,0
148.69300000000112,-0.010742023587226868,-0.003886661259457469,-3.817219476331957e-05,0.0,0.0,0.0,0.0,-0.002877410501241684,-0.003829785855486989,-0.0012674820609390736,0.9980345964431763,0.0,0.0,0.0,7.587082862854004,1.8260220289230347,6.089038372039795,-1373.2769775390625,0
158.58700000000135,-0.010489334352314472,-0.0038506656419485807,0.00015575501311104745,0.0,0.0,0.0,0.0,-0.0005175635451450944,-0.00013615310308523476,0.0015907648485153913,0.9994044303894043,0.0,0.0,0.0,7.597326755523682,1.83426833152771,6.167259693145752,-1375.1312255859375,0
168.5030000000006,-0.010524713434278965,-0.0038582596462219954,0.0001656554377404973,0.0,0.0,0.0,0.0,-0.0009811075869947672,-0.0010688398033380508,-0.0028372982051223516,1.0001850128173828,0.0,0.0,0.0,7.589696407318115,1.835031509399414,6.1720757484436035,-1373.7501220703125,0
178.41800000000148,-0.010561767965555191,-0.0038658129051327705,0.0001748265203787014,0.0,0.0,0.0,0.0,0.0005115631502121687,-0.0004253805673215538,0.0025732589419931173,1.0001709461212158,0.0,0.0,0.0,7.581377029418945,1.831600546836853,6.163351535797119,-1372.2442626953125,0
188.33300000000054,-0.010478409007191658,-0.003767979796975851,-2.6882951715379022e-05,0.0,0.0,0.0,0.0,0.00342054245993495,0.0009790381882339716,0.002647931920364499,0.9985458850860596,0.0,0.0,0.0,7.593857765197754,1.8557864427566528,6.201228141784668,-1374.5032958984375,0
198.23099999999977,-0.010508419945836067,-0.0037691586185246706,-3.24341599480249e-05,0.0,0.0,0.0,0.0,-0.0006946666399016976,-0.004347688984125853,-0.0013032038696110249,0.9992477893829346,0.0,0.0,0.0,7.586778163909912,1.853205919265747,6.197505950927734,-1373.221923828125,0
208.15099999999984,-0.010502370074391365,-0.0037467165384441614,-0.00011152417573612183,0.0,0.0,0.0,0.0,0.0007951123407110572,-1.5875621102168225e-05,0.001087150420062244,0.9985749125480652,0.0,0.0,0.0,7.600860118865967,1.8566774129867554,6.211359024047852,-1375.7708740234375,0
218.0550000000003,-0.01042536087334156,-0.0037029047962278128,-5.9884972870349884e-05,0.0,0.0,0.0,0.0,-0.0006473613902926445,-0.002388505730777979,-0.0009188345866277814,1.0013896226882935,0.0,0.0,0.0,7.606522560119629,1.8599475622177124,6.229083061218262,-1376.7957763671875,0
227.987000000001,-0.01043106708675623,-0.00369802163913846,-0.00010327329073334113,0.0,0.0,0.0,0.0,-0.00019207724835723639,-0.00047508266288787127,0.0006488332292065024,1.0001906156539917,0.0,0.0,0.0,7.62011194229126,1.859239935874939,6.220001697540283,-1379.2554931640625,0
237.8780000000006,-0.010459676384925842,-0.0036980656441301107,-0.00011363806697772816,0.0,0.0,0.0,0.0,0.0013851359253749251,-0.004534290637820959,1.9801114831352606e-05,0.998737633228302,0.0,0.0,0.0,7.61189603805542,1.8594452142715454,6.217279434204102,-1377.768310546875,0
247.7990000000009,-0.010490229353308678,-0.003698204178363085,-0.0001235979434568435,0.0,0.0,0.0,0.0,-0.00042260120972059667,-0.0021285649854689837,0.0010986954439431429,1.000931739807129,0.0,0.0,0.0,7.603535175323486,1.8632524013519287,6.2165327072143555,-1376.2550048828125,0
257.70900000000074,-0.010521703399717808,-0.0036985313054174185,-0.00013409683015197515,0.0,0.0,0.0,0.0,0.0009279046207666397,-0.0034689009189605713,0.0017013194737955928,1.0012753009796143,0.0,0.0,0.0,7.597141265869141,1.8613532781600952,6.222256660461426,-1375.09765625,0
267.6270000000004,-0.01053424272686243,-0.0037076545413583517,-0.00018338151858188212,0.0,0.0,0.0,0.0,-0.0007689710473641753,0.0004082394880242646,-0.002829303266480565,0.9971016645431519,0.0,0.0,0.0,7.615844249725342,1.8511642217636108,6.229959487915039,-1378.48291015625,0
277.53000000000065,-0.010564293712377548,-0.003709923941642046,-0.00019601310486905277,0.0,0.0,0.0,0.0,0.0008146720356307924,0.004533769097179174,-0.0015327975852414966,1.0003306865692139,0.0,0.0,0.0,7.607791900634766,1.8501121997833252,6.217292785644531,-1377.0255126953125,0
287.4400000000005,-0.010595920495688915,-0.0037128699477761984,-0.00020979539840482175,0.0,0.0,0.0,0.0,0.0003684849652927369,0.00021892429504077882,-0.0010388965019956231,0.9997008442878723,0.0,0.0,0.0,7.599679470062256,1.8501487970352173,6.209469318389893,-1375.55712890625,0
297.35100000000057,-0.010629558004438877,-0.00371547625400126,-0.00022411701502278447,0.0,0.0,0.0,0.0,0.0002863913541659713,0.0013758132699877024,0.0021134759299457073,1.0000545978546143,0.0,0.0,0.0,7.592427730560303,1.8447871208190918,6.206368923187256,-1374.2445068359375,0
307.26900000000023,-0.010665014386177063,-0.0037170667201280594,-0.00023812043946236372,0.0,0.0,0.0,0.0,0.0010757403215393424,0.00013585449778474867,0.001382711692713201,1.0004258155822754,0.0,0.0,0.0,7.584008693695068,1.845046877861023,6.19618034362793,-1372.7205810546875,0
317.1840000000011,-0.010393640957772732,-0.003714003600180149,-4.89827107230667e-05,0.0,0.0,0.0,0.0,-0.004688401240855455,-0.0006241328082978725,0.0005034040659666061,0.9995763301849365,0.0,0.0,0.0,7.591338157653809,1.8331778049468994,6.260955333709717,-1374.0472412109375,0
327.09500000000116,-0.010415478609502316,-0.0037154846359044313,-4.9524973292136565e-05,0.0,0.0,0.0,0.0,0.0020597202237695456,0.004022085107862949,-0.0034741258714348078,0.9984079599380493,0.0,0.0,0.0,7.584219455718994,1.836442470550537,6.255445957183838,-1372.7589111328125,0
337.0010000000002,-0.010328787378966808,-0.0036940400023013353,-1.3188388948037755e-05,0.0,0.0,0.0,0.0,0.0007837864686734974,-5.49938749827561e-06,-0.0020181164145469666,1.0025469064712524,0.0,0.0,0.0,7.582675933837891,1.841930866241455,6.253243446350098,-1372.4794921875,0
346.9300000000003,-0.010338785126805305,-0.00369730475358665,-4.432714558788575e-05,0.0,0.0,0.0,0.0,0.002731173299252987,0.003631401341408491,0.003951010759919882,0.9999956488609314,0.0,0.0,0.0,7.595829963684082,1.8374948501586914,6.252162456512451,-1374.8602294921875,0
356.8240000000005,-0.010363421402871609,-0.0036966020707041025,-4.4092510506743565e-05,0.0,0.0,0.0,0.0,-0.0030228965915739536,0.0012146641965955496,0.000293433346087113,0.9983723163604736,0.0,0.0,0.0,7.5887651443481445,1.829309105873108,6.238983631134033,-1373.58154296875,0
366.7450000000008,-0.010411101393401623,-0.003772176569327712,-3.0378267183550633e-05,0.0,0.0,0.0,0.0,0.0020815255120396614,0.007650099694728851,-0.0011765366652980447,0.9987362623214722,0.0,0.0,0.0,7.608186721801758,1.80735182762146,6.2214884757995605,-1377.0970458984375,0
376.65099999999984,-0.010439249686896801,-0.00377379497513175,-3.0179022360243835e-05,0.0,0.0,0.0,0.0,-0.004912794101983309,-0.00613471120595932,-0.003937940113246441,0.9977999329566956,0.0,0.0,0.0,7.600155830383301,1.8043582439422607,6.209888458251953,-1375.643310546875,0
386.5730000000003,-0.010469265282154083,-0.0037763253785669804,-3.1485607905779034e-05,0.0,0.0,0.0,0.0,0.0017636300763115287,-0.00036921206628903747,0.0024524845648556948,0.9991157650947571,0.0,0.0,0.0,7.592611312866211,1.8080075979232788,6.201673984527588,-1374.2777099609375,0
396.47299999999996,-0.01050078310072422,-0.0037808811757713556,-3.434398240642622e-05,0.0,0.0,0.0,0.0,-0.00057367974659428,-0.001839079661294818,0.000669845612719655,0.9997777342796326,0.0,0.0,0.0,7.584261417388916,1.8089021444320679,6.197953701019287,-1372.7664794921875,0
406.39300000000003,-0.010533907450735569,-0.003787008114159107,-3.8011618016753346e-05,0.0,0.0,0.0,0.0,0.000504894822370261,-0.0012215907918289304,-0.0015129242092370987,1.0009305477142334,0.0,0.0,0.0,7.577602863311768,1.8089426755905151,6.191824436187744,-1371.5611572265625,0
416.3029999999999,-0.01046792883425951,-0.0037459582090377808,3.665698386612348e-05,0.0,0.0,0.0,0.0,-0.00032892636954784393,-0.0014759026234969497,0.0016070923302322626,0.997137188911438,0.0,0.0,0.0,7.582033634185791,1.8141133785247803,6.2064080238342285,-1372.3631591796875,0
426.22400000000016,-0.010410900227725506,-0.0036988260690122843,-0.00012346597213763744,0.0,0.0,0.0,0.0,0.0024165466893464327,0.002973763970658183,-0.004089518450200558,0.9971233606338501,0.0,0.0,0.0,7.5970916748046875,1.8258517980575562,6.229467391967773,-1375.088623046875,0
436.1220000000012,-0.01044105552136898,-0.003702612593770027,-0.00013438255700748414,0.0,0.0,0.0,0.0,-0.002632417716085911,0.0005626187776215374,0.0026753200218081474,0.9993901252746582,0.0,0.0,0.0,7.589739799499512,1.8282781839370728,6.22712516784668,-1373.7579345703125,0
446.0480000000007,-0.01045760978013277,-0.003715388709679246,-0.00018498566350899637,0.0,0.0,0.0,0.0,0.004387260414659977,-0.007725388277322054,0.003739999607205391,0.9991385340690613,0.0,0.0,0.0,7.6021528244018555,1.8205610513687134,6.219743251800537,-1376.0047607421875,0
455.9459999999999,-0.010381179861724377,-0.0036903247237205505,-0.00015078553406056017,0.0,0.0,0.0,0.0,0.001251793815754354,-0.0026850258000195026,0.0006283744587562978,1.0012511014938354,0.0,0.0,0.0,7.608530521392822,1.8277403116226196,6.236504077911377,-1377.1593017578125,0
465.8680000000004,-0.01040215790271759,-0.003691664431244135,-0.00017910734459292144,0.0,0.0,0.0,0.0,0.0008195008849725127,0.0014180677244439721,0.000372776499716565,1.0010613203048706,0.0,0.0,0.0,7.622992038726807,1.8199644088745117,6.233304500579834,-1379.7767333984375,0
475.77400000000125,-0.01043474581092596,-0.0036969396751374006,-0.00019192839681636542,0.0,0.0,0.0,0.0,0.001065305550582707,-0.0019984522368758917,-0.0004456146853044629,0.9986975789070129,0.0,0.0,0.0,7.6156535148620605,1.8176302909851074,6.237168788909912,-1378.448486328125,0
485.6949999999997,-0.010469705797731876,-0.003702556947246194,-0.00020410011347848922,0.0,0.0,0.0,0.0,-0.0009858981939032674,0.0005021463730372488,0.0003537323500495404,0.9980555772781372,0.0,0.0,0.0,7.609869480133057,1.8162150382995605,6.228358745574951,-1377.4014892578125,0
495.59799999999996,-0.01050763763487339,-0.003708355827257037,-0.00021708272106479853,0.0,0.0,0.0,0.0,0.0016814470291137695,-0.0017522989073768258,-0.0023940622340887785,1.000414490699768,0.0,0.0,0.0,7.601438522338867,1.813463568687439,6.227267265319824,-1375.87548828125,0
505.51300000000083,-0.010576308704912663,-0.0037651474121958017,-0.00019950851856265217,0.0,0.0,0.0,0.0,-0.002808926859870553,0.0008121695718728006,-0.0011787001276388764,1.0006146430969238,0.0,0.0,0.0,7.624349594116211,1.8018574714660645,6.211190700531006,-1380.0224609375,0
515.4300000000003,-0.010364932008087635,-0.00374429440125823,-6.801017298130319e-05,0.0,0.0,0.0,0.0,0.00027039553970098495,-0.002296247985213995,-0.003720478620380163,0.9988496899604797,0.0,0.0,0.0,7.6246490478515625,1.7998679876327515,6.256582736968994,-1380.0767822265625,0
525.3450000000012,-0.010397151112556458,-0.00375415850430727,-6.864021270303056e-05,0.0,0.0,0.0,0.0,0.0038508616853505373,-0.0005543702282011509,0.004484658595174551,1.002139687538147,0.0,0.0,0.0,7.616061687469482,1.8011999130249023,6.241332054138184,-1378.5224609375,0
535.246000000001,-0.010401167906820774,-0.003721591318026185,-5.2578536269720644e-05,0.0,0.0,0.0,0.0,0.0017757884925231338,-0.0004888479597866535,0.0003385598538443446,1.0013234615325928,0.0,0.0,0.0,7.623485565185547,1.8026584386825562,6.232723712921143,-1379.8660888671875,0
545.1590000000015,-0.010434208437800407,-0.0037324829027056694,-5.039714596932754e-05,0.0,0.0,0.0,0.0,0.001528967753984034,0.0016605847049504519,-0.0025761432480067015,0.9987690448760986,0.0,0.0,0.0,7.616272449493408,1.7982155084609985,6.2277374267578125,-1378.5604248046875,0
555.0740000000005,-0.010433893650770187,-0.0037009846419095993,-3.0267032343544997e-05,0.0,0.0,0.0,0.0,-0.0003593909787014127,0.0004158391384407878,-0.0009504921617917717,1.0004702806472778,0.0,0.0,0.0,7.6178998947143555,1.801137089729309,6.226712703704834,-1378.85498046875,0
564.9830000000002,-0.01046820916235447,-0.0037137437611818314,-2.5807801648625173e-05,0.0,0.0,0.0,0.0,-0.0008955201483331621,-0.004396678879857063,-0.0037825009785592556,0.9979745745658875,0.0,0.0,0.0,7.609625816345215,1.8047707080841064,6.209499835968018,-1377.357421875,0
574.8950000000004,-0.010504280216991901,-0.0037278677336871624,-2.1758993170806207e-05,0.0,0.0,0.0,0.0,0.000855596677865833,-0.0011859307996928692,-0.002343015745282173,0.9980629086494446,0.0,0.0,0.0,7.602566242218018,1.8076330423355103,6.210058212280273,-1376.07958984375,0
584.8119999999999,-0.010542078875005245,-0.003742498578503728,-1.902509575302247e-05,0.0,0.0,0.0,0.0,0.0011103983270004392,-0.00041306891944259405,0.001384411589242518,0.9998272061347961,0.0,0.0,0.0,7.59481143951416,1.8080997467041016,6.2130351066589355,-1374.6759033203125,0
594.7309999999998,-0.010580896399915218,-0.0037577454932034016,-1.7788997865864076e-05,0.0,0.0,0.0,0.0,0.002195688197389245,-0.0057830712758004665,-5.9646663430612534e-05,0.9998632073402405,0.0,0.0,0.0,7.586032867431641,1.8096973896026611,6.206037521362305,-1373.0870361328125,0
604.6370000000006,-0.010548972524702549,-0.00371539662592113,-0.0001644725416554138,0.0,0.0,0.0,0.0,-0.002982216887176037,0.0019349446520209312,-0.0020040387753397226,0.9980702996253967,0.0,0.0,0.0,7.600417137145996,1.81852388381958,6.2184553146362305,-1375.6907958984375,0
614.5480000000007,-0.010584100149571896,-0.0037311590276658535,-0.00017264894268009812,0.0,0.0,0.0,0.0,-0.0020004252437502146,-0.0009330678731203079,0.0034908668603748083,0.9997942447662354,0.0,0.0,0.0,7.592545509338379,1.8208504915237427,6.2081403732299805,-1374.2657470703125,0
624.4740000000002,-0.010596508160233498,-0.0037342975847423077,-0.00023586467432323843,0.0,0.0,0.0,0.0,0.0013148130383342505,-0.002779448637738824,-6.834047962911427e-05,1.0001457929611206,0.0,0.0,0.0,7.607609272003174,1.824718713760376,6.215978622436523,-1376.992431640625,0
634.3780000000006,-0.010633017867803574,-0.0037534607108682394,-0.00024926260812208056,0.0,0.0,0.0,0.0,-0.00034089715336449444,0.0025225747376680374,0.0013383340556174517,1.0010324716567993,0.0,0.0,0.0,7.600165367126465,1.8185691833496094,6.2060065269470215,-1375.64501953125,0
644.2980000000007,-0.010646793991327286,-0.003748175222426653,-0.0003099937457591295,0.0,0.0,0.0,0.0,-0.002267132978886366,0.0009669665014371276,-0.0033936286345124245,0.9985056519508362,0.0,0.0,0.0,7.615812301635742,1.8162541389465332,6.2054338455200195,-1378.4771728515625,0
654.1940000000013,-0.010397826321423054,-0.003682501846924424,-8.12651778687723e-05,0.0,0.0,0.0,0.0,0.0022409672383219004,-0.0005778478807769716,-0.002648830646649003,0.9967429041862488,0.0,0.0,0.0,7.61991548538208,1.8224893808364868,6.278528690338135,-1379.2198486328125,0
664.1140000000014,-0.010462946258485317,-0.0037806080654263496,-5.541267091757618e-05,0.0,0.0,0.0,0.0,0.0005897951195947826,0.002109356690198183,-0.0013957630144432187,0.9997498989105225,0.0,0.0,0.0,7.637862682342529,1.803173303604126,6.265610218048096,-1382.46826171875,0
674.0280000000002,-0.010487213730812073,-0.0038032373413443565,-5.609544678009115e-05,0.0,0.0,0.0,0.0,0.000769672216847539,-0.003462514840066433,0.002347404370084405,1.0011638402938843,0.0,0.0,0.0,7.629040718078613,1.8037818670272827,6.247312545776367,-1380.87158203125,0
683.9369999999999,-0.010509495623409748,-0.003829158842563629,-6.403611769201234e-05,0.0,0.0,0.0,0.0,0.001551822992041707,-0.0011124800657853484,0.0009982652263715863,1.0021710395812988,0.0,0.0,0.0,7.637864589691162,1.7938600778579712,6.247937202453613,-1382.4686279296875,0
693.8420000000006,-0.01053580455482006,-0.003851930610835552,-6.446953193517402e-05,0.0,0.0,0.0,0.0,-0.0006261906237341464,-0.0027660434134304523,-0.00429539754986763,0.9989080429077148,0.0,0.0,0.0,7.630661487579346,1.7901076078414917,6.248427867889404,-1381.1649169921875,0
703.7660000000014,-0.010563784278929234,-0.0038746336940675974,-6.375928205670789e-05,0.0,0.0,0.0,0.0,0.0021023980807513,-0.002216128632426262,-0.0021388500463217497,0.9987282752990723,0.0,0.0,0.0,7.621824741363525,1.7893880605697632,6.240087985992432,-1379.5654296875,0
713.6750000000011,-0.010593350045382977,-0.0038976031355559826,-6.307423609541729e-05,0.0,0.0,0.0,0.0,5.24546267115511e-05,0.0005024825222790241,0.002129573142156005,0.9978887438774109,0.0,0.0,0.0,7.613076210021973,1.7865957021713257,6.220528602600098,-1377.98193359375,0
723.5920000000006,-0.010597837157547474,-0.0038969535380601883,-0.00010808525257743895,0.0,0.0,0.0,0.0,-0.0011433562031015754,-0.0006810306222178042,-0.0028999601490795612,0.9979424476623535,0.0,0.0,0.0,7.631025791168213,1.797333002090454,6.2266316413879395,-1381.2308349609375,0
733.4920000000002,-0.010629543103277683,-0.003921166528016329,-0.00011378200724720955,0.0,0.0,0.0,0.0,0.0016947065014392138,0.001073477673344314,0.0013611257309094071,0.9990872144699097,0.0,0.0,0.0,7.624307632446289,1.7974730730056763,6.215885639190674,-1380.014892578125,0
743.4130000000005,-0.010638494044542313,-0.003916451241821051,-0.00015931999951135367,0.0,0.0,0.0,0.0,-0.0027501743752509356,0.0011551178758963943,0.0008148288470692933,1.0011396408081055,0.0,0.0,0.0,7.63415002822876,1.8038275241851807,6.2198591232299805,-1381.79638671875,0
753.3280000000013,-0.01067032665014267,-0.003939278423786163,-0.00017003047105390579,0.0,0.0,0.0,0.0,0.0024050078354775906,-0.0011076155351474881,-0.005213875323534012,1.0010112524032593,0.0,0.0,0.0,7.628082275390625,1.7940497398376465,6.222581386566162,-1380.6981201171875,0
763.237000000001,-0.010702352970838547,-0.003961774520576,-0.0001798111043171957,0.0,0.0,0.0,0.0,0.0012820380507037044,-0.002486282493919134,0.0018151613185182214,1.0009196996688843,0.0,0.0,0.0,7.620647430419922,1.7969595193862915,6.212928295135498,-1379.352294921875,0
773.1450000000004,-0.01073477789759636,-0.003983539063483477,-0.0001882478391053155,0.0,0.0,0.0,0.0,0.0026726166252046824,-0.00019773629901465029,-0.002507314318791032,1.0013675689697266,0.0,0.0,0.0,7.6115899085998535,1.795481562614441,6.214499473571777,-1377.712890625,0
783.0619999999999,-0.010705873370170593,-0.0038888470735400915,-0.0002718487230595201,0.0,0.0,0.0,0.0,-0.0013908749679103494,-0.005024651065468788,0.0014585216995328665,0.9984205365180969,0.0,0.0,0.0,7.62978982925415,1.8276982307434082,6.243062973022461,-1381.007080078125,0
792.9719999999998,-0.010437303222715855,-0.0037614479660987854,3.5370718251215294e-05,0.0,0.0,0.0,0.0,-0.0027182961348444223,-0.00012665067333728075,-0.0007778270519338548,0.9988455772399902,0.0,0.0,0.0,7.634912014007568,1.8576784133911133,6.311216354370117,-1381.9342041015625,0
802.8870000000006,-0.01040680706501007,-0.003741056891158223,-2.6175966922892258e-05,0.0,0.0,0.0,0.0,0.000600178842432797,0.0014484724961221218,0.0005850411835126579,1.0009921789169312,0.0,0.0,0.0,7.646660327911377,1.8668889999389648,6.32590913772583,-1384.060791015625,0
812.8020000000015,-0.010418158024549484,-0.003744284389540553,-2.6905308914138004e-05,0.0,0.0,0.0,0.0,0.0010000452166423202,0.0011466681025922298,-0.002427447820082307,1.0032085180282593,0.0,0.0,0.0,7.6383819580078125,1.8633978366851807,6.320789337158203,-1382.5623779296875,0
822.7129999999997,-0.010392813012003899,-0.003718493040651083,-8.584368333686143e-05,0.0,0.0,0.0,0.0,-0.000971857865806669,-0.0013667166931554675,0.0008087889873422682,1.0009676218032837,0.0,0.0,0.0,7.649931907653809,1.8611640930175781,6.331405162811279,-1384.65283203125,0
832.621000000001,-0.010333022102713585,-0.003682775190100074,-5.325855818227865e-05,0.0,0.0,0.0,0.0,-0.0007552361348643899,-0.0017005176050588489,-0.0008757394389249384,1.0002892017364502,0.0,0.0,0.0,7.654244422912598,1.8632045984268188,6.324240684509277,-1385.433349609375,0
842.5380000000005,-0.0103495754301548,-0.00370422238484025,-6.004585884511471e-05,0.0,0.0,0.0,0.0,-0.0011826507980003953,0.00816501583904028,-0.0015282590175047517,0.9982028007507324,0.0,0.0,0.0,7.6652116775512695,1.861834168434143,6.327103614807129,-1387.418701171875,0
852.4580000000005,-0.01036371011286974,-0.003700461471453309,-5.87872345931828e-05,0.0,0.0,0.0,0.0,-0.0014937249943614006,-0.0004211711639072746,0.00011664791236398742,0.9979711174964905,0.0,0.0,0.0,7.657591819763184,1.8629504442214966,6.303769588470459,-1386.039306640625,0
862.3590000000004,-0.010343349538743496,-0.003695063991472125,-0.00011924447608180344,0.0,0.0,0.0,0.0,0.0013697826070711017,0.0018670643912628293,0.0001662038266658783,0.9977888464927673,0.0,0.0,0.0,7.670472621917725,1.8563330173492432,6.302225112915039,-1388.370849609375,0
872.2750000000015,-0.010301498696208,-0.003649807767942548,-9.908898937283084e-05,0.0,0.0,0.0,0.0,0.0006474647088907659,-0.0020725394133478403,-0.0020649279467761517,0.9979215860366821,0.0,0.0,0.0,7.674500942230225,1.85381281375885,6.2902445793151855,-1389.0999755859375,0
882.1880000000001,-0.010294473730027676,-0.0036598946899175644,-0.0001425814552931115,0.0,0.0,0.0,0.0,-0.0015370837645605206,0.00022125744726508856,0.00011044278653571382,0.99955815076828,0.0,0.0,0.0,7.681843280792236,1.8533763885498047,6.284874439239502,-1390.428955078125,0
892.1090000000004,-0.010267687030136585,-0.0036336893681436777,-0.0001413883437635377,0.0,0.0,0.0,0.0,0.003673048224300146,0.006575283594429493,0.0007334197289310396,0.9997671246528625,0.0,0.0,0.0,7.67471170425415,1.8538933992385864,6.28446102142334,-1389.1380615234375,0
902.0160000000014,-0.010283110663294792,-0.0036301338113844395,-0.00015137028822209686,0.0,0.0,0.0,0.0,0.00039261794881895185,0.004039923660457134,-0.0074553294107317924,0.9996713995933533,0.0,0.0,0.0,7.66727352142334,1.845235824584961,6.278637409210205,-1387.791748046875,0
911.9240000000009,-0.010326353833079338,-0.003643008414655924,-0.0001761837484082207,0.0,0.0,0.0,0.0,-0.0032526268623769283,-0.003131608944386244,0.0014818295603618026,0.9983943700790405,0.0,0.0,0.0,7.664536476135254,1.839206337928772,6.257018089294434,-1387.29638671875,0
921.8310000000001,-0.010372820310294628,-0.0036948996130377054,-0.00016354935360141098,0.0,0.0,0.0,0.0,0.0004870701814070344,0.0006544538191519678,-0.0011125275632366538,0.9990396499633789,0.0,0.0,0.0,7.6749267578125,1.834275484085083,6.24860143661499,-1389.177001953125,0
931.75,-0.01029976550489664,-0.0036560031585395336,-0.0001438335020793602,0.0,0.0,0.0,0.0,-0.0002153132954845205,0.0002069859328912571,-0.002569598611444235,1.0018112659454346,0.0,0.0,0.0,7.676757335662842,1.8353455066680908,6.245848655700684,-1389.50830078125,0
941.6599999999999,-0.01031610369682312,-0.0036548629868775606,-0.00015290720330085605,0.0,0.0,0.0,0.0,0.004125296603888273,0.00025874454877339303,-0.0006718672229908407,0.9991387128829956,0.0,0.0,0.0,7.668368339538574,1.8364295959472656,6.235743522644043,-1387.989990234375,0
951.5660000000007,-0.010280926711857319,-0.003635619767010212,-0.00015051061927806586,0.0,0.0,0.0,0.0,-0.003295825095847249,-0.0008648172370158136,-0.0027204486541450024,0.9980081915855408,0.0,0.0,0.0,7.6709747314453125,1.8353183269500732,6.2266058921813965,-1388.4617919921875,0
961.4790000000012,-0.010389902628958225,-0.0037540518678724766,-4.902105501969345e-05,0.0,0.0,0.0,0.0,0.00037550798151642084,-0.0024764258414506912,0.003465513000264764,0.9987817406654358,0.0,0.0,0.0,7.685920238494873,1.8222829103469849,6.208358287811279,-1391.1668701171875,0
971.3970000000008,-0.010332895442843437,-0.0037210697773844004,-2.1270974684739485e-05,0.0,0.0,0.0,0.0,0.0009643511148169637,0.0037898996379226446,-0.002047470072284341,0.9948856830596924,0.0,0.0,0.0,7.678198337554932,1.8274073600769043,6.209491729736328,-1389.7691650390625,0
981.3180000000011,-0.010352116078138351,-0.003725269576534629,-2.2750205971533433e-05,0.0,0.0,0.0,0.0,-0.0008092755451798439,-0.001434057136066258,-0.003236472373828292,0.9979400634765625,0.0,0.0,0.0,7.670989513397217,1.8236514329910278,6.197331428527832,-1388.46435546875,0
991.2150000000001,-0.010326751507818699,-0.003698634449392557,-1.4049976016394794e-05,0.0,0.0,0.0,0.0,0.0005060640396550298,0.0006972188130021095,-0.0051211039535701275,1.001063346862793,0.0,0.0,0.0,7.6626152992248535,1.8211686611175537,6.1864118576049805,-1386.9486083984375,0
1001.130000000001,-0.010393280535936356,-0.00377076817676425,2.9056147468509153e-05,0.0,0.0,0.0,0.0,0.0007125710835680366,-0.0015224141534417868,0.002529146382585168,0.9997251629829407,0.0,0.0,0.0,7.666328430175781,1.8112925291061401,6.174108028411865,-1387.6207275390625,0
1011.0450000000001,-0.010360663756728172,-0.003748989198356867,4.379775782581419e-05,0.0,0.0,0.0,0.0,-0.0022521535865962505,0.0008032437763176858,-0.0005999209242872894,0.9985395669937134,0.0,0.0,0.0,7.665904998779297,1.8080849647521973,6.17153263092041,-1387.544189453125,0
1020.9539999999997,-0.010386059992015362,-0.003753836266696453,4.286713374312967e-05,0.0,0.0,0.0,0.0,-0.0008242857293225825,-0.001642359420657158,-0.0006712332833558321,1.0006518363952637,0.0,0.0,0.0,7.658681392669678,1.805977702140808,6.164341449737549,-1386.2364501953125,0
1030.866,-0.010411828756332397,-0.003760596504434943,4.160426033195108e-05,0.0,0.0,0.0,0.0,0.0014226546045392752,-5.0388305680826306e-05,0.0004999461234547198,0.9981278777122498,0.0,0.0,0.0,7.650989532470703,1.80780029296875,6.159275054931641,-1384.84423828125,0
1040.7900000000009,-0.010393917560577393,-0.003740389831364155,-2.8187885618535802e-05,0.0,0.0,0.0,0.0,-0.000762568844947964,-0.0002144881000276655,-0.0003645696269813925,0.996910572052002,0.0,0.0,0.0,7.6582255363464355,1.805573582649231,6.163229942321777,-1386.1539306640625,0
1050.6980000000003,-0.01044517382979393,-0.003666718490421772,-2.6303279810235836e-05,0.0,0.0,0.0,0.0,-0.0011020839447155595,-0.0007713021477684379,0.0031306182499974966,0.9976874589920044,0.0,0.0,0.0,7.657390594482422,1.8263126611709595,6.148336410522461,-1386.0028076171875,0
1060.6040000000012,-0.010475353337824345,-0.0036710668355226517,-3.5966972063761204e-05,0.0,0.0,0.0,0.0,0.0013551058946177363,0.0008465389837510884,-0.0002253699058201164,0.9965639710426331,0.0,0.0,0.0,7.650088310241699,1.833266258239746,6.13977575302124,-1384.68115234375,0
1070.5200000000004,-0.010506421327590942,-0.003675556741654873,-4.826756048714742e-05,0.0,0.0,0.0,0.0,-0.001565942307934165,-0.0004753036191686988,0.000669577915687114,1.0007572174072266,0.0,0.0,0.0,7.641856670379639,1.8267271518707275,6.122498035430908,-1383.1912841796875,0
1080.4230000000007,-0.010482309386134148,-0.0036628213711082935,-0.000158296650624834,0.0,0.0,0.0,0.0,-0.0038743906188756227,0.00043016462586820126,-0.0010532065061852336,1.0020098686218262,0.0,0.0,0.0,7.649375915527344,1.8281550407409668,6.128199100494385,-1384.55224609375,0
1090.3360000000011,-0.010512331500649452,-0.003669035155326128,-0.0001781230530468747,0.0,0.0,0.0,0.0,-0.000971289467997849,0.0019836362916976213,-0.0003229215508326888,0.9991875886917114,0.0,0.0,0.0,7.642135143280029,1.8317127227783203,6.119998455047607,-1383.2415771484375,0
1100.2540000000008,-0.010537432506680489,-0.0036859381943941116,-0.000211315622436814,0.0,0.0,0.0,0.0,-0.0004331113013904542,-0.0015596706653013825,-0.0005518298712559044,0.9984318614006042,0.0,0.0,0.0,7.653036117553711,1.8282968997955322,6.107059001922607,-1385.2147216796875,0
1110.1640000000007,-0.010569272562861443,-0.003693599486723542,-0.00023128230532165617,0.0,0.0,0.0,0.0,-0.0005275172297842801,-0.0021519737783819437,0.0029591156635433435,0.9975272417068481,0.0,0.0,0.0,7.644830703735352,1.8301302194595337,6.100014686584473,-1383.7296142578125,0
1120.0660000000007,-0.010594372637569904,-0.0037160797510296106,-0.0002745514502748847,0.0,0.0,0.0,0.0,-0.00025121818180195987,0.0034726804587990046,-0.003021110547706485,0.9985870122909546,0.0,0.0,0.0,7.654654026031494,1.8269119262695312,6.107102394104004,-1385.5076904296875,0
1129.9830000000002,-0.010345284827053547,-0.0037199652288109064,-0.00012564318603836,0.0,0.0,0.0,0.0,0.0017591220093891025,-0.0029022193048149347,-0.0029508762527257204,1.000710129737854,0.0,0.0,0.0,7.649648189544678,1.8143965005874634,6.167071342468262,-1384.6014404296875,0
1139.8960000000006,-0.010364101268351078,-0.003729739924892783,-0.00013980193762108684,0.0,0.0,0.0,0.0,0.0016988037386909127,0.005411417223513126,-0.0004833191342186183,1.0019980669021606,0.0,0.0,0.0,7.641296863555908,1.8113996982574463,6.154585361480713,-1383.08984375,0
1149.8109999999997,-0.010307017713785172,-0.0036812813486903906,-0.00011868327419506386,0.0,0.0,0.0,0.0,1.682377842371352e-05,0.0033993700053542852,0.0005825714906677604,1.002121925354004,0.0,0.0,0.0,7.644371032714844,1.8181709051132202,6.156737804412842,-1383.6463623046875,0
1159.7260000000006,-0.01034789439290762,-0.003728812327608466,-0.00010986882261931896,0.0,0.0,0.0,0.0,-0.0017675230046734214,-0.0007228610920719802,0.0018742306856438518,0.9999430775642395,0.0,0.0,0.0,7.654046058654785,1.810316562652588,6.1433305740356445,-1385.3975830078125,0
1169.630000000001,-0.010314511135220528,-0.0036943424493074417,-9.177438914775848e-05,0.0,0.0,0.0,0.0,-0.0003256323980167508,-0.0018399988766759634,0.0033643199130892754,1.0006803274154663,0.0,0.0,0.0,7.654604434967041,1.8154700994491577,6.137177467346191,-1385.49853515625,0
1179.545,-0.010335133410990238,-0.0037024037446826696,-9.499595034867525e-05,0.0,0.0,0.0,0.0,0.0012362857814878225,-0.0006840004352852702,0.0006902345921844244,1.0006718635559082,0.0,0.0,0.0,7.647641181945801,1.814918041229248,6.129563331604004,-1384.2381591796875,0
1189.4620000000014,-0.01030776184052229,-0.0036834359634667635,-8.45406175358221e-05,0.0,0.0,0.0,0.0,-0.0011640861630439758,0.001037389156408608,2.5913277568179183e-05,0.998785138130188,0.0,0.0,0.0,7.640234470367432,1.818716287612915,6.133147716522217,-1382.8975830078125,0
1199.3730000000014,-0.010332142934203148,-0.003689963137730956,-8.562793664168566e-05,0.0,0.0,0.0,0.0,-0.0009456380503252149,-0.002773009007796645,-0.0018903035670518875,0.9986324310302734,0.0,0.0,0.0,7.632263660430908,1.8209083080291748,6.126583099365234,-1381.454833984375,0
1209.2750000000015,-0.010322222486138344,-0.0036774524487555027,-7.907861436251551e-05,0.0,0.0,0.0,0.0,0.002294581849128008,0.0038583192508667707,-0.003241376020014286,0.999241828918457,0.0,0.0,0.0,7.630373477935791,1.8232589960098267,6.128471851348877,-1381.11279296875,0
1219.2000000000007,-0.010348702780902386,-0.0036828787997365,-8.145514584612101e-05,0.0,0.0,0.0,0.0,0.00016368113574571908,-0.0017309841932728887,0.004023269284516573,1.0003224611282349,0.0,0.0,0.0,7.622577667236328,1.8236119747161865,6.121799945831299,-1379.70166015625,0
1229.112000000001,-0.010314264334738255,-0.0036817484069615602,-7.376591383945197e-05,0.0,0.0,0.0,0.0,-0.00040348831680603325,0.0034298370592296124,0.0008316835737787187,1.0003674030303955,0.0,0.0,0.0,7.621737003326416,1.8218268156051636,6.1298627853393555,-1379.5496826171875,0
1239.014000000001,-0.01034286618232727,-0.0036845854483544827,-7.471964636351913e-05,0.0,0.0,0.0,0.0,-0.0032902993261814117,0.0019291068892925978,-0.0018180004553869367,0.9984921813011169,0.0,0.0,0.0,7.614428520202637,1.8178141117095947,6.127947807312012,-1378.2266845703125,0
1248.9260000000013,-0.010373101569712162,-0.003685888135805726,-7.556825585197657e-05,0.0,0.0,0.0,0.0,0.001913951593451202,-0.001108698546886444,-0.0006208281847648323,0.9988543391227722,0.0,0.0,0.0,7.605095863342285,1.8197215795516968,6.120018482208252,-1376.53759765625,0
1258.8360000000011,-0.010402251034975052,-0.0037036545109003782,-9.515939018456265e-05,0.0,0.0,0.0,0.0,-0.0006189004634507,0.0012146449880674481,-0.001593859400600195,1.000889778137207,0.0,0.0,0.0,7.619726181030273,1.8094228506088257,6.114193439483643,-1379.185546875,0
1268.7489999999998,-0.01033083163201809,-0.003686334006488323,-5.460121974465437e-05,0.0,0.0,0.0,0.0,0.0012807176681235433,0.0004418593307491392,0.0026593615766614676,1.0008556842803955,0.0,0.0,0.0,7.611695766448975,1.8031798601150513,6.114070415496826,-1377.7320556640625,0
1278.6599999999999,-0.010360658168792725,-0.0036863056011497974,-5.508294634637423e-05,0.0,0.0,0.0,0.0,0.0021938038989901543,-0.0023018517531454563,-0.00243206275627017,1.0007878541946411,0.0,0.0,0.0,7.603561878204346,1.8083797693252563,6.101734638214111,-1376.2598876953125,0
1288.5750000000007,-0.010416482575237751,-0.003658815985545516,-5.503765351022594e-05,0.0,0.0,0.0,0.0,0.0016865661600604653,-0.000667700485792011,0.0018979731248691678,0.9998589158058167,0.0,0.0,0.0,7.606287002563477,1.8123316764831543,6.089399337768555,-1376.7530517578125,0
1298.4930000000004,-0.010451635345816612,-0.0036574690602719784,-5.3980020311428234e-05,0.0,0.0,0.0,0.0,-0.00073076575063169,-0.0005207101348787546,0.00047886313404887915,1.0013030767440796,0.0,0.0,0.0,7.598423004150391,1.8105127811431885,6.084713935852051,-1375.3297119140625,0
1308.398000000001,-0.010488603264093399,-0.0036570560187101364,-5.228024019743316e-05,0.0,0.0,0.0,0.0,2.925467924796976e-05,-0.002563431393355131,0.0011623521568253636,1.0007189512252808,0.0,0.0,0.0,7.591659069061279,1.8089799880981445,6.07676362991333,-1374.1053466796875,0
1318.321,-0.010526747442781925,-0.003657576395198703,-4.966141932527535e-05,0.0,0.0,0.0,0.0,0.0018075286643579602,-0.0028736605308949947,-0.0021992740221321583,1.0008403062820435,0.0,0.0,0.0,7.583952903747559,1.8023077249526978,6.075173377990723,-1372.71044921875,0
1328.2219999999998,-0.010565458796918392,-0.003658961271867156,-4.632018317352049e-05,0.0,0.0,0.0,0.0,0.00046956908772699535,0.0035481005907058716,0.0013576610945165157,1.0009480714797974,0.0,0.0,0.0,7.57677698135376,1.7930982112884521,6.075531005859375,-1371.4117431640625,0
1338.134,-0.010604990646243095,-0.003661000169813633,-4.1948904254240915e-05,0.0,0.0,0.0,0.0,4.90573511342518e-05,-0.002871790900826454,0.0018307060236111283,0.9976209402084351,0.0,0.0,0.0,7.569131374359131,1.788914442062378,6.069406509399414,-1370.02783203125,0
1348.0520000000015,-0.01064612902700901,-0.003663467476144433,-3.7349916965467855e-05,0.0,0.0,0.0,0.0,0.0010714406380429864,-0.0016557531198486686,-0.001125027658417821,1.0004513263702393,0.0,0.0,0.0,7.562026500701904,1.7921006679534912,6.057931900024414,-1368.741943359375,0
1357.9580000000005,-0.010581287555396557,-0.0036229132674634457,-0.00027441830025054514,0.0,0.0,0.0,0.0,-0.0010430612601339817,-0.0027526153717190027,-0.0002464271383360028,0.9984639286994934,0.0,0.0,0.0,7.578207969665527,1.78602933883667,6.084039211273193,-1371.670654296875,0
1367.871000000001,-0.010622536763548851,-0.003623013850301504,-0.00028427940560504794,0.0,0.0,0.0,0.0,0.0005228816880844533,-0.0026526679284870625,-0.0014994997764006257,0.9968525171279907,0.0,0.0,0.0,7.570947647094727,1.7872743606567383,6.0776143074035645,-1370.3565673828125,0
1377.7840000000015,-0.01042094361037016,-0.0036396149080246687,-0.00015680212527513504,0.0,0.0,0.0,0.0,-0.002076993929222226,-0.00020421190129127353,0.001543419435620308,0.9986163377761841,0.0,0.0,0.0,7.5761189460754395,1.7704849243164062,6.152059555053711,-1371.2926025390625,0
1387.6990000000005,-0.010449607856571674,-0.0036391254980117083,-0.00016184570267796516,0.0,0.0,0.0,0.0,0.00039325724355876446,0.004207407124340534,-0.004882436245679855,1.0000109672546387,0.0,0.0,0.0,7.5686140060424805,1.7716714143753052,6.148648262023926,-1369.934326171875,0
1397.6100000000006,-0.010397803038358688,-0.0036282530054450035,-0.00014458065561484545,0.0,0.0,0.0,0.0,0.00021054412354715168,-0.0016569459112361073,0.0026819126214832067,0.9987363815307617,0.0,0.0,0.0,7.573052883148193,1.76582670211792,6.137153625488281,-1370.7376708984375,0
1407.5220000000008,-0.010494992136955261,-0.0037272940389811993,-4.7443736548302695e-05,0.0,0.0,0.0,0.0,-0.004106888081878424,0.0036271032877266407,0.004409025888890028,1.0003660917282104,0.0,0.0,0.0,7.5846967697143555,1.7436773777008057,6.119592189788818,-1372.8450927734375,0
1417.434000000001,-0.01052598562091589,-0.0037342628929764032,-4.653779251384549e-05,0.0,0.0,0.0,0.0,-0.0019012924749404192,-0.00579652888700366,-0.003549603745341301,0.9996163249015808,0.0,0.0,0.0,7.576665878295898,1.7451845407485962,6.09813117980957,-1371.3916015625,0
1427.3450000000012,-0.010563073679804802,-0.003784041153267026,-5.239109304966405e-05,0.0,0.0,0.0,0.0,0.0010994892800226808,-0.00041772634722292423,-0.0002978633565362543,0.9988320469856262,0.0,0.0,0.0,7.590818881988525,1.7372316122055054,6.098292350769043,-1373.9532470703125,0
1437.2620000000006,-0.010387593880295753,-0.003764959517866373,5.01496579090599e-05,0.0,0.0,0.0,0.0,-0.00299050216563046,-0.00012577822781167924,0.0008460598764941096,0.9994617104530334,0.0,0.0,0.0,7.59255313873291,1.7418590784072876,6.123711585998535,-1374.26708984375,0
1447.1779999999999,-0.01041365135461092,-0.0038039202336221933,4.016003367723897e-05,0.0,0.0,0.0,0.0,0.0011063413694500923,0.002924154046922922,-0.0029149469919502735,0.9999533295631409,0.0,0.0,0.0,7.61032772064209,1.739988088607788,6.117806911468506,-1377.4844970703125,0
1457.0830000000005,-0.01036477368324995,-0.0037746105808764696,7.327881030505523e-05,0.0,0.0,0.0,0.0,0.0007050575222820044,0.0005571938236244023,-0.0013513455633074045,0.9989287853240967,0.0,0.0,0.0,7.616814613342285,1.7429401874542236,6.108452796936035,-1378.65869140625,0
1466.9930000000004,-0.010392366908490658,-0.00378415547311306,8.058311505010352e-05,0.0,0.0,0.0,0.0,0.0010515735484659672,0.0014454388292506337,0.0003209745045751333,0.9997103214263916,0.0,0.0,0.0,7.610178470611572,1.7401407957077026,6.095860958099365,-1377.4573974609375,0
1476.9080000000013,-0.010356401093304157,-0.003755787620320916,0.00010436515731271356,0.0,0.0,0.0,0.0,0.0033683956135064363,0.001695368206128478,-0.0027164691127836704,0.999143123626709,0.0,0.0,0.0,7.6091156005859375,1.7389386892318726,6.096906661987305,-1377.2650146484375,0
1486.821,-0.010384263470768929,-0.0037625464610755444,0.00011236283171456307,0.0,0.0,0.0,0.0,-0.0024253539741039276,-0.002837453270331025,0.0011024652048945427,1.00002121925354,0.0,0.0,0.0,7.600936412811279,1.7316811084747314,6.0745415687561035,-1375.78466796875,0
1496.7330000000002,-0.01041408721357584,-0.0037690605968236923,0.00011989979248028249,0.0,0.0,0.0,0.0,0.0030613956041634083,0.0021356416400521994,0.0022706359159201384,0.9995899200439453,0.0,0.0,0.0,7.593386173248291,1.7266217470169067,6.071902751922607,-1374.41796875,0
1506.648000000001,-0.010446267202496529,-0.0037761209532618523,0.00012750817404594272,0.0,0.0,0.0,0.0,0.000700631644576788,0.003395721549168229,-0.001902781194075942,0.9983627200126648,0.0,0.0,0.0,7.584819793701172,1.7297823429107666,6.065816879272461,-1372.867431640625,0
1516.5550000000003,-0.010471202433109283,-0.003748376853764057,0.00014796314644627273,0.0,0.0,0.0,0.0,-0.0049068196676671505,-0.0001864598598331213,0.0005805587861686945,0.9996917247772217,0.0,0.0,0.0,7.590386867523193,1.7335450649261475,6.049540996551514,-1373.8751220703125,0
1526.4750000000004,-0.010446389205753803,-0.003737753489986062,2.6997453460353427e-05,0.0,0.0,0.0,0.0,-0.0012673652963712811,0.004018843639642,-0.000984316342510283,0.9988240003585815,0.0,0.0,0.0,7.6050591468811035,1.7377411127090454,6.044138431549072,-1376.5308837890625,0
1536.3790000000008,-0.010395647026598454,-0.0036877042148262262,7.236327655846253e-05,0.0,0.0,0.0,0.0,-0.0018223037477582693,-0.004626637790352106,0.002092422218993306,0.9984542727470398,0.0,0.0,0.0,7.613205909729004,1.7457630634307861,6.044336795806885,-1378.00537109375,0
1546.304,-0.010383835062384605,-0.0036782596725970507,-8.613821592007298e-06,0.0,0.0,0.0,0.0,-0.0016175218624994159,0.0020903798285871744,0.0017808879492804408,1.0011703968048096,0.0,0.0,0.0,7.621381759643555,1.7451088428497314,6.042235851287842,-1379.4852294921875,0
1556.2039999999997,-0.010369010269641876,-0.0036950453650206327,-1.3091819710098207e-05,0.0,0.0,0.0,0.0,0.0011011523893103004,-0.002358187222853303,-0.0028187555726617575,1.000655174255371,0.0,0.0,0.0,7.623272895812988,1.7427481412887573,6.043372631072998,-1379.8275146484375,0
1566.1220000000012,-0.010413100011646748,-0.0036990453954786062,-1.837919990066439e-05,0.0,0.0,0.0,0.0,0.002622838830575347,-0.0008305950905196369,-0.0003007582272402942,1.0002315044403076,0.0,0.0,0.0,7.615202903747559,1.743526816368103,6.037172317504883,-1378.3668212890625,0
1576.0280000000002,-0.010458817705512047,-0.003703000256791711,-2.2869950043968856e-05,0.0,0.0,0.0,0.0,-0.00045310796122066677,-0.0015074065886437893,-0.0025509968400001526,1.0012308359146118,0.0,0.0,0.0,7.607478141784668,1.7419184446334839,6.031854152679443,-1376.96875,0
1585.9470000000001,-0.010505873709917068,-0.003707142546772957,-2.6484995032660663e-05,0.0,0.0,0.0,0.0,-0.00012903392780572176,-0.002257282380014658,-0.003004141617566347,0.9979764223098755,0.0,0.0,0.0,7.599271297454834,1.739333152770996,6.032251358032227,-1375.4832763671875,0
1595.8520000000008,-0.010397753678262234,-0.003655025502666831,2.274339749419596e-05,0.0,0.0,0.0,0.0,-0.0006027382332831621,-0.004628246650099754,0.0018739597871899605,1.0005848407745361,0.0,0.0,0.0,7.60535192489624,1.7480851411819458,6.062277317047119,-1376.5838623046875,0
1605.7810000000009,-0.010440048761665821,-0.003657757071778178,2.357553421461489e-05,0.0,0.0,0.0,0.0,0.002079555531963706,0.0014175053220242262,0.00138671335298568,1.0003383159637451,0.0,0.0,0.0,7.5973429679870605,1.7487634420394897,6.0688066482543945,-1375.1341552734375,0
1615.6760000000013,-0.010483562014997005,-0.0036604665219783783,2.4127517463057302e-05,0.0,0.0,0.0,0.0,-0.0001536913332529366,0.005696115083992481,-0.00023131757916416973,0.9983677268028259,0.0,0.0,0.0,7.589263439178467,1.751625657081604,6.067042350769043,-1373.6717529296875,0
1625.598,-0.010476883500814438,-0.003650098107755184,-8.745239756535739e-05,0.0,0.0,0.0,0.0,0.004941403400152922,-0.002391350455582142,0.0010566313285380602,0.9999905824661255,0.0,0.0,0.0,7.603860378265381,1.7471284866333008,6.070675849914551,-1376.3138427734375,0
1635.5070000000014,-0.010385786183178425,-0.0036920069251209497,-7.33695414965041e-05,0.0,0.0,0.0,0.0,0.001327324891462922,-0.0013958849012851715,-0.0015606615925207734,1.0018677711486816,0.0,0.0,0.0,7.605137825012207,1.7316232919692993,6.0765509605407715,-1376.545166015625,0
1645.4270000000015,-0.01042622048407793,-0.003698323853313923,-7.91780257713981e-05,0.0,0.0,0.0,0.0,-0.00019587397400755435,0.0016905074007809162,-0.0006808683974668384,1.001414179801941,0.0,0.0,0.0,7.5985493659973145,1.720854640007019,6.074313163757324,-1375.3524169921875,0
1655.3280000000013,-0.010384251363575459,-0.0037055588327348232,-7.095334149198607e-05,0.0,0.0,0.0,0.0,0.0003292191249784082,-0.0006160600460134447,0.0008141829166561365,0.9994113445281982,0.0,0.0,0.0,7.599676132202148,1.7172502279281616,6.0726728439331055,-1375.5565185546875,0
1665.246000000001,-0.01041312888264656,-0.003715056460350752,-0.00010381585161667317,0.0,0.0,0.0,0.0,-9.719154331833124e-05,0.0027589499950408936,-0.003293122397735715,0.9983893036842346,0.0,0.0,0.0,7.607140064239502,1.7160893678665161,6.069029331207275,-1376.907470703125,0
1675.1500000000015,-0.010326803661882877,-0.0036993708927184343,-6.60449150018394e-05,0.0,0.0,0.0,0.0,0.0014091848861426115,-0.0032947007566690445,-0.00048384335241280496,0.999643087387085,0.0,0.0,0.0,7.607645511627197,1.7168855667114258,6.068594455718994,-1376.9990234375,0
1685.062,-0.010371274314820766,-0.0037076363805681467,-6.728310836479068e-05,0.0,0.0,0.0,0.0,-0.0022406713105738163,0.004500642418861389,-0.005123001057654619,0.9999328851699829,0.0,0.0,0.0,7.6004862785339355,1.7178094387054443,6.063776969909668,-1375.703125,0
1694.9740000000002,-0.010416727513074875,-0.0037156199105083942,-6.914359983056784e-05,0.0,0.0,0.0,0.0,0.0003999173059128225,0.0015452898805961013,0.00023620048887096345,0.9991969466209412,0.0,0.0,0.0,7.593039035797119,1.7143522500991821,6.065419673919678,-1374.3551025390625,0
1704.8950000000004,-0.010488804429769516,-0.0037776341196149588,-5.394089384935796e-05,0.0,0.0,0.0,0.0,0.0015852253418415785,-0.0008959083934314549,-0.0007300322758965194,0.9995887279510498,0.0,0.0,0.0,7.610625743865967,1.7046221494674683,6.041728496551514,-1377.5384521484375,0
1714.8100000000013,-0.010397517122328281,-0.0036918276455253363,3.0291043003671803e-05,0.0,0.0,0.0,0.0,-0.001083497772924602,0.003384439740329981,0.002563129412010312,0.9992953538894653,0.0,0.0,0.0,7.618006706237793,1.7200859785079956,6.055724143981934,-1378.8743896484375,0
1724.7180000000008,-0.010454542934894562,-0.0037517284508794546,2.5499706680420786e-05,0.0,0.0,0.0,0.0,-0.003252430120483041,-0.0030884593725204468,-0.0005090576014481485,0.9983416199684143,0.0,0.0,0.0,7.628610610961914,1.7079676389694214,6.0452799797058105,-1380.793701171875,0
1734.6230000000014,-0.010391145013272762,-0.0037369567435234785,6.373498763423413e-05,0.0,0.0,0.0,0.0,-0.0007437134627252817,-0.004081043414771557,-0.003233810653910041,0.999607503414154,0.0,0.0,0.0,7.63309383392334,1.7047885656356812,6.038938999176025,-1381.6051025390625,0
1744.5430000000015,-0.010441934689879417,-0.003786403452977538,4.963676838087849e-05,0.0,0.0,0.0,0.0,-0.0007570970337837934,-0.0025302462745457888,-0.0017569966148585081,0.9984249472618103,0.0,0.0,0.0,7.650374889373779,1.6973049640655518,6.040399551391602,-1384.7330322265625,0
1754.4480000000003,-0.010496105067431927,-0.00379784288816154,5.261589467409067e-05,0.0,0.0,0.0,0.0,0.00044969169539399445,0.0044022598303854465,-0.0015567566733807325,0.9991723299026489,0.0,0.0,0.0,7.6428751945495605,1.6972153186798096,6.036916732788086,-1383.3756103515625,0
1764.3820000000014,-0.010495983995497227,-0.003766086185351014,-1.6162844985956326e-05,0.0,0.0,0.0,0.0,-0.0007194026838988066,0.00022312004875857383,0.004384059924632311,0.9987083077430725,0.0,0.0,0.0,7.648468494415283,1.7000268697738647,6.0501837730407715,-1384.3880615234375,0
1774.2720000000008,-0.010391207411885262,-0.0037644964177161455,4.424127473612316e-05,0.0,0.0,0.0,0.0,0.000266224960796535,6.894539546919987e-05,0.0018753096228465438,0.9980332255363464,0.0,0.0,0.0,7.647558212280273,1.699973225593567,6.067798137664795,-1384.22314453125,0
1784.1910000000007,-0.010391214862465858,-0.0037507857196033,-1.3168548321118578e-05,0.0,0.0,0.0,0.0,0.0001744601031532511,-0.0014705037465319037,-0.0013221192639321089,0.9986026883125305,0.0,0.0,0.0,7.656236171722412,1.7031162977218628,6.069077014923096,-1385.7939453125,0
1794.0969999999998,-0.010373464785516262,-0.0036805090494453907,2.5779962015803903e-05,0.0,0.0,0.0,0.0,-0.003476747078821063,-0.0024280650541186333,0.0044562313705682755,0.9989914298057556,0.0,0.0,0.0,7.657773971557617,1.7073545455932617,6.068210601806641,-1386.072265625,0
1804.023000000001,-0.010389142669737339,-0.0036940055433660746,-2.6594936571200378e-05,0.0,0.0,0.0,0.0,-0.0014658133732154965,-0.002308651339262724,-0.001890966552309692,0.9995316863059998,0.0,0.0,0.0,7.668336868286133,1.7077794075012207,6.064615249633789,-1387.9842529296875,0
1813.9230000000007,-0.010407373309135437,-0.0036820124369114637,-2.8091943022445776e-05,0.0,0.0,0.0,0.0,0.0024053556844592094,0.002938708756119013,-0.0006744746933691204,0.9992017149925232,0.0,0.0,0.0,7.669806003570557,1.715532660484314,6.058042526245117,-1388.2501220703125,0
1823.8500000000004,-0.010397648438811302,-0.0036846601869910955,-0.00011805792746599764,0.0,0.0,0.0,0.0,-0.0018183488864451647,-0.0048425327986478806,0.004711647052317858,0.9995821118354797,0.0,0.0,0.0,7.675533771514893,1.7145273685455322,6.069839954376221,-1389.286865234375,0
1833.75,-0.010448863729834557,-0.0036980174481868744,-0.00013288001355249435,0.0,0.0,0.0,0.0,0.001857861876487732,0.00022360283765010536,-6.278974615270272e-05,0.9987406134605408,0.0,0.0,0.0,7.667575836181641,1.7101385593414307,6.052201747894287,-1387.8465576171875,0
1843.6670000000013,-0.01045326329767704,-0.0036934721283614635,-0.00021809509780723602,0.0,0.0,0.0,0.0,0.002094279509037733,0.0016533656744286418,-0.002510286867618561,0.9993513226509094,0.0,0.0,0.0,7.674742698669434,1.7151650190353394,6.066538333892822,-1389.1436767578125,0
1853.5699999999997,-0.010378731414675713,-0.0036630085669457912,-0.00018163440108764917,0.0,0.0,0.0,0.0,0.0013779867440462112,-0.001314479042775929,-0.0023718189913779497,0.9973363876342773,0.0,0.0,0.0,7.667558670043945,1.7090556621551514,6.059743881225586,-1387.8433837890625,0
1863.4970000000012,-0.01042802631855011,-0.003672778606414795,-0.00019901063933502883,0.0,0.0,0.0,0.0,0.0015760125825181603,-0.0003425554314162582,-0.000776121742092073,0.9985195398330688,0.0,0.0,0.0,7.659313201904297,1.7003133296966553,6.055009841918945,-1386.3509521484375,0
1873.4000000000015,-0.01047702319920063,-0.0036836748477071524,-0.00021816026128362864,0.0,0.0,0.0,0.0,-0.0015820744447410107,0.00358373299241066,0.002146131591871381,0.9985222220420837,0.0,0.0,0.0,7.65310001373291,1.6991101503372192,6.051800727844238,-1385.2261962890625,0
1883.3199999999997,-0.010526290163397789,-0.003695367369800806,-0.0002390564332017675,0.0,0.0,0.0,0.0,-0.0009610724519006908,0.0001084844334400259,0.002450925298035145,1.0000239610671997,0.0,0.0,0.0,7.644778251647949,1.6993573904037476,6.036923408508301,-1383.719970703125,0
1893.2260000000006,-0.010341891087591648,-0.0036804622504860163,-0.0001988512376556173,0.0,0.0,0.0,0.0,-0.004019103478640318,-0.0005834570620208979,-0.0024956921115517616,1.002947211265564,0.0,0.0,0.0,7.645583629608154,1.6975271701812744,6.084017753601074,-1383.8658447265625,0
1903.1410000000014,-0.010380432941019535,-0.0036929321940988302,-0.00021514306718017906,0.0,0.0,0.0,0.0,-0.0021696477197110653,-0.0016104562673717737,-0.003613572334870696,1.000380277633667,0.0,0.0,0.0,7.6375837326049805,1.6964584589004517,6.070315361022949,-1382.4178466796875,0
1913.0470000000005,-0.010419056750833988,-0.0037059804890304804,-0.0002299290063092485,0.0,0.0,0.0,0.0,-0.0011403103126212955,-0.0006464412435889244,-0.003230153350159526,1.0012420415878296,0.0,0.0,0.0,7.62943696975708,1.7029931545257568,6.061153888702393,-1380.9432373046875,0
1922.9650000000001,-0.010458528995513916,-0.0037197605706751347,-0.00024297703930642456,0.0,0.0,0.0,0.0,0.0008109610062092543,-0.0017538935644552112,0.00020344406948424876,0.9994184374809265,0.0,0.0,0.0,7.622250556945801,1.702231764793396,6.055102348327637,-1379.6424560546875,0
1932.8739999999998,-0.010499726049602032,-0.0037346663884818554,-0.0002550837816670537,0.0,0.0,0.0,0.0,0.0001594925270183012,-1.9088174667558633e-05,0.003448150120675564,0.9983619451522827,0.0,0.0,0.0,7.613956451416016,1.709835410118103,6.051501274108887,-1378.1412353515625,0
1942.7939999999999,-0.010546843521296978,-0.003785043954849243,-0.0002781874791253358,0.0,0.0,0.0,0.0,0.0004615339857991785,0.0017881921958178282,-0.0038795461878180504,0.9990716576576233,0.0,0.0,0.0,7.626007556915283,1.6939139366149902,6.04431676864624,-1380.3226318359375,0
1952.6930000000011,-0.010592817328870296,-0.0038069398142397404,-0.0002924104337580502,0.0,0.0,0.0,0.0,-0.0006757297087460756,-0.0022718440741300583,-0.0007791125681251287,1.000248670578003,0.0,0.0,0.0,7.618803024291992,1.6939053535461426,6.037936687469482,-1379.0184326171875,0
1962.6170000000002,-0.010628953576087952,-0.0038283944595605135,-0.00033362701651640236,0.0,0.0,0.0,0.0,0.0002689376415219158,0.0015026171458885074,-0.0026774443686008453,0.9989007115364075,0.0,0.0,0.0,7.6268110275268555,1.6903144121170044,6.036920547485352,-1380.4678955078125,0
1972.5190000000002,-0.01067864615470171,-0.003849976696074009,-0.00035033890162594616,0.0,0.0,0.0,0.0,0.00017789397679734975,0.00468908017501235,6.469924846896902e-05,0.9981608390808105,0.0,0.0,0.0,7.6196699142456055,1.6920819282531738,6.037127494812012,-1379.1754150390625,0
1982.4400000000005,-0.010701608844101429,-0.0038152383640408516,-0.0003979031171184033,0.0,0.0,0.0,0.0,0.004404930397868156,-0.0008566870237700641,0.001895868219435215,0.9987393617630005,0.0,0.0,0.0,7.631936073303223,1.7032980918884277,6.03645658493042,-1381.3956298828125,0
1992.3450000000012,-0.010752187110483646,-0.003832693677395582,-0.00041887591942213476,0.0,0.0,0.0,0.0,-0.0021207218524068594,-0.002598963212221861,-0.001568244188092649,0.998149037361145,0.0,0.0,0.0,7.624494552612305,1.6984195709228516,6.012427806854248,-1380.0487060546875,0
2002.2650000000012,-0.010804376564919949,-0.0038509522564709187,-0.00044106203131377697,0.0,0.0,0.0,0.0,0.0009940477320924401,0.0013425004435703158,-0.002086515072733164,0.9983626008033752,0.0,0.0,0.0,7.616430759429932,1.6988357305526733,6.0111799240112305,-1378.589111328125,0
2012.1680000000015,-0.01085846871137619,-0.0038698269054293633,-0.00046469084918498993,0.0,0.0,0.0,0.0,-4.373372576083057e-06,0.0025134258903563023,0.0003347945457790047,1.00045907497406,0.0,0.0,0.0,7.607747554779053,1.6957298517227173,6.0119452476501465,-1377.0174560546875,0
2022.094000000001,-0.010870886035263538,-0.0038080839440226555,-0.0005239007878117263,0.0,0.0,0.0,0.0,-0.0007636713562533259,-0.0026422394439578056,0.003633064916357398,1.001076102256775,0.0,0.0,0.0,7.62161922454834,1.7245535850524902,6.032848834991455,-1379.5281982421875,0
2031.991,-0.010926336981356144,-0.003822905942797661,-0.0005516562378033996,0.0,0.0,0.0,0.0,0.0036946465261280537,-0.0013576240744441748,-0.0009340864489786327,0.9994776248931885,0.0,0.0,0.0,7.612606525421143,1.7169373035430908,6.013315677642822,-1377.89697265625,0
2041.9120000000003,-0.010984283871948719,-0.0038377183955162764,-0.0005786916590295732,0.0,0.0,0.0,0.0,0.0004950067377649248,-0.002004598267376423,0.0007337210117839277,1.0007638931274414,0.0,0.0,0.0,7.606617450714111,1.7155314683914185,6.016260147094727,-1376.8128662109375,0
2051.8140000000003,-0.011044017970561981,-0.003852795111015439,-0.0006053863326087594,0.0,0.0,0.0,0.0,-0.0005109152989462018,-0.000796710082795471,0.0017191951628774405,1.0020755529403687,0.0,0.0,0.0,7.598509788513184,1.7160825729370117,6.006617546081543,-1375.3453369140625,0
2061.737000000001,-0.01104277279227972,-0.003751608310267329,-0.0006644238019362092,0.0,0.0,0.0,0.0,0.0008259639726020396,0.002415452850982547,-0.0016295402310788631,0.9990761876106262,0.0,0.0,0.0,7.611269474029541,1.7454453706741333,6.028374671936035,-1377.6549072265625,0
2071.642,-0.011100084520876408,-0.003756023244932294,-0.000693056732416153,0.0,0.0,0.0,0.0,-0.00012682592205237597,0.00043598029878921807,-0.0034258090890944004,1.0001499652862549,0.0,0.0,0.0,7.603445529937744,1.744565725326538,6.01979398727417,-1376.2388916015625,0
2081.5640000000003,-0.011126735247671604,-0.00370664126239717,-0.0007388847297988832,0.0,0.0,0.0,0.0,-0.00040218609501607716,-0.0010020977351814508,0.0031377074774354696,1.0022131204605103,0.0,0.0,0.0,7.61182975769043,1.7622299194335938,6.0263776779174805,-1377.7564697265625,0
2091.4629999999997,-0.01118429098278284,-0.0037066051736474037,-0.0007685461896471679,0.0,0.0,0.0,0.0,-0.000815906620118767,0.0066661289893090725,-0.002891612472012639,0.9978815317153931,0.0,0.0,0.0,7.604022026062012,1.7587146759033203,6.018813133239746,-1376.3431396484375,0
2101.3950000000004,-0.011242927983403206,-0.003707773517817259,-0.000797080690972507,0.0,0.0,0.0,0.0,-0.0007328635547310114,0.0005177309503778815,0.0009103780030272901,0.9981436729431152,0.0,0.0,0.0,7.5966477394104,1.7603554725646973,6.0109992027282715,-1375.00830078125,0
2111.2970000000005,-0.01130887120962143,-0.003709255252033472,-0.0008294584113173187,0.0,0.0,0.0,0.0,0.0011578920530155301,-3.543119237292558e-05,-0.00039789589936845005,0.9984320998191833,0.0,0.0,0.0,7.589314937591553,1.7547693252563477,5.99300479888916,-1373.6810302734375,0
2121.2219999999998,-0.011370375752449036,-0.00371091952547431,-0.0008609832148067653,0.0,0.0,0.0,0.0,-0.00320946192368865,0.0044807204976677895,-0.002908871741965413,0.9988836050033569,0.0,0.0,0.0,7.5818305015563965,1.7563337087631226,5.979910850524902,-1372.3262939453125,0
2131.117,-0.011434033513069153,-0.0037144050002098083,-0.0008940775296650827,0.0,0.0,0.0,0.0,-0.000226307034608908,0.001821896992623806,-0.00024821629631333053,0.9984710216522217,0.0,0.0,0.0,7.574095249176025,1.75742506980896,5.971790313720703,-1370.92626953125,0
