timestamp,stateEstimate.x,stateEstimate.y,stateEstimate.z,controller.cmd_thrust,controller.cmd_roll,controller.cmd_pitch,controller.cmd_yaw,controller.r_roll,controller.r_pitch,controller.r_yaw,controller.accelz,controller.actuatorThrust,controller.roll,controller.pitch,controller.yaw,controller.rollRate,controller.pitchRate,controller.yawRate,controller.ctr_yaw
0.0,-0.002623680280521512,-0.005144431721419096,3.930179445887916e-05,0.0,0.0,0.0,0.0,-0.001098264823667705,-0.0014303965726867318,-0.0007190974429249763,0.9998058676719666,0.0,0.0,0.0,0.6689009070396423,2.970693588256836,7.0524702072143555,-121.07239532470703,0
9.890999999999622,-0.0026994894724339247,-0.005179178901016712,3.51661401509773e-05,0.0,0.0,0.0,0.0,0.001064651063643396,-0.004255417734384537,0.0004575902421493083,1.0002676248550415,0.0,0.0,0.0,0.6685182452201843,2.9768753051757812,7.057314395904541,-121.00312805175781,0
19.81499999999869,-0.002777642570436001,-0.005217198748141527,3.160298729198985e-05,0.0,0.0,0.0,0.0,-0.00013107758422847837,0.0004614992649294436,-0.0006542122573591769,0.9993107318878174,0.0,0.0,0.0,0.6675072312355042,2.9715535640716553,7.050336837768555,-120.82013702392578,0
29.716999999998734,-0.0027137212455272675,-0.005133186001330614,-0.00014684177585877478,0.0,0.0,0.0,0.0,0.0014464246341958642,-0.0002239104505861178,0.0022059855982661247,1.000427484512329,0.0,0.0,0.0,0.667569100856781,2.9665048122406006,7.044960975646973,-120.83134460449219,0
39.64400000000023,-0.002789473393931985,-0.005170086864382029,-0.00016307091573253274,0.0,0.0,0.0,0.0,0.0013290217611938715,0.0007787840440869331,0.0010682950960472226,0.9997138381004333,0.0,0.0,0.0,0.6666387915611267,2.9650418758392334,7.044345855712891,-120.6629409790039,0
49.54500000000007,-0.0027762579265981913,-0.005121694877743721,-0.00029486214043572545,0.0,0.0,0.0,0.0,-0.0008346597314812243,-0.0066520762629806995,-0.002184273675084114,1.0001094341278076,0.0,0.0,0.0,0.6671441793441772,2.9634931087493896,7.042922019958496,-120.75443267822266,0
59.45999999999913,-0.002597448416054249,-0.005135482642799616,-0.00019499218615237623,0.0,0.0,0.0,0.0,0.0021557281725108624,0.0018298241775482893,-0.001126036630012095,1.000710129737854,0.0,0.0,0.0,0.6660277247428894,2.969212055206299,7.087698936462402,-120.5523452758789,0
69.37199999999939,-0.0025992225855588913,-0.005110654514282942,-0.00027523943572305143,0.0,0.0,0.0,0.0,0.0028856380376964808,0.0012460729340091348,-0.0036550459917634726,1.0010653734207153,0.0,0.0,0.0,0.6660467982292175,2.966362476348877,7.091941833496094,-120.55579376220703,0
79.28799999999865,-0.00266424217261374,-0.005142980720847845,-0.00029369944240897894,0.0,0.0,0.0,0.0,-0.003737111808732152,0.0028834643308073282,0.003176234196871519,0.9998032450675964,0.0,0.0,0.0,0.6646345853805542,2.958317279815674,7.080356597900391,-120.30018615722656,0
89.18999999999869,-0.0027176099829375744,-0.005119134206324816,-0.0003083741175942123,0.0,0.0,0.0,0.0,-0.00060839211801067,-0.0029603319708257914,0.00036209390964359045,0.9998852610588074,0.0,0.0,0.0,0.6641738414764404,2.953781843185425,7.081094264984131,-120.21678924560547,0
99.10899999999856,-0.002786143682897091,-0.005152272991836071,-0.00032525521237403154,0.0,0.0,0.0,0.0,0.0006811549537815154,0.0042977239936590195,0.0002684080391190946,1.0000419616699219,0.0,0.0,0.0,0.6628721952438354,2.955286979675293,7.075416088104248,-119.98119354248047,0
109.01399999999921,-0.0028567109256982803,-0.005187198985368013,-0.00034198188222944736,0.0,0.0,0.0,0.0,-0.0012757099466398358,0.0011040460085496306,0.0013149107107892632,0.998409628868103,0.0,0.0,0.0,0.661570131778717,2.9523727893829346,7.066056251525879,-119.74551391601562,0
118.93299999999908,-0.002647733548656106,-0.00513737928122282,-0.00017270578246098012,0.0,0.0,0.0,0.0,0.002156099071726203,0.0003117431188002229,0.00038292439421638846,0.9983981251716614,0.0,0.0,0.0,0.6654982566833496,2.9698238372802734,7.118093490600586,-120.45650482177734,0
128.84000000000015,-0.00267172884196043,-0.005104923155158758,-0.00020456172933336347,0.0,0.0,0.0,0.0,0.00031527437386102974,-0.00019031933334190398,0.0007926026009954512,0.9993804097175598,0.0,0.0,0.0,0.665103554725647,2.9741973876953125,7.107442855834961,-120.38506317138672,0
138.7529999999988,-0.0027321374509483576,-0.005135134793817997,-0.00021230736456345767,0.0,0.0,0.0,0.0,-0.0011192085221409798,-0.002998991869390011,0.0013133811298757792,1.000997543334961,0.0,0.0,0.0,0.6639577150344849,2.9728844165802,7.101230144500732,-120.17767333984375,0
148.66799999999967,-0.002749162493273616,-0.005059418268501759,-0.0002510885533411056,0.0,0.0,0.0,0.0,-0.001734183169901371,-0.0007824985077604651,0.0021656909957528114,1.0005983114242554,0.0,0.0,0.0,0.6636215448379517,2.9629650115966797,7.092899799346924,-120.1168212890625,0
158.58299999999872,-0.002810574835166335,-0.005088381003588438,-0.0002603992761578411,0.0,0.0,0.0,0.0,-0.0003369194164406508,0.006374305114150047,-0.0023383270017802715,1.0013993978500366,0.0,0.0,0.0,0.6628196239471436,2.9590976238250732,7.08369255065918,-119.97167205810547,0
168.48799999999937,-0.002870657481253147,-0.005063178017735481,-0.00025130953872576356,0.0,0.0,0.0,0.0,-0.001238735392689705,-0.004358980804681778,-0.0013183713890612125,0.9999545812606812,0.0,0.0,0.0,0.6626293063163757,2.957085371017456,7.073548793792725,-119.93722534179688,0
178.40200000000004,-0.0025967725086957216,-0.005105196963995695,-8.51709337439388e-05,0.0,0.0,0.0,0.0,-0.00016225069703068584,-0.0009257150231860578,0.0018133068224415183,0.9991701245307922,0.0,0.0,0.0,0.6604659557342529,2.9566962718963623,7.132149696350098,-119.545654296875,0
188.3139999999985,-0.002679529134184122,-0.005112138111144304,-2.4229701011790894e-05,0.0,0.0,0.0,0.0,-0.002455528359860182,-0.0004869140684604645,-0.0018628973048180342,1.000446081161499,0.0,0.0,0.0,0.6583638787269592,2.955146312713623,7.1360859870910645,-119.16516876220703,0
198.23499999999876,-0.002624928019940853,-0.005140955094248056,1.3721114555664826e-05,0.0,0.0,0.0,0.0,0.0025719169061630964,-0.00446322513744235,0.0016414119163528085,0.9996859431266785,0.0,0.0,0.0,0.6581459045410156,2.9545936584472656,7.131086349487305,-119.12572479248047,0
208.14199999999983,-0.0026735791470855474,-0.005095090251415968,4.514044849202037e-05,0.0,0.0,0.0,0.0,-0.0016963439993560314,-0.0006486598867923021,0.0008209740626625717,0.996051549911499,0.0,0.0,0.0,0.6572180390357971,2.9516241550445557,7.127260208129883,-118.95777130126953,0
218.05799999999908,-0.0027352948673069477,-0.005126093048602343,5.979492561891675e-05,0.0,0.0,0.0,0.0,-0.002127976855263114,0.003994508646428585,-0.0002720857155509293,0.9993767738342285,0.0,0.0,0.0,0.6568576693534851,2.9513211250305176,7.135528564453125,-118.89254760742188,0
227.96199999999953,-0.0027833967469632626,-0.005087658297270536,7.513506716350093e-05,0.0,0.0,0.0,0.0,-0.0005949250771664083,-0.000983920181170106,0.0007029416156001389,1.0005406141281128,0.0,0.0,0.0,0.6565344929695129,2.9524765014648438,7.129515171051025,-118.83405303955078,0
237.8799999999992,-0.002606399590149522,-0.0051255906000733376,0.0001789991365512833,0.0,0.0,0.0,0.0,0.0029220434371382,-0.005349635612219572,0.003898759139701724,0.9979764819145203,0.0,0.0,0.0,0.6624220013618469,2.9388389587402344,7.145134449005127,-119.89971160888672,0
247.78699999999844,-0.002654723357409239,-0.005136091727763414,0.0001866448437795043,0.0,0.0,0.0,0.0,-0.002629002556204796,0.0008369894349016249,0.0010696261888369918,1.0006755590438843,0.0,0.0,0.0,0.6709272861480713,2.9413042068481445,7.1478352546691895,-121.43917846679688,0
257.70600000000013,-0.0026058608200401068,-0.005148179829120636,0.00024001642304938287,0.0,0.0,0.0,0.0,0.001601807540282607,0.0038938000798225403,-0.00010453304275870323,1.0014772415161133,0.0,0.0,0.0,0.6705939769744873,2.931886672973633,7.14585542678833,-121.37884521484375,0
267.616,-0.0025977320037782192,-0.005104209762066603,0.0001871994900284335,0.0,0.0,0.0,0.0,0.0005790403229184449,-0.007519863545894623,0.0037378682754933834,0.9971328973770142,0.0,0.0,0.0,0.6701229810714722,2.935620069503784,7.138736724853516,-121.29358673095703,0
277.53499999999985,-0.0026614528615027666,-0.00513964518904686,0.0002029950701398775,0.0,0.0,0.0,0.0,-0.0011945756850764155,-0.0010522812372073531,-0.002186120953410864,0.999374508857727,0.0,0.0,0.0,0.6698403358459473,2.933133840560913,7.135036468505859,-121.24243927001953,0
287.4369999999999,-0.002661273116245866,-0.005080222152173519,0.0001512065646238625,0.0,0.0,0.0,0.0,0.00130008056294173,-0.0015323676634579897,-0.00046941335313022137,0.9989088773727417,0.0,0.0,0.0,0.6692798733711243,2.9328529834747314,7.143921375274658,-121.14098358154297,0
297.3629999999994,-0.0026515580248087645,-0.00512947840616107,0.00016948129632510245,0.0,0.0,0.0,0.0,-0.0012542944168671966,0.0005688092787750065,-0.0009517974685877562,0.9979050159454346,0.0,0.0,0.0,0.674647867679596,2.9277074337005615,7.137856960296631,-122.11260986328125,0
307.2699999999986,-0.0026550651527941227,-0.00511487852782011,0.00011665945930872113,0.0,0.0,0.0,0.0,-0.0002674467395991087,-0.0027129584923386574,0.0004334388067945838,0.9991459250450134,0.0,0.0,0.0,0.6829423308372498,2.9367189407348633,7.1530046463012695,-123.61392974853516,0
317.1809999999987,-0.0026247997302562,-0.005122260190546513,0.0001529173896415159,0.0,0.0,0.0,0.0,0.0014268627855926752,0.0028356441762298346,0.0016954288585111499,1.0002611875534058,0.0,0.0,0.0,0.6818435788154602,2.930952787399292,7.138256549835205,-123.41505432128906,0
327.08799999999974,-0.002616127487272024,-0.005130456760525703,6.816335371695459e-05,0.0,0.0,0.0,0.0,-0.00035079740337096155,-0.0032497229985892773,0.002645649714395404,0.9989202618598938,0.0,0.0,0.0,0.6819680333137512,2.9273111820220947,7.137836933135986,-123.43756866455078,0
337.0100000000002,-0.002647099317982793,-0.0051053110510110855,8.980134589364752e-05,0.0,0.0,0.0,0.0,-0.0006548654637299478,-0.0029630204662680626,-0.0027356785722076893,1.0012342929840088,0.0,0.0,0.0,0.6808398962020874,2.9171087741851807,7.1288628578186035,-123.23336791992188,0
346.91299999999865,-0.002647105138748884,-0.005109949968755245,8.17311774881091e-06,0.0,0.0,0.0,0.0,0.0031082681380212307,0.0012290525482967496,-0.0010263758013024926,1.000052571296692,0.0,0.0,0.0,0.6812571883201599,2.918484926223755,7.128144264221191,-123.30890655517578,0
356.83100000000013,-0.002638565842062235,-0.005087209865450859,3.9542384911328554e-05,0.0,0.0,0.0,0.0,-0.0029067557770758867,0.0005215242854319513,-0.004362347070127726,0.9988793134689331,0.0,0.0,0.0,0.6801323890686035,2.913604259490967,7.1202778816223145,-123.10531616210938,0
366.7330000000002,-0.002650367794558406,-0.005110901780426502,-3.741856926353648e-05,0.0,0.0,0.0,0.0,0.0024419506080448627,-0.004020047839730978,0.000358274468453601,1.0011018514633179,0.0,0.0,0.0,0.67820805311203,2.9159741401672363,7.112924098968506,-122.75700378417969,0
376.65499999999884,-0.002719226060435176,-0.005149531178176403,-4.502613592194393e-05,0.0,0.0,0.0,0.0,-0.003680485300719738,0.0017471042228862643,0.0005800065118819475,1.0003505945205688,0.0,0.0,0.0,0.6769915223121643,2.9114208221435547,7.1056389808654785,-122.53681182861328,0
386.5589999999993,-0.0027161980979144573,-0.005099001806229353,-0.00013350955850910395,0.0,0.0,0.0,0.0,0.0022569606080651283,-0.0035340250469744205,-0.000688515545334667,0.9986380338668823,0.0,0.0,0.0,0.6763818264007568,2.910324811935425,7.100702285766602,-122.42644500732422,0
396.47799999999916,-0.00264223525300622,-0.005070465616881847,-6.833313091192394e-05,0.0,0.0,0.0,0.0,-0.003818717086687684,-0.0008776383474469185,0.0023508290760219097,0.9976251721382141,0.0,0.0,0.0,0.6756705641746521,2.9130005836486816,7.090906620025635,-122.29771423339844,0
406.3829999999998,-0.00260585336945951,-0.005038348026573658,-0.0001922064839163795,0.0,0.0,0.0,0.0,0.0002782857045531273,-0.0012667333940044045,0.0017070650355890393,1.0014700889587402,0.0,0.0,0.0,0.6758318543434143,2.9061086177825928,7.080760478973389,-122.32691192626953,0
416.3069999999989,-0.002672740025445819,-0.005073823966085911,-0.00020976552332285792,0.0,0.0,0.0,0.0,0.0006659398786723614,-0.001396455685608089,0.0025330493226647377,1.0009688138961792,0.0,0.0,0.0,0.6748334765434265,2.90743350982666,7.085231781005859,-122.14620208740234,0
426.21799999999894,-0.0027408446185290813,-0.005110753700137138,-0.00022662214178126305,0.0,0.0,0.0,0.0,-0.0022718305699527264,0.005588190164417028,-0.00042677888995967805,0.9975374341011047,0.0,0.0,0.0,0.674994707107544,2.905794858932495,7.083345890045166,-122.17538452148438,0
436.1260000000002,-0.002810398116707802,-0.0051495893858373165,-0.00024276059411931783,0.0,0.0,0.0,0.0,0.003064864780753851,0.0013952418230473995,-0.00021563090558629483,0.9990284442901611,0.0,0.0,0.0,0.6741299629211426,2.9007294178009033,7.072821140289307,-122.01886749267578,0
446.03299999999945,-0.002807226497679949,-0.005085360258817673,-0.00033966521732509136,0.0,0.0,0.0,0.0,-0.004481960088014603,-0.002268369309604168,-0.002202035626396537,0.999058187007904,0.0,0.0,0.0,0.6738545298576355,2.898013114929199,7.061149597167969,-121.9690170288086,0
455.9579999999987,-0.0028757823165506124,-0.0051224110648036,-0.000364068167982623,0.0,0.0,0.0,0.0,-0.0016504409722983837,0.0014895391650497913,-0.00026219760184176266,0.9973459243774414,0.0,0.0,0.0,0.6722168326377869,2.8903205394744873,7.06080436706543,-121.6725845336914,0
465.85699999999997,-0.002947106258943677,-0.005163258872926235,-0.00038925238186493516,0.0,0.0,0.0,0.0,-0.002375212498009205,2.7709433197742328e-05,0.00029333270504139364,0.9983969330787659,0.0,0.0,0.0,0.6711040139198303,2.8930702209472656,7.063037872314453,-121.4711685180664,0
475.78699999999844,-0.0030211275443434715,-0.005207402631640434,-0.0004159289237577468,0.0,0.0,0.0,0.0,-0.0006255063344724476,-0.0007043617079034448,0.001753943390212953,0.9988903403282166,0.0,0.0,0.0,0.670761227607727,2.895009994506836,7.064977169036865,-121.40911102294922,0
485.6829999999991,-0.0031126446556299925,-0.00514104263857007,-0.0003735464997589588,0.0,0.0,0.0,0.0,0.001047536381520331,0.0023709849920123816,-0.0001513046445325017,0.9996890425682068,0.0,0.0,0.0,0.6774533987045288,2.931929349899292,7.059401512145996,-122.62041473388672,0
495.60999999999876,-0.003193514421582222,-0.00518068578094244,-0.0003978090244345367,0.0,0.0,0.0,0.0,0.00024394535284955055,-0.0012011033250018954,0.0005427284049801528,0.9976744055747986,0.0,0.0,0.0,0.6773732900619507,2.9271552562713623,7.053264141082764,-122.60591125488281,0
505.503999999999,-0.0032776857260614634,-0.005222553387284279,-0.00042248202953487635,0.0,0.0,0.0,0.0,-0.00022113265004009008,-0.0031243932899087667,0.0031116511672735214,0.9985789656639099,0.0,0.0,0.0,0.6765997409820557,2.919956922531128,7.030210971832275,-122.46590423583984,0
515.4329999999991,-0.0033645571675151587,-0.005266124382615089,-0.00044839244219474494,0.0,0.0,0.0,0.0,0.0032920308876782656,-0.004403702449053526,0.002530698198825121,0.9990025162696838,0.0,0.0,0.0,0.6761987805366516,2.9177143573760986,7.025995254516602,-122.39331817626953,0
525.3379999999997,-0.003381008980795741,-0.005098601803183556,-0.0005026072612963617,0.0,0.0,0.0,0.0,0.0033807435538619757,0.0012401893036440015,0.0003207158297300339,0.9989810585975647,0.0,0.0,0.0,0.6702941060066223,2.994171142578125,7.057525634765625,-121.32456970214844,0
535.2600000000002,-0.0034659758675843477,-0.005128576420247555,-0.0005336984759196639,0.0,0.0,0.0,0.0,0.00021719011419918388,-0.0005563665763475001,-0.001381595735438168,1.000055193901062,0.0,0.0,0.0,0.6695269346237183,2.9854133129119873,7.055060863494873,-121.18570709228516,0
545.1539999999986,-0.0035529055166989565,-0.005159859545528889,-0.0005651027313433588,0.0,0.0,0.0,0.0,0.0003806463209912181,0.00429646298289299,-0.004800843540579081,1.001143217086792,0.0,0.0,0.0,0.6700723171234131,2.978032112121582,7.0495076179504395,-121.28441619873047,0
555.0769999999993,-0.003641468472778797,-0.0051914844661951065,-0.0005962530849501491,0.0,0.0,0.0,0.0,-0.0009853682713583112,0.0005472875782288611,0.0015937172574922442,0.9991352558135986,0.0,0.0,0.0,0.6681760549545288,2.9787704944610596,7.039542198181152,-120.94119262695312,0
564.9839999999986,-0.003599639516323805,-0.005007271654903889,-0.0007304114405997097,0.0,0.0,0.0,0.0,0.0038454164750874043,0.0017992403591051698,-0.0009871537331491709,0.9989936947822571,0.0,0.0,0.0,0.6575912237167358,3.049152135848999,7.083551406860352,-119.02531433105469,0
574.9069999999992,-0.0036825307179242373,-0.005024777725338936,-0.0007698568515479565,0.0,0.0,0.0,0.0,-0.0006535177235491574,-0.0007196897640824318,0.0013903104700148106,1.001380443572998,0.0,0.0,0.0,0.6563446521759033,3.0475151538848877,7.072513103485107,-118.7996826171875,0
584.8029999999999,-0.0037687711883336306,-0.005044402088969946,-0.0008095870725810528,0.0,0.0,0.0,0.0,8.423942745139357e-06,0.0004809159436263144,-0.0021017729304730892,1.0010794401168823,0.0,0.0,0.0,0.6565982699394226,3.0465247631073,7.073387622833252,-118.84559631347656,0
594.7219999999998,-0.0038569485768675804,-0.005065528675913811,-0.0008485193829983473,0.0,0.0,0.0,0.0,0.0009658987983129919,-0.0012369140749797225,-0.00024773733457550406,0.9983931183815002,0.0,0.0,0.0,0.6568093299865723,3.047616481781006,7.07684326171875,-118.88379669189453,0
604.6279999999988,-0.0039564380422234535,-0.005090390332043171,-0.0008902539848349988,0.0,0.0,0.0,0.0,-0.0016050294507294893,-0.0022931138519197702,-0.0018465886823832989,0.9982080459594727,0.0,0.0,0.0,0.6554030776023865,3.037494659423828,7.074101448059082,-118.62926483154297,0
614.5509999999995,-0.004050214774906635,-0.005114779341965914,-0.0009289226145483553,0.0,0.0,0.0,0.0,-0.003642236813902855,-0.0034985877573490143,-0.00020404542738106102,1.0001609325408936,0.0,0.0,0.0,0.6548913717269897,3.0346157550811768,7.068011283874512,-118.53665161132812,0
624.4579999999987,-0.0041466886177659035,-0.005141263362020254,-0.0009685205877758563,0.0,0.0,0.0,0.0,0.0004380483296699822,-0.0032432638108730316,0.0005754231242462993,0.9999114274978638,0.0,0.0,0.0,0.6540055871009827,3.0331151485443115,7.064722537994385,-118.37631225585938,0
634.3779999999988,-0.004245744552463293,-0.005170437507331371,-0.0010082041844725609,0.0,0.0,0.0,0.0,0.0025684405118227005,0.0006570991827175021,2.7482716177473776e-05,1.0009311437606812,0.0,0.0,0.0,0.6532256007194519,3.037238597869873,7.063565731048584,-118.2351303100586,0
644.2780000000002,-0.004347139969468117,-0.005201525520533323,-0.0010472710710018873,0.0,0.0,0.0,0.0,0.0033547389321029186,0.0017801376525312662,0.0006112577975727618,0.9988941550254822,0.0,0.0,0.0,0.6525874733924866,3.0319831371307373,7.062061786651611,-118.11963653564453,0
654.2089999999989,-0.0028026611544191837,-0.005304676480591297,0.0001903482771012932,0.0,0.0,0.0,0.0,-1.4049986930331215e-05,0.0001561065873829648,-6.646844849456102e-05,0.998954176902771,0.0,0.0,0.0,0.6586588621139526,3.0273735523223877,7.323909282684326,-119.21855926513672,0
664.1039999999994,-0.0028353154193609953,-0.005336455535143614,0.000203451985726133,0.0,0.0,0.0,0.0,-0.0008096549427136779,-0.004538140259683132,0.0030861790291965008,0.9998350143432617,0.0,0.0,0.0,0.6590402126312256,3.021225690841675,7.317441940307617,-119.28758239746094,0
674.0280000000002,-0.0028701310511678457,-0.0053693256340920925,0.00021577082225121558,0.0,0.0,0.0,0.0,0.00013509939890354872,0.001899732742458582,-0.0020904724951833487,1.0013959407806396,0.0,0.0,0.0,0.6584693789482117,3.0200347900390625,7.313302040100098,-119.18427276611328,0
683.9249999999993,-0.0029073336627334356,-0.005403234623372555,0.00022852836991660297,0.0,0.0,0.0,0.0,0.001093920087441802,0.0020972820930182934,0.002062262734398246,0.9987729787826538,0.0,0.0,0.0,0.6581973433494568,3.013796329498291,7.318962097167969,-119.1350326538086,0
693.851999999999,-0.0027868724428117275,-0.005325199570506811,0.00040042423643171787,0.0,0.0,0.0,0.0,0.0032316134311258793,-0.0030493594240397215,-0.00346419052220881,0.9998882412910461,0.0,0.0,0.0,0.6692695021629333,3.038468599319458,7.344577312469482,-121.13910675048828,0
703.7559999999994,-0.002819116460159421,-0.005353509448468685,0.0004233383806422353,0.0,0.0,0.0,0.0,0.0026629967615008354,-0.0040459712035954,0.000922408071346581,0.9999414086341858,0.0,0.0,0.0,0.6673414707183838,3.027446985244751,7.335903167724609,-120.7901382446289,0
713.6819999999989,-0.0028517090249806643,-0.005382820963859558,0.0004460819181986153,0.0,0.0,0.0,0.0,0.0007603175472468138,-0.00200684298761189,-0.002008191542699933,0.9990538954734802,0.0,0.0,0.0,0.666856050491333,3.026261806488037,7.3395466804504395,-120.7022705078125,0
723.5779999999995,-0.0028856087010353804,-0.005413992330431938,0.0004687210894189775,0.0,0.0,0.0,0.0,0.0003151725104544312,0.00362853123806417,0.0012446708278730512,0.9974201917648315,0.0,0.0,0.0,0.6663187742233276,3.0254666805267334,7.341383457183838,-120.60501861572266,0
733.5,-0.0028523020446300507,-0.005391720216721296,0.0005642552860081196,0.0,0.0,0.0,0.0,0.003289851127192378,-0.001295083318836987,0.0013903259532526135,0.9986644983291626,0.0,0.0,0.0,0.6768767237663269,3.0349032878875732,7.358785152435303,-122.51602935791016,0
743.4039999999986,-0.00288420170545578,-0.005423403345048428,0.0005899358657188714,0.0,0.0,0.0,0.0,-0.0021358977537602186,-0.002832057187333703,0.0018675205064937472,1.0003399848937988,0.0,0.0,0.0,0.6772271394729614,3.031452178955078,7.348605155944824,-122.57946014404297,0
753.3259999999991,-0.0028975827153772116,-0.005423837341368198,0.0006590571720153093,0.0,0.0,0.0,0.0,0.0013254794757813215,-0.002725820057094097,0.0007410774123854935,1.0007989406585693,0.0,0.0,0.0,0.6770806312561035,3.033154249191284,7.342894554138184,-122.55294036865234,0
763.223,-0.0029307317454367876,-0.005457261111587286,0.0006872746162116528,0.0,0.0,0.0,0.0,-0.001892870874144137,0.002100657671689987,0.0006935358978807926,0.9989698529243469,0.0,0.0,0.0,0.6760610938072205,3.0317652225494385,7.336925029754639,-122.36839294433594,0
773.146999999999,-0.0029658994171768427,-0.005492229480296373,0.0007159227388910949,0.0,0.0,0.0,0.0,0.0017313811695203185,-0.0005010405438952148,-0.0014457738725468516,0.9993825554847717,0.0,0.0,0.0,0.675861656665802,3.0265190601348877,7.345404148101807,-122.33230590820312,0
783.0479999999989,-0.0030038971453905106,-0.005529510322958231,0.0007441227207891643,0.0,0.0,0.0,0.0,0.0012016515247523785,0.0012995217693969607,0.0010120217921212316,0.999652087688446,0.0,0.0,0.0,0.6739780902862549,3.031076192855835,7.326130390167236,-121.99138641357422,0
792.9719999999998,-0.003044039709493518,-0.005568969529122114,0.0007721395813859999,0.0,0.0,0.0,0.0,-0.0012848369078710675,-0.004420258570462465,-0.0012218571500852704,0.9993723630905151,0.0,0.0,0.0,0.6732541918754578,3.0260417461395264,7.313556671142578,-121.86034393310547,0
802.8709999999992,-0.003085119416937232,-0.005609473679214716,0.0008001101086847484,0.0,0.0,0.0,0.0,-0.0033030551858246326,0.0012756431242451072,0.001245623454451561,0.9983952045440674,0.0,0.0,0.0,0.6726352572441101,3.0249664783477783,7.31211519241333,-121.74832153320312,0
812.7929999999997,-0.003051738254725933,-0.005572265479713678,0.0009225776302628219,0.0,0.0,0.0,0.0,0.0029304956551641226,-0.0008645243942737579,0.0002999013813678175,0.9995289444923401,0.0,0.0,0.0,0.6695536971092224,3.055859327316284,7.357525825500488,-121.1905517578125,0
822.7079999999987,-0.0030869999900460243,-0.005609509069472551,0.0009573177085258067,0.0,0.0,0.0,0.0,0.00253761513158679,0.002461838535964489,0.004974742885679007,0.9999116063117981,0.0,0.0,0.0,0.6693597435951233,3.0484046936035156,7.3480963706970215,-121.15544891357422,0
832.6170000000002,-0.0031222982797771692,-0.0056488728150725365,0.000991671346127987,0.0,0.0,0.0,0.0,-0.0011834633769467473,-0.0016753224190324545,0.003225205698981881,0.9988953471183777,0.0,0.0,0.0,0.66856449842453,3.0446107387542725,7.348703384399414,-121.0114974975586,0
842.5209999999988,-0.002681501442566514,-0.005157404113560915,-0.0002492264611646533,0.0,0.0,0.0,0.0,-0.00309823639690876,0.001682810951024294,0.0030298472847789526,0.9985342025756836,0.0,0.0,0.0,0.673231840133667,3.139655113220215,7.424878120422363,-121.8563003540039,0
852.4459999999999,-0.0025935634039342403,-0.005112768616527319,-0.00018455811368767172,0.0,0.0,0.0,0.0,-0.0007644880679436028,0.0008622921304777265,-3.461663072812371e-05,1.001583218574524,0.0,0.0,0.0,0.6727823615074158,3.138976812362671,7.424338340759277,-121.77494812011719,0
862.3469999999998,-0.0025887778028845787,-0.005085043143481016,-0.0002185766788898036,0.0,0.0,0.0,0.0,-0.00012588354002218693,0.002297232858836651,-0.0005457397783175111,0.9997934699058533,0.0,0.0,0.0,0.6731048226356506,3.1331329345703125,7.41428804397583,-121.83330535888672,0
872.2780000000002,-0.0025226350408047438,-0.005043518729507923,-0.0001749297371134162,0.0,0.0,0.0,0.0,0.00038087504799477756,0.002283560112118721,-0.0008456779178231955,0.9975501298904419,0.0,0.0,0.0,0.6798650026321411,3.1363275051116943,7.411620140075684,-123.05692291259766,0
882.1769999999997,-0.0025909640826284885,-0.005085657350718975,-0.00011648360668914393,0.0,0.0,0.0,0.0,-0.003001533215865493,-0.0011117463000118732,0.00032991968328133225,0.9974162578582764,0.0,0.0,0.0,0.6869975328445435,3.1335880756378174,7.39701509475708,-124.3479232788086,0
892.0990000000002,-0.0025083841755986214,-0.0050565339624881744,-7.420164911309257e-05,0.0,0.0,0.0,0.0,-0.000485008378745988,-0.0002854319172911346,0.004341073799878359,0.9981281161308289,0.0,0.0,0.0,0.6968496441841125,3.1354482173919678,7.388200283050537,-126.13117218017578,0
901.9959999999992,-0.002567492425441742,-0.005119767040014267,-4.0241473470814526e-05,0.0,0.0,0.0,0.0,-0.004287480376660824,-0.0021448195911943913,-0.00018776769866235554,0.9979074001312256,0.0,0.0,0.0,0.696253776550293,3.140202522277832,7.380923748016357,-126.0233154296875,0
911.9159999999993,-0.002563433488830924,-0.005108160898089409,-3.071904575335793e-05,0.0,0.0,0.0,0.0,0.0030668475665152073,-0.000313783239107579,-0.0006669863942079246,0.9980654120445251,0.0,0.0,0.0,0.697012722492218,3.1368401050567627,7.3839311599731445,-126.16069030761719,0
921.8189999999995,-0.002592378295958042,-0.005135537590831518,-3.11247531499248e-05,0.0,0.0,0.0,0.0,0.00024132418911904097,-0.000819499371573329,-0.0013934202725067735,1.0005815029144287,0.0,0.0,0.0,0.6962935924530029,3.140850305557251,7.381217002868652,-126.03053283691406,0
931.744999999999,-0.0025822375901043415,-0.00512997480109334,-2.1181343981879763e-05,0.0,0.0,0.0,0.0,-0.0003251328889746219,0.00043424053001217544,0.00016607603174634278,0.999947726726532,0.0,0.0,0.0,0.6941626667976379,3.1338236331939697,7.368019104003906,-125.64482879638672,0
941.6489999999994,-0.002628154121339321,-0.005107656121253967,1.947251621459145e-05,0.0,0.0,0.0,0.0,0.0021985932253301144,0.002407694235444069,0.00018174867727793753,0.998327910900116,0.0,0.0,0.0,0.6937165260314941,3.1350793838500977,7.368165493011475,-125.56407165527344,0
951.5609999999997,-0.00251704640686512,-0.005140476860105991,5.220481762080453e-05,0.0,0.0,0.0,0.0,0.0008808482089079916,0.0006944526103325188,0.0017366335960105062,0.9985558986663818,0.0,0.0,0.0,0.6920523643493652,3.131639242172241,7.3581342697143555,-125.26284790039062,0
961.4709999999995,-0.002533362479880452,-0.005129353143274784,4.750285734189674e-05,0.0,0.0,0.0,0.0,0.0004174254718236625,-0.000723792240023613,0.0018169368850067258,0.9996481537818909,0.0,0.0,0.0,0.6904270052909851,3.125555992126465,7.345765113830566,-124.96866607666016,0
971.3919999999998,-0.0025220185052603483,-0.005104993004351854,7.375712448265404e-05,0.0,0.0,0.0,0.0,-0.001029474544338882,0.00036120638833381236,0.0016030844999477267,0.9997919797897339,0.0,0.0,0.0,0.6910868883132935,3.126328229904175,7.34024715423584,-125.08810424804688,0
981.2959999999985,-0.002547124633565545,-0.005102626513689756,7.292661757674068e-05,0.0,0.0,0.0,0.0,-0.002736804774031043,0.0021671182475984097,-0.002632059855386615,1.0018916130065918,0.0,0.0,0.0,0.6900627613067627,3.1251742839813232,7.336751461029053,-124.9027328491211,0
991.2049999999999,-0.0025893975980579853,-0.005112915299832821,7.175340579124168e-05,0.0,0.0,0.0,0.0,-0.00031975097954273224,-0.0033766229171305895,-0.0036616837605834007,0.9993880987167358,0.0,0.0,0.0,0.6988286972045898,3.1220245361328125,7.327175617218018,-126.4893798828125,0
1001.1269999999986,-0.0026064624544233084,-0.005093810614198446,6.372362258844078e-05,0.0,0.0,0.0,0.0,-0.002369149588048458,0.002292788354679942,-0.005013867747038603,0.9985291361808777,0.0,0.0,0.0,0.6981528997421265,3.1176469326019287,7.31915283203125,-126.36707305908203,0
1011.0329999999994,-0.00264614075422287,-0.005123252049088478,6.855060928501189e-05,0.0,0.0,0.0,0.0,0.0005925900768488646,-0.0006342988926917315,0.0004913381999358535,0.9994571805000305,0.0,0.0,0.0,0.6968346238136292,3.118326425552368,7.313985824584961,-126.12845611572266,0
1020.9419999999991,-0.002653544768691063,-0.005099299363791943,4.057447222294286e-05,0.0,0.0,0.0,0.0,-0.0023542004637420177,-0.004018229432404041,0.0007304545724764466,1.000146508216858,0.0,0.0,0.0,0.6963144540786743,3.1200923919677734,7.303732872009277,-126.0343017578125,0
1030.8580000000002,-0.0026078892406076193,-0.00513063371181488,5.819980287924409e-05,0.0,0.0,0.0,0.0,-0.0035316417925059795,0.0005322001525200903,0.002346827881410718,0.9991247653961182,0.0,0.0,0.0,0.6965009570121765,3.1125502586364746,7.305985450744629,-126.06806182861328,0
1040.7659999999996,-0.0026247648056596518,-0.005137202329933643,3.699820808833465e-05,0.0,0.0,0.0,0.0,0.00023582721769344062,-0.0015747054712846875,-0.004070592112839222,0.99983811378479,0.0,0.0,0.0,0.6946963667869568,3.1134886741638184,7.3019304275512695,-125.74142456054688,0
1050.6809999999987,-0.002668763045221567,-0.0051690260879695415,3.739436942851171e-05,0.0,0.0,0.0,0.0,0.0008760858909226954,0.0033426934387534857,-0.00014646431372966617,0.9989751577377319,0.0,0.0,0.0,0.6948153972625732,3.1123130321502686,7.291961193084717,-125.76296997070312,0
1060.5990000000002,-0.0026481449604034424,-0.005119221284985542,-3.885447222273797e-05,0.0,0.0,0.0,0.0,-0.0007052424480207264,-0.0006049708463251591,0.0038341113831847906,0.9987284541130066,0.0,0.0,0.0,0.6931513547897339,3.11503267288208,7.289139270782471,-125.4617691040039,0
1070.5049999999992,-0.0026931967586278915,-0.005151016637682915,-4.481228825170547e-05,0.0,0.0,0.0,0.0,0.002118105534464121,-0.0008939568651840091,0.0035496456548571587,0.9978649020195007,0.0,0.0,0.0,0.692452073097229,3.1140594482421875,7.2739033699035645,-125.335205078125,0
1080.4189999999999,-0.0027008529286831617,-0.005126068368554115,-0.00010216615919489413,0.0,0.0,0.0,0.0,-0.0020727314986288548,-0.007086518686264753,0.0027488451451063156,0.9964224100112915,0.0,0.0,0.0,0.6905405521392822,3.109039068222046,7.26230001449585,-124.98921203613281,0
1090.339,-0.0026108610909432173,-0.0051446473225951195,-5.412513928604312e-05,0.0,0.0,0.0,0.0,-0.0005988883203826845,-0.003933528903871775,0.0020869201980531216,0.9970882534980774,0.0,0.0,0.0,0.6917538642883301,3.1098697185516357,7.263157844543457,-125.20882415771484,0
1100.2549999999992,-0.002600227715447545,-0.005123875569552183,-0.00011249107046751305,0.0,0.0,0.0,0.0,0.0028430118691176176,-0.0014302348718047142,0.0007526857079938054,1.0009311437606812,0.0,0.0,0.0,0.6924833655357361,3.106637477874756,7.2713141441345215,-125.34087371826172,0
1110.1539999999986,-0.0026396415196359158,-0.005157338920980692,-0.00012994237476959825,0.0,0.0,0.0,0.0,-0.000513046164996922,0.0018133389530703425,0.0008614870021119714,0.998069703578949,0.0,0.0,0.0,0.6925058364868164,3.0998198986053467,7.2767767906188965,-125.34494018554688,0
1120.074999999999,-0.002659241668879986,-0.0051692998968064785,-0.00017242407193407416,0.0,0.0,0.0,0.0,0.0015423395670950413,0.0021622851490974426,-0.00017937575466930866,0.9977617859840393,0.0,0.0,0.0,0.6917025446891785,3.0946478843688965,7.273484706878662,-125.19953155517578,0
1129.9759999999987,-0.002635010052472353,-0.005067188758403063,-0.00011538942635525018,0.0,0.0,0.0,0.0,-8.503090612066444e-06,-0.0028471974655985832,0.0016653212951496243,0.999879002571106,0.0,0.0,0.0,0.6921906471252441,3.0896244049072266,7.264362812042236,-125.28787994384766,0
1139.8979999999992,-0.0026585690211504698,-0.005100483540445566,-0.00016148916620295495,0.0,0.0,0.0,0.0,0.0013311749789863825,-0.0015296904603019357,0.0032211265061050653,0.9989126920700073,0.0,0.0,0.0,0.6850591897964478,3.0886940956115723,7.261427879333496,-123.9970703125,0
1149.8009999999995,-0.0025779809802770615,-0.005101598333567381,-0.00013548879360314459,0.0,0.0,0.0,0.0,-0.0009927198989316821,-0.0005333349690772593,-0.004374632611870766,0.9998630881309509,0.0,0.0,0.0,0.6908379197120667,3.0901474952697754,7.267805099487305,-125.04303741455078,0
1159.7259999999987,-0.002654368756338954,-0.005153783597052097,-0.00011768702097469941,0.0,0.0,0.0,0.0,0.00099838781170547,-0.0010696480749174953,-0.001194180571474135,1.0010271072387695,0.0,0.0,0.0,0.6976981163024902,3.082282304763794,7.261206150054932,-126.28474426269531,0
1169.6299999999992,-0.002702291589230299,-0.005187067203223705,-0.00013090955326333642,0.0,0.0,0.0,0.0,-0.0009554505813866854,0.00014195732364896685,0.004902561195194721,0.9992977380752563,0.0,0.0,0.0,0.6963849067687988,3.0801005363464355,7.2580413818359375,-126.04705810546875,0
1179.5479999999989,-0.002751917578279972,-0.0052221789956092834,-0.0001433829020243138,0.0,0.0,0.0,0.0,-0.0011097908718511462,0.00017216440755873919,-0.0031600557267665863,0.9971092343330383,0.0,0.0,0.0,0.6951185464859009,3.0746448040008545,7.252219200134277,-125.81784057617188,0
1189.4569999999985,-0.002639847109094262,-0.005174484569579363,-6.50663350825198e-05,0.0,0.0,0.0,0.0,0.0015191136626526713,-0.0016785482876002789,-0.0003170583222527057,0.9970375299453735,0.0,0.0,0.0,0.6945582032203674,3.069359540939331,7.241329193115234,-125.71641540527344,0
1199.369999999999,-0.002688387408852577,-0.005208911839872599,-7.307244959520176e-05,0.0,0.0,0.0,0.0,-0.0031549367122352123,0.00012022058217553422,-0.0022468869574368,0.998384416103363,0.0,0.0,0.0,0.6935495734214783,3.0719809532165527,7.2452473640441895,-125.53385925292969,0
1209.286,-0.00258366740308702,-0.005138368345797062,-2.2286905732471496e-05,0.0,0.0,0.0,0.0,0.003238028148189187,-0.002666169311851263,0.0037173202726989985,0.999718964099884,0.0,0.0,0.0,0.6982995867729187,3.0901784896850586,7.2515788078308105,-126.39361572265625,0
1219.2069999999985,-0.002576130907982588,-0.005099773872643709,-0.00010459571785759181,0.0,0.0,0.0,0.0,0.0022709746845066547,-0.0019159429939463735,-0.0014616558328270912,1.0017869472503662,0.0,0.0,0.0,0.697769284248352,3.0831243991851807,7.249207496643066,-126.29762268066406,0
1229.1099999999988,-0.002623016480356455,-0.005129771772772074,-0.00011587170592974871,0.0,0.0,0.0,0.0,-0.002271925564855337,-0.0004623197019100189,0.000602060230448842,1.0010266304016113,0.0,0.0,0.0,0.6974678635597229,3.086536169052124,7.252531051635742,-126.24307250976562,0
1239.0199999999986,-0.0026984026189893484,-0.005183242727071047,-0.0001057956978911534,0.0,0.0,0.0,0.0,0.0031821245793253183,-0.003173976670950651,-0.0011253207921981812,0.9989979863166809,0.0,0.0,0.0,0.6970935463905334,3.083270788192749,7.252111911773682,-126.17532348632812,0
1248.9349999999995,-0.002549004042521119,-0.00519545329734683,-2.1927200577920303e-05,0.0,0.0,0.0,0.0,0.00035809428663924336,0.00485666049644351,-0.0007677903049625456,1.0009430646896362,0.0,0.0,0.0,0.6964339017868042,3.07192325592041,7.24749231338501,-126.0559310913086,0
1258.8400000000001,-0.0025994288735091686,-0.005228545982390642,-2.1913812815910205e-05,0.0,0.0,0.0,0.0,0.0029311201069504023,-0.0008147383923642337,-0.0013513847952708602,1.0000250339508057,0.0,0.0,0.0,0.6957604289054871,3.0726850032806396,7.234952926635742,-125.93401336669922,0
1268.7639999999992,-0.002600498730316758,-0.005174950230866671,1.2346606126811821e-05,0.0,0.0,0.0,0.0,-5.402435999712907e-05,0.00013071729335933924,-0.0012597835157066584,0.9980083107948303,0.0,0.0,0.0,0.6944072842597961,3.0642378330230713,7.2296929359436035,-125.68909454345703,0
1278.673999999999,-0.0026391514111310244,-0.005166968330740929,-3.586505954444874e-07,0.0,0.0,0.0,0.0,0.0015767348231747746,0.001217567129060626,-0.0008589977514930069,0.9978795051574707,0.0,0.0,0.0,0.6937410235404968,3.057945966720581,7.225158214569092,-125.5685043334961,0
1288.5900000000001,-0.002694564638659358,-0.005196994170546532,2.3099300960893743e-07,0.0,0.0,0.0,0.0,-0.0005306305247358978,-0.0033661918714642525,0.0005275335279293358,0.9991090893745422,0.0,0.0,0.0,0.6925432085990906,3.0515713691711426,7.2137064933776855,-125.35169982910156,0
1298.4889999999996,-0.002758374670520425,-0.005181130953133106,2.957319338747766e-05,0.0,0.0,0.0,0.0,0.0019730916246771812,0.0023209559731185436,0.0003676947089843452,1.0017141103744507,0.0,0.0,0.0,0.6920024156570435,3.043522596359253,7.207588195800781,-125.25381469726562,0
1308.4099999999999,-0.0026518837548792362,-0.005138869863003492,0.0001276058901567012,0.0,0.0,0.0,0.0,0.00016478066390845925,0.000573547906242311,-0.0027235285378992558,0.9995093941688538,0.0,0.0,0.0,0.6917077302932739,3.0374057292938232,7.198359489440918,-125.20046997070312,0
1318.3229999999985,-0.0026586325839161873,-0.005105274263769388,9.073712135432288e-05,0.0,0.0,0.0,0.0,-0.0001710918004391715,0.002331414958462119,-0.0012880137655884027,0.9980778098106384,0.0,0.0,0.0,0.6902120113372803,3.034228801727295,7.196890830993652,-124.92974853515625,0
1328.2309999999998,-0.002679690718650818,-0.005119873210787773,0.00010145475243916735,0.0,0.0,0.0,0.0,0.00011359711788827553,-0.0003359754628036171,-0.002513922518119216,0.9983014464378357,0.0,0.0,0.0,0.6896146535873413,3.033156156539917,7.184334754943848,-124.82162475585938,0
1338.143,-0.002686886116862297,-0.00507843354716897,6.072123142075725e-05,0.0,0.0,0.0,0.0,-0.0020896887872368097,-0.0003250244481023401,0.0002636131539475173,0.9990265965461731,0.0,0.0,0.0,0.6801681518554688,3.0383946895599365,7.184031963348389,-123.11177825927734,0
1348.0589999999993,-0.0027443980798125267,-0.005101658869534731,6.155051232781261e-05,0.0,0.0,0.0,0.0,-2.1349447706597857e-05,0.0010765132028609514,-0.0012193109141662717,0.9981665015220642,0.0,0.0,0.0,0.6801767349243164,3.042783260345459,7.17855978012085,-123.11334228515625,0
1357.967999999999,-0.0027375908102840185,-0.005055924411863089,-1.7581405700184405e-05,0.0,0.0,0.0,0.0,-0.0001253685768460855,0.0014208551729097962,0.00020342061179690063,1.0026185512542725,0.0,0.0,0.0,0.6792725324630737,3.039954662322998,7.1650824546813965,-122.9496841430664,0
1367.8850000000002,-0.0027186640072613955,-0.005065979436039925,-1.2911750673083588e-06,0.0,0.0,0.0,0.0,0.0014039650559425354,0.00044120571692474186,-0.002160951029509306,0.999430775642395,0.0,0.0,0.0,0.6869643330574036,3.042484998703003,7.164146900177002,-124.34191131591797,0
1377.7929999999997,-0.002776945708319545,-0.005088453646749258,-3.455452315392904e-06,0.0,0.0,0.0,0.0,-0.0009539976599626243,-0.003721285844221711,-0.0019639029633253813,0.9977473020553589,0.0,0.0,0.0,0.6856094002723694,3.032503128051758,7.157073497772217,-124.09666442871094,0
1387.7219999999998,-0.0027048257179558277,-0.005104823969304562,1.8152481061406434e-05,0.0,0.0,0.0,0.0,0.00032314559211954474,0.0002366106491535902,-0.0026061127427965403,0.9985424280166626,0.0,0.0,0.0,0.6848087906837463,3.0318028926849365,7.161271572113037,-123.95176696777344,0
1397.6269999999986,-0.0026928475126624107,-0.0050481390208005905,-6.999060133239254e-05,0.0,0.0,0.0,0.0,-3.21464758599177e-05,0.0013882071943953633,-0.0005361903458833694,1.0003862380981445,0.0,0.0,0.0,0.6839960813522339,3.030587911605835,7.165146350860596,-123.80464172363281,0
1407.5419999999995,-0.0026193030644208193,-0.005090723745524883,-5.483663335326128e-05,0.0,0.0,0.0,0.0,0.0011353109730407596,0.0024283064994961023,0.0006249590660445392,1.0019882917404175,0.0,0.0,0.0,0.6928678154945374,3.0249037742614746,7.167982578277588,-125.41045379638672,0
1417.4529999999995,-0.0026391795836389065,-0.005080556031316519,-0.00010350991215091199,0.0,0.0,0.0,0.0,0.0009869204368442297,0.001218215562403202,-0.0036941913422197104,1.0003572702407837,0.0,0.0,0.0,0.6932011842727661,3.0213818550109863,7.1584601402282715,-125.4708023071289,0
1427.3679999999986,-0.0025847211945801973,-0.005074185319244862,-7.062903750920668e-05,0.0,0.0,0.0,0.0,0.0005763878580182791,-0.0013134002219885588,-0.0010603639530017972,1.0008938312530518,0.0,0.0,0.0,0.6976624727249146,3.0164051055908203,7.157337188720703,-126.27828979492188,0
1437.2690000000002,-0.0026293820701539516,-0.00509202666580677,-9.055052942130715e-05,0.0,0.0,0.0,0.0,-0.0014163494342938066,-0.0027799759991467,-0.001452042255550623,1.0008375644683838,0.0,0.0,0.0,0.697672963142395,3.011549472808838,7.153014183044434,-126.28018951416016,0
1447.1839999999993,-0.0026890933513641357,-0.005124635994434357,-9.459340071771294e-05,0.0,0.0,0.0,0.0,0.0014368765987455845,0.0005197858554311097,0.0007578023360110819,0.9987483024597168,0.0,0.0,0.0,0.6961631178855896,3.01273775100708,7.146388053894043,-126.00690460205078,0
1457.101999999999,-0.0027416525408625603,-0.00512275006622076,-9.706757555250078e-05,0.0,0.0,0.0,0.0,0.00045989008503966033,-0.000865513167809695,-0.0003984475042670965,0.9963800311088562,0.0,0.0,0.0,0.7027397155761719,3.016428232192993,7.142230033874512,-127.1972885131836,0
1467.0190000000002,-0.002639417303726077,-0.0051786755211651325,-5.48943571629934e-05,0.0,0.0,0.0,0.0,0.0018846604507416487,0.0011894823983311653,0.004302958492189646,0.9982812404632568,0.0,0.0,0.0,0.7011738419532776,3.0067555904388428,7.133183002471924,-126.91387176513672,0
1476.9259999999995,-0.0026982887648046017,-0.0052148643881082535,-5.866897845407948e-05,0.0,0.0,0.0,0.0,0.0008068555034697056,0.00365186738781631,-0.006242035888135433,0.9989571571350098,0.0,0.0,0.0,0.7019389271736145,3.00083589553833,7.121716499328613,-127.0523452758789,0
1486.8379999999997,-0.0026002838276326656,-0.005207208450883627,-2.300879350514151e-05,0.0,0.0,0.0,0.0,0.0030774730257689953,0.0031915747094899416,-0.0007110104779712856,1.0002597570419312,0.0,0.0,0.0,0.701155424118042,2.998013496398926,7.111905097961426,-126.91053009033203,0
1496.7510000000002,-0.0026624770835042,-0.005238168872892857,-2.3393213268718682e-05,0.0,0.0,0.0,0.0,0.00021743500838056207,0.0030854882206767797,-0.0006705886917188764,1.001051425933838,0.0,0.0,0.0,0.7006855607032776,2.996581554412842,7.10084867477417,-126.82549285888672,0
1506.6619999999984,-0.0026027678977698088,-0.005223567597568035,2.389060682617128e-05,0.0,0.0,0.0,0.0,0.00020045829296577722,0.002438607858493924,4.2138490243814886e-05,0.998457133769989,0.0,0.0,0.0,0.6998163461685181,2.9920480251312256,7.091835021972656,-126.66814422607422,0
1516.563,-0.0026076037902384996,-0.005218327045440674,-4.1902447264874354e-05,0.0,0.0,0.0,0.0,0.0002838186628650874,-0.004044892732053995,-0.0007041206117719412,0.9986459612846375,0.0,0.0,0.0,0.6991119980812073,2.9857847690582275,7.072795867919922,-126.54065704345703,0
1526.4779999999992,-0.0025636835489422083,-0.0052192602306604385,-2.7495252652443014e-06,0.0,0.0,0.0,0.0,-0.001396709238179028,0.0008004709961824119,-0.0005025585414841771,0.9987298846244812,0.0,0.0,0.0,0.6989468932151794,2.981778860092163,7.069608211517334,-126.51077270507812,0
1536.387999999999,-0.002534387167543173,-0.005177073646336794,-0.00010656006634235382,0.0,0.0,0.0,0.0,0.0017242592293769121,-0.00047775747952982783,-0.00019569827418308705,0.9991064071655273,0.0,0.0,0.0,0.6994938254356384,2.9835171699523926,7.0638508796691895,-126.6097640991211,0
1546.307999999999,-0.0025190196465700865,-0.00516217527911067,-7.559938967460766e-05,0.0,0.0,0.0,0.0,0.0010653877397999167,-0.00038085211417637765,0.0015830866759642959,0.9989518523216248,0.0,0.0,0.0,0.698577880859375,2.977734327316284,7.06652307510376,-126.44397735595703,0
1556.2159999999985,-0.0025841451715677977,-0.0052004060707986355,-8.258983871201053e-05,0.0,0.0,0.0,0.0,-0.0024442977737635374,0.0018047604244202375,-0.0003674775653053075,0.9992696642875671,0.0,0.0,0.0,0.698992133140564,2.9709134101867676,7.062253475189209,-126.51897430419922,0
1566.1239999999998,-0.002651216695085168,-0.005240586586296558,-9.022141603054479e-05,0.0,0.0,0.0,0.0,-0.0025235465727746487,0.001498050638474524,-0.003717603860422969,0.9987258315086365,0.0,0.0,0.0,0.6978009939193726,2.9717559814453125,7.049235820770264,-126.3033676147461,0
1576.0499999999993,-0.0026651478838175535,-0.005238576792180538,-0.0001665479358052835,0.0,0.0,0.0,0.0,0.0014899717643857002,0.002086011692881584,0.0008424884872511029,0.9987260103225708,0.0,0.0,0.0,0.6896664500236511,2.979926586151123,7.046977996826172,-124.83100891113281,0
1585.9489999999987,-0.0026075963396579027,-0.005152987781912088,-8.919951505959034e-05,0.0,0.0,0.0,0.0,-0.005955864209681749,-0.004306857008486986,0.004224676173180342,0.9986553192138672,0.0,0.0,0.0,0.6880809664726257,2.974205255508423,7.032139301300049,-124.54402160644531,0
1595.866,-0.002683899598196149,-0.005191637668758631,-8.296089799841866e-05,0.0,0.0,0.0,0.0,-0.0034154304303228855,-0.0025690211914479733,-0.003288298612460494,0.99600750207901,0.0,0.0,0.0,0.6806226372718811,2.977884292602539,7.025243759155273,-123.19404602050781,0
1605.7709999999988,-0.0026341965422034264,-0.005165542010217905,-3.534085044520907e-05,0.0,0.0,0.0,0.0,0.00010971777373924851,-0.0017809910932555795,-0.00023242748284246773,0.9985098838806152,0.0,0.0,0.0,0.67853182554245,2.9805991649627686,7.026803016662598,-122.81561279296875,0
1615.688,-0.0027384967543184757,-0.005205303896218538,7.66818175179651e-06,0.0,0.0,0.0,0.0,-0.0019411410903558135,-0.00030121399322524667,-0.00412778789177537,0.9976610541343689,0.0,0.0,0.0,0.6777708530426025,2.9757869243621826,7.024182319641113,-122.6778793334961,0
1625.5909999999985,-0.0028113038279116154,-0.005243129562586546,3.4200120353489183e-06,0.0,0.0,0.0,0.0,0.0002528101031202823,-0.004351512528955936,0.001081134774722159,1.0018481016159058,0.0,0.0,0.0,0.6763259768486023,2.975527763366699,7.0202202796936035,-122.41633605957031,0
1635.5109999999986,-0.002832697005942464,-0.0051681227050721645,-4.301902299630456e-05,0.0,0.0,0.0,0.0,0.0015434706583619118,-0.00010991214367095381,0.00012035483814543113,0.9992849826812744,0.0,0.0,0.0,0.6763027906417847,2.978682279586792,7.018651008605957,-122.41213989257812,0
1645.4169999999995,-0.002758691320195794,-0.005139765329658985,3.242089951527305e-05,0.0,0.0,0.0,0.0,-0.00032256744452752173,-0.001644466887228191,-0.00022961760987527668,0.9980657696723938,0.0,0.0,0.0,0.6764193177223206,2.9662868976593018,7.010577201843262,-122.43324279785156,0
1655.3349999999991,-0.0027485345490276814,-0.005086260847747326,-5.467134542413987e-05,0.0,0.0,0.0,0.0,0.0013459946494549513,-0.0022761186119168997,-0.0019077140605077147,0.9995109438896179,0.0,0.0,0.0,0.6750569939613342,2.969759464263916,7.003632068634033,-122.18665313720703,0
1665.244999999999,-0.002692973939701915,-0.005107983481138945,-2.5237086447305046e-05,0.0,0.0,0.0,0.0,-0.0006141536287032068,0.0019009652314707637,-0.00031326463795267045,1.0010128021240234,0.0,0.0,0.0,0.674103856086731,2.9678590297698975,7.005090713500977,-122.01414489746094,0
1675.1599999999999,-0.0027090671937912703,-0.0050783948972821236,-9.17350989766419e-05,0.0,0.0,0.0,0.0,-0.003703092224895954,-0.005014759488403797,0.00040112301940098405,1.0013186931610107,0.0,0.0,0.0,0.6723213791847229,2.971085548400879,6.996817111968994,-121.6915054321289,0
1685.0720000000001,-0.002679632045328617,-0.005054968874901533,-5.391434388002381e-05,0.0,0.0,0.0,0.0,-0.0007635164656676352,-0.00265466864220798,-0.0009842601139098406,0.9999186396598816,0.0,0.0,0.0,0.6723602414131165,2.966944694519043,6.998419761657715,-121.69854736328125,0
1694.9879999999994,-0.0027550682425498962,-0.005071129649877548,-5.383091411204077e-05,0.0,0.0,0.0,0.0,-0.0009555061697028577,0.0012678285129368305,-0.0021860848646610975,1.0014444589614868,0.0,0.0,0.0,0.671177864074707,2.9668080806732178,7.002854824066162,-121.48453521728516,0
1704.8899999999994,-0.0026364128571003675,-0.005092279985547066,4.931022886012215e-06,0.0,0.0,0.0,0.0,0.001544889877550304,-0.004428252577781677,0.0034003453329205513,1.0000642538070679,0.0,0.0,0.0,0.6706225275993347,2.9646713733673096,6.992437362670898,-121.3840103149414,0
1714.8199999999997,-0.002712175017222762,-0.0051327054388821125,6.557927008543629e-06,0.0,0.0,0.0,0.0,0.00036999641451984644,-0.0012844286393374205,0.0008431300520896912,1.00059974193573,0.0,0.0,0.0,0.6700526475906372,2.965747356414795,6.991781711578369,-121.28086853027344,0
1724.7119999999995,-0.0027887667529284954,-0.005174982361495495,8.586755029682536e-06,0.0,0.0,0.0,0.0,0.001408630283549428,0.00022197153884917498,0.0025269649922847748,1.0017117261886597,0.0,0.0,0.0,0.6700253486633301,2.9678969383239746,6.988654136657715,-121.27592468261719,0
1734.6359999999986,-0.002767445519566536,-0.005108078941702843,-9.89183972706087e-05,0.0,0.0,0.0,0.0,0.0019239316461607814,0.0004891204880550504,0.0013517765328288078,0.9980754852294922,0.0,0.0,0.0,0.6698927283287048,2.9656786918640137,6.97713565826416,-121.25192260742188,0
1744.5479999999989,-0.002599775092676282,-0.005112553481012583,-0.00011858960351673886,0.0,0.0,0.0,0.0,-0.0011348460102453828,-0.004396004136651754,0.003162521868944168,0.9977144002914429,0.0,0.0,0.0,0.6698707938194275,2.962045431137085,6.969280242919922,-121.24795532226562,0
1754.4579999999987,-0.002673760987818241,-0.005152995698153973,-0.00012439157580956817,0.0,0.0,0.0,0.0,0.000695320253726095,0.0023545781150460243,-0.0037318302784115076,1.0003284215927124,0.0,0.0,0.0,0.667980432510376,2.9572970867156982,6.965683937072754,-120.9057846069336,0
1764.3639999999996,-0.0027331961318850517,-0.00512326555326581,-0.00012976699508726597,0.0,0.0,0.0,0.0,0.0008745299419388175,0.0022052868735045195,-0.0016136836493387818,0.9979913234710693,0.0,0.0,0.0,0.6673905253410339,2.9593892097473145,6.9647440910339355,-120.79901123046875,0
1774.277,-0.0028107622638344765,-0.005163340363651514,-0.00013721417053602636,0.0,0.0,0.0,0.0,-0.002047462621703744,-0.0015745481941848993,0.0014591285726055503,0.9984344840049744,0.0,0.0,0.0,0.6674534678459167,2.9555182456970215,6.955887317657471,-120.81040954589844,0
1784.205,-0.002836408792063594,-0.0050969310104846954,-0.00019614181655924767,0.0,0.0,0.0,0.0,-0.001202716724947095,0.0008198170689865947,0.000259566237218678,0.999444842338562,0.0,0.0,0.0,0.6675313711166382,2.952775001525879,6.947983741760254,-120.82450103759766,0
1794.1080000000002,-0.002911838935688138,-0.0051338206976652145,-0.00021026107424404472,0.0,0.0,0.0,0.0,0.0004271252255421132,-0.0011964277364313602,-5.860572855453938e-05,1.0013781785964966,0.0,0.0,0.0,0.6670740842819214,2.9478766918182373,6.939698696136475,-120.74172973632812,0
1804.012999999999,-0.002694286871701479,-0.0051752375438809395,-7.377512520179152e-05,0.0,0.0,0.0,0.0,-0.0008709378307685256,-0.0014462318504229188,0.0007926252437755466,1.0011181831359863,0.0,0.0,0.0,0.6679009795188904,2.9475619792938232,6.996808052062988,-120.89140319824219,0
1813.9349999999995,-0.0027608959935605526,-0.0052173566073179245,-7.617182563990355e-05,0.0,0.0,0.0,0.0,0.0008697560406289995,0.0012966126669198275,-0.000848365540150553,0.998384416103363,0.0,0.0,0.0,0.668278157711029,2.9468483924865723,6.999599933624268,-120.95967102050781,0
1823.8529999999992,-0.002829419681802392,-0.0052612945437431335,-7.758039282634854e-05,0.0,0.0,0.0,0.0,0.0005995294195599854,6.6019083533319645e-06,-0.0029420829378068447,0.9986887574195862,0.0,0.0,0.0,0.6666927933692932,2.9380111694335938,6.986550807952881,-120.67272186279297,0
1833.7579999999998,-0.0028995086904615164,-0.005305955186486244,-7.976341294124722e-05,0.0,0.0,0.0,0.0,0.0007428218959830701,-0.002862674416974187,0.0010982498060911894,1.0005085468292236,0.0,0.0,0.0,0.6669589281082153,2.9376864433288574,6.98163366317749,-120.72090148925781,0
1843.6749999999993,-0.002850706921890378,-0.005224209278821945,-0.0002206384378951043,0.0,0.0,0.0,0.0,0.0034858875442296267,-0.006431867368519306,0.002531955484300852,0.9984501600265503,0.0,0.0,0.0,0.6737203001976013,2.973707675933838,7.011709213256836,-121.94471740722656,0
1853.5769999999993,-0.00291770463809371,-0.005263388156890869,-0.00023363347281701863,0.0,0.0,0.0,0.0,-0.00048143439926207066,0.004925688728690147,-0.00020473619224503636,0.9983519315719604,0.0,0.0,0.0,0.6729395389556885,2.9647841453552246,7.011439800262451,-121.80339050292969,0
1863.4979999999996,-0.0026455374900251627,-0.00515077356249094,-0.00012866730685345829,0.0,0.0,0.0,0.0,-0.005900492426007986,0.0017685889033600688,0.002011318923905492,0.9987891912460327,0.0,0.0,0.0,0.6850395202636719,2.99375319480896,7.072098731994629,-123.99352264404297,0
1873.4039999999986,-0.0027011416386812925,-0.005183496046811342,-0.00013541671796701849,0.0,0.0,0.0,0.0,0.0032325051724910736,-0.001180014805868268,0.000365462590707466,1.0003633499145508,0.0,0.0,0.0,0.6828150153160095,3.000011920928955,7.058800220489502,-123.59088134765625,0
1883.307999999999,-0.0026115316431969404,-0.00507076270878315,-0.0001455307356081903,0.0,0.0,0.0,0.0,-0.0005893395282328129,0.0038138681557029486,-0.003812110284343362,1.0012156963348389,0.0,0.0,0.0,0.6829313039779663,2.996655225753784,7.048251628875732,-123.61192321777344,0
1893.226999999999,-0.002667937893420458,-0.005098995752632618,-0.00015278049977496266,0.0,0.0,0.0,0.0,3.64124498446472e-05,-0.003408400109037757,0.0014097782550379634,0.9985465407371521,0.0,0.0,0.0,0.6808935403823853,2.9905028343200684,7.036184787750244,-123.24307250976562,0
1903.134,-0.0027026678435504436,-0.005123861134052277,-0.00019570902804844081,0.0,0.0,0.0,0.0,-0.0008541340357623994,0.0035571435000747442,-0.0014862766256555915,1.0001500844955444,0.0,0.0,0.0,0.6804038882255554,2.9843108654022217,7.0286431312561035,-123.15445709228516,0
1913.048999999999,-0.002763383788987994,-0.005154558923095465,-0.00020539489923976362,0.0,0.0,0.0,0.0,-0.00022409168013837188,0.0012873493833467364,-0.003511331742629409,1.0000067949295044,0.0,0.0,0.0,0.6788303852081299,2.9862895011901855,7.025296211242676,-122.86965942382812,0
1922.9650000000001,-0.00256455154158175,-0.005109997466206551,-0.0001198302416014485,0.0,0.0,0.0,0.0,-0.0020606371108442545,0.005329722538590431,-0.0004756831913255155,0.9998552799224854,0.0,0.0,0.0,0.6880035996437073,2.989011764526367,7.046507835388184,-124.53001403808594,0
1932.884,-0.0026225948240607977,-0.0051412819884717464,-0.00012279159273020923,0.0,0.0,0.0,0.0,8.092942152870819e-05,0.00010415705037303269,0.0006109970272518694,0.9977776408195496,0.0,0.0,0.0,0.6871247887611389,2.985698699951172,7.0346832275390625,-124.37095642089844,0
1942.789999999999,-0.0025957426987588406,-0.00513298949226737,-3.810056659858674e-05,0.0,0.0,0.0,0.0,-0.0002564464812166989,0.0036263868678361177,0.004168153740465641,0.9982919692993164,0.0,0.0,0.0,0.6860238313674927,2.9860758781433105,7.016584396362305,-124.17167663574219,0
1952.696,-0.0026579629629850388,-0.005165090784430504,-3.6871337215416133e-05,0.0,0.0,0.0,0.0,0.00046194158494472504,0.00027768922154791653,-0.005988063756376505,1.0006037950515747,0.0,0.0,0.0,0.6849377155303955,2.9827394485473633,6.996924877166748,-123.97509002685547,0
1962.6099999999988,-0.002716240705922246,-0.005189243238419294,2.3678092475165613e-05,0.0,0.0,0.0,0.0,-0.0006849784404039383,-0.00023230169608723372,-0.0012511694803833961,1.0002903938293457,0.0,0.0,0.0,0.6841669082641602,2.980210065841675,6.991419315338135,-123.8355712890625,0
1972.5319999999992,-0.002786145778372884,-0.005225001834332943,2.8333832233329304e-05,0.0,0.0,0.0,0.0,-0.0034710983745753765,0.000561220629606396,0.0010209691245108843,1.0014829635620117,0.0,0.0,0.0,0.6831435561180115,2.976301431655884,6.9853596687316895,-123.65033721923828,0
1982.4349999999995,-0.0028583041857928038,-0.005263413302600384,3.382298746146262e-05,0.0,0.0,0.0,0.0,0.00046864053001627326,-0.0027059128042310476,-0.0012812006752938032,1.0006681680679321,0.0,0.0,0.0,0.683184802532196,2.9774365425109863,6.969174385070801,-123.65779876708984,0
1992.342999999999,-0.002932458184659481,-0.005303732585161924,4.060825449414551e-05,0.0,0.0,0.0,0.0,0.0008587204501964152,-0.00016172847244888544,0.0016017371090129018,1.000014066696167,0.0,0.0,0.0,0.6810992360115051,2.9760642051696777,6.960653781890869,-123.28031158447266,0
2002.2619999999988,-0.002650418085977435,-0.0051732477732002735,0.00010943906818283722,0.0,0.0,0.0,0.0,0.00015228224219754338,-0.002856398932635784,-0.0035375116858631372,0.9994402527809143,0.0,0.0,0.0,0.6823102831840515,2.99674916267395,7.002464771270752,-123.49951934814453,0
2012.1679999999997,-0.0027182484045624733,-0.005208862014114857,0.00012174201401649043,0.0,0.0,0.0,0.0,-0.0006230018916539848,-0.00098120654001832,-0.00045647736988030374,0.9990155696868896,0.0,0.0,0.0,0.6812873482704163,2.988586664199829,6.997592926025391,-123.31436157226562,0
2022.0879999999997,-0.0025936595629900694,-0.005150832701474428,0.00011264803470112383,0.0,0.0,0.0,0.0,-0.00014587747864425182,-0.0029782333876937628,0.004090344533324242,1.0004922151565552,0.0,0.0,0.0,0.6804149150848389,2.986436605453491,6.999706268310547,-123.15644836425781,0
2032.0019999999986,-0.002661618869751692,-0.0051870197057724,0.00012251231237314641,0.0,0.0,0.0,0.0,0.003153629833832383,-0.0005169244250282645,0.0006914643454365432,0.9983518719673157,0.0,0.0,0.0,0.6795383095741272,2.9850525856018066,6.989853858947754,-122.99778747558594,0
2041.9049999999988,-0.0026246991474181414,-0.005131188780069351,8.455273928120732e-05,0.0,0.0,0.0,0.0,0.0028497115708887577,0.00019213688210584223,0.000687053834553808,0.9991069436073303,0.0,0.0,0.0,0.6797006726264954,2.98002290725708,6.984676837921143,-123.02716827392578,0
2051.8279999999995,-0.002694516209885478,-0.005167035385966301,9.051192319020629e-05,0.0,0.0,0.0,0.0,-0.0013448182726278901,3.747070422832621e-07,-0.0002456725051160902,1.001081109046936,0.0,0.0,0.0,0.678705632686615,2.977874279022217,6.977628707885742,-122.84707641601562,0
2061.7339999999986,-0.0027024890296161175,-0.005098226945847273,3.7044435885036364e-05,0.0,0.0,0.0,0.0,0.004208622965961695,0.0020164442248642445,-0.0024971470702439547,1.0005319118499756,0.0,0.0,0.0,0.6771528124809265,2.9697885513305664,6.969782829284668,-122.56600952148438,0
2071.6489999999994,-0.002771602710708976,-0.005132134072482586,3.9008362364256755e-05,0.0,0.0,0.0,0.0,-0.0025652607437223196,0.002152422908693552,0.0014143426669761539,1.0000017881393433,0.0,0.0,0.0,0.6769642233848572,2.965818405151367,6.955178737640381,-122.5318603515625,0
2081.5589999999993,-0.00261124549433589,-0.005065320059657097,9.697087807580829e-05,0.0,0.0,0.0,0.0,0.0019267996540293097,0.00296010822057724,0.002033195924013853,0.9994980096817017,0.0,0.0,0.0,0.675152063369751,2.958831310272217,6.940276145935059,-122.20386505126953,0
2091.4839999999986,-0.002681481186300516,-0.00509986374527216,0.00010390515672042966,0.0,0.0,0.0,0.0,-0.0018607343081384897,-0.0019003715133294463,0.0014680151361972094,1.000037670135498,0.0,0.0,0.0,0.6746252775192261,2.956756591796875,6.92470121383667,-122.1085205078125,0
2101.379999999999,-0.002680945210158825,-0.005125811323523521,0.00013826483336742967,0.0,0.0,0.0,0.0,0.00028902097255922854,-0.0015418264083564281,0.0006775983492843807,1.0025032758712769,0.0,0.0,0.0,0.6738991737365723,2.9545536041259766,6.92473840713501,-121.97709655761719,0
2111.297999999999,-0.002756160916760564,-0.005164898466318846,0.00014782899233978242,0.0,0.0,0.0,0.0,-0.001999813597649336,0.0015744948759675026,-0.0004117298813071102,1.0013909339904785,0.0,0.0,0.0,0.6726894974708557,2.9465091228485107,6.916954517364502,-121.75813293457031,0
2121.2019999999993,-0.002801478374749422,-0.005151202902197838,0.00013066806423012167,0.0,0.0,0.0,0.0,-0.0018830294720828533,-0.0002200886665377766,-0.0007150818128138781,0.9997830986976624,0.0,0.0,0.0,0.6714286804199219,2.9490387439727783,6.911968231201172,-121.5299301147461,0
