timestamp,stateEstimate.x,stateEstimate.y,stateEstimate.z,controller.cmd_thrust,controller.cmd_roll,controller.cmd_pitch,controller.cmd_yaw,controller.r_roll,controller.r_pitch,controller.r_yaw,controller.accelz,controller.actuatorThrust,controller.roll,controller.pitch,controller.yaw,controller.rollRate,controller.pitchRate,controller.yawRate,controller.ctr_yaw
0.0,-0.009163646027445793,-0.023387674242258072,0.000540184264536947,0.0,0.0,0.0,0.0,-0.0017161392606794834,-0.003640213515609503,-0.0012365560978651047,1.0004345178604126,0.0,0.0,0.0,-26.971712112426758,2.064612627029419,2.7145066261291504,4881.93310546875,0
9.89600000000064,-0.009169408120214939,-0.023414205759763718,0.0005205556517466903,0.0,0.0,0.0,0.0,-6.396607932401821e-05,-0.002115919953212142,0.003618522547185421,0.9998126029968262,0.0,0.0,0.0,-26.97474479675293,2.062337875366211,2.7121424674987793,4882.482421875,0
19.769000000000233,-0.009156093932688236,-0.023425081744790077,0.0005303194629959762,0.0,0.0,0.0,0.0,-0.002103529404848814,0.000717528339009732,-0.0034342706203460693,1.0025634765625,0.0,0.0,0.0,-26.973966598510742,2.0602211952209473,2.7158758640289307,4882.34130859375,0
29.661000000000058,-0.00914208497852087,-0.023442408069968224,0.0005255635478533804,0.0,0.0,0.0,0.0,-0.0012946627102792263,-0.0006334644858725369,-0.0028107052203267813,1.0017696619033813,0.0,0.0,0.0,-26.9752197265625,2.0615837574005127,2.721090078353882,4882.568359375,0
39.53900000000067,-0.009131827391684055,-0.023447683081030846,0.0005442344699986279,0.0,0.0,0.0,0.0,-0.002236706903204322,0.00041098438668996096,0.0008417688659392297,0.9993717670440674,0.0,0.0,0.0,-26.97104263305664,2.059274911880493,2.723339796066284,4881.81201171875,0
49.43499999999949,-0.009085296653211117,-0.023495076224207878,0.0005320085911080241,0.0,0.0,0.0,0.0,-0.00028009171364828944,-0.009895950555801392,0.0039401063695549965,0.999933660030365,0.0,0.0,0.0,-26.974937438964844,2.0514655113220215,2.7352733612060547,4882.51708984375,0
59.314000000000306,-0.009044618345797062,-0.023465553298592567,0.0005378637579269707,0.0,0.0,0.0,0.0,0.0011945907026529312,-0.003474211087450385,-0.001235197763890028,1.0014123916625977,0.0,0.0,0.0,-26.966047286987305,2.058861494064331,2.7531816959381104,4880.908203125,0
69.19800000000032,-0.009015134535729885,-0.02348092384636402,0.0005396808264777064,0.0,0.0,0.0,0.0,0.002301478525623679,0.0032606173772364855,-0.0002899552637245506,1.0005401372909546,0.0,0.0,0.0,-26.966045379638672,2.054778575897217,2.7753684520721436,4880.90771484375,0
79.08200000000033,-0.00894453190267086,-0.023423705250024796,0.000524899282027036,0.0,0.0,0.0,0.0,-0.0004443368234205991,-0.0012747845612466335,-0.0013485128292813897,0.9986954927444458,0.0,0.0,0.0,-26.962343215942383,2.0623562335968018,2.7681965827941895,4880.2373046875,0
88.97600000000057,-0.008980849757790565,-0.02343287505209446,0.0004989676526747644,0.0,0.0,0.0,0.0,0.002748556435108185,0.00186540640424937,0.0009568420355208218,0.9984245300292969,0.0,0.0,0.0,-26.96133041381836,2.0548086166381836,2.761522054672241,4880.0546875,0
98.85200000000077,-0.00894232653081417,-0.023432696238160133,0.0004883724031969905,0.0,0.0,0.0,0.0,0.000519364548381418,0.0026201915461570024,0.0016092902515083551,1.0016508102416992,0.0,0.0,0.0,-26.955474853515625,2.0484328269958496,2.756582260131836,4878.994140625,0
108.73999999999978,-0.008951090276241302,-0.02343720570206642,0.0004758763243444264,0.0,0.0,0.0,0.0,0.0007477046456187963,-0.0005085989250801504,-0.0013633383205160499,1.001318335533142,0.0,0.0,0.0,-26.9575252532959,2.0421149730682373,2.7480695247650146,4879.365234375,0
118.62299999999959,-0.00895612221211195,-0.02344566397368908,0.0005201841122470796,0.0,0.0,0.0,0.0,0.0004431349807418883,0.0038664378225803375,-0.0010950085707008839,1.0005311965942383,0.0,0.0,0.0,-26.960054397583008,2.037160634994507,2.7356808185577393,4879.8232421875,0
128.51300000000083,-0.009014724753797054,-0.023467035964131355,0.0004800058377441019,0.0,0.0,0.0,0.0,0.0008403693791478872,-0.0010159430094063282,0.001861745142377913,0.999595046043396,0.0,0.0,0.0,-26.964122772216797,2.0301711559295654,2.719813108444214,4880.5595703125,0
138.39400000000023,-0.008998755365610123,-0.02344791777431965,0.0005090580671094358,0.0,0.0,0.0,0.0,-0.0019492398714646697,-0.0008026579162105918,0.0036884150467813015,0.9983780980110168,0.0,0.0,0.0,-26.96685028076172,2.0310492515563965,2.701718807220459,4881.0537109375,0
148.27900000000045,-0.00903599988669157,-0.02347533218562603,0.0004737770650535822,0.0,0.0,0.0,0.0,-0.0011235633864998817,-0.003290049731731415,-0.0018022555159404874,1.0003184080123901,0.0,0.0,0.0,-26.970439910888672,2.0218985080718994,2.7050111293792725,4881.703125,0
158.16500000000087,-0.009036308154463768,-0.02349674515426159,0.0004921108484268188,0.0,0.0,0.0,0.0,0.0007421137997880578,0.0024561940226703882,-0.0009769875323399901,1.001624345779419,0.0,0.0,0.0,-26.97153663635254,2.0225231647491455,2.7101831436157227,4881.9013671875,0
168.04700000000048,-0.009057752788066864,-0.023514961823821068,0.0004694763047154993,0.0,0.0,0.0,0.0,0.0010024628136307001,0.004821824841201305,0.001331401290372014,1.0011814832687378,0.0,0.0,0.0,-26.97496223449707,2.0153448581695557,2.7102572917938232,4882.521484375,0
177.9310000000005,-0.00904934573918581,-0.023516668006777763,0.0004861328052356839,0.0,0.0,0.0,0.0,0.0006358051323331892,0.005178302526473999,0.003527931170538068,0.9999579191207886,0.0,0.0,0.0,-26.975149154663086,2.0171196460723877,2.704298257827759,4882.5556640625,0
187.8189999999995,-0.009094979614019394,-0.023492664098739624,0.0004867908719461411,0.0,0.0,0.0,0.0,-0.002269729506224394,-0.0009245953988283873,0.00012628080730792135,1.0017480850219727,0.0,0.0,0.0,-26.978445053100586,2.0158843994140625,2.684154987335205,4883.15234375,0
197.69900000000052,-0.009092041291296482,-0.023501737043261528,0.0005051643238402903,0.0,0.0,0.0,0.0,-0.0030493924859911203,0.0014572079526260495,0.001254181726835668,1.000361680984497,0.0,0.0,0.0,-26.97652816772461,2.0167055130004883,2.6721911430358887,4882.80517578125,0
207.58699999999953,-0.009128767065703869,-0.023493459448218346,0.0005017152871005237,0.0,0.0,0.0,0.0,-0.00027251485153101385,-0.0032654323149472475,-0.003287529107183218,0.997800886631012,0.0,0.0,0.0,-26.976993560791016,2.0215067863464355,2.663189172744751,4882.88916015625,0
217.46999999999935,-0.00913062784820795,-0.023497262969613075,0.0005291338311508298,0.0,0.0,0.0,0.0,0.0023355523589998484,-0.002192394807934761,-0.0007881122874096036,0.9995160698890686,0.0,0.0,0.0,-26.97880744934082,2.0229969024658203,2.6537272930145264,4883.21826171875,0
227.35499999999956,-0.0091099226847291,-0.02349078841507435,0.0005510387127287686,0.0,0.0,0.0,0.0,-0.000802714261226356,0.0015945748891681433,0.0001573158078826964,1.0011476278305054,0.0,0.0,0.0,-26.980266571044922,2.0222091674804688,2.6673762798309326,4883.48193359375,0
237.23899999999958,-0.009120273403823376,-0.023502111434936523,0.0005817546043545008,0.0,0.0,0.0,0.0,-0.0035782887134701014,-0.0037413069512695074,-0.00017985582235269248,1.00160551071167,0.0,0.0,0.0,-26.976469039916992,2.012140989303589,2.66591215133667,4882.79443359375,0
247.1239999999998,-0.009133897721767426,-0.0235064085572958,0.0005825916887260973,0.0,0.0,0.0,0.0,-0.0024092947132885456,-0.0025378060527145863,0.0011598645942285657,1.0006158351898193,0.0,0.0,0.0,-26.978403091430664,2.007225751876831,2.6623659133911133,4883.14501953125,0
257.0139999999992,-0.009108763188123703,-0.02349085547029972,0.0005803140811622143,0.0,0.0,0.0,0.0,-0.003470565425232053,0.0013922833604738116,-0.00038467286503873765,1.0002413988113403,0.0,0.0,0.0,-26.97770118713379,2.0120699405670166,2.6758360862731934,4883.017578125,0
266.90099999999984,-0.00915074534714222,-0.02349385991692543,0.000569146650377661,0.0,0.0,0.0,0.0,0.0008588724886067212,0.00026136438827961683,0.0020495133940130472,0.9979137778282166,0.0,0.0,0.0,-26.97895622253418,2.006057024002075,2.671854019165039,4883.24462890625,0
276.78800000000047,-0.009068910032510757,-0.023405669257044792,0.000527461408637464,0.0,0.0,0.0,0.0,-0.00201416970230639,-0.0076885218732059,-0.0012341290712356567,1.0001420974731445,0.0,0.0,0.0,-26.98076629638672,2.031113624572754,2.667698383331299,4883.57275390625,0
286.6650000000009,-0.0091746486723423,-0.023373890668153763,0.000505717471241951,0.0,0.0,0.0,0.0,-0.000261081091593951,-0.004267774987965822,0.002053359989076853,1.0022377967834473,0.0,0.0,0.0,-26.98407554626465,2.0365171432495117,2.6597859859466553,4884.17138671875,0
296.5580000000009,-0.009122478775680065,-0.023328382521867752,0.0004687003092840314,0.0,0.0,0.0,0.0,-0.0013235341757535934,-0.000994195812381804,-0.0004073968157172203,1.0002367496490479,0.0,0.0,0.0,-26.98756217956543,2.0497353076934814,2.67041015625,4884.802734375,0
306.4449999999997,-0.009115987457334995,-0.02335117943584919,0.00045061318087391555,0.0,0.0,0.0,0.0,0.0034974480513483286,0.004345701541751623,-0.0012821056880056858,1.0005055665969849,0.0,0.0,0.0,-26.988161087036133,2.039816379547119,2.6843597888946533,4884.9111328125,0
316.33500000000095,-0.009091724641621113,-0.023326154798269272,0.00044116959907114506,0.0,0.0,0.0,0.0,0.002584387082606554,-9.97094321064651e-05,0.0029545845463871956,1.0011167526245117,0.0,0.0,0.0,-26.9881534576416,2.0477476119995117,2.6757631301879883,4884.90966796875,0
326.2049999999999,-0.009086419828236103,-0.023345163092017174,0.00042499182745814323,0.0,0.0,0.0,0.0,-0.00245351018384099,-0.0036956584081053734,-0.000114930619020015,0.9998343586921692,0.0,0.0,0.0,-26.987613677978516,2.035910129547119,2.6684036254882812,4884.81201171875,0
336.09599999999955,-0.00911719910800457,-0.023387866094708443,0.0004503874515648931,0.0,0.0,0.0,0.0,-0.000247144082095474,-0.0001791795511962846,5.5840184359112754e-05,0.9998262524604797,0.0,0.0,0.0,-26.988449096679688,2.02266788482666,2.6670188903808594,4884.962890625,0
345.97400000000016,-0.00907508097589016,-0.023433856666088104,0.000435148918768391,0.0,0.0,0.0,0.0,-0.0016653580823913217,-0.006018764339387417,0.0021532122045755386,0.9994563460350037,0.0,0.0,0.0,-26.99230194091797,2.0147154331207275,2.6865854263305664,4885.66015625,0
355.871000000001,-0.009093519300222397,-0.023459913209080696,0.0004578529915306717,0.0,0.0,0.0,0.0,-0.001990579068660736,0.0006904404144734144,-0.0005851812893524766,0.9975862503051758,0.0,0.0,0.0,-26.987157821655273,2.0065994262695312,2.6844260692596436,4884.7294921875,0
365.7440000000006,-0.009088260121643543,-0.023440496996045113,0.0004753588873427361,0.0,0.0,0.0,0.0,-0.0017053396441042423,-0.0005400188965722919,0.002971943700686097,1.001046061515808,0.0,0.0,0.0,-26.989242553710938,2.009073495864868,2.6899497509002686,4885.10693359375,0
375.6360000000004,-0.009102351032197475,-0.023459255695343018,0.000496205931995064,0.0,0.0,0.0,0.0,0.0006900349399074912,0.002985298167914152,-0.0029873622115701437,0.9998654723167419,0.0,0.0,0.0,-26.9847354888916,2.01344895362854,2.6891233921051025,4884.291015625,0
385.5159999999996,-0.009163830429315567,-0.023457497358322144,0.00047510891454294324,0.0,0.0,0.0,0.0,0.000467842910438776,-0.005903145298361778,0.0015265211695805192,1.0002386569976807,0.0,0.0,0.0,-26.98785972595215,2.0087034702301025,2.6873011589050293,4884.85693359375,0
395.41200000000026,-0.00913893710821867,-0.02340635098516941,0.0004838237364310771,0.0,0.0,0.0,0.0,-2.4513851712981705e-06,0.0008237556903623044,-0.0017484973650425673,1.0010548830032349,0.0,0.0,0.0,-26.987646102905273,2.0272467136383057,2.700671434402466,4884.81787109375,0
405.28399999999965,-0.00909461546689272,-0.02341982163488865,0.0004971338203176856,0.0,0.0,0.0,0.0,0.0010180636309087276,0.00250448496080935,0.0002822764217853546,1.0007199048995972,0.0,0.0,0.0,-26.98455047607422,2.0260071754455566,2.7049155235290527,4884.25732421875,0
415.1910000000007,-0.009067562408745289,-0.023419348523020744,0.0004734599497169256,0.0,0.0,0.0,0.0,0.0041061826050281525,-0.008215371519327164,-0.0003727484436240047,0.9980399012565613,0.0,0.0,0.0,-26.98546028137207,2.034351348876953,2.6989705562591553,4884.421875,0
425.0529999999999,-0.009112092666327953,-0.02342747151851654,0.0004522998642642051,0.0,0.0,0.0,0.0,-0.002938334597274661,-0.0026114697102457285,0.0005796776968054473,0.9997192621231079,0.0,0.0,0.0,-26.98560905456543,2.0206618309020996,2.701143741607666,4884.44921875,0
434.9459999999999,-0.00906285084784031,-0.0233677476644516,0.00042670025140978396,0.0,0.0,0.0,0.0,0.004697061609476805,1.1416206689318642e-05,-0.0014329834375530481,1.0012671947479248,0.0,0.0,0.0,-26.9818058013916,2.0300114154815674,2.7130942344665527,4883.7607421875,0
444.8299999999999,-0.00904620997607708,-0.02341129630804062,0.0003992995771113783,0.0,0.0,0.0,0.0,0.001173442229628563,-0.0021917573176324368,0.0015527565265074372,0.9996600151062012,0.0,0.0,0.0,-26.98326873779297,2.0183651447296143,2.710416555404663,4884.025390625,0
454.71800000000076,-0.009051220491528511,-0.0234189685434103,0.0004139290831517428,0.0,0.0,0.0,0.0,-0.0009174731094390154,-0.0033877482637763023,-0.0007188683375716209,1.0002671480178833,0.0,0.0,0.0,-26.97878646850586,2.0125839710235596,2.698493242263794,4883.2138671875,0
464.59400000000096,-0.009097483940422535,-0.02341340482234955,0.00039679574547335505,0.0,0.0,0.0,0.0,0.0008154648239724338,0.00541862053796649,-0.0008144034072756767,0.998751163482666,0.0,0.0,0.0,-26.978853225708008,2.004045248031616,2.6965713500976562,4883.22607421875,0
474.496000000001,-0.009123324416577816,-0.023450756445527077,0.00042434994247741997,0.0,0.0,0.0,0.0,-0.001285661943256855,-0.00216084741987288,0.0012187352403998375,0.9985454082489014,0.0,0.0,0.0,-26.9755916595459,1.9989100694656372,2.706493616104126,4882.63525390625,0
484.3629999999994,-0.00912815984338522,-0.023452546447515488,0.0004213690699543804,0.0,0.0,0.0,0.0,-0.0013300827704370022,0.002251365687698126,-0.002252242062240839,0.9997283220291138,0.0,0.0,0.0,-26.97562026977539,1.9991215467453003,2.7000577449798584,4882.640625,0
494.2579999999998,-0.00913543812930584,-0.023461489006876945,0.0004377984441816807,0.0,0.0,0.0,0.0,-0.0006844208110123873,0.004291996825486422,0.000733175955247134,0.9991437196731567,0.0,0.0,0.0,-26.976211547851562,1.9893244504928589,2.6919939517974854,4882.748046875,0
504.134,-0.00911399070173502,-0.023458566516637802,0.00044755946146324277,0.0,0.0,0.0,0.0,-0.0010528735583648086,-0.00015331155736930668,-0.0013475766172632575,0.999232828617096,0.0,0.0,0.0,-26.978076934814453,1.9879511594772339,2.689955472946167,4883.0859375,0
514.0280000000002,-0.009060555137693882,-0.02339845336973667,0.0004183677083346993,0.0,0.0,0.0,0.0,0.0033151537645608187,0.0021385010331869125,0.0018362434348091483,1.001874327659607,0.0,0.0,0.0,-26.975215911865234,1.9986212253570557,2.690382480621338,4882.5673828125,0
523.9110000000001,-0.009118331596255302,-0.023396827280521393,0.0003844513848889619,0.0,0.0,0.0,0.0,-0.0005018218071199954,0.0027277555782347918,0.0008224193588830531,0.9988040924072266,0.0,0.0,0.0,-26.97904396057129,1.9915452003479004,2.675232410430908,4883.26123046875,0
533.8060000000005,-0.009077027440071106,-0.023341309279203415,0.00036082323640584946,0.0,0.0,0.0,0.0,-0.0046019661240279675,0.0008048576419241726,0.0016238447278738022,0.9984174966812134,0.0,0.0,0.0,-26.97625732421875,2.0026748180389404,2.6617863178253174,4882.755859375,0
543.6730000000007,-0.009087876416742802,-0.023338215425610542,0.00034595857141539454,0.0,0.0,0.0,0.0,-0.0010521000949665904,-0.0016252698842436075,-0.0027381095569580793,1.0003118515014648,0.0,0.0,0.0,-26.979244232177734,2.002535104751587,2.656179666519165,4883.296875,0
553.5820000000003,-0.009077015332877636,-0.023320680484175682,0.0003334302455186844,0.0,0.0,0.0,0.0,-0.0006450888467952609,0.0019424561178311706,-0.0015106237260624766,0.9999836683273315,0.0,0.0,0.0,-26.97661590576172,2.0110819339752197,2.639493703842163,4882.8212890625,0
563.4429999999993,-0.009036816656589508,-0.023310644552111626,0.00034520807093940675,0.0,0.0,0.0,0.0,0.0020399687346071005,0.00033251900458708405,-0.0008716832380741835,1.00009286403656,0.0,0.0,0.0,-26.97803497314453,2.011329412460327,2.6419131755828857,4883.078125,0
573.3449999999993,-0.009081415832042694,-0.023341555148363113,0.00039411280886270106,0.0,0.0,0.0,0.0,-0.0014005765551701188,0.0002762407821137458,-0.0004999275552108884,1.0006587505340576,0.0,0.0,0.0,-26.98040199279785,2.000293016433716,2.6249537467956543,4883.50634765625,0
583.2129999999997,-0.009013290517032146,-0.023378564044833183,0.00039171602111309767,0.0,0.0,0.0,0.0,0.0010856742737814784,0.002260992769151926,0.0012454978423193097,1.0003564357757568,0.0,0.0,0.0,-26.9814510345459,1.9911208152770996,2.6538233757019043,4883.6962890625,0
593.1059999999998,-0.009082138538360596,-0.02344505302608013,0.00045745770330540836,0.0,0.0,0.0,0.0,-0.0005894310888834298,0.0031838759314268827,0.0027420097030699253,0.9994010925292969,0.0,0.0,0.0,-26.97681427001953,1.9748802185058594,2.6472392082214355,4882.8564453125,0
602.9830000000002,-0.009060969576239586,-0.023477081209421158,0.00044871470890939236,0.0,0.0,0.0,0.0,0.0011535421945154667,0.0016203023260459304,0.005202508065849543,1.001796007156372,0.0,0.0,0.0,-26.983308792114258,1.9690653085708618,2.6419694423675537,4884.03271484375,0
612.8790000000008,-0.009141544811427593,-0.023532504215836525,0.0005483525455929339,0.0,0.0,0.0,0.0,-0.0009858167031779885,-0.0014551858184859157,-0.0007501709042117,1.0007140636444092,0.0,0.0,0.0,-26.98200035095215,1.9563335180282593,2.6260576248168945,4883.79638671875,0
622.7530000000006,-0.009116883389651775,-0.023526370525360107,0.0005833489703945816,0.0,0.0,0.0,0.0,-0.0015325563726946712,-0.0043273987248539925,-0.0020676767453551292,0.9970729947090149,0.0,0.0,0.0,-26.981599807739258,1.951285481452942,2.6313095092773438,4883.72314453125,0
632.652,-0.009146845899522305,-0.023545604199171066,0.0006363070569932461,0.0,0.0,0.0,0.0,6.809796468587592e-05,0.003004815662279725,-0.0001636183587834239,0.9997178316116333,0.0,0.0,0.0,-26.986759185791016,1.950363278388977,2.616086959838867,4884.6572265625,0
642.5229999999992,-0.009261323139071465,-0.02352946810424328,0.0006215464673005044,0.0,0.0,0.0,0.0,0.0032315568532794714,-0.001801038859412074,-8.023202826734632e-05,0.9998456835746765,0.0,0.0,0.0,-26.987136840820312,1.9454915523529053,2.6067302227020264,4884.7255859375,0
652.4179999999997,-0.00925405416637659,-0.023504965007305145,0.0006380749400705099,0.0,0.0,0.0,0.0,0.0008105632150545716,-0.0033644158393144608,0.0004966148408129811,0.9998661875724792,0.0,0.0,0.0,-26.981224060058594,1.945848822593689,2.6072652339935303,4883.6552734375,0
662.3040000000001,-0.009239871986210346,-0.023501306772232056,0.0006689756410196424,0.0,0.0,0.0,0.0,-0.0030155382119119167,-0.006262535694986582,-0.0013067357940599322,1.0000081062316895,0.0,0.0,0.0,-26.98155403137207,1.9529728889465332,2.613101005554199,4883.71484375,0
672.1890000000003,-0.009192828088998795,-0.023448104038834572,0.00064645562088117,0.0,0.0,0.0,0.0,-0.00020355611923150718,-0.0010519283823668957,-0.00042892940109595656,0.9999258518218994,0.0,0.0,0.0,-26.97538185119629,1.9677890539169312,2.6216843128204346,4882.59765625,0
682.0699999999997,-0.009235617704689503,-0.02344740740954876,0.0006449751672334969,0.0,0.0,0.0,0.0,0.0012514143018051982,-0.005227934569120407,0.0009954329580068588,0.9996365904808044,0.0,0.0,0.0,-26.978063583374023,1.9691369533538818,2.6194777488708496,4883.0830078125,0
691.9650000000001,-0.009156166575849056,-0.023364126682281494,0.0005893067573197186,0.0,0.0,0.0,0.0,-0.0008172052912414074,-0.0015347747830674052,-0.0018910618964582682,1.0002219676971436,0.0,0.0,0.0,-26.980257034301758,1.9922233819961548,2.626674175262451,4883.48046875,0
701.8369999999995,-0.009133486077189445,-0.023403244093060493,0.0005810433067381382,0.0,0.0,0.0,0.0,-0.0018522489117458463,0.0018137643346562982,-0.0025494743604213,1.000138521194458,0.0,0.0,0.0,-26.982858657836914,1.9868685007095337,2.647984743118286,4883.951171875,0
711.7330000000002,-0.009079099632799625,-0.023346278816461563,0.0005386892007663846,0.0,0.0,0.0,0.0,0.0022880076430737972,-0.005559627898037434,-0.0001636836095713079,1.000317096710205,0.0,0.0,0.0,-26.985994338989258,2.0002169609069824,2.6463236808776855,4884.5185546875,0
721.612000000001,-0.009062545374035835,-0.02340768650174141,0.0005046455771662295,0.0,0.0,0.0,0.0,-0.0009669161518104374,0.005854013841599226,0.0005864072008989751,1.0004571676254272,0.0,0.0,0.0,-26.98937225341797,1.9901409149169922,2.6493754386901855,4885.1298828125,0
731.4989999999998,-0.009027580730617046,-0.023361170664429665,0.0004772026150021702,0.0,0.0,0.0,0.0,0.0006697468925267458,-0.0041085719130933285,0.0022529775742441416,0.9992532730102539,0.0,0.0,0.0,-26.986080169677734,2.001649856567383,2.6427533626556396,4884.5341796875,0
741.3799999999992,-0.009000026620924473,-0.02339727059006691,0.00046195898903533816,0.0,0.0,0.0,0.0,0.0010255338856950402,-0.00022841020836494863,0.0002800811780616641,0.9999733567237854,0.0,0.0,0.0,-26.990074157714844,1.9990622997283936,2.646651029586792,4885.25732421875,0
751.2690000000002,-0.008978153578937054,-0.023369472473859787,0.0004410533292684704,0.0,0.0,0.0,0.0,-2.0621343992388574e-06,0.0015023847809061408,-0.000892207957804203,1.0016968250274658,0.0,0.0,0.0,-26.986711502075195,2.001678705215454,2.637892961502075,4884.64892578125,0
761.1450000000004,-0.009046330116689205,-0.02336464263498783,0.00040967072709463537,0.0,0.0,0.0,0.0,0.0028766535688191652,-0.00029591837665066123,-0.0021173395216464996,1.0000619888305664,0.0,0.0,0.0,-26.987390518188477,1.9967116117477417,2.6285276412963867,4884.771484375,0
771.0409999999993,-0.009031352587044239,-0.023335807025432587,0.0003982153139077127,0.0,0.0,0.0,0.0,0.0006928268703632057,0.0052172220312058926,0.000992474495433271,1.0009843111038208,0.0,0.0,0.0,-26.983369827270508,1.9975601434707642,2.6202778816223145,4884.0439453125,0
780.9220000000005,-0.009108267724514008,-0.02333756536245346,0.000357338460162282,0.0,0.0,0.0,0.0,-0.0004630013136193156,0.0005838322103954852,0.0013312742812559009,1.0006529092788696,0.0,0.0,0.0,-26.985427856445312,1.9926398992538452,2.613720178604126,4884.416015625,0
790.8140000000003,-0.009157598949968815,-0.023390203714370728,0.00038582764682359993,0.0,0.0,0.0,0.0,-0.0028636688366532326,-0.004892822355031967,0.001911362400278449,0.9980443120002747,0.0,0.0,0.0,-26.984142303466797,1.9730775356292725,2.605128288269043,4884.18359375,0
800.6830000000009,-0.00916312262415886,-0.02340857684612274,0.00036981620360165834,0.0,0.0,0.0,0.0,0.000775471271481365,0.007296690251678228,-0.0022269939072430134,0.9977842569351196,0.0,0.0,0.0,-26.987060546875,1.9719412326812744,2.6138341426849365,4884.7119140625,0
810.5750000000007,-0.009169199503958225,-0.02340405248105526,0.00037303921999409795,0.0,0.0,0.0,0.0,-0.0007527659763582051,0.0004356864665169269,-0.0012481175363063812,0.9998040795326233,0.0,0.0,0.0,-26.981918334960938,1.9773670434951782,2.6079752445220947,4883.78125,0
820.4529999999995,-0.009132752195000648,-0.02341415174305439,0.00037582297227345407,0.0,0.0,0.0,0.0,-0.0011961264535784721,-0.0002666463842615485,0.0023654643446207047,0.99969482421875,0.0,0.0,0.0,-26.984830856323242,1.9761570692062378,2.6004786491394043,4884.30859375,0
830.3449999999993,-0.009173973463475704,-0.023432837799191475,0.0004212512285448611,0.0,0.0,0.0,0.0,0.0020042986143380404,-0.011330599896609783,0.0011647252831608057,0.9981721639633179,0.0,0.0,0.0,-26.98232650756836,1.9692169427871704,2.5863566398620605,4883.85546875,0
840.2219999999998,-0.009150542318820953,-0.023451821878552437,0.0004230256308801472,0.0,0.0,0.0,0.0,0.0011229884112253785,0.005400798283517361,0.0015144806820899248,1.0001885890960693,0.0,0.0,0.0,-26.983064651489258,1.9676289558410645,2.6142685413360596,4883.98828125,0
850.1200000000008,-0.00919184647500515,-0.023469867184758186,0.0004708913911599666,0.0,0.0,0.0,0.0,0.001349872094579041,-0.0021125944331288338,0.0003600790514610708,0.999375581741333,0.0,0.0,0.0,-26.980981826782227,1.9610817432403564,2.6047778129577637,4883.611328125,0
859.9930000000004,-0.009125727228820324,-0.023526081815361977,0.00047260490828193724,0.0,0.0,0.0,0.0,0.0027310140430927277,-0.004406469874083996,-0.0008422992541454732,1.00167977809906,0.0,0.0,0.0,-26.986642837524414,1.9569904804229736,2.6162078380584717,4884.63623046875,0
869.8919999999998,-0.00913905631750822,-0.02349896728992462,0.0005094820517115295,0.0,0.0,0.0,0.0,-0.00025925846421159804,-0.00675011845305562,-0.001654139836318791,1.0021436214447021,0.0,0.0,0.0,-26.990238189697266,1.9660091400146484,2.6154210567474365,4885.287109375,0
879.7639999999992,-0.009109125472605228,-0.023543180897831917,0.0005101974820718169,0.0,0.0,0.0,0.0,0.001640426111407578,0.004156714770942926,0.0035204673185944557,1.000862956047058,0.0,0.0,0.0,-26.994455337524414,1.960922122001648,2.6385738849639893,4886.05029296875,0
889.6560000000009,-0.009102331474423409,-0.023516813293099403,0.0005182038294151425,0.0,0.0,0.0,0.0,0.0009584400686435401,-0.0007951298030093312,-0.003615443129092455,0.9993743300437927,0.0,0.0,0.0,-26.987524032592773,1.9762338399887085,2.6351709365844727,4884.7958984375,0
899.5339999999997,-0.009108462370932102,-0.023544341325759888,0.0005171434604562819,0.0,0.0,0.0,0.0,0.004459358751773834,0.007818969897925854,0.0021257614716887474,1.0009692907333374,0.0,0.0,0.0,-26.992679595947266,1.974131464958191,2.643449306488037,4885.72900390625,0
909.4259999999995,-0.009051520377397537,-0.0234554260969162,0.0004925309331156313,0.0,0.0,0.0,0.0,-0.00148488930426538,-0.0021540913730859756,0.000999871059320867,0.9990787506103516,0.0,0.0,0.0,-26.991979598999023,1.9909712076187134,2.633065700531006,4885.60205078125,0
919.3029999999999,-0.009117363020777702,-0.023447521030902863,0.0004820248868782073,0.0,0.0,0.0,0.0,0.0021296157501637936,0.0015489370562136173,-0.0014699214370921254,0.9995161294937134,0.0,0.0,0.0,-26.99317169189453,1.9930579662322998,2.619318962097168,4885.81787109375,0
929.2000000000007,-0.009062507189810276,-0.02338373102247715,0.0004417078453116119,0.0,0.0,0.0,0.0,0.002235204679891467,0.00046026610652916133,-0.0014498772798106074,1.000710129737854,0.0,0.0,0.0,-26.989221572875977,2.0083210468292236,2.6360859870910645,4885.103515625,0
939.0720000000001,-0.009178319945931435,-0.02334894984960556,0.0004192248161416501,0.0,0.0,0.0,0.0,-0.0020678311120718718,-0.0006039254949428141,-0.00016619933012407273,1.0005428791046143,0.0,0.0,0.0,-26.989112854003906,2.0043749809265137,2.6131389141082764,4885.0830078125,0
948.9670000000006,-0.009190387092530727,-0.023363571614027023,0.00042559701250866055,0.0,0.0,0.0,0.0,0.002235542284324765,0.002355769043788314,0.003645112970843911,1.0001133680343628,0.0,0.0,0.0,-26.984004974365234,1.9966130256652832,2.6137051582336426,4884.15869140625,0
958.8430000000008,-0.009232552722096443,-0.023346850648522377,0.0004301691660657525,0.0,0.0,0.0,0.0,0.0018871567444875836,0.00037662795512005687,-0.00024578574812039733,1.000436544418335,0.0,0.0,0.0,-26.988910675048828,1.9950016736984253,2.6076457500457764,4885.046875,0
968.7430000000004,-0.009235301055014133,-0.02335258573293686,0.00042781216325238347,0.0,0.0,0.0,0.0,-0.0010496412869542837,-0.003802553517743945,-0.004312099423259497,1.0000604391098022,0.0,0.0,0.0,-26.99011993408203,1.9913887977600098,2.60113525390625,4885.26611328125,0
978.616,-0.009238881058990955,-0.023355714976787567,0.0004368259687907994,0.0,0.0,0.0,0.0,-0.0013131365412846208,0.004697686061263084,-0.0005683844210579991,0.9978395700454712,0.0,0.0,0.0,-26.991483688354492,1.9941071271896362,2.6157021522521973,4885.51220703125,0
988.5190000000002,-0.009256982244551182,-0.023374080657958984,0.0004576100327540189,0.0,0.0,0.0,0.0,0.003446209244430065,0.002526641823351383,0.0005251365946605802,0.9984431266784668,0.0,0.0,0.0,-26.985666275024414,1.9965382814407349,2.6070146560668945,4884.45947265625,0
998.384,-0.009244496002793312,-0.023381108418107033,0.00047301981248892844,0.0,0.0,0.0,0.0,-0.00233832118101418,-0.004389712121337652,-0.0022486960515379906,1.000169277191162,0.0,0.0,0.0,-26.987916946411133,1.9983404874801636,2.612243413925171,4884.8671875,0
1008.2729999999992,-0.009239229373633862,-0.023388125002384186,0.00046974944416433573,0.0,0.0,0.0,0.0,-0.005652586463838816,-0.0029921859968453646,0.0030037392862141132,1.0007429122924805,0.0,0.0,0.0,-26.98460578918457,2.0059964656829834,2.6209914684295654,4884.267578125,0
1018.1530000000002,-0.009156602434813976,-0.023440349847078323,0.0004838099121116102,0.0,0.0,0.0,0.0,-0.004769287537783384,-0.0007096752524375916,0.0031497220043092966,1.0011214017868042,0.0,0.0,0.0,-26.98332405090332,2.006255626678467,2.646343231201172,4884.03564453125,0
1028.0499999999993,-0.009133819490671158,-0.023430733010172844,0.0004685299063567072,0.0,0.0,0.0,0.0,0.00026251343660987914,0.0014358004555106163,-0.0008850268786773086,0.9990906715393066,0.0,0.0,0.0,-26.978395462036133,2.016486406326294,2.647707223892212,4883.1435546875,0
1037.9339999999993,-0.009043035097420216,-0.023483462631702423,0.000486669858219102,0.0,0.0,0.0,0.0,-0.0037217920180410147,0.0009510847157798707,-0.0004741738084703684,0.9987221956253052,0.0,0.0,0.0,-26.978614807128906,2.008603096008301,2.6641829013824463,4883.18310546875,0
1047.8099999999995,-0.009041637182235718,-0.023499559611082077,0.0004958946374244988,0.0,0.0,0.0,0.0,0.0004948608111590147,0.003642698284238577,-0.0024148477241396904,0.9985357522964478,0.0,0.0,0.0,-26.98224449157715,2.0119247436523438,2.6453795433044434,4883.84033203125,0
1057.692000000001,-0.00903324130922556,-0.02351795695722103,0.0004969005822204053,0.0,0.0,0.0,0.0,-0.0012131156399846077,0.00023325694201048464,0.00044459302444010973,0.9988579750061035,0.0,0.0,0.0,-26.981454849243164,2.0034103393554688,2.638490915298462,4883.697265625,0
1067.5810000000001,-0.00905127078294754,-0.0235349852591753,0.0005310106207616627,0.0,0.0,0.0,0.0,0.0007994092302396894,0.004383217543363571,-0.0005476269870996475,0.999208927154541,0.0,0.0,0.0,-26.97786521911621,2.0037083625793457,2.63448429107666,4883.04736328125,0
1077.4629999999997,-0.009034235961735249,-0.023553039878606796,0.0005389744183048606,0.0,0.0,0.0,0.0,0.00034570039133541286,-4.331644595367834e-05,0.002580903470516205,0.9995347261428833,0.0,0.0,0.0,-26.9827880859375,2.0047202110290527,2.6435320377349854,4883.93896484375,0
1087.3559999999998,-0.00901686493307352,-0.023535778746008873,0.0005452887853607535,0.0,0.0,0.0,0.0,-0.0003010910004377365,0.0004336878773756325,-0.0007688520126976073,0.9995123744010925,0.0,0.0,0.0,-26.98102378845215,2.009521961212158,2.6249263286590576,4883.61962890625,0
1097.232,-0.009026004001498222,-0.02354505844414234,0.0005438293446786702,0.0,0.0,0.0,0.0,-0.00014146286412142217,-0.0061385612934827805,0.003460511565208435,1.0000386238098145,0.0,0.0,0.0,-26.98067855834961,2.008490800857544,2.625138759613037,4883.55712890625,0
1107.1200000000008,-0.009016708470880985,-0.023544490337371826,0.0005443755653686821,0.0,0.0,0.0,0.0,0.0007688819314353168,-0.0019256153609603643,0.0005156736588105559,1.000262975692749,0.0,0.0,0.0,-26.953121185302734,2.006636381149292,2.635108709335327,4878.568359375,0
1117.0049999999992,-0.009092329069972038,-0.023524407297372818,0.0005424098926596344,0.0,0.0,0.0,0.0,-0.0023687114007771015,0.003178174840286374,0.0005254080169834197,1.0011767148971558,0.0,0.0,0.0,-26.95686149597168,2.001066207885742,2.6250593662261963,4879.2451171875,0
1126.8960000000006,-0.009086907841265202,-0.02352156862616539,0.0005428637377917767,0.0,0.0,0.0,0.0,-0.001308624865487218,0.0009397710673511028,-0.0003318872768431902,1.0002011060714722,0.0,0.0,0.0,-26.929208755493164,2.0031282901763916,2.6126089096069336,4874.240234375,0
1136.7720000000008,-0.00911418255418539,-0.023520030081272125,0.0005393081228248775,0.0,0.0,0.0,0.0,-0.00038236123509705067,-0.0045761591754853725,-0.0007103694952093065,0.9973915815353394,0.0,0.0,0.0,-26.9344425201416,2.0059993267059326,2.594353437423706,4875.1875,0
1146.661,-0.009105594828724861,-0.023517221212387085,0.0005396088818088174,0.0,0.0,0.0,0.0,0.0019693884532898664,0.0036160077434033155,-0.0016861276235431433,1.0008169412612915,0.0,0.0,0.0,-26.9071044921875,2.0005056858062744,2.5964395999908447,4870.2392578125,0
1156.5419999999995,-0.009085818193852901,-0.02354169636964798,0.0005188434734009206,0.0,0.0,0.0,0.0,-0.0026207624468952417,0.0005412455066107213,-0.0009950468083843589,1.0003116130828857,0.0,0.0,0.0,-26.914030075073242,1.9947421550750732,2.599479913711548,4871.4931640625,0
1166.4310000000005,-0.009075380861759186,-0.02354070544242859,0.0005169527721591294,0.0,0.0,0.0,0.0,0.0010044476948678493,-0.002524675102904439,0.0002990495995618403,0.9986143708229065,0.0,0.0,0.0,-26.887277603149414,1.9887657165527344,2.5997726917266846,4866.650390625,0
1176.3179999999993,-0.009064659476280212,-0.023517370223999023,0.0005352942389436066,0.0,0.0,0.0,0.0,0.0001760028098942712,0.001547514577396214,-0.001542411046102643,1.0006098747253418,0.0,0.0,0.0,-26.89276695251465,2.003927230834961,2.5984084606170654,4867.64404296875,0
1186.1970000000001,-0.009054713882505894,-0.023514745756983757,0.000534314545802772,0.0,0.0,0.0,0.0,-0.0016568631399422884,-0.0009594856528565288,-0.003159237327054143,1.0006628036499023,0.0,0.0,0.0,-26.866344451904297,1.9983060359954834,2.5866549015045166,4862.86181640625,0
1196.0820000000003,-0.009090088307857513,-0.0235016867518425,0.0005359318456612527,0.0,0.0,0.0,0.0,0.0012604985386133194,0.001484246109612286,-0.0042220233008265495,0.9994459748268127,0.0,0.0,0.0,-26.87662124633789,2.0017781257629395,2.574162483215332,4864.7216796875,0
1205.9670000000006,-0.00908625777810812,-0.02349960245192051,0.000535916886292398,0.0,0.0,0.0,0.0,-0.003941971808671951,-0.0030597499571740627,0.0014880221569910645,0.9989439249038696,0.0,0.0,0.0,-26.850656509399414,1.9973911046981812,2.57352352142334,4860.02197265625,0
1215.8520000000008,-0.009152943268418312,-0.023468879982829094,0.0005444606067612767,0.0,0.0,0.0,0.0,0.0006116432487033308,-0.0016353260725736618,0.00015276532212737948,1.0014431476593018,0.0,0.0,0.0,-26.85883140563965,1.9983612298965454,2.5562191009521484,4861.501953125,0
1225.737000000001,-0.009156793355941772,-0.023464344441890717,0.0005441951216198504,0.0,0.0,0.0,0.0,0.0007177027873694897,-0.006063426379114389,-0.0011306115193292499,1.0015872716903687,0.0,0.0,0.0,-26.83213233947754,1.9992862939834595,2.562551975250244,4856.66943359375,0
1235.6270000000004,-0.009207205846905708,-0.023444082587957382,0.0005452000768855214,0.0,0.0,0.0,0.0,-0.0005918395472690463,0.002962118946015835,-0.002412525936961174,1.0000170469284058,0.0,0.0,0.0,-26.845783233642578,1.9992039203643799,2.5482113361358643,4859.14013671875,0
1245.5079999999998,-0.009215074591338634,-0.023439204320311546,0.0005471743061207235,0.0,0.0,0.0,0.0,-0.0001223551807925105,-0.0009456530679017305,-0.0032096270006150007,0.9998636841773987,0.0,0.0,0.0,-26.81960678100586,1.9978117942810059,2.54738450050354,4854.40185546875,0
1255.3919999999998,-0.009167760610580444,-0.023450210690498352,0.0005492932978086174,0.0,0.0,0.0,0.0,0.0011005462147295475,0.0017844088142737746,0.0022433497942984104,0.9990281462669373,0.0,0.0,0.0,-26.83586311340332,1.997153639793396,2.561837673187256,4857.3447265625,0
1265.2819999999992,-0.009170166216790676,-0.023446356877684593,0.0005514054209925234,0.0,0.0,0.0,0.0,-0.0014381968649104238,0.0008145560277625918,0.0005818767822347581,0.9970808625221252,0.0,0.0,0.0,-26.80877685546875,1.996855616569519,2.5475947856903076,4852.44189453125,0
1275.1640000000007,-0.009154788218438625,-0.023460565134882927,0.0005362362717278302,0.0,0.0,0.0,0.0,-0.0016553886234760284,-0.0008068544557318091,-0.00043851029477082193,0.9998359680175781,0.0,0.0,0.0,-26.826730728149414,1.9927887916564941,2.552468776702881,4855.69140625,0
1285.0529999999999,-0.009156417101621628,-0.023459890857338905,0.0005340211791917682,0.0,0.0,0.0,0.0,-0.0011637331917881966,-0.0019717200193554163,0.0047315629199147224,1.001008152961731,0.0,0.0,0.0,-26.79974365234375,1.9935276508331299,2.5516185760498047,4850.806640625,0
1294.9320000000007,-0.009092740714550018,-0.02349398285150528,0.0005282912170514464,0.0,0.0,0.0,0.0,0.0010659996187314391,0.002356237033382058,-0.0012487646890804172,1.001192331314087,0.0,0.0,0.0,-26.81085777282715,1.9958734512329102,2.567948341369629,4852.81884765625,0
1304.817000000001,-0.009090704843401909,-0.023497767746448517,0.0005268036620691419,0.0,0.0,0.0,0.0,-0.002409404143691063,0.0014408978167921305,0.00041284720646217465,0.9995423555374146,0.0,0.0,0.0,-26.78377342224121,1.994751214981079,2.5745911598205566,4847.91650390625,0
1314.7019999999993,-0.009090045467019081,-0.023501692339777946,0.0005261602345854044,0.0,0.0,0.0,0.0,-0.0023060240782797337,0.00601472333073616,0.002349369926378131,0.9995144009590149,0.0,0.0,0.0,-26.75672721862793,1.9993535280227661,2.5781409740448,4843.021484375,0
1324.5869999999995,-0.009098212234675884,-0.023477334529161453,0.0005160579457879066,0.0,0.0,0.0,0.0,-0.0012110001407563686,0.0008926293230615556,4.872933459409978e-06,0.9989909529685974,0.0,0.0,0.0,-26.771099090576172,2.007985830307007,2.562565565109253,4845.6220703125,0
1334.4719999999998,-0.009098009206354618,-0.02347809076309204,0.000514280516654253,0.0,0.0,0.0,0.0,0.005008764564990997,0.003083874937146902,-0.002623435575515032,0.9982598423957825,0.0,0.0,0.0,-26.744319915771484,2.008441925048828,2.5552256107330322,4840.775390625,0
1344.3590000000004,-0.009096914902329445,-0.023477695882320404,0.0005089584155939519,0.0,0.0,0.0,0.0,-0.0019587406422942877,-0.0033047038596123457,-0.002287692856043577,0.9985857605934143,0.0,0.0,0.0,-26.76457405090332,1.9962512254714966,2.5415523052215576,4844.44140625,0
1354.2420000000002,-0.009097393602132797,-0.023479489609599113,0.0005040633259341121,0.0,0.0,0.0,0.0,-0.003989325370639563,0.002639956772327423,-0.002817393047735095,0.9981589317321777,0.0,0.0,0.0,-26.738277435302734,1.9950264692306519,2.553748369216919,4839.681640625,0
1364.1270000000004,-0.009114855900406837,-0.023480528965592384,0.0005497317761182785,0.0,0.0,0.0,0.0,-0.0011716029839590192,-0.003426626557484269,-0.0022641147952526808,1.0009477138519287,0.0,0.0,0.0,-26.75461196899414,2.001893997192383,2.5442264080047607,4842.638671875,0
1374.0120000000006,-0.009117713198065758,-0.023479636758565903,0.0005456907674670219,0.0,0.0,0.0,0.0,0.0004092459275852889,0.004554350860416889,0.0008806210244074464,1.0015019178390503,0.0,0.0,0.0,-26.72880744934082,2.001739978790283,2.548819065093994,4837.96728515625,0
1383.8970000000008,-0.009114867076277733,-0.023463599383831024,0.0005416824715211987,0.0,0.0,0.0,0.0,-0.0009952898835763335,0.0024056199472397566,-0.0022505479864776134,0.9999145269393921,0.0,0.0,0.0,-26.746826171875,2.005223274230957,2.5356695652008057,4841.22900390625,0
1393.7819999999992,-0.00911911390721798,-0.023462632670998573,0.0005392598686739802,0.0,0.0,0.0,0.0,0.0035658867564052343,0.004536543507128954,-0.004741766955703497,0.9979527592658997,0.0,0.0,0.0,-26.7213191986084,2.0014472007751465,2.5289158821105957,4836.61181640625,0
1403.6669999999995,-0.009113865904510021,-0.023444844409823418,0.0005393073079176247,0.0,0.0,0.0,0.0,-0.0013292657677084208,-0.005413761828094721,0.0031430451199412346,1.0009206533432007,0.0,0.0,0.0,-26.734378814697266,2.001677989959717,2.517214775085449,4838.97607421875,0
1413.5519999999997,-0.009116103872656822,-0.023444198071956635,0.0005358942435123026,0.0,0.0,0.0,0.0,-0.00022503340733237565,0.0018387259915471077,-0.0021057797130197287,0.9996199607849121,0.0,0.0,0.0,-26.706830978393555,1.9987809658050537,2.517012357711792,4833.98974609375,0
1423.437,-0.00910861324518919,-0.02340828627347946,0.0005624353652819991,0.0,0.0,0.0,0.0,-0.00031086697708815336,-0.002728513441979885,-0.005829055793583393,1.003519892692566,0.0,0.0,0.0,-26.730365753173828,2.0105602741241455,2.5041463375091553,4838.24951171875,0
1433.3330000000005,-0.009112860076129436,-0.02340461127460003,0.0005619415314868093,0.0,0.0,0.0,0.0,-0.001004797057248652,-0.00010732038208516315,0.00042447212035767734,1.002472996711731,0.0,0.0,0.0,-26.704647064208984,2.0053133964538574,2.510793924331665,4833.59423828125,0
1443.2070000000003,-0.009104050695896149,-0.02340204082429409,0.0005378170171752572,0.0,0.0,0.0,0.0,-0.0034274521749466658,-0.0009189638658426702,-0.0005719923647120595,1.0013508796691895,0.0,0.0,0.0,-26.72222137451172,2.010586977005005,2.51608943939209,4836.775390625,0
1453.0949999999993,-0.009110046550631523,-0.02339700423181057,0.0005402613896876574,0.0,0.0,0.0,0.0,-0.0012000713031738997,-0.0045790174044668674,0.0009948405204340816,0.9997662305831909,0.0,0.0,0.0,-26.695568084716797,2.012335777282715,2.5180602073669434,4831.95068359375,0
1462.9850000000006,-0.009120913222432137,-0.023398248478770256,0.0005386656848713756,0.0,0.0,0.0,0.0,0.0005704181967303157,-0.001359898247756064,0.0028778850100934505,0.9988424777984619,0.0,0.0,0.0,-26.720144271850586,2.01035737991333,2.52931809425354,4836.39892578125,0
1472.8690000000006,-0.009127503260970116,-0.023393459618091583,0.0005414796178229153,0.0,0.0,0.0,0.0,0.0024256070610135794,0.0008380307699553668,0.00274630612693727,1.0003849267959595,0.0,0.0,0.0,-26.693706512451172,2.0073955059051514,2.528268337249756,4831.61376953125,0
1482.7520000000004,-0.009096401743590832,-0.023364879190921783,0.0005330122075974941,0.0,0.0,0.0,0.0,-0.0007034578011371195,-0.0004859046603087336,-0.0007061909418553114,0.9993909001350403,0.0,0.0,0.0,-26.71446418762207,2.019665241241455,2.5245444774627686,4835.37060546875,0
1492.6319999999996,-0.009102603420615196,-0.02335633710026741,0.0005339565686881542,0.0,0.0,0.0,0.0,-0.000652007176540792,-0.00013846316142007709,0.000374961004126817,1.0015921592712402,0.0,0.0,0.0,-26.688405990600586,2.0189154148101807,2.5156335830688477,4830.654296875,0
1502.5169999999998,-0.009116756729781628,-0.023361148312687874,0.0005224233027547598,0.0,0.0,0.0,0.0,0.0025103867519646883,0.001622872892767191,0.004549731966108084,1.0005415678024292,0.0,0.0,0.0,-26.71463394165039,2.0162203311920166,2.5170931816101074,4835.4013671875,0
1512.402,-0.00911412201821804,-0.023336075246334076,0.000536166422534734,0.0,0.0,0.0,0.0,-0.0009548984817229211,0.001857445458881557,0.0034107824321836233,0.9997108578681946,0.0,0.0,0.0,-26.73345375061035,2.017212390899658,2.517124652862549,4838.80859375,0
1522.2880000000005,-0.009150730445981026,-0.023360487073659897,0.00047036202158778906,0.0,0.0,0.0,0.0,-0.0023715863935649395,-0.000331472372636199,0.0006511366809718311,1.0003083944320679,0.0,0.0,0.0,-26.75839614868164,2.0057373046875,2.5184073448181152,4843.32275390625,0
1532.1720000000005,-0.009174729697406292,-0.023384716361761093,0.000491499318741262,0.0,0.0,0.0,0.0,-0.0023733617272228003,-0.002293448429554701,0.002537668216973543,1.002280354499817,0.0,0.0,0.0,-26.768421173095703,2.0059092044830322,2.515432834625244,4845.1376953125,0
1542.058000000001,-0.009079817682504654,-0.023456145077943802,0.0005314533482305706,0.0,0.0,0.0,0.0,0.004606723319739103,0.004062846302986145,-0.0009624297963455319,1.0024901628494263,0.0,0.0,0.0,-26.7876033782959,2.007314443588257,2.538343906402588,4848.609375,0
1551.942000000001,-0.009096289053559303,-0.02347031980752945,0.0005469536408782005,0.0,0.0,0.0,0.0,0.0010465243831276894,0.006497799884527922,-0.001075542764738202,1.000135898590088,0.0,0.0,0.0,-26.798063278198242,1.9961655139923096,2.5303940773010254,4850.5029296875,0
1561.8269999999993,-0.009095342829823494,-0.023516390472650528,0.0005349473212845623,0.0,0.0,0.0,0.0,0.0016137699130922556,-0.00565019715577364,-0.0006700112717226148,0.9988678097724915,0.0,0.0,0.0,-26.817380905151367,1.9913625717163086,2.5163230895996094,4853.9990234375,0
1571.7129999999997,-0.009122404269874096,-0.02353600598871708,0.0005675077554769814,0.0,0.0,0.0,0.0,0.0006807753234170377,-0.004503320436924696,0.004253823775798082,0.9990687370300293,0.0,0.0,0.0,-26.835269927978516,1.9892760515213013,2.5168001651763916,4857.2373046875,0
1581.5969999999998,-0.009139105677604675,-0.023584136739373207,0.0005461418186314404,0.0,0.0,0.0,0.0,0.0003222677914891392,-0.004637652542442083,-0.0006267984863370657,1.0010987520217896,0.0,0.0,0.0,-26.852203369140625,1.9825390577316284,2.525294065475464,4860.30224609375,0
1591.4930000000004,-0.009126575663685799,-0.023559505119919777,0.0005467988667078316,0.0,0.0,0.0,0.0,0.0010665857698768377,-0.0010259747505187988,-0.0012539320159703493,0.9993534684181213,0.0,0.0,0.0,-26.856157302856445,1.9894037246704102,2.5280380249023438,4861.017578125,0
1601.3670000000002,-0.00911560095846653,-0.023599747568368912,0.0005466926377266645,0.0,0.0,0.0,0.0,-0.0014366277027875185,-0.006550959777086973,-0.0008334369631484151,0.99759840965271,0.0,0.0,0.0,-26.873422622680664,1.9877285957336426,2.531369924545288,4864.14306640625,0
1611.2559999999994,-0.00908760353922844,-0.023565033450722694,0.0005321355420164764,0.0,0.0,0.0,0.0,0.0023454257752746344,-0.00031345023307949305,-0.00156678247731179,1.000675082206726,0.0,0.0,0.0,-26.883750915527344,1.999820351600647,2.536250352859497,4866.0126953125,0
1621.1380000000008,-0.00915643572807312,-0.023551981896162033,0.0005309233092702925,0.0,0.0,0.0,0.0,0.0010345656191930175,0.0029783493373543024,-0.0012132448609918356,0.9993787407875061,0.0,0.0,0.0,-26.895061492919922,2.0005900859832764,2.5283350944519043,4868.0595703125,0
1631.0220000000008,-0.009135049767792225,-0.023528024554252625,0.0005179944564588368,0.0,0.0,0.0,0.0,0.0005885108257643878,-0.0034370380453765392,0.001080659800209105,1.000604510307312,0.0,0.0,0.0,-26.902515411376953,2.0056872367858887,2.517077922821045,4869.40869140625,0
1640.9079999999994,-0.009150774218142033,-0.02354135364294052,0.0005163300083950162,0.0,0.0,0.0,0.0,-0.00033827152219600976,-0.004368825815618038,3.8304555346257985e-05,1.0008515119552612,0.0,0.0,0.0,-26.911224365234375,2.004706859588623,2.5241620540618896,4870.98486328125,0
1650.7919999999995,-0.009131403639912605,-0.023516759276390076,0.0005082761053927243,0.0,0.0,0.0,0.0,0.002023432869464159,0.0070557924918830395,-0.0015007948968559504,1.001774549484253,0.0,0.0,0.0,-26.91823959350586,2.0206923484802246,2.5372016429901123,4872.25439453125,0
1660.679,-0.009161017835140228,-0.023517273366451263,0.0005114935920573771,0.0,0.0,0.0,0.0,-0.002225421369075775,0.0021008080802857876,-0.002569881035014987,1.0014325380325317,0.0,0.0,0.0,-26.929887771606445,2.0152945518493652,2.5207529067993164,4874.36279296875,0
1670.563,-0.009150410071015358,-0.023502355441451073,0.0005103397998027503,0.0,0.0,0.0,0.0,0.002262901049107313,0.004194163717329502,0.0014718694146722555,0.9980762004852295,0.0,0.0,0.0,-26.932865142822266,2.0216894149780273,2.5097358226776123,4874.90185546875,0
1680.4480000000003,-0.009113605134189129,-0.023549847304821014,0.0005089783808216453,0.0,0.0,0.0,0.0,-0.0013395448913797736,-0.002939013997092843,-0.0006946835783310235,0.9992507100105286,0.0,0.0,0.0,-26.940275192260742,2.0114917755126953,2.4991865158081055,4876.2431640625,0
1690.3330000000005,-0.00908589456230402,-0.023514384403824806,0.0004878451582044363,0.0,0.0,0.0,0.0,-0.0005524441949091852,-0.005765992216765881,-0.0015813857316970825,1.0010567903518677,0.0,0.0,0.0,-26.94176483154297,2.021841287612915,2.5026915073394775,4876.5126953125,0
1700.2170000000006,-0.009140805341303349,-0.023509997874498367,0.00047926497063599527,0.0,0.0,0.0,0.0,-0.004311148542910814,-0.005834706127643585,-0.0009873189264908433,0.9999744296073914,0.0,0.0,0.0,-26.948589324951172,2.018717050552368,2.5066375732421875,4877.748046875,0
1710.1020000000008,-0.009116312488913536,-0.02345835417509079,0.0004750654916279018,0.0,0.0,0.0,0.0,0.0026539990212768316,0.00197593797929585,-0.0028994623571634293,0.9992932081222534,0.0,0.0,0.0,-26.946548461914062,2.0360865592956543,2.50791072845459,4877.37841796875,0
1719.9940000000006,-0.009093396365642548,-0.02345944009721279,0.0004953449824824929,0.0,0.0,0.0,0.0,0.000657012453302741,0.0005271906848065555,0.0003564826911315322,0.999702513217926,0.0,0.0,0.0,-26.950529098510742,2.0299036502838135,2.5165042877197266,4878.09912109375,0
1729.8760000000002,-0.009086999110877514,-0.02342561073601246,0.0005100773414596915,0.0,0.0,0.0,0.0,-0.001393738086335361,-0.0016851926920935512,-0.00046638381900265813,0.9996185302734375,0.0,0.0,0.0,-26.951698303222656,2.035672664642334,2.504861831665039,4878.310546875,0
1739.7639999999992,-0.009035041555762291,-0.023469625040888786,0.0005094788502901793,0.0,0.0,0.0,0.0,-0.0002608222421258688,-0.0045445989817380905,0.0037141412030905485,0.998123288154602,0.0,0.0,0.0,-26.95516014099121,2.034316301345825,2.518672227859497,4878.9375,0
1749.6419999999998,-0.00902869924902916,-0.023464400321245193,0.0005079171387478709,0.0,0.0,0.0,0.0,0.0008058465900830925,0.005234059877693653,0.005033630877733231,0.9993711709976196,0.0,0.0,0.0,-26.953006744384766,2.0386016368865967,2.5270779132843018,4878.5478515625,0
1759.5339999999997,-0.009056812152266502,-0.023493589833378792,0.00048056719242595136,0.0,0.0,0.0,0.0,0.00021840629051439464,-0.003392545273527503,-0.004862957168370485,1.001201868057251,0.0,0.0,0.0,-26.960445404052734,2.0341224670410156,2.5197205543518066,4879.89404296875,0
1769.4120000000003,-0.009082280099391937,-0.023504972457885742,0.0005083280266262591,0.0,0.0,0.0,0.0,0.002642888342961669,0.000979787320829928,-0.0025255505461245775,1.0030213594436646,0.0,0.0,0.0,-26.96239471435547,2.032437801361084,2.5222043991088867,4880.24658203125,0
1779.2960000000003,-0.00905947107821703,-0.023526813834905624,0.0005140617140568793,0.0,0.0,0.0,0.0,-0.0005146623589098454,-0.001959659857675433,-0.001581257558427751,0.9995836019515991,0.0,0.0,0.0,-26.965803146362305,2.025860071182251,2.532228469848633,4880.8642578125,0
1789.1839999999993,-0.009066980332136154,-0.0235329307615757,0.0005249552777968347,0.0,0.0,0.0,0.0,0.0018306281417608261,-0.0012350522447377443,0.0014141032006591558,0.9980058073997498,0.0,0.0,0.0,-26.966808319091797,2.025818347930908,2.532114028930664,4881.04541015625,0
1799.067000000001,-0.009103063493967056,-0.023523354902863503,0.0005345856188796461,0.0,0.0,0.0,0.0,-0.0023596491664648056,0.0030106755439192057,-0.004990843124687672,0.9985865950584412,0.0,0.0,0.0,-26.97461700439453,2.0243945121765137,2.528465986251831,4882.458984375,0
1808.951000000001,-0.009081278927624226,-0.023472530767321587,0.0005380811053328216,0.0,0.0,0.0,0.0,0.0021736526396125555,0.003357603447511792,0.001099734683521092,0.9997410774230957,0.0,0.0,0.0,-26.979663848876953,2.0400452613830566,2.5197319984436035,4883.373046875,0
1818.8359999999993,-0.00908488780260086,-0.023476101458072662,0.0005489577306434512,0.0,0.0,0.0,0.0,0.0019372275564819574,0.002386706182733178,0.0013496398460119963,1.0000367164611816,0.0,0.0,0.0,-26.98302459716797,2.0350797176361084,2.524505853652954,4883.98095703125,0
1828.723,-0.009033537469804287,-0.023400982841849327,0.0005191561649553478,0.0,0.0,0.0,0.0,-0.000831345678307116,-0.0027481780853122473,0.0014425601111724973,0.9977825880050659,0.0,0.0,0.0,-26.97652816772461,2.050945281982422,2.521959066390991,4882.80517578125,0
1838.607,-0.009073733352124691,-0.023415373638272285,0.0005010816967114806,0.0,0.0,0.0,0.0,0.00022026023361831903,-0.0020560063421726227,0.00040128317777998745,0.9989253282546997,0.0,0.0,0.0,-26.981355667114258,2.0448007583618164,2.529261589050293,4883.67919921875,0
1848.4950000000008,-0.009096518158912659,-0.023441622033715248,0.0005111464415676892,0.0,0.0,0.0,0.0,-0.0014713520649820566,-0.007827266119420528,0.0013095139293000102,0.9987991452217102,0.0,0.0,0.0,-26.98469352722168,2.038173198699951,2.524822235107422,4884.283203125,0
1858.3770000000004,-0.00911557488143444,-0.023458207026124,0.0005002359976060688,0.0,0.0,0.0,0.0,0.0009129783138632774,-0.0011820892104879022,-0.0017204093746840954,0.9995208978652954,0.0,0.0,0.0,-26.987524032592773,2.0351154804229736,2.54691481590271,4884.7958984375,0
1868.2620000000006,-0.009098460897803307,-0.02343909628689289,0.0004770675441250205,0.0,0.0,0.0,0.0,-0.0003665360272862017,0.0021899749990552664,-0.0009011702495627105,1.0001283884048462,0.0,0.0,0.0,-26.982973098754883,2.04486083984375,2.5566599369049072,4883.97216796875,0
1878.1470000000008,-0.009142627939581871,-0.02346082404255867,0.00044824485667049885,0.0,0.0,0.0,0.0,-0.001206748653203249,-0.0006602922221645713,-0.0029840166680514812,0.9991150498390198,0.0,0.0,0.0,-26.98758888244629,2.0406124591827393,2.5547099113464355,4884.80712890625,0
1888.0319999999992,-0.009131102822721004,-0.023443637415766716,0.00042993263923563063,0.0,0.0,0.0,0.0,0.001639844267629087,0.00040194374741986394,0.0019430348183959723,0.9999054074287415,0.0,0.0,0.0,-26.984880447387695,2.0484743118286133,2.5531814098358154,4884.31689453125,0
1897.9169999999995,-0.009159710258245468,-0.02345791831612587,0.0004107612476218492,0.0,0.0,0.0,0.0,0.0013043610379099846,-0.005600750911980867,0.0006697199423797429,0.9991655945777893,0.0,0.0,0.0,-26.992094039916992,2.041623115539551,2.5597002506256104,4885.623046875,0
1907.8019999999997,-0.009159838780760765,-0.023419322445988655,0.0004185875877737999,0.0,0.0,0.0,0.0,-0.0034698431845754385,-0.005809888243675232,-0.0010664439760148525,1.0004969835281372,0.0,0.0,0.0,-26.994232177734375,2.048147678375244,2.5720770359039307,4886.009765625,0
1917.687,-0.009147756733000278,-0.023432066664099693,0.00041742183384485543,0.0,0.0,0.0,0.0,0.0012468276545405388,-6.274687621043995e-05,-0.004646856337785721,1.002246379852295,0.0,0.0,0.0,-26.99753189086914,2.0529041290283203,2.5941312313079834,4886.607421875,0
1927.5720000000001,-0.009148994460701942,-0.023433927446603775,0.00040079859900288284,0.0,0.0,0.0,0.0,-0.0010325220646336675,-0.002347318921238184,-0.0006830100901424885,1.0000635385513306,0.0,0.0,0.0,-26.995649337768555,2.051302194595337,2.5926575660705566,4886.2666015625,0
1937.4570000000003,-0.009124952368438244,-0.023455388844013214,0.00039987239870242774,0.0,0.0,0.0,0.0,0.0010343182366341352,0.003415157552808523,-0.0031037176959216595,0.999448835849762,0.0,0.0,0.0,-26.99396514892578,2.051178216934204,2.6039211750030518,4885.96142578125,0
1947.3420000000006,-0.00912526249885559,-0.023450607433915138,0.00038698644493706524,0.0,0.0,0.0,0.0,0.0014549115439876914,-0.005294519010931253,-0.0026501163374632597,1.0017602443695068,0.0,0.0,0.0,-26.99516487121582,2.052391529083252,2.5967066287994385,4886.17919921875,0
1957.2299999999996,-0.00905417837202549,-0.023478610441088676,0.0004019153711851686,0.0,0.0,0.0,0.0,0.0017573792720213532,0.0011372680310159922,0.0018945109331980348,1.0002217292785645,0.0,0.0,0.0,-26.999425888061523,2.0531461238861084,2.6148746013641357,4886.94970703125,0
1967.1129999999994,-0.009063533507287502,-0.023448968306183815,0.00042856388608925045,0.0,0.0,0.0,0.0,-0.0008437206852249801,0.004654524847865105,0.0018382258713245392,0.999445378780365,0.0,0.0,0.0,-27.00111961364746,2.0552096366882324,2.603501081466675,4887.2568359375,0
1976.9969999999994,-0.009134966880083084,-0.023449447005987167,0.0004058986669406295,0.0,0.0,0.0,0.0,-0.00124058173969388,-0.004521652590483427,0.0019010452087968588,0.9993305206298828,0.0,0.0,0.0,-27.00577735900879,2.047132730484009,2.583915948867798,4888.099609375,0
1986.8819999999996,-0.00908243004232645,-0.023366253823041916,0.0003730754542630166,0.0,0.0,0.0,0.0,-0.003815931500867009,-0.000956198840867728,0.0023148690816015005,0.9992921948432922,0.0,0.0,0.0,-27.00090217590332,2.070295572280884,2.589116096496582,4887.21728515625,0
1996.7749999999996,-0.009082423523068428,-0.023375390097498894,0.0003677838249132037,0.0,0.0,0.0,0.0,0.0003792027127929032,-0.0017568605253472924,-0.0013578463112935424,1.0008571147918701,0.0,0.0,0.0,-27.001312255859375,2.07751202583313,2.5978195667266846,4887.29150390625,0
2006.6620000000003,-0.009087255224585533,-0.023367395624518394,0.0003742028493434191,0.0,0.0,0.0,0.0,-0.002330906456336379,0.0010981514351442456,-0.0003900873416569084,0.9998112320899963,0.0,0.0,0.0,-27.00351333618164,2.0799739360809326,2.6002097129821777,4887.689453125,0
2016.5480000000007,-0.009192653000354767,-0.02334875613451004,0.0003461281303316355,0.0,0.0,0.0,0.0,-0.0011874065967276692,-0.0004765638441313058,0.001964610069990158,1.0003682374954224,0.0,0.0,0.0,-27.00775909423828,2.0805084705352783,2.591904878616333,4888.4580078125,0
2026.4279999999999,-0.009213539771735668,-0.023376809433102608,0.0003470533702056855,0.0,0.0,0.0,0.0,0.0006867522606626153,-0.004830074962228537,-0.0002712048008106649,1.0004924535751343,0.0,0.0,0.0,-27.00042724609375,2.074429750442505,2.5887317657470703,4887.130859375,0
2036.3070000000007,-0.00919585581868887,-0.023360542953014374,0.0003759840619750321,0.0,0.0,0.0,0.0,0.0003296413633506745,-0.0021258702035993338,0.0006421688012778759,0.9969984292984009,0.0,0.0,0.0,-27.004457473754883,2.081042528152466,2.6047980785369873,4887.86083984375,0
2046.2000000000007,-0.009236641228199005,-0.023398658260703087,0.0004093697643838823,0.0,0.0,0.0,0.0,0.0009021324221976101,0.0012790304608643055,-0.001194104552268982,0.9986875057220459,0.0,0.0,0.0,-27.001367568969727,2.0753185749053955,2.609328031539917,4887.3017578125,0
2056.0830000000005,-0.009234494529664516,-0.023396620526909828,0.0004242507857270539,0.0,0.0,0.0,0.0,0.0026148948818445206,0.005498147569596767,0.003396448213607073,1.0008302927017212,0.0,0.0,0.0,-27.00763702392578,2.077303409576416,2.6087353229522705,4888.43603515625,0
2065.9670000000006,-0.009252575226128101,-0.023402651771903038,0.00045249497634358704,0.0,0.0,0.0,0.0,-0.001934511587023735,-0.0023584298323839903,0.0006593717262148857,1.0003044605255127,0.0,0.0,0.0,-27.00952911376953,2.0716471672058105,2.5883185863494873,4888.7783203125,0
2075.8459999999995,-0.00915192998945713,-0.02344810776412487,0.0004769816296175122,0.0,0.0,0.0,0.0,0.0011942614801228046,0.0032573200296610594,-0.0010369649389758706,1.0002527236938477,0.0,0.0,0.0,-27.011371612548828,2.0769596099853516,2.6207799911499023,4889.1123046875,0
2085.7389999999996,-0.009155230596661568,-0.023459257557988167,0.0004887228715233505,0.0,0.0,0.0,0.0,-0.0007686626631766558,-0.0040570772252976894,0.00041025958489626646,0.9997048377990723,0.0,0.0,0.0,-27.008275985717773,2.073068618774414,2.6215784549713135,4888.55224609375,0
2095.617,-0.009139535017311573,-0.023472977802157402,0.000500926747918129,0.0,0.0,0.0,0.0,-0.0014741463819518685,0.0023439647629857063,-0.003573778085410595,0.9999930262565613,0.0,0.0,0.0,-27.012849807739258,2.07505202293396,2.6393415927886963,4889.37939453125,0
2105.5069999999996,-0.009110183455049992,-0.023443536832928658,0.0004889907431788743,0.0,0.0,0.0,0.0,-0.004591057542711496,0.0022764974273741245,0.0019432364497333765,1.0010846853256226,0.0,0.0,0.0,-27.008657455444336,2.0876574516296387,2.6364543437957764,4888.62060546875,0
2115.3870000000006,-0.009116197004914284,-0.023454420268535614,0.0004891964490525424,0.0,0.0,0.0,0.0,0.0007355845300480723,0.0033679907210171223,-9.056126145878807e-05,0.998626172542572,0.0,0.0,0.0,-27.011699676513672,2.0905604362487793,2.6322901248931885,4889.171875,0
2125.2909999999993,-0.00914212130010128,-0.023480866104364395,0.0005310468841344118,0.0,0.0,0.0,0.0,0.0009374417131766677,-0.0004860492190346122,-0.0005968648474663496,0.998311460018158,0.0,0.0,0.0,-27.011011123657227,2.0778796672821045,2.6178267002105713,4889.046875,0
2135.1579999999994,-0.009106682613492012,-0.0234857015311718,0.0005591399385593832,0.0,0.0,0.0,0.0,-0.0020995226223021746,-0.0008035870851017535,-0.0001730208459775895,0.9991227388381958,0.0,0.0,0.0,-27.01204490661621,2.074307918548584,2.626673936843872,4889.23388671875,0
2145.0499999999993,-0.00911429151892662,-0.023495759814977646,0.0005843050312250853,0.0,0.0,0.0,0.0,0.0003304728597868234,-0.0017205188050866127,-0.00010194026253884658,1.0010154247283936,0.0,0.0,0.0,-27.00916290283203,2.07910418510437,2.6260197162628174,4888.712890625,0
2154.9269999999997,-0.009109081700444221,-0.023497210815548897,0.0006048255600035191,0.0,0.0,0.0,0.0,0.002211551880463958,0.0027183201164007187,0.00020301766926422715,1.0012131929397583,0.0,0.0,0.0,-27.011005401611328,2.0760390758514404,2.6327805519104004,4889.0458984375,0
