timestamp,stateEstimate.x,stateEstimate.y,stateEstimate.z,controller.cmd_thrust,controller.cmd_roll,controller.cmd_pitch,controller.cmd_yaw,controller.r_roll,controller.r_pitch,controller.r_yaw,controller.accelz,controller.actuatorThrust,controller.roll,controller.pitch,controller.yaw,controller.rollRate,controller.pitchRate,controller.yawRate,controller.ctr_yaw
0.0,-0.017821218818426132,0.0007126051350496709,-9.99384792521596e-05,0.0,0.0,0.0,0.0,-0.0010985375847667456,0.0019811999518424273,0.0016669145552441478,1.0011324882507324,0.0,0.0,0.0,16.66326141357422,0.6496560573577881,6.351555347442627,-3016.083251953125,0
9.917999999999665,-0.017810415476560593,0.0007333779940381646,-5.30804754816927e-05,0.0,0.0,0.0,0.0,0.00200182618573308,0.0022133681923151016,0.00019911529670935124,1.00026273727417,0.0,0.0,0.0,16.65280532836914,0.658115029335022,6.3514227867126465,-3014.190673828125,0
19.82799999999952,-0.017885491251945496,0.0006953240954317153,-7.91226739238482e-06,0.0,0.0,0.0,0.0,0.002029022201895714,0.0014466963475570083,-0.0014290516264736652,1.001260757446289,0.0,0.0,0.0,16.652545928955078,0.6539496779441833,6.343347549438477,-3014.143798828125,0
29.74699999999939,-0.01788015477359295,0.0007412544218823314,5.4629988881060854e-05,0.0,0.0,0.0,0.0,0.0012526081409305334,-0.005002874415367842,0.0022612742614001036,0.9992717504501343,0.0,0.0,0.0,16.643047332763672,0.6612833142280579,6.333907127380371,-3012.4248046875,0
39.64300000000003,-0.017927508801221848,0.0007128826691769063,7.059971540002152e-05,0.0,0.0,0.0,0.0,-0.004874246194958687,-0.011935857124626637,-0.0011577698169276118,1.0008801221847534,0.0,0.0,0.0,16.64156150817871,0.6578986048698425,6.333222389221191,-3012.155517578125,0
49.57499999999891,-0.01789279282093048,0.0006866125040687621,0.00012299639638513327,0.0,0.0,0.0,0.0,0.0020536454394459724,-0.0004616822116076946,0.0006850269273854792,0.9990020990371704,0.0,0.0,0.0,16.624900817871094,0.6591116786003113,6.3477606773376465,-3009.14013671875,0
59.46599999999853,-0.017949247732758522,0.0006354337674565613,0.00014374745660461485,0.0,0.0,0.0,0.0,-0.0009367815800942481,0.0009652036824263632,-0.004416149575263262,0.9976284503936768,0.0,0.0,0.0,16.6282901763916,0.653407096862793,6.333774566650391,-3009.75341796875,0
69.3869999999988,-0.01786848157644272,0.0005919861141592264,0.00020935936481691897,0.0,0.0,0.0,0.0,0.002037876285612583,-0.0027864836156368256,0.005338041111826897,0.9992442727088928,0.0,0.0,0.0,16.622661590576172,0.6441121101379395,6.352001667022705,-3008.73486328125,0
79.28399999999965,-0.017897753044962883,0.0005827877903357148,0.00021778815425932407,0.0,0.0,0.0,0.0,0.0009587405365891755,-0.0018968717195093632,0.00011892359179910272,0.9979514479637146,0.0,0.0,0.0,16.628419876098633,0.6449092626571655,6.344834804534912,-3009.777099609375,0
89.20799999999872,-0.01786438561975956,0.0005718907341361046,0.0002763766096904874,0.0,0.0,0.0,0.0,-0.000566951755899936,0.00561220059171319,-0.0001945978874573484,0.9988726377487183,0.0,0.0,0.0,16.62103843688965,0.6394562125205994,6.354687690734863,-3008.44091796875,0
99.11899999999878,-0.017842423170804977,0.0005969774210825562,0.00022684887517243624,0.0,0.0,0.0,0.0,0.0018203450599685311,-0.00037125355447642505,-0.0009891478111967444,1.0001276731491089,0.0,0.0,0.0,16.621267318725586,0.6474790573120117,6.350168228149414,-3008.482177734375,0
109.03399999999965,-0.017836296930909157,0.0005906576989218593,0.0002665770589374006,0.0,0.0,0.0,0.0,-0.0004513102467171848,0.001152218203060329,-0.0013407921651378274,0.9993510246276855,0.0,0.0,0.0,16.614910125732422,0.6401849389076233,6.348278522491455,-3007.331787109375,0
118.93299999999908,-0.017814626917243004,0.0006378865800797939,0.00022801205341238528,0.0,0.0,0.0,0.0,-0.0016844497295096517,0.004336006939411163,-0.0016600742237642407,0.9999005794525146,0.0,0.0,0.0,16.62201499938965,0.6513792276382446,6.354937553405762,-3008.61767578125,0
128.85599999999977,-0.017814533784985542,0.0005978586850687861,0.00024874776136130095,0.0,0.0,0.0,0.0,0.001552565023303032,0.002292472403496504,-0.004094393458217382,1.0005011558532715,0.0,0.0,0.0,16.6126766204834,0.6533806920051575,6.347513198852539,-3006.927490234375,0
138.762999999999,-0.017805974930524826,0.0006283973343670368,0.00021847325842827559,0.0,0.0,0.0,0.0,0.0018026548204943538,0.003353493520990014,-0.0011939600808545947,0.9990254640579224,0.0,0.0,0.0,16.623573303222656,0.6566295623779297,6.3509392738342285,-3008.899658203125,0
148.67999999999847,-0.017818806692957878,0.0006030601798556745,0.00023581083223689348,0.0,0.0,0.0,0.0,-0.0017906520515680313,-0.0043614706955850124,-0.0007671666098758578,1.0002650022506714,0.0,0.0,0.0,16.615856170654297,0.65200275182724,6.338320255279541,-3007.5029296875,0
158.57699999999932,-0.01781442202627659,0.0006227733683772385,0.00020220897567924112,0.0,0.0,0.0,0.0,-0.0003751791955437511,0.0002517694665584713,-0.001132229226641357,1.0009489059448242,0.0,0.0,0.0,16.62407684326172,0.6558384895324707,6.347336292266846,-3008.990966796875,0
168.4979999999996,-0.01787036657333374,0.0006332633784040809,0.0002134290407411754,0.0,0.0,0.0,0.0,0.0004456375609152019,0.002372158458456397,-0.0007554740877822042,0.9991925358772278,0.0,0.0,0.0,16.615991592407227,0.6609240770339966,6.328174114227295,-3007.527587890625,0
178.39899999999943,-0.01780058443546295,0.0006647160043939948,8.389709546463564e-05,0.0,0.0,0.0,0.0,0.0029677320271730423,0.0004483020165935159,0.0006213590386323631,0.9988083243370056,0.0,0.0,0.0,16.63323402404785,0.6620050668716431,6.335221767425537,-3010.648193359375,0
188.3199999999997,-0.017782965674996376,0.0006319743697531521,0.00010194906644755974,0.0,0.0,0.0,0.0,0.0007369569502770901,0.0012511475943028927,0.00034602926461957395,1.001441478729248,0.0,0.0,0.0,16.62453842163086,0.6490381956100464,6.332580089569092,-3009.074462890625,0
198.22299999999996,-0.017727987840771675,0.0006362776621244848,-2.578249950602185e-05,0.0,0.0,0.0,0.0,0.0017627733759582043,-0.0003477419086266309,-0.0025734093505889177,1.0007309913635254,0.0,0.0,0.0,16.64682388305664,0.6434146761894226,6.338839054107666,-3013.10791015625,0
208.13999999999942,-0.017750322818756104,0.0006914822733961046,1.3445464901451487e-06,0.0,0.0,0.0,0.0,5.123349546920508e-05,0.004371698945760727,-0.002017901511862874,1.0007789134979248,0.0,0.0,0.0,16.63741683959961,0.6531336307525635,6.331408977508545,-3011.405517578125,0
218.04599999999846,-0.017719293013215065,0.0006876534898765385,-0.00010497513721929863,0.0,0.0,0.0,0.0,0.0021528343204408884,0.0014080466935411096,0.00038431782741099596,1.0000537633895874,0.0,0.0,0.0,16.651391983032227,0.6445662379264832,6.338284015655518,-3013.93505859375,0
227.96099999999933,-0.01775958202779293,0.0007233195938169956,-9.663761011324823e-05,0.0,0.0,0.0,0.0,-0.0007236432284116745,0.00037810561480000615,7.1662878326606e-05,1.0003352165222168,0.0,0.0,0.0,16.644428253173828,0.653725802898407,6.329019069671631,-3012.674560546875,0
495.5799999999999,-0.017851121723651886,0.0006488921353593469,0.000127850376884453,0.0,0.0,0.0,0.0,0.0017933346098288894,0.004050505813211203,0.0012471148511394858,0.9972488284111023,0.0,0.0,0.0,16.637165069580078,0.6597169041633606,6.276838302612305,-3011.35986328125,0
505.48599999999897,-0.017899639904499054,0.0006194632151164114,0.00014503071724902838,0.0,0.0,0.0,0.0,0.0022345450706779957,0.002157314447686076,-0.0027948019560426474,0.9992707967758179,0.0,0.0,0.0,16.62064552307129,0.6603372097015381,6.262735843658447,-3008.369873046875,0
515.3939999999984,-0.01781044341623783,0.0006099133170209825,0.00015339473611675203,0.0,0.0,0.0,0.0,-0.0016593956388533115,-0.0043527171947062016,0.0012750605819746852,0.9993255138397217,0.0,0.0,0.0,16.63435935974121,0.6491591334342957,6.27761173248291,-3010.852294921875,0
525.3029999999999,-0.017854666337370872,0.0005805565742775798,0.00016770095680840313,0.0,0.0,0.0,0.0,-0.0008875034982338548,0.002419716212898493,-0.0017159791896119714,1.000852346420288,0.0,0.0,0.0,16.618289947509766,0.6487512588500977,6.271267414093018,-3007.943359375,0
535.2199999999993,-0.017819704487919807,0.000683715392369777,0.00011219396401429549,0.0,0.0,0.0,0.0,2.1240221030893736e-05,0.0028242936823517084,0.0009953503031283617,0.9997199773788452,0.0,0.0,0.0,16.636934280395508,0.6557029485702515,6.282608985900879,-3011.318115234375,0
545.1259999999984,-0.017864074558019638,0.0006579852779395878,0.00012196353782201186,0.0,0.0,0.0,0.0,-0.002696183044463396,-0.00035437557380646467,-0.0008157988195307553,0.9997298717498779,0.0,0.0,0.0,16.61988067626953,0.6578871607780457,6.267911911010742,-3008.2314453125,0
555.0369999999984,-0.017763515934348106,0.0007517957710660994,2.3058848455548286e-05,0.0,0.0,0.0,0.0,0.002208956517279148,-0.0006751558976247907,-0.00016058128676377237,0.9990784525871277,0.0,0.0,0.0,16.64417839050293,0.6639928817749023,6.295368671417236,-3012.629150390625,0
564.9489999999987,-0.017806585878133774,0.0007274703239090741,2.4777371436357498e-05,0.0,0.0,0.0,0.0,-0.0019009559182450175,0.0016174912452697754,0.0010813460685312748,0.9975471496582031,0.0,0.0,0.0,16.627649307250977,0.6623757481575012,6.278620719909668,-3009.637451171875,0
574.860999999999,-0.017756137996912003,0.0008070268086157739,-2.2051318637750228e-07,0.0,0.0,0.0,0.0,-0.0022867023944854736,-0.0006523610791191459,-0.002903216751292348,0.999275803565979,0.0,0.0,0.0,16.652969360351562,0.669471800327301,6.287844657897949,-3014.220458984375,0
584.7739999999994,-0.017800744622945786,0.0007829279638826847,-2.8488509542512475e-06,0.0,0.0,0.0,0.0,0.001492792391218245,0.0056381202302873135,0.0011478759115561843,1.0020477771759033,0.0,0.0,0.0,16.63676643371582,0.6801249980926514,6.2835187911987305,-3011.28759765625,0
594.6839999999993,-0.017807381227612495,0.0007396556902676821,-1.1631985216808971e-05,0.0,0.0,0.0,0.0,-0.0024217036552727222,0.0030819468665868044,-0.0022983744274824858,1.0014922618865967,0.0,0.0,0.0,16.65261459350586,0.6738068461418152,6.284936428070068,-3014.15625,0
604.5949999999993,-0.01785452850162983,0.0007154963095672429,-1.3165407835913356e-05,0.0,0.0,0.0,0.0,-0.0018804471474140882,0.0030755028128623962,-0.0010800656164065003,0.9986440539360046,0.0,0.0,0.0,16.636131286621094,0.6709585785865784,6.279112339019775,-3011.1728515625,0
614.509,-0.017761873081326485,0.0007328897481784225,-9.411411883775145e-05,0.0,0.0,0.0,0.0,0.001772557501681149,0.0012616458116099238,-0.0041961995884776115,0.9984318017959595,0.0,0.0,0.0,16.666725158691406,0.6667876839637756,6.2849507331848145,-3016.71044921875,0
624.4189999999999,-0.017809469252824783,0.0006812606006860733,-0.00011177084525115788,0.0,0.0,0.0,0.0,0.00023572549980599433,0.00026394714950583875,-0.0035749345552176237,1.0025302171707153,0.0,0.0,0.0,16.675308227539062,0.6652741432189941,6.265772342681885,-3018.263916015625,0
634.3339999999989,-0.017764147371053696,0.0007241677958518267,-6.243686220841482e-05,0.0,0.0,0.0,0.0,-0.000385917752282694,-0.0008913113852031529,0.002461731433868408,1.0016655921936035,0.0,0.0,0.0,16.665462493896484,0.6723765134811401,6.267060279846191,-3016.481689453125,0
644.2429999999986,-0.01776539348065853,0.0006863379967398942,-0.00013094126188661903,0.0,0.0,0.0,0.0,0.0008650057134218514,0.0014059701934456825,-0.001530968933366239,0.9985739588737488,0.0,0.0,0.0,16.68253517150879,0.6627622842788696,6.272181987762451,-3019.572265625,0
654.1529999999984,-0.017786459997296333,0.0007411261321976781,-0.00010324535833206028,0.0,0.0,0.0,0.0,0.0008590845391154289,-0.0009223477100022137,-0.00032564569846726954,0.9998855590820312,0.0,0.0,0.0,16.674732208251953,0.6746202707290649,6.270956516265869,-3018.15966796875,0
664.0659999999989,-0.017834443598985672,0.0006796419620513916,-0.0001230513589689508,0.0,0.0,0.0,0.0,-0.001571516040712595,-0.000452155654784292,0.002050891285762191,0.9998078942298889,0.0,0.0,0.0,16.682994842529297,0.6665641069412231,6.2550950050354,-3019.6552734375,0
673.9759999999987,-0.017811965197324753,0.0007124271360225976,-8.222319593187422e-05,0.0,0.0,0.0,0.0,2.5837172870524228e-05,-0.0033628663513809443,0.0003851881483569741,0.9981161952018738,0.0,0.0,0.0,16.674331665039062,0.6716676950454712,6.269240856170654,-3018.087158203125,0
683.8919999999998,-0.017827486619353294,0.0007158414809964597,-0.00010965786350425333,0.0,0.0,0.0,0.0,0.0033613769337534904,-0.0029245014302432537,-0.0009053591056726873,1.0009797811508179,0.0,0.0,0.0,16.68267059326172,0.6766263246536255,6.2767839431762695,-3019.5966796875,0
693.8130000000001,-0.01779787614941597,0.0007140891393646598,-7.942376396385953e-05,0.0,0.0,0.0,0.0,-0.0014933618949726224,0.002145959297195077,-0.005265248008072376,1.0030181407928467,0.0,0.0,0.0,16.673114776611328,0.6787468194961548,6.286559104919434,-3017.86669921875,0
703.7199999999993,-0.017810029909014702,0.0007098466157913208,-0.00011010475282091647,0.0,0.0,0.0,0.0,0.0008787661790847778,-0.001256304793059826,-0.0009329771855846047,1.0007563829421997,0.0,0.0,0.0,16.677120208740234,0.6806040406227112,6.289284706115723,-3018.592041015625,0
713.6239999999998,-0.017800182104110718,0.0007197437807917595,-8.139777492033318e-05,0.0,0.0,0.0,0.0,0.001684204675257206,0.0013438458554446697,-0.0005526989116333425,1.0004554986953735,0.0,0.0,0.0,16.66547393798828,0.6846961975097656,6.279757022857666,-3016.484130859375,0
723.5529999999999,-0.017814582213759422,0.0007121064700186253,-0.00010555637709330767,0.0,0.0,0.0,0.0,-0.0010450463742017746,0.0009985725628212094,-0.0013072772417217493,1.000062108039856,0.0,0.0,0.0,16.67561912536621,0.6801560521125793,6.280037879943848,-3018.320556640625,0
733.4449999999997,-0.017744731158018112,0.0006902459426783025,-5.853460243088193e-05,0.0,0.0,0.0,0.0,-0.00215930980630219,0.002499583177268505,-0.0006718297954648733,0.9985379576683044,0.0,0.0,0.0,16.6633243560791,0.6748425364494324,6.282502174377441,-3016.09521484375,0
743.357,-0.017755048349499702,0.0006877540145069361,-7.678430847590789e-05,0.0,0.0,0.0,0.0,-0.0014921798137947917,-0.001960528315976262,0.0014326393138617277,0.9996930360794067,0.0,0.0,0.0,16.665660858154297,0.6750342845916748,6.268515110015869,-3016.517822265625,0
753.268,-0.01777704618871212,0.0007173344492912292,-4.822936170967296e-05,0.0,0.0,0.0,0.0,-0.0003436736878938973,0.000982185360044241,-0.004407112020999193,1.0007033348083496,0.0,0.0,0.0,16.65552520751953,0.6904975771903992,6.256864547729492,-3014.68310546875,0
763.1799999999985,-0.01781097613275051,0.0006945085478946567,-4.723042729892768e-05,0.0,0.0,0.0,0.0,0.0010080623906105757,0.0018578394083306193,-0.002461252035573125,0.9999927282333374,0.0,0.0,0.0,16.65510368347168,0.6864088773727417,6.25137186050415,-3014.60693359375,0
773.0990000000002,-0.017763473093509674,0.0007140123634599149,8.302194146381225e-06,0.0,0.0,0.0,0.0,0.0017098875250667334,-0.0007458559121005237,0.00014197123527992517,1.0000637769699097,0.0,0.0,0.0,16.645357131958008,0.6967064738273621,6.256258964538574,-3012.842529296875,0
783.0109999999986,-0.017781585454940796,0.0006896552513353527,-8.613063982920721e-06,0.0,0.0,0.0,0.0,0.0042791771702468395,0.0006745494902133942,-0.0002723757643252611,0.999702513217926,0.0,0.0,0.0,16.64238929748535,0.6925897598266602,6.237676620483398,-3012.305419921875,0
792.9229999999989,-0.0177407655864954,0.0007124309195205569,4.806566357729025e-05,0.0,0.0,0.0,0.0,-0.000988404848612845,-0.001032138359732926,-0.0009929804364219308,0.9988467693328857,0.0,0.0,0.0,16.63534164428711,0.6992034912109375,6.26184606552124,-3011.030029296875,0
802.8259999999991,-0.017810679972171783,0.000614491174928844,6.525307981064543e-05,0.0,0.0,0.0,0.0,-0.00010488295811228454,-4.649271795642562e-05,0.003572182497009635,0.998205840587616,0.0,0.0,0.0,16.63847541809082,0.6919019222259521,6.2540998458862305,-3011.596923828125,0
812.744999999999,-0.01785799115896225,0.0006668613059446216,9.759842942003161e-05,0.0,0.0,0.0,0.0,-6.220985960680991e-05,0.002968545537441969,-0.0024340723175555468,0.9990264177322388,0.0,0.0,0.0,16.630630493164062,0.7042022943496704,6.253420352935791,-3010.177001953125,0
822.6579999999994,-0.017878029495477676,0.000661962665617466,9.098997543333098e-05,0.0,0.0,0.0,0.0,0.0006158521864563227,0.0028502338100224733,0.004121194593608379,1.0020517110824585,0.0,0.0,0.0,16.633155822753906,0.7036224007606506,6.242955684661865,-3010.634033203125,0
832.5699999999997,-0.01788255386054516,0.0006800622795708477,0.00012708708527497947,0.0,0.0,0.0,0.0,0.0019885729998350143,-0.0028545879758894444,-0.005288705695420504,1.0008047819137573,0.0,0.0,0.0,16.625885009765625,0.707033097743988,6.241363525390625,-3009.318359375,0
842.473,-0.017862439155578613,0.0007116338820196688,8.212860848288983e-05,0.0,0.0,0.0,0.0,0.004000118002295494,-0.0021840869449079037,0.0007814589771442115,0.9996144771575928,0.0,0.0,0.0,16.62390899658203,0.7109842896461487,6.24537467956543,-3008.96044921875,0
852.3919999999998,-0.017854178324341774,0.0007059913477860391,0.00011283715139143169,0.0,0.0,0.0,0.0,0.0024786486756056547,-0.00045326841063797474,0.00037062077899463475,0.9994039535522461,0.0,0.0,0.0,16.614105224609375,0.7086532115936279,6.254239559173584,-3007.185791015625,0
862.2950000000001,-0.017847362905740738,0.0007058675982989371,6.558177847182378e-05,0.0,0.0,0.0,0.0,-0.00013016987941227853,0.0013155678752809763,0.004602276254445314,0.9991024136543274,0.0,0.0,0.0,16.616634368896484,0.7079997658729553,6.257651329040527,-3007.6435546875,0
872.2139999999999,-0.01785045862197876,0.0007023520302027464,8.717366290511563e-05,0.0,0.0,0.0,0.0,-0.003661196446046233,0.001166283036582172,-0.001893687411211431,1.0017800331115723,0.0,0.0,0.0,16.60755729675293,0.7109380960464478,6.2525763511657715,-3006.000732421875,0
882.125,-0.017845451831817627,0.0007083264063112438,3.923582335119136e-05,0.0,0.0,0.0,0.0,0.0009159885230474174,0.0009023651364259422,0.003010916756466031,0.9997725486755371,0.0,0.0,0.0,16.613954544067383,0.7117847204208374,6.252004623413086,-3007.15869140625,0
892.0299999999988,-0.017782606184482574,0.0006808653706684709,7.581181125715375e-05,0.0,0.0,0.0,0.0,0.0018379917601123452,6.528053199872375e-05,-0.0019632638432085514,0.9996117949485779,0.0,0.0,0.0,16.60744857788086,0.7070199847221375,6.255290508270264,-3005.981201171875,0
901.9429999999993,-0.017741870135068893,0.0007149570155888796,-1.9130552573187742e-06,0.0,0.0,0.0,0.0,-0.0009728255681693554,0.001994665013626218,0.00019045217777602375,0.9986056685447693,0.0,0.0,0.0,16.614927291870117,0.7056617736816406,6.256969928741455,-3007.334716796875,0
911.866,-0.017712360247969627,0.0006963144987821579,1.792734838090837e-05,0.0,0.0,0.0,0.0,-0.0024409028701484203,-0.001518610049970448,-0.0018482658779248595,0.997865617275238,0.0,0.0,0.0,16.61107063293457,0.6951759457588196,6.254000663757324,-3006.636962890625,0
921.7639999999992,-0.01766033284366131,0.0007585690473206341,-6.46836415398866e-05,0.0,0.0,0.0,0.0,-0.0003128093376290053,0.0004019563493784517,-0.0006337602972052991,0.999805748462677,0.0,0.0,0.0,16.623287200927734,0.7056235671043396,6.276498794555664,-3008.84814453125,0
931.6829999999991,-0.01764976978302002,0.0007223976426757872,-6.909579678904265e-05,0.0,0.0,0.0,0.0,-0.0038598941173404455,-0.002790805883705616,0.0030684240628033876,1.0008283853530884,0.0,0.0,0.0,16.619882583618164,0.7032259702682495,6.276611328125,-3008.2314453125,0
941.5869999999995,-0.017626624554395676,0.000750464154407382,-0.0001348402729490772,0.0,0.0,0.0,0.0,0.0022998552303761244,0.005121328867971897,-0.003793188603594899,1.0014346837997437,0.0,0.0,0.0,16.630767822265625,0.70345139503479,6.280417442321777,-3010.2021484375,0
951.5069999999996,-0.017621781677007675,0.0007980298832990229,-0.00011169047502335161,0.0,0.0,0.0,0.0,-0.002333603100851178,0.0001379638270009309,-0.0035026136320084333,0.9999493956565857,0.0,0.0,0.0,16.624305725097656,0.7184290885925293,6.288257122039795,-3009.0322265625,0
961.4099999999999,-0.017704380676150322,0.0006811739294789732,-0.00014959661348257214,0.0,0.0,0.0,0.0,-0.0017499577952548862,0.001023238874040544,-0.0011236974969506264,0.9995913505554199,0.0,0.0,0.0,16.62143325805664,0.7017850875854492,6.258265972137451,-3008.51220703125,0
971.3289999999997,-0.017670299857854843,0.0007722073933109641,-0.0001081186710507609,0.0,0.0,0.0,0.0,0.0005582691519521177,0.00047767028445377946,-0.0023032233584672213,1.0006400346755981,0.0,0.0,0.0,16.631025314331055,0.7132989168167114,6.26531982421875,-3010.248779296875,0
981.2330000000002,-0.017697688192129135,0.0007559602381661534,-0.000171671126736328,0.0,0.0,0.0,0.0,0.00043727210140787065,0.004614613484591246,-0.0003696235071402043,0.9997418522834778,0.0,0.0,0.0,16.6285343170166,0.7097131013870239,6.256225109100342,-3009.797607421875,0
991.1529999999984,-0.017707666382193565,0.0008124254527501762,-0.00016229327593464404,0.0,0.0,0.0,0.0,-0.0006209862767718732,-0.001084296964108944,0.000824674149043858,0.9990173578262329,0.0,0.0,0.0,16.638675689697266,0.7180811166763306,6.254430294036865,-3011.633544921875,0
1001.0559999999987,-0.017774436622858047,0.0007137813954614103,-0.00017804185335990041,0.0,0.0,0.0,0.0,-0.0006054564728401601,-0.0013716950779780746,-0.002904340159147978,1.0003679990768433,0.0,0.0,0.0,16.656652450561523,0.6941768527030945,6.226216793060303,-3014.88720703125,0
1010.9879999999994,-0.017778541892766953,0.0007567029097117484,-0.0001560239470563829,0.0,0.0,0.0,0.0,0.00023803900694474578,-0.0003591519489418715,0.00019321910804137588,0.999983012676239,0.0,0.0,0.0,16.647634506225586,0.7036435604095459,6.232662200927734,-3013.254638671875,0
1020.8829999999998,-0.01779227703809738,0.0007124071707949042,-0.0002118838601745665,0.0,0.0,0.0,0.0,-0.00448808865621686,0.00018338912923354656,0.004834313876926899,1.002814531326294,0.0,0.0,0.0,16.662994384765625,0.6917906999588013,6.231687068939209,-3016.035400390625,0
1030.8089999999993,-0.01772654987871647,0.0007599334931001067,-0.0001588922896189615,0.0,0.0,0.0,0.0,0.0014696300495415926,0.0030157577712088823,0.0015924172475934029,1.001319408416748,0.0,0.0,0.0,16.654651641845703,0.7016139030456543,6.2484636306762695,-3014.52490234375,0
1040.705,-0.0177776962518692,0.0006897624698467553,-0.00017134252993855625,0.0,0.0,0.0,0.0,0.003608176251873374,-0.0002215698768850416,-0.0013698969269171357,1.0012784004211426,0.0,0.0,0.0,16.665311813354492,0.6971916556358337,6.243772983551025,-3016.45458984375,0
1050.6359999999986,-0.017773333936929703,0.000725512916687876,-0.00013880275946576148,0.0,0.0,0.0,0.0,0.002292086835950613,-0.0015448553021997213,0.0012280697701498866,0.999670684337616,0.0,0.0,0.0,16.658130645751953,0.7033370733261108,6.232507228851318,-3015.154541015625,0
1060.5259999999998,-0.01784764789044857,0.0006434165989048779,-0.0001246321335202083,0.0,0.0,0.0,0.0,0.0006284907576628029,-0.0016862195916473866,0.0017820983193814754,0.9983799457550049,0.0,0.0,0.0,16.668094635009766,0.6772653460502625,6.2171525955200195,-3016.958251953125,0
1070.4539999999997,-0.017817644402384758,0.0006847985787317157,-7.206868031062186e-05,0.0,0.0,0.0,0.0,0.0018990796525031328,0.0005136208492331207,0.00027452860376797616,0.9993913173675537,0.0,0.0,0.0,16.66040802001953,0.6816060543060303,6.232133388519287,-3015.56689453125,0
1080.3559999999998,-0.017856111750006676,0.00069495162460953,-5.830718146171421e-05,0.0,0.0,0.0,0.0,0.0006088601658120751,-0.0011447776341810822,0.0007379593444056809,0.999938428401947,0.0,0.0,0.0,16.669431686401367,0.6781536340713501,6.225898742675781,-3017.200439453125,0
1090.286,-0.017814453691244125,0.0007052587461657822,-9.635007700126152e-06,0.0,0.0,0.0,0.0,-0.0016737707192078233,-0.005410843063145876,0.0009518831502646208,0.9988481402397156,0.0,0.0,0.0,16.661907196044922,0.6737441420555115,6.239032745361328,-3015.838134765625,0
1100.173999999999,-0.017874974757432938,0.0006662535015493631,1.1623044883890543e-05,0.0,0.0,0.0,0.0,0.00014916423242539167,0.00520743802189827,0.0012779225362464786,0.9996335506439209,0.0,0.0,0.0,16.667768478393555,0.6685276031494141,6.231285572052002,-3016.8994140625,0
1110.0919999999987,-0.017844678834080696,0.0006694218027405441,5.692492050002329e-05,0.0,0.0,0.0,0.0,-0.0001887161924969405,0.005273896735161543,-0.001349773956462741,1.0003726482391357,0.0,0.0,0.0,16.657974243164062,0.6645218133926392,6.240990161895752,-3015.126220703125,0
1120.003999999999,-0.01784355752170086,0.0006790881161578,2.387311360507738e-05,0.0,0.0,0.0,0.0,-0.00013710232451558113,0.00314269308000803,-0.0003263816179241985,1.000658392906189,0.0,0.0,0.0,16.661396026611328,0.6625522971153259,6.2322258949279785,-3015.745361328125,0
1129.9169999999995,-0.01777525059878826,0.0006422537262551486,6.649945134995505e-05,0.0,0.0,0.0,0.0,0.0010500974021852016,0.000413400586694479,0.0014710777904838324,1.000205397605896,0.0,0.0,0.0,16.65237045288086,0.647038996219635,6.236325740814209,-3014.112060546875,0
1139.8179999999993,-0.01778869889676571,0.0006629172712564468,6.455892435042188e-05,0.0,0.0,0.0,0.0,0.002601741813123226,-0.00016579817747697234,-0.0022124166134744883,1.0006417036056519,0.0,0.0,0.0,16.66181182861328,0.654845654964447,6.232708930969238,-3015.821044921875,0
1149.7379999999994,-0.017754461616277695,0.0006442049634642899,0.00010059853957500309,0.0,0.0,0.0,0.0,-0.00037707501905970275,0.0012322133406996727,-0.0023093547206372023,1.0010473728179932,0.0,0.0,0.0,16.652860641479492,0.6564911603927612,6.230961799621582,-3014.20068359375,0
1159.6529999999984,-0.017769483849406242,0.0006503284676000476,9.564072388457134e-05,0.0,0.0,0.0,0.0,-0.001253461348824203,0.002085618209093809,0.0007305687759071589,1.0004231929779053,0.0,0.0,0.0,16.66226577758789,0.6544552445411682,6.224820613861084,-3015.9033203125,0
1169.5599999999995,-0.01775362715125084,0.0006534195272251964,0.00013650866458192468,0.0,0.0,0.0,0.0,0.001654990715906024,0.0010135809425264597,-0.004211435094475746,1.0008379220962524,0.0,0.0,0.0,16.652034759521484,0.6515792012214661,6.212890625,-3014.051025390625,0
1179.4650000000001,-0.017758963629603386,0.0006818577530793846,0.0001306574122281745,0.0,0.0,0.0,0.0,-0.0010306212352588773,0.0007363994955085218,-0.0014587591867893934,0.999110758304596,0.0,0.0,0.0,16.657451629638672,0.6541723012924194,6.207843780517578,-3015.031982421875,0
1189.3889999999992,-0.017737094312906265,0.0006933379918336868,0.00017909705638885498,0.0,0.0,0.0,0.0,0.0014340628404170275,0.000967406842391938,0.0008883587433956563,0.998659610748291,0.0,0.0,0.0,16.648998260498047,0.6601260304450989,6.2029619216918945,-3013.501953125,0
1199.2869999999984,-0.017647817730903625,0.0007940071518532932,8.148551569320261e-05,0.0,0.0,0.0,0.0,-0.0046966467052698135,-0.006971837021410465,0.0012787621235474944,0.9997227787971497,0.0,0.0,0.0,16.651281356811523,0.6635553240776062,6.2194623947143555,-3013.9150390625,0
1209.2060000000001,-0.017676495015621185,0.0007962086820043623,9.107626101467758e-05,0.0,0.0,0.0,0.0,0.0001235476665897295,0.0009518393198959529,0.0022141665685921907,1.0006502866744995,0.0,0.0,0.0,16.642616271972656,0.6637652516365051,6.214409828186035,-3012.346435546875,0
1219.1099999999988,-0.017661483958363533,0.0007981828530319035,3.06692709273193e-05,0.0,0.0,0.0,0.0,-0.001140748499892652,-0.0037138413172215223,-0.0007155447383411229,1.0006687641143799,0.0,0.0,0.0,16.642810821533203,0.6651274561882019,6.22961950302124,-3012.3818359375,0
1229.0289999999986,-0.017733564600348473,0.0008102746796794236,2.0912826585117728e-05,0.0,0.0,0.0,0.0,0.0005254854913800955,0.00031320611014962196,0.0012824622681364417,0.998377799987793,0.0,0.0,0.0,16.63777732849121,0.673334538936615,6.201309680938721,-3011.470947265625,0
1238.932999999999,-0.017746277153491974,0.0007803115877322853,-2.6420273570693098e-05,0.0,0.0,0.0,0.0,-0.002381559694185853,0.007097299676388502,0.0009570319089107215,0.9975440502166748,0.0,0.0,0.0,16.64543914794922,0.6646585464477539,6.210752010345459,-3012.857177734375,0
1248.8469999999998,-0.0176943801343441,0.0007543633691966534,1.87064415513305e-06,0.0,0.0,0.0,0.0,-0.0006763909477740526,-0.00013626240252051502,-0.0004276895779184997,0.9991796612739563,0.0,0.0,0.0,16.635744094848633,0.6589987874031067,6.213185787200928,-3011.102783203125,0
1258.7619999999988,-0.01765681803226471,0.0008003732073120773,-7.470614946214482e-05,0.0,0.0,0.0,0.0,-0.0014595927204936743,0.003826627740636468,0.0031649344600737095,0.998759925365448,0.0,0.0,0.0,16.642099380493164,0.6575076580047607,6.214939594268799,-3012.252685546875,0
1268.6679999999997,-0.017673641443252563,0.0008213502005673945,-6.675058830296621e-05,0.0,0.0,0.0,0.0,0.002483477583155036,-0.0038148292805999517,0.0010318720014765859,1.000614047050476,0.0,0.0,0.0,16.633922576904297,0.6715260744094849,6.202821731567383,-3010.77294921875,0
1278.58,-0.01770557090640068,0.0008166282786987722,-0.00014596407709177583,0.0,0.0,0.0,0.0,9.956899884855375e-05,0.002250303979963064,0.002568911761045456,0.9989678263664246,0.0,0.0,0.0,16.620288848876953,0.6755752563476562,6.2016706466674805,-3008.30517578125,0
1288.4920000000002,-0.017711464315652847,0.0008912623743526638,-0.0001266761973965913,0.0,0.0,0.0,0.0,-0.0014995553065091372,-0.001635820954106748,0.0013160293456166983,1.001193642616272,0.0,0.0,0.0,16.629316329956055,0.686661958694458,6.201719284057617,-3009.939453125,0
1298.405999999999,-0.01783309504389763,0.0007999881636351347,-0.0001401532645104453,0.0,0.0,0.0,0.0,0.002875932725146413,-0.001710921642370522,0.002457675989717245,1.0011024475097656,0.0,0.0,0.0,16.6186466217041,0.6829701662063599,6.197226047515869,-3008.00830078125,0
1308.3199999999997,-0.0177630502730608,0.0008005436393432319,-0.00011599103891057894,0.0,0.0,0.0,0.0,-0.0026569832116365433,-0.0023970543406903744,-0.0022807710338383913,0.9992660880088806,0.0,0.0,0.0,16.62575340270996,0.6791568398475647,6.206470489501953,-3009.29443359375,0
1318.2339999999986,-0.017888473346829414,0.0006975046126171947,-0.00012050347140757367,0.0,0.0,0.0,0.0,0.0004459127376321703,-0.0006059131701476872,-0.00036767436540685594,1.000043511390686,0.0,0.0,0.0,16.619054794311523,0.6650022864341736,6.186068534851074,-3008.08203125,0
1328.1389999999992,-0.017888473346829414,0.0006975046126171947,-0.00012050347140757367,0.0,0.0,0.0,0.0,-0.000306056987028569,0.005778072867542505,-0.0008754004957154393,0.9981114268302917,0.0,0.0,0.0,16.619054794311523,0.6650022864341736,6.186068534851074,-3008.08203125,0
1338.048999999999,-0.017845580354332924,0.0006884930189698935,-8.085682929959148e-05,0.0,0.0,0.0,0.0,-0.00028938648756593466,-0.004253626801073551,0.0009748726733960211,0.9989585876464844,0.0,0.0,0.0,16.612022399902344,0.6692253351211548,6.189276218414307,-3006.80908203125,0
1347.9650000000001,-0.017893770709633827,0.000660080520901829,-8.440941746812314e-05,0.0,0.0,0.0,0.0,-0.00286559178493917,0.00022820885351393372,-0.0024557532742619514,1.0000932216644287,0.0,0.0,0.0,16.597286224365234,0.6688275933265686,6.176470756530762,-3004.141845703125,0
1357.8739999999998,-0.017886117100715637,0.0006306456052698195,-7.342854223679751e-05,0.0,0.0,0.0,0.0,0.002872315002605319,0.0018890862120315433,0.00036567868664860725,0.9988067150115967,0.0,0.0,0.0,16.590797424316406,0.668190062046051,6.177809238433838,-3002.96728515625,0
1367.7969999999987,-0.017934901639819145,0.0005989556084387004,-7.694739906582981e-05,0.0,0.0,0.0,0.0,0.0019470861880108714,-0.0032973408233374357,0.0020251907408237457,0.998733401298523,0.0,0.0,0.0,16.573108673095703,0.6687912344932556,6.172042369842529,-2999.765625,0
1377.7039999999997,-0.017846209928393364,0.0006041856249794364,-3.346900120959617e-05,0.0,0.0,0.0,0.0,-0.0010415093274787068,-0.0012534677516669035,-0.001667531207203865,0.9978131055831909,0.0,0.0,0.0,16.56613540649414,0.6618132591247559,6.19972038269043,-2998.50341796875,0
1387.607,-0.017889712005853653,0.0005726926028728485,-3.430981087149121e-05,0.0,0.0,0.0,0.0,0.0002473631175234914,-0.0030090624932199717,-0.0017750277183949947,0.9992082118988037,0.0,0.0,0.0,16.550203323364258,0.6562777757644653,6.196418762207031,-2995.619873046875,0
1397.5239999999994,-0.017854217439889908,0.0006387359462678432,1.2793451787729282e-05,0.0,0.0,0.0,0.0,-0.0007202801061794162,-0.0031664157286286354,-0.0018436643294990063,0.9991482496261597,0.0,0.0,0.0,16.544933319091797,0.6812824010848999,6.221551895141602,-2994.665771484375,0
1407.429,-0.01789652742445469,0.0006111256079748273,1.3570407645602245e-05,0.0,0.0,0.0,0.0,-0.0030186877120286226,-0.0027046636678278446,0.0013932065339758992,1.0022400617599487,0.0,0.0,0.0,16.52683448791504,0.6800388693809509,6.221790790557861,-2991.389892578125,0
1417.348,-0.017854873090982437,0.0006141295307315886,5.240074096946046e-05,0.0,0.0,0.0,0.0,-0.0017195797991007566,-0.001162744127213955,0.0025554110761731863,1.0008596181869507,0.0,0.0,0.0,16.526226043701172,0.6817461848258972,6.255909442901611,-2991.27978515625,0
1427.2649999999994,-0.017873220145702362,0.0006348942406475544,8.18271582829766e-05,0.0,0.0,0.0,0.0,-0.00021701403602492064,-0.002171311294659972,0.0008166123880073428,0.9997555017471313,0.0,0.0,0.0,16.522287368774414,0.6946179866790771,6.268093109130859,-2990.56689453125,0
1437.1759999999995,-0.017911354079842567,0.0006103325285948813,9.066797065315768e-05,0.0,0.0,0.0,0.0,-0.0004827973316423595,-0.0026726413052529097,-0.004121921956539154,0.9997097253799438,0.0,0.0,0.0,16.50636863708496,0.6995142698287964,6.264943599700928,-2987.685302734375,0
1447.08,-0.01787181757390499,0.000626756576821208,0.00014873863256070763,0.0,0.0,0.0,0.0,-0.0014271632535383105,0.006878124084323645,-0.0004245169402565807,0.9978542327880859,0.0,0.0,0.0,16.505218505859375,0.7030017375946045,6.304747104644775,-2987.47705078125,0
1457.0029999999988,-0.01790473610162735,0.0006056562997400761,0.00016170118760783225,0.0,0.0,0.0,0.0,0.0009770712349563837,-0.002275188686326146,-0.002294766716659069,0.9990239143371582,0.0,0.0,0.0,16.488662719726562,0.7058760523796082,6.300800800323486,-2984.480712890625,0
1466.8999999999996,-0.01792144402861595,0.0006233169115148485,0.00020042476535309106,0.0,0.0,0.0,0.0,-0.0007289376226253808,0.00016439789033029228,-0.0006149106775410473,0.9983770251274109,0.0,0.0,0.0,16.48933219909668,0.7150049209594727,6.30211877822876,-2984.60205078125,0
1476.8179999999993,-0.017955541610717773,0.0006048197974450886,0.00021327794820535928,0.0,0.0,0.0,0.0,0.0006422006990760565,-0.0009082048782147467,0.0022615166381001472,0.9985955953598022,0.0,0.0,0.0,16.472551345825195,0.7120920419692993,6.29534387588501,-2981.564453125,0
1486.7219999999998,-0.01795799657702446,0.000611393537838012,0.0002549286582507193,0.0,0.0,0.0,0.0,1.855745358625427e-05,0.0010305105242878199,0.0010321990121155977,0.9999108910560608,0.0,0.0,0.0,16.472911834716797,0.7190770506858826,6.308572292327881,-2981.629638671875,0
1496.6489999999994,-0.01799311488866806,0.0005968391196802258,0.00026805419474840164,0.0,0.0,0.0,0.0,-3.854119131574407e-05,0.0009497595601715147,-0.00012651426368393004,0.9986604452133179,0.0,0.0,0.0,16.455549240112305,0.7177037596702576,6.307677268981934,-2978.4873046875,0
1506.545,-0.017952626571059227,0.0005982071743346751,0.00032610230846330523,0.0,0.0,0.0,0.0,0.0005717947497032583,-0.00040243836701847613,-0.0017777268076315522,0.9979687333106995,0.0,0.0,0.0,16.457847595214844,0.7059122920036316,6.338801860809326,-2978.9033203125,0
1516.4650000000001,-0.017982380464673042,0.0005830060690641403,0.00034210190642625093,0.0,0.0,0.0,0.0,0.0009957259753718972,0.005029804538935423,-0.00353973638266325,0.9971938133239746,0.0,0.0,0.0,16.4412899017334,0.7097865343093872,6.325338840484619,-2975.90625,0
1526.3709999999992,-0.01801348850131035,0.0005671658436767757,0.0003566115046851337,0.0,0.0,0.0,0.0,0.003101895097643137,0.0008437589858658612,0.0019336487166583538,0.9985702633857727,0.0,0.0,0.0,16.424480438232422,0.7066165804862976,6.320407867431641,-2972.86376953125,0
1536.2999999999993,-0.01804584451019764,0.0005509015172719955,0.00036924012238159776,0.0,0.0,0.0,0.0,-0.001001668395474553,0.0017400257056578994,0.0027710741851478815,0.9987176060676575,0.0,0.0,0.0,16.406957626342773,0.7096477150917053,6.304513931274414,-2969.69189453125,0
1546.1949999999997,-0.018079649657011032,0.0005337200127542019,0.0003800525446422398,0.0,0.0,0.0,0.0,0.0015197700122371316,5.222886466071941e-05,-0.002766229212284088,1.0005494356155396,0.0,0.0,0.0,16.389842987060547,0.7088644504547119,6.299699783325195,-2966.593994140625,0
1556.116,-0.017922023311257362,0.0007225863519124687,-5.562056230701273e-06,0.0,0.0,0.0,0.0,0.000621355080511421,-0.003592744003981352,-0.0031738183461129665,0.9989283680915833,0.0,0.0,0.0,16.410520553588867,0.7353536486625671,6.343729019165039,-2970.336669921875,0
1566.0139999999992,-0.017950180917978287,0.0007175482460297644,-1.0421494152978994e-05,0.0,0.0,0.0,0.0,0.00038849443080835044,-0.000929465692024678,0.0014827329432591796,0.9985699653625488,0.0,0.0,0.0,16.393951416015625,0.7398003339767456,6.338090419769287,-2967.337890625,0
1575.9359999999997,-0.017966091632843018,0.000719708448741585,-5.3212028433335945e-05,0.0,0.0,0.0,0.0,0.0014038425870239735,-0.0012686910340562463,0.0023147081956267357,1.0004385709762573,0.0,0.0,0.0,16.411832809448242,0.7444859743118286,6.340109348297119,-2970.57421875,0
1585.8419999999987,-0.017997000366449356,0.0007162187830545008,-6.151241541374475e-05,0.0,0.0,0.0,0.0,-0.0021472943481057882,-0.0025639443192631006,0.004772651009261608,1.0000834465026855,0.0,0.0,0.0,16.395559310913086,0.7430316209793091,6.333255290985107,-2967.628662109375,0
1595.7599999999984,-0.018006034195423126,0.0006861258880235255,-0.00015380981494672596,0.0,0.0,0.0,0.0,0.00040124193765223026,-0.002581843873485923,0.001641737762838602,0.9991912245750427,0.0,0.0,0.0,16.416751861572266,0.727504312992096,6.327673435211182,-2971.46484375,0
1605.6599999999999,-0.018037617206573486,0.0006799315451644361,-0.00016688278992660344,0.0,0.0,0.0,0.0,-0.0013288803165778518,0.004271655809134245,-0.003942649345844984,0.9999096989631653,0.0,0.0,0.0,16.399927139282227,0.734582245349884,6.332733631134033,-2968.41943359375,0
1615.5819999999985,-0.018092211335897446,0.0007206356385722756,-0.00018408260075375438,0.0,0.0,0.0,0.0,0.005599311087280512,0.0027947488706558943,-0.0010232925415039062,1.0019251108169556,0.0,0.0,0.0,16.412492752075195,0.7444859147071838,6.327718734741211,-2970.693603515625,0
1625.4830000000002,-0.018092211335897446,0.0007206356385722756,-0.00018408260075375438,0.0,0.0,0.0,0.0,0.003340160008519888,0.00476983655244112,0.0024618091993033886,0.9993623495101929,0.0,0.0,0.0,16.412492752075195,0.7444859147071838,6.327718734741211,-2970.693603515625,0
1635.405999999999,-0.01812540926039219,0.0007483941735699773,-0.00026995170628651977,0.0,0.0,0.0,0.0,0.002015760401263833,-0.0032574343495070934,-0.0006727974978275597,1.000124454498291,0.0,0.0,0.0,16.41755485534668,0.7421888113021851,6.324601173400879,-2971.610107421875,0
1645.3069999999989,-0.01812540926039219,0.0007483941735699773,-0.00026995170628651977,0.0,0.0,0.0,0.0,-0.0023065118584781885,-0.0005358805065043271,-0.0035648373886942863,1.0012961626052856,0.0,0.0,0.0,16.41755485534668,0.7421888113021851,6.324601173400879,-2971.610107421875,0
1655.2289999999994,-0.01818477362394333,0.0007670685881748796,-0.00030575395794585347,0.0,0.0,0.0,0.0,-0.003217045683413744,-0.0056304107420146465,0.0009812609059736133,0.9996258020401001,0.0,0.0,0.0,16.426372528076172,0.7430351972579956,6.32847785949707,-2973.206298828125,0
1665.1299999999992,-0.01818477362394333,0.0007670685881748796,-0.00030575395794585347,0.0,0.0,0.0,0.0,0.0014583496376872063,0.005138722714036703,-0.002756384899839759,0.999203085899353,0.0,0.0,0.0,16.426372528076172,0.7430351972579956,6.32847785949707,-2973.206298828125,0
1675.0549999999985,-0.018236711621284485,0.0007107852143235505,-0.00039776790072210133,0.0,0.0,0.0,0.0,-0.003050237661227584,0.0009383166907355189,-0.002526815515011549,1.0001083612442017,0.0,0.0,0.0,16.434574127197266,0.7329999208450317,6.316887378692627,-2974.69091796875,0
1684.9579999999987,-0.018236711621284485,0.0007107852143235505,-0.00039776790072210133,0.0,0.0,0.0,0.0,-0.0006408247863873839,-0.005011323839426041,0.0016434498829767108,0.998274564743042,0.0,0.0,0.0,16.434574127197266,0.7329999208450317,6.316887378692627,-2974.69091796875,0
1694.8779999999988,-0.01826074719429016,0.0007463692454621196,-0.00040730589535087347,0.0,0.0,0.0,0.0,0.0009255675249733031,0.0014003851683810353,0.00181343755684793,0.9985473155975342,0.0,0.0,0.0,16.455862045288086,0.7484133839607239,6.324734210968018,-2978.543701171875,0
1704.777,-0.01829543150961399,0.0007356972200796008,-0.00042864421266131103,0.0,0.0,0.0,0.0,-0.0008305347873829305,-0.0006461831508204341,-0.0003472352691460401,1.001537561416626,0.0,0.0,0.0,16.44106674194336,0.74894118309021,6.323151111602783,-2975.865966796875,0
1714.7029999999995,-0.01828821562230587,0.0007462176727131009,-0.0005004681297577918,0.0,0.0,0.0,0.0,-0.0006636114558205009,0.0018509472720324993,-0.0009375495137646794,1.000450611114502,0.0,0.0,0.0,16.466489791870117,0.7528730630874634,6.3326334953308105,-2980.46728515625,0
1724.6009999999987,-0.018323274329304695,0.000736830523237586,-0.0005263113998807967,0.0,0.0,0.0,0.0,0.0005950492923147976,-0.0011607332853600383,7.007476961007342e-05,0.9979133605957031,0.0,0.0,0.0,16.449689865112305,0.7542581558227539,6.331428050994873,-2977.4267578125,0
1734.5259999999998,-0.018322477117180824,0.0007624918944202363,-0.00057126150932163,0.0,0.0,0.0,0.0,0.00011551820352906361,0.00020112175843678415,-0.0030012635979801416,0.9983382821083069,0.0,0.0,0.0,16.483802795410156,0.76270991563797,6.340151309967041,-2983.601318359375,0
1744.4259999999995,-0.017870107665657997,0.0006912108510732651,-0.00014618993736803532,0.0,0.0,0.0,0.0,-0.00029121371335349977,0.003945948556065559,-0.002926676534116268,1.0008612871170044,0.0,0.0,0.0,16.485031127929688,0.718470573425293,6.4157233238220215,-2983.823486328125,0
1754.3549999999996,-0.01783929020166397,0.0007230459596030414,-0.0002304368681507185,0.0,0.0,0.0,0.0,-0.00020983070135116577,-0.004398421850055456,-0.002078285440802574,1.0014922618865967,0.0,0.0,0.0,16.507713317871094,0.7130858898162842,6.4144487380981445,-2987.928955078125,0
1764.244999999999,-0.017704186961054802,0.0007018299074843526,-0.0001608947350177914,0.0,0.0,0.0,0.0,-0.003246152075007558,0.004980035591870546,0.0005775889731012285,1.0021940469741821,0.0,0.0,0.0,16.505599975585938,0.703749418258667,6.424540996551514,-2987.546630859375,0
1774.1659999999993,-0.01771603897213936,0.0006947226938791573,-0.00017120562552008778,0.0,0.0,0.0,0.0,-0.001901624258607626,-0.0018710002768784761,-0.000759879476390779,1.0008838176727295,0.0,0.0,0.0,16.518245697021484,0.70013028383255,6.416778564453125,-2989.8349609375,0
1784.0679999999993,-0.017659533768892288,0.0007350124651566148,-0.0001333484979113564,0.0,0.0,0.0,0.0,0.0020329796243458986,0.002980185905471444,0.0009479870204813778,1.0007187128067017,0.0,0.0,0.0,16.520845413208008,0.7064623236656189,6.41730260848999,-2990.3056640625,0
1793.9879999999994,-0.017700565978884697,0.0006887149065732956,-0.00011338512558722869,0.0,0.0,0.0,0.0,0.0010060268687084317,-0.004854768980294466,0.0008869729354046285,0.9984610080718994,0.0,0.0,0.0,16.533124923706055,0.7009095549583435,6.402643203735352,-2992.528564453125,0
1803.8909999999996,-0.017680669203400612,0.0007612564950250089,-7.676562381675467e-05,0.0,0.0,0.0,0.0,0.001249514170922339,0.003996177110821009,0.0040025971829891205,0.9996774792671204,0.0,0.0,0.0,16.533905029296875,0.700949490070343,6.401247501373291,-2992.66943359375,0
1813.815999999999,-0.017726175487041473,0.0007277745171450078,-4.043907756567933e-05,0.0,0.0,0.0,0.0,0.0009008538327179849,-0.0014337531756609678,0.0008731033303774893,1.0032176971435547,0.0,0.0,0.0,16.547260284423828,0.6946135759353638,6.386686325073242,-2995.087158203125,0
1823.7150000000001,-0.017712794244289398,0.0007625111611559987,-1.5917197742965072e-05,0.0,0.0,0.0,0.0,6.08972659392748e-05,-0.0019253977807238698,-0.0009836637182161212,1.0024876594543457,0.0,0.0,0.0,16.544466018676758,0.6949223875999451,6.375259876251221,-2994.581298828125,0
1833.634,-0.0177456121891737,0.0007297915872186422,8.859794434101786e-06,0.0,0.0,0.0,0.0,-0.0013575127813965082,0.002067708410322666,-0.003322071395814419,1.0003814697265625,0.0,0.0,0.0,16.55655860900879,0.6864719390869141,6.358619689941406,-2996.770263671875,0
1843.5389999999989,-0.01771864853799343,0.0007241449202410877,3.325104989926331e-05,0.0,0.0,0.0,0.0,0.0030362035613507032,0.0008479657117277384,0.0019605576526373625,0.9998032450675964,0.0,0.0,0.0,16.552936553955078,0.6869674921035767,6.357322692871094,-2996.114501953125,0
1853.4629999999997,-0.017748532816767693,0.0006763576529920101,5.050168329034932e-05,0.0,0.0,0.0,0.0,0.0021242108196020126,0.004234782420098782,-0.0022805379703640938,1.000372290611267,0.0,0.0,0.0,16.561359405517578,0.6795530319213867,6.3418288230896,-2997.63916015625,0
1863.3619999999992,-0.017726968973875046,0.0006825265591032803,8.185483602574095e-05,0.0,0.0,0.0,0.0,-0.000312669639242813,-0.0010242185089737177,-0.0034087065141648054,1.0015424489974976,0.0,0.0,0.0,16.557889938354492,0.6760714650154114,6.330576419830322,-2997.010986328125,0
1873.2819999999992,-0.01776696927845478,0.0006145990919321775,0.00010290589852957055,0.0,0.0,0.0,0.0,0.0014977013925090432,0.0033257147297263145,-0.0016100115608423948,1.0016093254089355,0.0,0.0,0.0,16.563507080078125,0.6705538630485535,6.3106842041015625,-2998.02783203125,0
1883.1929999999993,-0.017826208844780922,0.0006827132310718298,0.00012851202336605638,0.0,0.0,0.0,0.0,-0.001878543640486896,-0.0007449496770277619,-0.0014157083351165056,0.9990536570549011,0.0,0.0,0.0,16.557846069335938,0.6780505180358887,6.297407150268555,-2997.00341796875,0
1893.107,-0.017829909920692444,0.0006944252527318895,0.00014312268467620015,0.0,0.0,0.0,0.0,-0.00047868353431113064,0.001142277498729527,0.0028065494261682034,0.9968836903572083,0.0,0.0,0.0,16.55908203125,0.6860936284065247,6.294901371002197,-2997.22705078125,0
1903.0069999999996,-0.01783384382724762,0.0007006520754657686,0.00017206621123477817,0.0,0.0,0.0,0.0,0.0005329343839548528,-0.0020005647093057632,-0.0022232793271541595,1.000109076499939,0.0,0.0,0.0,16.556516647338867,0.6904175281524658,6.293750286102295,-2996.762451171875,0
1912.9259999999995,-0.017856664955615997,0.0006358280079439282,0.00016737777332309633,0.0,0.0,0.0,0.0,-2.092060458380729e-05,-0.00508155208081007,-0.0007604795973747969,0.9993579387664795,0.0,0.0,0.0,16.564617156982422,0.6832744479179382,6.28476619720459,-2998.228759765625,0
1922.8319999999985,-0.01787049137055874,0.0006728191510774195,0.00020358394249342382,0.0,0.0,0.0,0.0,-0.0014619446592405438,-0.0011030805762857199,0.001758253900334239,0.9973925352096558,0.0,0.0,0.0,16.559898376464844,0.6981143355369568,6.285826206207275,-2997.374755859375,0
1932.7529999999988,-0.0178707093000412,0.0006353798671625555,0.0001813267735997215,0.0,0.0,0.0,0.0,-0.000890570052433759,0.004222121089696884,-0.0025990023277699947,0.9978072047233582,0.0,0.0,0.0,16.5693302154541,0.6961445808410645,6.286484241485596,-2999.08203125,0
1942.6539999999986,-0.01783091202378273,0.0006549928802996874,0.0002298901235917583,0.0,0.0,0.0,0.0,0.0014380450593307614,0.0023027188144624233,0.004199273884296417,1.0000829696655273,0.0,0.0,0.0,16.56362533569336,0.691473126411438,6.277331352233887,-2998.04931640625,0
1952.574999999999,-0.01782788336277008,0.0006411921931430697,0.0001997166982619092,0.0,0.0,0.0,0.0,-0.00217324192635715,-0.004599983803927898,0.0030593727715313435,0.9998092651367188,0.0,0.0,0.0,16.554365158081055,0.6963217854499817,6.272016525268555,-2996.373291015625,0
1962.4759999999987,-0.017850728705525398,0.0007005041697993875,0.00020525328000076115,0.0,0.0,0.0,0.0,0.0005783888627775013,0.0023219583090394735,0.0004894222365692258,0.9975174069404602,0.0,0.0,0.0,16.565956115722656,0.7040501236915588,6.269222259521484,-2998.470947265625,0
1972.3949999999986,-0.017817741259932518,0.0007194019271992147,0.00013728675548918545,0.0,0.0,0.0,0.0,0.0013493914157152176,-0.005165579728782177,-0.0008298017783090472,0.9979150295257568,0.0,0.0,0.0,16.555252075195312,0.7164461612701416,6.275449275970459,-2996.53369140625,0
1982.298999999999,-0.017820876091718674,0.0007963036186993122,0.00015768453886266798,0.0,0.0,0.0,0.0,0.0012595304287970066,-0.004676038399338722,-0.001321303192526102,1.00094735622406,0.0,0.0,0.0,16.569068908691406,0.725522518157959,6.276091575622559,-2999.034423828125,0
1992.2279999999992,-0.017857225611805916,0.0007421489572152495,0.00013184953422751278,0.0,0.0,0.0,0.0,-0.0029968174640089273,0.004815482068806887,-0.0004276079998817295,0.9989596009254456,0.0,0.0,0.0,16.559064865112305,0.7196437120437622,6.268552303314209,-2997.223876953125,0
2002.1219999999994,-0.01782132498919964,0.0007792336982674897,0.00015550728130619973,0.0,0.0,0.0,0.0,0.0022995732724666595,-0.0002587360795587301,-0.002698688767850399,0.9990956783294678,0.0,0.0,0.0,16.569263458251953,0.7219839692115784,6.273744583129883,-2999.069580078125,0
2012.0429999999997,-0.017822042107582092,0.000741711410228163,8.062607957981527e-05,0.0,0.0,0.0,0.0,0.00037150830030441284,-0.0009088852675631642,-0.0031411852687597275,1.0011441707611084,0.0,0.0,0.0,16.56393051147461,0.7119618058204651,6.2671966552734375,-2998.1044921875,0
2021.9470000000001,-0.017803218215703964,0.0007576342904940248,8.748783875489607e-05,0.0,0.0,0.0,0.0,0.0036529498174786568,0.0028344292659312487,-0.0008461747202090919,1.0015391111373901,0.0,0.0,0.0,16.574270248413086,0.7127691507339478,6.268230438232422,-2999.975830078125,0
2031.8709999999992,-0.017826516181230545,0.0007301503210328519,6.654230674030259e-05,0.0,0.0,0.0,0.0,-0.0033776822965592146,-0.005821045953780413,0.0035897488705813885,1.0002048015594482,0.0,0.0,0.0,16.59054183959961,0.7027977108955383,6.265902996063232,-3002.921142578125,0
2041.7709999999988,-0.01773814670741558,0.0006806220626458526,9.827991016209126e-05,0.0,0.0,0.0,0.0,5.7128549087792635e-05,0.0013329631183296442,-0.00019331436487846076,1.0008039474487305,0.0,0.0,0.0,16.58638572692871,0.7002294659614563,6.2841081619262695,-3002.168701171875,0
2051.6899999999987,-0.017731964588165283,0.0006474745459854603,4.188633101875894e-05,0.0,0.0,0.0,0.0,0.000560917891561985,-0.002171250293031335,0.0010945734102278948,0.9996525049209595,0.0,0.0,0.0,16.605648040771484,0.6936047673225403,6.2882080078125,-3005.655029296875,0
2061.6009999999987,-0.01772782951593399,0.0006698450888507068,6.261032103793696e-05,0.0,0.0,0.0,0.0,0.0017234213883057237,-0.0062974547035992146,0.0038205047603696585,1.0001089572906494,0.0,0.0,0.0,16.601255416870117,0.6952051520347595,6.280761241912842,-3004.860107421875,0
2071.5159999999996,-0.01772906817495823,0.0006536891451105475,2.4217379177571274e-05,0.0,0.0,0.0,0.0,-0.000774366722907871,-0.0012828696053475142,0.0022389439400285482,1.0028995275497437,0.0,0.0,0.0,16.616928100585938,0.693516194820404,6.2852044105529785,-3007.697265625,0
2081.414999999999,-0.017703987658023834,0.000650768110062927,4.61625968455337e-05,0.0,0.0,0.0,0.0,0.0007381346076726913,0.0027020166162401438,0.0032529933378100395,0.9990057349205017,0.0,0.0,0.0,16.61183738708496,0.6978998184204102,6.298144817352295,-3006.775390625,0
2091.3329999999987,-0.01764395460486412,0.0006932046380825341,-4.5970489736646414e-05,0.0,0.0,0.0,0.0,-0.0004975133924745023,-0.0016032421262934804,0.000561501074116677,0.9991263151168823,0.0,0.0,0.0,16.63557243347168,0.6989319324493408,6.310398101806641,-3011.07177734375,0
2101.2379999999994,-0.017707152292132378,0.0007361133466474712,-5.048450475442223e-05,0.0,0.0,0.0,0.0,0.0004381256294436753,-0.002053832868114114,0.0016807860229164362,1.0002354383468628,0.0,0.0,0.0,16.62997817993164,0.7143159508705139,6.299603462219238,-3010.058837890625,0
2111.1569999999992,-0.017643243074417114,0.0007751113153062761,-0.00016113344463519752,0.0,0.0,0.0,0.0,-0.0018042955780401826,-0.0028809092473238707,-0.002284613437950611,1.0006871223449707,0.0,0.0,0.0,16.64882469177246,0.7121872305870056,6.3122148513793945,-3013.47021484375,0
2121.063,-0.01768825761973858,0.0008028100128285587,-0.00017071704496629536,0.0,0.0,0.0,0.0,0.0033367243595421314,0.0013235111255198717,0.0006754673668183386,1.0026804208755493,0.0,0.0,0.0,16.640398025512695,0.7189194560050964,6.305131435394287,-3011.94482421875,0
2130.9849999999988,-0.017657186836004257,0.0008103291620500386,-0.00026262851315550506,0.0,0.0,0.0,0.0,0.0010717852273955941,0.0015793933998793364,-0.0042886268347501755,1.0004949569702148,0.0,0.0,0.0,16.657855987548828,0.7083694338798523,6.3090691566467285,-3015.10498046875,0
2140.884,-0.017643367871642113,0.0008392350864596665,-0.0002490513143129647,0.0,0.0,0.0,0.0,-0.0012741520768031478,-0.0020050841849297285,-0.0009292183676734567,0.9992479681968689,0.0,0.0,0.0,16.649465560913086,0.7115859389305115,6.306728839874268,-3013.586181640625,0
2150.8149999999987,-0.017705770209431648,0.0007624355494044721,-0.00025814573746174574,0.0,0.0,0.0,0.0,0.0008213194669224322,0.004691757261753082,0.0007823006599210203,0.9995246529579163,0.0,0.0,0.0,16.65736961364746,0.7035568356513977,6.2981133460998535,-3015.01708984375,0
2160.709999999999,-0.01765783503651619,0.0008019210654310882,-0.00021906635083723813,0.0,0.0,0.0,0.0,0.002055177930742502,-0.0016505925450474024,-0.0005034668720327318,0.9998315572738647,0.0,0.0,0.0,16.649789810180664,0.7172136902809143,6.302096843719482,-3013.64501953125,0
2170.629999999999,-0.01770637184381485,0.0007339411531575024,-0.00024250072601716965,0.0,0.0,0.0,0.0,0.003077632049098611,0.00010658540850272402,0.0017018660437315702,1.0005168914794922,0.0,0.0,0.0,16.662242889404297,0.6987441182136536,6.285074234008789,-3015.89892578125,0
2180.529999999999,-0.01765982247889042,0.0007692372309975326,-0.00020200565631967038,0.0,0.0,0.0,0.0,0.001893877168186009,-0.0006401353748515248,-0.00012124005297664553,1.0015478134155273,0.0,0.0,0.0,16.65471076965332,0.6976189613342285,6.296107769012451,-3014.535888671875,0
2190.449999999999,-0.017764760181307793,0.0006899284780956805,-0.00015052943490445614,0.0,0.0,0.0,0.0,-0.001281600445508957,-0.0011244284687563777,0.003291528206318617,0.999036431312561,0.0,0.0,0.0,16.66010284423828,0.688884973526001,6.284276962280273,-3015.51171875,0
2200.352999999999,-0.01776374876499176,0.0007302200538106263,-0.00011416698544053361,0.0,0.0,0.0,0.0,-0.0009589357650838792,-0.004400260280817747,-0.0015987912192940712,0.9994105100631714,0.0,0.0,0.0,16.650833129882812,0.6951079964637756,6.296682834625244,-3013.833740234375,0
2210.2779999999984,-0.017806777730584145,0.0006928665097802877,-0.0001176274090539664,0.0,0.0,0.0,0.0,-0.001263467944227159,-0.0035382609348744154,0.00010069579730043188,1.0004796981811523,0.0,0.0,0.0,16.65506362915039,0.6936986446380615,6.296177387237549,-3014.599609375,0
2220.1759999999995,-0.017794329673051834,0.0007175375358201563,-7.899385673226789e-05,0.0,0.0,0.0,0.0,4.715936302090995e-05,-0.002860679291188717,-0.0030782893300056458,0.999748706817627,0.0,0.0,0.0,16.64657211303711,0.69935542345047,6.314713478088379,-3013.062744140625,0
2230.0919999999987,-0.01782558672130108,0.0006691703456453979,-0.00010162903345189989,0.0,0.0,0.0,0.0,0.00332202878780663,0.0018497363198548555,0.0017145086312666535,1.0015703439712524,0.0,0.0,0.0,16.64092254638672,0.6922893524169922,6.311618328094482,-3012.0400390625,0
2240.003999999999,-0.017757076770067215,0.0006603605579584837,-5.097179746371694e-05,0.0,0.0,0.0,0.0,2.8818172722822055e-05,0.002026057569310069,0.0018804093124344945,1.0013569593429565,0.0,0.0,0.0,16.634687423706055,0.6918500661849976,6.3364338874816895,-3010.91162109375,0
2249.9169999999995,-0.017807120457291603,0.0006497807917185128,-2.7359945306670852e-05,0.0,0.0,0.0,0.0,0.0040740459226071835,-0.0016693029319867492,4.537193944997853e-06,0.9993780255317688,0.0,0.0,0.0,16.63329315185547,0.6920366883277893,6.324671745300293,-3010.6591796875,0
2259.8229999999985,-0.017765730619430542,0.0006261657108552754,1.5623631043126807e-05,0.0,0.0,0.0,0.0,0.0008916461374610662,0.0005045208381488919,0.0035533292684704065,0.9993075132369995,0.0,0.0,0.0,16.625341415405273,0.687268078327179,6.338057518005371,-3009.219482421875,0
2269.7349999999988,-0.017814336344599724,0.0005863973055966198,2.166387093893718e-05,0.0,0.0,0.0,0.0,5.5032152886269614e-05,-0.0011456368956714869,-0.005024086683988571,0.9989736080169678,0.0,0.0,0.0,16.624252319335938,0.6811184287071228,6.327115058898926,-3009.02294921875,0
2279.645999999999,-0.017790960147976875,0.0006037020939402282,7.37373557058163e-05,0.0,0.0,0.0,0.0,-0.0008141153957694769,-0.0005973893566988409,0.003052397631108761,1.0003557205200195,0.0,0.0,0.0,16.617979049682617,0.6857195496559143,6.332083702087402,-3007.88720703125,0
2289.557999999999,-0.017860524356365204,0.0005642954492941499,8.062554115895182e-05,0.0,0.0,0.0,0.0,-6.0988579207332805e-05,-0.00201068795286119,0.0002155186521122232,1.0013107061386108,0.0,0.0,0.0,16.59807014465332,0.6895872950553894,6.334170341491699,-3004.283935546875,0
2299.468999999999,-0.017777541652321815,0.0005808288115076721,0.00011716236622305587,0.0,0.0,0.0,0.0,0.002353066811338067,0.001783967949450016,0.0019324125023558736,0.9990866780281067,0.0,0.0,0.0,16.60584831237793,0.6867939829826355,6.3470587730407715,-3005.69140625,0
2309.383,-0.01784322038292885,0.0005368023412302136,0.00012866621545981616,0.0,0.0,0.0,0.0,-0.004395445808768272,-0.005833176895976067,0.00040483157499693334,1.0013816356658936,0.0,0.0,0.0,16.584327697753906,0.6834139823913574,6.328878402709961,-3001.796142578125,0
2319.2919999999995,-0.017796918749809265,0.0005953994696028531,0.0001621105329832062,0.0,0.0,0.0,0.0,-4.428117608767934e-05,-0.003303646808490157,0.000428490195190534,1.0031715631484985,0.0,0.0,0.0,16.59886932373047,0.6882107853889465,6.336516857147217,-3004.428466796875,0
2329.2029999999995,-0.01791369915008545,0.0005328265833668411,0.0002451793407090008,0.0,0.0,0.0,0.0,-0.0020333367865532637,-0.0019470860715955496,0.0008946402813307941,1.0019701719284058,0.0,0.0,0.0,16.58188247680664,0.6936927437782288,6.3308000564575195,-3001.353515625,0
2339.118999999999,-0.017835455015301704,0.0006056546117179096,0.00030063564190641046,0.0,0.0,0.0,0.0,0.0023841129150241613,0.0012919012224301696,-0.0006160014308989048,1.001052975654602,0.0,0.0,0.0,16.592971801757812,0.6993044018745422,6.345344543457031,-3003.36083984375,0
2349.026,-0.017849499359726906,0.0006002663867548108,0.0003053592226933688,0.0,0.0,0.0,0.0,-0.0026877429336309433,-0.0020680264569818974,0.0014719058526679873,0.9998214244842529,0.0,0.0,0.0,16.59217643737793,0.7043064832687378,6.345128059387207,-3003.216796875,0
2358.9399999999987,-0.017917264252901077,0.0006255191401578486,0.0003381287679076195,0.0,0.0,0.0,0.0,0.0017080031102523208,0.001987482188269496,0.0005926816374994814,0.9992883801460266,0.0,0.0,0.0,16.586957931518555,0.7124683260917664,6.323614120483398,-3002.2724609375,0
2368.851999999999,-0.017902934923768044,0.0006355210789479315,0.00031289225444197655,0.0,0.0,0.0,0.0,-0.0017480620881542563,-0.003981763031333685,0.002420935546979308,0.9976565837860107,0.0,0.0,0.0,16.592361450195312,0.713289201259613,6.331097602844238,-3003.25048828125,0
2378.768,-0.017870282754302025,0.0006374702788889408,0.0003739428357221186,0.0,0.0,0.0,0.0,0.002601704793050885,0.005425325594842434,-0.002184186829254031,1.0018864870071411,0.0,0.0,0.0,16.586502075195312,0.7170624136924744,6.325765132904053,-3002.18994140625,0
2388.6759999999995,-0.017827574163675308,0.0006531112012453377,0.0003118744643870741,0.0,0.0,0.0,0.0,0.0008861570386216044,-0.0014914723578840494,0.0006839384441263974,1.0009958744049072,0.0,0.0,0.0,16.59296989440918,0.7189668416976929,6.328953266143799,-3003.360595703125,0
2398.583999999999,-0.017872896045446396,0.0006449900101870298,0.00033200025791302323,0.0,0.0,0.0,0.0,0.0006051052478142083,0.0018285774858668447,-0.005689303856343031,0.9987250566482544,0.0,0.0,0.0,16.586809158325195,0.7194488644599915,6.32477331161499,-3002.245361328125,0
2408.5019999999986,-0.017801925539970398,0.0007082732627168298,0.00024782514083199203,0.0,0.0,0.0,0.0,-0.0002853042387869209,0.0016727953916415572,-0.0007792981923557818,0.9989259839057922,0.0,0.0,0.0,16.595474243164062,0.7262873649597168,6.337657928466797,-3003.813720703125,0
