timestamp,stateEstimate.x,stateEstimate.y,stateEstimate.z,controller.cmd_thrust,controller.cmd_roll,controller.cmd_pitch,controller.cmd_yaw,controller.r_roll,controller.r_pitch,controller.r_yaw,controller.accelz,controller.actuatorThrust,controller.roll,controller.pitch,controller.yaw,controller.rollRate,controller.pitchRate,controller.yawRate,controller.ctr_yaw
0.0,-0.004427272826433182,-0.014956498518586159,0.0002476366062182933,0.0,0.0,0.0,0.0,-0.0018210583366453648,0.005158320069313049,0.0026905150152742863,1.000823974609375,0.0,0.0,0.0,9.847620010375977,1.2608612775802612,6.042784690856934,-1782.438720703125,0
9.917999999999665,-0.004375399090349674,-0.014937242493033409,0.0003026356571353972,0.0,0.0,0.0,0.0,0.0006326578441075981,-0.001169609371572733,-0.004216072615236044,0.9991241097450256,0.0,0.0,0.0,9.852375030517578,1.2585394382476807,6.051952362060547,-1783.299560546875,0
19.82799999999952,-0.004433979280292988,-0.015008889138698578,0.0003046428901143372,0.0,0.0,0.0,0.0,0.0008051710901781917,-0.005450560711324215,-0.0009963464690372348,1.0003453493118286,0.0,0.0,0.0,9.856231689453125,1.25645112991333,6.039218425750732,-1783.9974365234375,0
29.747999999999593,-0.004405399784445763,-0.014997199177742004,0.00035788488457910717,0.0,0.0,0.0,0.0,-0.003026058664545417,0.001286696526221931,0.003035946050658822,1.0007318258285522,0.0,0.0,0.0,9.847411155700684,1.2544591426849365,6.029470920562744,-1782.4010009765625,0
39.65799999999945,-0.004433748312294483,-0.015033388510346413,0.0003346380835864693,0.0,0.0,0.0,0.0,0.0005447155563160777,0.005623369012027979,0.0023105975706130266,1.0005128383636475,0.0,0.0,0.0,9.847498893737793,1.253770351409912,6.0257062911987305,-1782.416748046875,0
49.56999999999971,-0.004433427471667528,-0.015010769478976727,0.00038305958150886,0.0,0.0,0.0,0.0,-0.00011036289652111009,0.0014097127132117748,0.00013306818436831236,0.9999608397483826,0.0,0.0,0.0,9.838726997375488,1.2497128248214722,6.013525009155273,-1780.8291015625,0
59.492999999998574,-0.0044501475058496,-0.015062886290252209,0.0003398930421099067,0.0,0.0,0.0,0.0,0.0010701880091801286,0.0006009134813211858,-7.790009112795815e-05,1.0013309717178345,0.0,0.0,0.0,9.843873023986816,1.2439061403274536,5.997567653656006,-1781.760498046875,0
69.40699999999924,-0.004447258077561855,-0.015019206330180168,0.0003974057617597282,0.0,0.0,0.0,0.0,0.0011834100587293506,0.0013312890660017729,-0.003120141802355647,0.9997923970222473,0.0,0.0,0.0,9.833526611328125,1.236479640007019,5.981683731079102,-1779.8878173828125,0
79.3159999999989,-0.004468812141567469,-0.015076691284775734,0.00035500183003023267,0.0,0.0,0.0,0.0,-0.0004466866666916758,-0.0026120049878954887,-0.00017616797413211316,1.0006821155548096,0.0,0.0,0.0,9.844382286071777,1.2313039302825928,5.978090763092041,-1781.852783203125,0
89.22199999999975,-0.00443757139146328,-0.01502702571451664,0.0004250871133990586,0.0,0.0,0.0,0.0,-0.0002874904021155089,-0.000626846740487963,0.0009669262217357755,0.99852454662323,0.0,0.0,0.0,9.84762191772461,1.2401957511901855,5.986118316650391,-1782.43896484375,0
99.13400000000001,-0.004457953851670027,-0.015077915973961353,0.0003833572845906019,0.0,0.0,0.0,0.0,0.00042155705159530044,0.001831426052376628,-0.0020965482108294964,0.9990041255950928,0.0,0.0,0.0,9.857398986816406,1.2313172817230225,5.985583305358887,-1784.2088623046875,0
109.04199999999946,-0.004428769461810589,-0.015024208463728428,0.0004534722538664937,0.0,0.0,0.0,0.0,0.003933765459805727,0.0006738365045748651,-0.0003878317365888506,1.000422477722168,0.0,0.0,0.0,9.862513542175293,1.2436214685440063,5.997581481933594,-1785.134521484375,0
118.95099999999911,-0.004440227057784796,-0.015042295679450035,0.00041894393507391214,0.0,0.0,0.0,0.0,0.0016238079406321049,-0.001852053334005177,0.0015079162549227476,1.001150131225586,0.0,0.0,0.0,9.863405227661133,1.238814115524292,6.000321388244629,-1785.2958984375,0
128.85799999999836,-0.004426121711730957,-0.01500312052667141,0.00047768978402018547,0.0,0.0,0.0,0.0,-0.0003377953835297376,-0.00010595142521196976,-0.0008268091478385031,1.002281665802002,0.0,0.0,0.0,9.865840911865234,1.2449477910995483,6.003121852874756,-1785.7369384765625,0
138.77499999999964,-0.0044840918853878975,-0.015095354989171028,0.0004706122854258865,0.0,0.0,0.0,0.0,0.00010550947627052665,-0.002224600873887539,0.003121001645922661,1.0013179779052734,0.0,0.0,0.0,9.867518424987793,1.2345370054244995,5.996338367462158,-1786.0404052734375,0
148.67799999999988,-0.004430760629475117,-0.01506807841360569,0.0005534436204470694,0.0,0.0,0.0,0.0,-0.0013922457583248615,0.003425278700888157,-0.0018329491140320897,1.0000993013381958,0.0,0.0,0.0,9.85657024383545,1.2353219985961914,5.989663600921631,-1784.0587158203125,0
158.59899999999834,-0.004421654157340527,-0.015090374276041985,0.0004989334847778082,0.0,0.0,0.0,0.0,-0.0034514388535171747,-0.0010600199457257986,0.002813774859532714,0.9998387694358826,0.0,0.0,0.0,9.861419677734375,1.2363561391830444,5.998483180999756,-1784.9365234375,0
168.5059999999994,-0.004397695418447256,-0.015060641802847385,0.0005694151623174548,0.0,0.0,0.0,0.0,-0.0020824808161705732,0.0016829126980155706,0.0014117767568677664,1.0007860660552979,0.0,0.0,0.0,9.851231575012207,1.2388617992401123,5.990444183349609,-1783.092529296875,0
178.41899999999987,-0.004388116765767336,-0.015066108666360378,0.0005260265897959471,0.0,0.0,0.0,0.0,0.000547304458450526,-0.0027970809023827314,-0.0021537616848945618,1.0021588802337646,0.0,0.0,0.0,9.849562644958496,1.243578553199768,5.9854536056518555,-1782.79052734375,0
188.32799999999952,-0.004446652717888355,-0.014985733665525913,0.0005797370686195791,0.0,0.0,0.0,0.0,0.0013255676021799445,-0.004465596284717321,-0.00012759215314872563,1.0009996891021729,0.0,0.0,0.0,9.845600128173828,1.265816330909729,5.987884521484375,-1782.0731201171875,0
198.24499999999898,-0.00444429786875844,-0.015005752444267273,0.000532978679984808,0.0,0.0,0.0,0.0,0.0005573059315793216,0.0020561714190989733,-3.636113979155198e-05,0.9983340501785278,0.0,0.0,0.0,9.845212936401367,1.2688158750534058,5.991800785064697,-1782.003173828125,0
208.15899999999965,-0.004507581703364849,-0.014970634132623672,0.000568410090636462,0.0,0.0,0.0,0.0,-0.0020621411968022585,0.001801305334083736,0.0010568916331976652,1.00022554397583,0.0,0.0,0.0,9.842822074890137,1.2826374769210815,5.995401859283447,-1781.5701904296875,0
218.0679999999993,-0.004419347736984491,-0.014884788542985916,0.0004481435753405094,0.0,0.0,0.0,0.0,-0.0008551037753932178,-0.0026393362786620855,0.0007981410017237067,1.0003323554992676,0.0,0.0,0.0,9.844855308532715,1.2907313108444214,6.011049747467041,-1781.938232421875,0
227.97999999999956,-0.004477824550122023,-0.01491468958556652,0.00045549008063971996,0.0,0.0,0.0,0.0,-0.0005948850885033607,-0.00043989045661874115,0.0003612098516896367,0.9993926882743835,0.0,0.0,0.0,9.83406925201416,1.2934858798980713,6.008743762969971,-1779.9859619140625,0
237.89699999999903,-0.004447217099368572,-0.014936135150492191,0.00034704990684986115,0.0,0.0,0.0,0.0,0.0022445961367338896,-0.0016097818734124303,0.00359714450314641,0.9999762177467346,0.0,0.0,0.0,9.845813751220703,1.2943726778030396,6.032188892364502,-1782.11181640625,0
247.8139999999985,-0.004392414819449186,-0.014946253038942814,0.0004122234822716564,0.0,0.0,0.0,0.0,-0.0010910165729001164,-0.005078921094536781,3.2935950002865866e-05,0.9990975260734558,0.0,0.0,0.0,9.848880767822266,1.2937328815460205,6.0537309646606445,-1782.6668701171875,0
257.71500000000015,-0.004446777049452066,-0.014980221167206764,0.0004155757778789848,0.0,0.0,0.0,0.0,0.004247292876243591,0.003809035988524556,-0.0040926942601799965,0.9996200799942017,0.0,0.0,0.0,9.838414192199707,1.2863211631774902,6.0401763916015625,-1780.7725830078125,0
267.625,-0.004401693120598793,-0.015001998282968998,0.0004551182792056352,0.0,0.0,0.0,0.0,-0.0012325297575443983,-0.0005437498330138624,0.0007890899432823062,0.9992042183876038,0.0,0.0,0.0,9.844724655151367,1.2760738134384155,6.056070327758789,-1781.914794921875,0
277.53299999999945,-0.004330480005592108,-0.014931873418390751,0.0003209049173165113,0.0,0.0,0.0,0.0,0.0013325108448043466,3.227925844839774e-05,0.002042862121015787,1.0006738901138306,0.0,0.0,0.0,9.847455024719238,1.289147973060608,6.081181526184082,-1782.4088134765625,0
287.4489999999987,-0.004309545271098614,-0.014945156872272491,0.0003449479991104454,0.0,0.0,0.0,0.0,-0.0015929013025015593,0.000890282797627151,0.0018467134796082973,1.0011483430862427,0.0,0.0,0.0,9.852849960327148,1.2958080768585205,6.080586910247803,-1783.3853759765625,0
297.3649999999998,-0.004311771597713232,-0.014975644648075104,0.00027150355163030326,0.0,0.0,0.0,0.0,-0.003701492678374052,0.001235476229339838,-0.0018534765113145113,1.0018553733825684,0.0,0.0,0.0,9.865668296813965,1.291503667831421,6.089454650878906,-1785.70556640625,0
307.2699999999986,-0.00432139728218317,-0.014952372759580612,0.00029470978188328445,0.0,0.0,0.0,0.0,-0.0011247764341533184,-0.001363811083137989,-0.0007394540589302778,1.0002065896987915,0.0,0.0,0.0,9.871833801269531,1.315504789352417,6.089777946472168,-1786.821533203125,0
317.1849999999995,-0.0043036602437496185,-0.014933224767446518,0.00022474899014923722,0.0,0.0,0.0,0.0,0.002899319399148226,0.00043656679918058217,-0.00035896996269002557,0.9997689723968506,0.0,0.0,0.0,9.870819091796875,1.3141305446624756,6.0923261642456055,-1786.637939453125,0
327.09699999999975,-0.0042935567907989025,-0.0149017833173275,0.0002571163640823215,0.0,0.0,0.0,0.0,-2.0818721168325283e-05,0.002245089504867792,0.0011788065312430263,1.0021607875823975,0.0,0.0,0.0,9.875957489013672,1.3114657402038574,6.092345237731934,-1787.5679931640625,0
337.0149999999994,-0.004346058238297701,-0.01497425977140665,0.00023755969596095383,0.0,0.0,0.0,0.0,-0.003130974480882287,0.0010976223275065422,-6.176544502523029e-06,1.000354528427124,0.0,0.0,0.0,9.885051727294922,1.3056069612503052,6.084860801696777,-1789.2139892578125,0
346.91399999999885,-0.004313135053962469,-0.01495891623198986,0.00027934752870351076,0.0,0.0,0.0,0.0,0.0017841430380940437,-0.0037717611994594336,0.003242055419832468,0.9996169209480286,0.0,0.0,0.0,9.887639045715332,1.3089536428451538,6.087553024291992,-1789.682373046875,0
356.8329999999987,-0.00436783954501152,-0.014993300661444664,0.0002807756536640227,0.0,0.0,0.0,0.0,0.002470248145982623,0.000611735275015235,0.0021324623376131058,0.9992121458053589,0.0,0.0,0.0,9.879074096679688,1.313685655593872,6.091800689697266,-1788.1319580078125,0
366.73699999999917,-0.0043622273951768875,-0.014944178983569145,0.0003211006987839937,0.0,0.0,0.0,0.0,-0.0025423653423786163,-0.001448267255909741,-3.640274007921107e-05,0.9993784427642822,0.0,0.0,0.0,9.883463859558105,1.3299185037612915,6.105518341064453,-1788.9267578125,0
376.65999999999985,-0.0044358293525874615,-0.015050068497657776,0.0003158598265144974,0.0,0.0,0.0,0.0,-0.0013839933089911938,-0.0020901719108223915,-0.004662900231778622,1.0021432638168335,0.0,0.0,0.0,9.896822929382324,1.3129950761795044,6.093774318695068,-1791.3446044921875,0
386.5639999999985,-0.004417658783495426,-0.014956869184970856,0.0003971885598730296,0.0,0.0,0.0,0.0,4.5697102905251086e-05,-0.0010831502731889486,0.0010548881255090237,0.9996778964996338,0.0,0.0,0.0,9.899415016174316,1.3291332721710205,6.102519512176514,-1791.813720703125,0
396.47699999999895,-0.004457645118236542,-0.015046683140099049,0.0003557523596100509,0.0,0.0,0.0,0.0,0.001039563794620335,-0.00016448355745524168,0.00298676872625947,0.9986656308174133,0.0,0.0,0.0,9.905719757080078,1.3222944736480713,6.104065895080566,-1792.955078125,0
406.3939999999984,-0.004446122329682112,-0.015032255090773106,0.0004109020810574293,0.0,0.0,0.0,0.0,-0.0005953713553026319,-0.002017285441979766,0.0013819506857544184,1.0001029968261719,0.0,0.0,0.0,9.896047592163086,1.3198469877243042,6.089053630828857,-1791.204345703125,0
416.3029999999999,-0.004467637278139591,-0.015098899602890015,0.00035212389775551856,0.0,0.0,0.0,0.0,0.000653953175060451,-0.0008910474716685712,0.0013343492755666375,0.9987010955810547,0.0,0.0,0.0,9.900917053222656,1.3125563859939575,6.094325065612793,-1792.085693359375,0
426.21799999999894,-0.0044316803105175495,-0.015038001351058483,0.0004315188270993531,0.0,0.0,0.0,0.0,-0.002246723510324955,0.0018247328698635101,-2.630981725815218e-06,0.9989776015281677,0.0,0.0,0.0,9.9043550491333,1.322591781616211,6.108145236968994,-1792.7078857421875,0
436.1239999999998,-0.004443947691470385,-0.015056109987199306,0.00039363070391118526,0.0,0.0,0.0,0.0,0.0025862420443445444,-0.005041866563260555,0.005205233581364155,1.0016299486160278,0.0,0.0,0.0,9.904855728149414,1.328600525856018,6.110727787017822,-1792.798583984375,0
446.03899999999885,-0.004447706043720245,-0.01503528282046318,0.0004404074279591441,0.0,0.0,0.0,0.0,-0.0003859244170598686,-0.00043606682447716594,0.0011833077296614647,0.9995301961898804,0.0,0.0,0.0,9.894643783569336,1.326454997062683,6.098700046539307,-1790.9503173828125,0
455.9579999999987,-0.004406606778502464,-0.015024946071207523,0.00034428827348165214,0.0,0.0,0.0,0.0,0.0014731086557731032,0.0027839960530400276,0.0019488756079226732,0.9987955093383789,0.0,0.0,0.0,9.891529083251953,1.331297516822815,6.111154556274414,-1790.3863525390625,0
465.86199999999917,-0.004407803062349558,-0.015003274194896221,0.00038708109059371054,0.0,0.0,0.0,0.0,0.0028440651949495077,0.0030193745624274015,-0.0002712502609938383,0.9999674558639526,0.0,0.0,0.0,9.881240844726562,1.3333393335342407,6.11024808883667,-1788.5242919921875,0
505.5069999999996,-0.004373230971395969,-0.014957446604967117,0.0003571438428480178,0.0,0.0,0.0,0.0,-1.644042094994802e-05,-0.0013118945062160492,-0.0013313984964042902,1.0009031295776367,0.0,0.0,0.0,9.883018493652344,1.3457708358764648,6.104153156280518,-1788.845947265625,0
515.4200000000001,-0.004414022900164127,-0.015017922967672348,0.0003331894986331463,0.0,0.0,0.0,0.0,0.0009031966328620911,-0.0035888073034584522,0.0016962324734777212,1.0001435279846191,0.0,0.0,0.0,9.88120174407959,1.3427207469940186,6.10643196105957,-1788.5172119140625,0
525.3179999999993,-0.004389353096485138,-0.014959350228309631,0.0003956519067287445,0.0,0.0,0.0,0.0,-0.0010930952848866582,-0.0034987370017915964,-0.0014636691194027662,0.9997051954269409,0.0,0.0,0.0,9.886005401611328,1.3446906805038452,6.119626522064209,-1789.3865966796875,0
535.25,-0.004424394108355045,-0.015014645643532276,0.00036948639899492264,0.0,0.0,0.0,0.0,0.001222323626279831,-0.0009250956936739385,-0.00036296321195550263,0.9999680519104004,0.0,0.0,0.0,9.884653091430664,1.3392958641052246,6.125007629394531,-1789.1417236328125,0
545.1419999999998,-0.004380956292152405,-0.015006167814135551,0.00042984215542674065,0.0,0.0,0.0,0.0,0.0008651363314129412,0.0010074264137074351,0.00398150272667408,0.9995017051696777,0.0,0.0,0.0,9.87389850616455,1.3407515287399292,6.122623920440674,-1787.1954345703125,0
555.0639999999985,-0.0044148145243525505,-0.015075656585395336,0.00039016918162815273,0.0,0.0,0.0,0.0,0.00021333673794288188,0.004018759820610285,-0.0008759609190747142,1.00019109249115,0.0,0.0,0.0,9.880203247070312,1.3247978687286377,6.1246256828308105,-1788.3365478515625,0
564.9669999999987,-0.0044408258982002735,-0.015034729614853859,0.00043292748159728944,0.0,0.0,0.0,0.0,-0.003307011676952243,0.0027463191654533148,0.0013609055895358324,1.001096487045288,0.0,0.0,0.0,9.871158599853516,1.3240193128585815,6.11553955078125,-1786.6993408203125,0
574.8909999999996,-0.004460964351892471,-0.015053722076117992,0.0003988472744822502,0.0,0.0,0.0,0.0,0.001179063692688942,-0.0010742276208475232,0.002094312570989132,1.0000325441360474,0.0,0.0,0.0,9.871232986450195,1.3262430429458618,6.115553855895996,-1786.712890625,0
584.7869999999984,-0.00444361288100481,-0.014980507083237171,0.0004733891400974244,0.0,0.0,0.0,0.0,-0.0006724381819367409,0.0018162874039262533,-0.002778154332190752,1.000879168510437,0.0,0.0,0.0,9.87468147277832,1.3395113945007324,6.114943027496338,-1787.3369140625,0
594.7199999999993,-0.0044670263305306435,-0.015051648020744324,0.00041747651994228363,0.0,0.0,0.0,0.0,0.00038602479617111385,-0.0024165380746126175,0.0027015164960175753,1.0016226768493652,0.0,0.0,0.0,9.882660865783691,1.3310848474502563,6.119537830352783,-1788.78125,0
604.610999999999,-0.0044830855913460255,-0.014998449943959713,0.0004742098390124738,0.0,0.0,0.0,0.0,-0.0006838006665930152,0.0068032206036150455,-0.003342158393934369,1.000321865081787,0.0,0.0,0.0,9.873115539550781,1.32872474193573,6.118626594543457,-1787.0535888671875,0
614.5489999999991,-0.004489426966756582,-0.01501568965613842,0.0004228175967000425,0.0,0.0,0.0,0.0,-0.0006376340752467513,-0.0011560111306607723,-0.0032204976305365562,0.9998534917831421,0.0,0.0,0.0,9.874798774719238,1.33193039894104,6.122091293334961,-1787.358154296875,0
624.4349999999995,-0.004462454933673143,-0.01495498325675726,0.0004997930373065174,0.0,0.0,0.0,0.0,-0.000796420790720731,0.0019266874296590686,-0.0028378639835864305,0.9992178678512573,0.0,0.0,0.0,9.874698638916016,1.3423057794570923,6.116636276245117,-1787.340087890625,0
634.3539999999994,-0.004444419406354427,-0.014964742586016655,0.0004170350730419159,0.0,0.0,0.0,0.0,0.0008861686801537871,0.0019007649971172214,-0.003069457830861211,0.9988796710968018,0.0,0.0,0.0,9.885175704956055,1.3460074663162231,6.131838321685791,-1789.236328125,0
644.2669999999998,-0.004437932278960943,-0.014986361376941204,0.00045394370681606233,0.0,0.0,0.0,0.0,0.0007288980414159596,-0.0010337025159969926,0.0022197572980076075,1.0013514757156372,0.0,0.0,0.0,9.875140190124512,1.3482928276062012,6.118557929992676,-1787.4200439453125,0
654.1759999999995,-0.0044183265417814255,-0.01498244795948267,0.00037161496584303677,0.0,0.0,0.0,0.0,-0.001695402548648417,0.0012230437714606524,0.0010823089396581054,0.9994125962257385,0.0,0.0,0.0,9.888529777526855,1.3471031188964844,6.129910945892334,-1789.843505859375,0
664.0810000000001,-0.004408788401633501,-0.014981316402554512,0.000413736910559237,0.0,0.0,0.0,0.0,0.0001405477523803711,0.003595607588067651,-0.0012172471033409238,0.9978241324424744,0.0,0.0,0.0,9.879794120788574,1.338466763496399,6.128663063049316,-1788.262451171875,0
674.0079999999998,-0.0043946681544184685,-0.014990041963756084,0.00033078237902373075,0.0,0.0,0.0,0.0,0.001616239664144814,0.00423456123098731,-0.0031211457680910826,0.9972935914993286,0.0,0.0,0.0,9.880146980285645,1.340319275856018,6.135346412658691,-1788.3262939453125,0
683.9079999999994,-0.004379229620099068,-0.014962509274482727,0.00037452136166393757,0.0,0.0,0.0,0.0,-0.00260341539978981,0.004259958863258362,0.0011138663394376636,0.999167263507843,0.0,0.0,0.0,9.88210678100586,1.3509541749954224,6.134011268615723,-1788.6810302734375,0
693.8239999999987,-0.004381637088954449,-0.014987641014158726,0.0003001927398145199,0.0,0.0,0.0,0.0,0.001139650004915893,0.0010653695790097117,-0.0019177728099748492,0.9964969158172607,0.0,0.0,0.0,9.879255294799805,1.350730538368225,6.127233982086182,-1788.1649169921875,0
703.7259999999987,-0.004390496760606766,-0.01498487964272499,0.0003252864698879421,0.0,0.0,0.0,0.0,-0.0015188362449407578,0.0014232391258701682,-0.0019527440890669823,1.0003834962844849,0.0,0.0,0.0,9.870123863220215,1.3514598608016968,6.114530563354492,-1786.511962890625,0
713.6509999999998,-0.004435041453689337,-0.01502386573702097,0.0002927637833636254,0.0,0.0,0.0,0.0,-0.0011021867394447327,-0.0007813775446265936,0.0001514241739641875,1.0021741390228271,0.0,0.0,0.0,9.870621681213379,1.3476094007492065,6.105366230010986,-1786.6021728515625,0
723.5559999999987,-0.004478858318179846,-0.014952357858419418,0.0003256674681324512,0.0,0.0,0.0,0.0,-0.0029309440869838,-0.0014893399784341455,0.001366537413559854,1.002443790435791,0.0,0.0,0.0,9.866828918457031,1.3679873943328857,6.105804443359375,-1785.9156494140625,0
733.485999999999,-0.004482170566916466,-0.014958329498767853,0.00024996697902679443,0.0,0.0,0.0,0.0,3.992361598648131e-05,-0.0004964445251971483,0.0029575652442872524,1.0002789497375488,0.0,0.0,0.0,9.884137153625488,1.3671296834945679,6.114620208740234,-1789.0484619140625,0
743.3759999999984,-0.004420737735927105,-0.014985521323978901,0.0002936579694505781,0.0,0.0,0.0,0.0,0.0006659296923317015,0.0030158020090311766,0.0036894837394356728,0.9976793527603149,0.0,0.0,0.0,9.874171257019043,1.377189040184021,6.11438512802124,-1787.24462890625,0
753.2969999999987,-0.004427839536219835,-0.014997849240899086,0.00022481883934233338,0.0,0.0,0.0,0.0,-0.0019511980935931206,0.0008465312421321869,0.001945330062881112,1.0004037618637085,0.0,0.0,0.0,9.876174926757812,1.3716270923614502,6.109504699707031,-1787.607421875,0
763.2019999999993,-0.004490663763135672,-0.015027361921966076,0.0002156444388674572,0.0,0.0,0.0,0.0,0.0002436928334645927,0.0014254968846216798,0.00017176974506583065,0.9996896982192993,0.0,0.0,0.0,9.866960525512695,1.3691918849945068,6.101013660430908,-1785.9395751953125,0
773.1179999999986,-0.004506593570113182,-0.015066548250615597,0.00013828052033204585,0.0,0.0,0.0,0.0,0.0003869546053465456,0.0031321621499955654,0.0005192505195736885,0.9992830753326416,0.0,0.0,0.0,9.881677627563477,1.3648045063018799,6.108005046844482,-1788.603271484375,0
783.0229999999992,-0.004419708624482155,-0.015052673406898975,0.00022677675588056445,0.0,0.0,0.0,0.0,0.0002313214063178748,0.0020136660896241665,0.0015549976378679276,0.9993599057197571,0.0,0.0,0.0,9.885241508483887,1.3636418581008911,6.1234869956970215,-1789.2484130859375,0
792.9459999999999,-0.004438900854438543,-0.0150857949629426,0.0001585540157975629,0.0,0.0,0.0,0.0,-0.0009218167397193611,0.0012309883022680879,-0.00028472751728259027,0.9987413287162781,0.0,0.0,0.0,9.896356582641602,1.366004467010498,6.121225357055664,-1791.26025390625,0
802.8499999999985,-0.004394230432808399,-0.014998401515185833,0.00023771797714289278,0.0,0.0,0.0,0.0,-0.00032160719274543226,0.0008054348872974515,0.0033063951414078474,0.9995629191398621,0.0,0.0,0.0,9.898500442504883,1.380489468574524,6.130308628082275,-1791.648193359375,0
812.762999999999,-0.004466386046260595,-0.015083856880664825,0.00022698855900671333,0.0,0.0,0.0,0.0,-0.0007581082172691822,0.00490536680445075,-0.0011416568886488676,1.0002714395523071,0.0,0.0,0.0,9.905396461486816,1.368803858757019,6.111208438873291,-1792.8963623046875,0
822.6669999999995,-0.004423358011990786,-0.01499856635928154,0.0003024691832251847,0.0,0.0,0.0,0.0,-0.001861181459389627,-0.005220679100602865,0.001306310179643333,1.0004081726074219,0.0,0.0,0.0,9.906982421875,1.3902370929718018,6.125147342681885,-1793.18359375,0
832.5989999999983,-0.004467874765396118,-0.015032759867608547,0.00028580709476955235,0.0,0.0,0.0,0.0,0.0009922825265675783,0.0011156174587085843,-0.0017389601562172174,1.0007266998291016,0.0,0.0,0.0,9.903104782104492,1.390528917312622,6.123347759246826,-1792.4815673828125,0
842.4899999999998,-0.004435752518475056,-0.015008619986474514,0.00033946766052395105,0.0,0.0,0.0,0.0,-0.0006057798746041954,0.0028873805422335863,-2.6357942260801792e-05,1.0004020929336548,0.0,0.0,0.0,9.893275260925293,1.3864589929580688,6.11691427230835,-1790.702392578125,0
852.4089999999997,-0.004475763533264399,-0.015061266720294952,0.00030920005519874394,0.0,0.0,0.0,0.0,-0.0024159897584468126,-0.004040248226374388,-0.0005468691815622151,1.0006448030471802,0.0,0.0,0.0,9.895368576049805,1.3777482509613037,6.108173847198486,-1791.0814208984375,0
862.3139999999985,-0.0044520217925310135,-0.015024091117084026,0.00036898982943966985,0.0,0.0,0.0,0.0,0.00040028654620982707,0.0023493843618780375,0.0011205541668459773,1.0010277032852173,0.0,0.0,0.0,9.88516616821289,1.3812845945358276,6.105381488800049,-1789.23486328125,0
872.2369999999992,-0.004432983230799437,-0.014995965175330639,0.0003004625905305147,0.0,0.0,0.0,0.0,0.0014480511890724301,0.011044076643884182,0.0002851522294804454,0.999441385269165,0.0,0.0,0.0,9.887271881103516,1.3887181282043457,6.125410556793213,-1789.6158447265625,0
882.1389999999992,-0.004398126620799303,-0.014968485571444035,0.0003558867028914392,0.0,0.0,0.0,0.0,-0.0022637690417468548,-0.0019862507469952106,-0.0008470340981148183,1.0013666152954102,0.0,0.0,0.0,9.888474464416504,1.3905036449432373,6.11550235748291,-1789.83349609375,0
892.0630000000001,-0.004400740377604961,-0.014988848939538002,0.0002916185767389834,0.0,0.0,0.0,0.0,0.0008330764248967171,-0.0003110505931545049,-0.000644461833871901,1.0002864599227905,0.0,0.0,0.0,9.887381553649902,1.3925343751907349,6.112360000610352,-1789.6357421875,0
901.9650000000001,-0.004398909397423267,-0.014970025047659874,0.00033093011006712914,0.0,0.0,0.0,0.0,0.0016208194429054856,0.0017717545852065086,0.0012159564066678286,0.9985591173171997,0.0,0.0,0.0,9.883353233337402,1.3891868591308594,6.1099724769592285,-1788.9066162109375,0
911.8859999999986,-0.004448376130312681,-0.015019821003079414,0.00031380323343910277,0.0,0.0,0.0,0.0,0.001870668143965304,0.001946802600286901,-0.0013633370399475098,0.998359203338623,0.0,0.0,0.0,9.88062858581543,1.3866329193115234,6.105295658111572,-1788.4134521484375,0
921.7849999999999,-0.004429513588547707,-0.015005883760750294,0.00036339450161904097,0.0,0.0,0.0,0.0,0.0014385535614565015,-0.004513109568506479,0.0016408313531428576,1.0002262592315674,0.0,0.0,0.0,9.869674682617188,1.379662275314331,6.103090286254883,-1786.4306640625,0
931.7089999999989,-0.0044237300753593445,-0.015002842992544174,0.00029513711342588067,0.0,0.0,0.0,0.0,0.001280925702303648,0.0001070003054337576,-0.0007809885428287089,1.0016831159591675,0.0,0.0,0.0,9.865118026733398,1.3793340921401978,6.104345798492432,-1785.60595703125,0
941.607,-0.004391130525618792,-0.014972027391195297,0.00035023968666791916,0.0,0.0,0.0,0.0,0.0016462532803416252,-0.00010269993799738586,-0.002619191538542509,1.0004302263259888,0.0,0.0,0.0,9.868526458740234,1.3789427280426025,6.124678134918213,-1786.2230224609375,0
951.530999999999,-0.004408984445035458,-0.01499770674854517,0.00029878574423491955,0.0,0.0,0.0,0.0,-0.00011743550567189232,0.0001356405991828069,0.0030402070842683315,0.9982125163078308,0.0,0.0,0.0,9.867341041564941,1.374370813369751,6.1245646476745605,-1786.008544921875,0
961.4309999999987,-0.004407715983688831,-0.014988254755735397,0.0003377931716386229,0.0,0.0,0.0,0.0,0.0026378061156719923,0.004026876296848059,0.000797238782979548,0.9997453689575195,0.0,0.0,0.0,9.857696533203125,1.3707518577575684,6.11334228515625,-1784.2626953125,0
971.3499999999985,-0.0044230627827346325,-0.015032957307994366,0.00026802366483025253,0.0,0.0,0.0,0.0,-0.0018069366924464703,-0.0063175843097269535,0.00266575557179749,0.999134361743927,0.0,0.0,0.0,9.873522758483887,1.3640352487564087,6.114691257476807,-1787.1273193359375,0
981.2579999999998,-0.00442808261141181,-0.015009905211627483,0.00031371877412311733,0.0,0.0,0.0,0.0,0.001267323736101389,0.006373783107846975,-0.0019673483911901712,1.0007776021957397,0.0,0.0,0.0,9.86449146270752,1.3592921495437622,6.115530014038086,-1785.49267578125,0
991.1859999999997,-0.004445093218237162,-0.015054374933242798,0.00024342078540939838,0.0,0.0,0.0,0.0,0.0004851793055422604,-0.0013476513558998704,-0.00044639917905442417,1.002547264099121,0.0,0.0,0.0,9.876178741455078,1.35492742061615,6.127357006072998,-1787.608154296875,0
1001.0789999999997,-0.004445226863026619,-0.015011675655841827,0.00029784184880554676,0.0,0.0,0.0,0.0,0.0002641520113684237,0.0013983239186927676,-0.00019003024499397725,1.001227855682373,0.0,0.0,0.0,9.878983497619629,1.3607054948806763,6.122967720031738,-1788.11572265625,0
1011.0099999999984,-0.004468146245926619,-0.015025765635073185,0.0002468139282427728,0.0,0.0,0.0,0.0,-0.0008835467742756009,0.0004541685921140015,0.0003133313439320773,1.0011680126190186,0.0,0.0,0.0,9.890453338623047,1.3619682788848877,6.123110771179199,-1790.1917724609375,0
1020.8999999999996,-0.004443734418600798,-0.014948885887861252,0.000325072614941746,0.0,0.0,0.0,0.0,-0.002736604306846857,0.0004580511595122516,9.484503243584186e-05,1.001497507095337,0.0,0.0,0.0,9.891531944274902,1.3749696016311646,6.138516426086426,-1790.386962890625,0
1030.8310000000001,-0.004521641880273819,-0.015042220242321491,0.00032164592994377017,0.0,0.0,0.0,0.0,-0.00021678033226635307,-0.0007800254970788956,-0.00034588060225360096,1.0015839338302612,0.0,0.0,0.0,9.889744758605957,1.364912986755371,6.1303019523620605,-1790.0634765625,0
1040.7249999999985,-0.004470611456781626,-0.01500711776316166,0.00040246479329653084,0.0,0.0,0.0,0.0,0.0004927389090880752,0.0029506708960980177,0.0031734779477119446,0.9996147751808167,0.0,0.0,0.0,9.89103889465332,1.3729729652404785,6.140946388244629,-1790.297607421875,0
1050.6489999999994,-0.004512356128543615,-0.015083320438861847,0.0003660107613541186,0.0,0.0,0.0,0.0,-0.0014499578392133117,-0.002905837958678603,-0.003984434530138969,1.001743197441101,0.0,0.0,0.0,9.891735076904297,1.3676440715789795,6.127765655517578,-1790.4237060546875,0
1060.5499999999993,-0.004440370947122574,-0.015062689781188965,0.00045580771984532475,0.0,0.0,0.0,0.0,-0.000876796490047127,0.002668081084266305,-0.00038413674337789416,1.002605676651001,0.0,0.0,0.0,9.88056755065918,1.3677978515625,6.122306823730469,-1788.4024658203125,0
1070.4749999999985,-0.00447216397151351,-0.015096014365553856,0.0004336906422395259,0.0,0.0,0.0,0.0,0.0006293489132076502,0.0002244756615255028,-6.213726010173559e-05,1.0007091760635376,0.0,0.0,0.0,9.881296157836914,1.3676068782806396,6.119232177734375,-1788.5343017578125,0
1080.3739999999998,-0.004440421238541603,-0.015076705254614353,0.0005131426150910556,0.0,0.0,0.0,0.0,0.004882439970970154,-0.002681972458958626,-0.002487107878550887,1.0002310276031494,0.0,0.0,0.0,9.87165641784668,1.3654024600982666,6.117028713226318,-1786.78955078125,0
1090.2969999999987,-0.0044128019362688065,-0.015056652948260307,0.00044073318713344634,0.0,0.0,0.0,0.0,0.0029936807695776224,0.0036944025196135044,-0.0035165343433618546,0.9992591738700867,0.0,0.0,0.0,9.884907722473145,1.3607500791549683,6.131591796875,-1789.18798828125,0
1100.1949999999997,-0.004420698620378971,-0.015042195096611977,0.0004927967675030231,0.0,0.0,0.0,0.0,3.8733214751118794e-05,0.0028271693736314774,-0.0003549419925548136,1.00075364112854,0.0,0.0,0.0,9.888164520263672,1.3620736598968506,6.122947692871094,-1789.7774658203125,0
1110.119999999999,-0.004403938539326191,-0.015045358799397945,0.0004169177555013448,0.0,0.0,0.0,0.0,0.002201072173193097,0.0011087710736319423,0.00010757356358226389,1.0006171464920044,0.0,0.0,0.0,9.897475242614746,1.3636600971221924,6.128702163696289,-1791.462646484375,0
1120.0169999999998,-0.004424076993018389,-0.015001868829131126,0.00046942790504544973,0.0,0.0,0.0,0.0,-0.0005226623034104705,0.006496995221823454,-0.003275400958955288,0.9994621872901917,0.0,0.0,0.0,9.899069786071777,1.3691827058792114,6.136345863342285,-1791.7513427734375,0
1129.9359999999997,-0.0044531989842653275,-0.015038367360830307,0.0004361638566479087,0.0,0.0,0.0,0.0,0.0014798654010519385,-0.003300331300124526,0.0008392608724534512,0.9996141791343689,0.0,0.0,0.0,9.896162033081055,1.3677220344543457,6.12766170501709,-1791.224853515625,0
1139.8499999999985,-0.0044824229553341866,-0.014975113794207573,0.0004933373420499265,0.0,0.0,0.0,0.0,0.002484066179022193,-0.000616170815192163,-0.0004370215174276382,0.999902606010437,0.0,0.0,0.0,9.897193908691406,1.3738266229629517,6.126292705535889,-1791.4117431640625,0
1149.7639999999992,-0.004472268745303154,-0.014992878772318363,0.00040782924043014646,0.0,0.0,0.0,0.0,-0.0015805576695129275,-0.001842914498411119,0.0013457451714202762,1.0017085075378418,0.0,0.0,0.0,9.906562805175781,1.3689470291137695,6.127442836761475,-1793.1075439453125,0
1159.6669999999995,-0.0044617545790970325,-0.014949697069823742,0.0004717290576081723,0.0,0.0,0.0,0.0,0.0014443526742979884,0.002551302080973983,0.00012775261711794883,1.0024762153625488,0.0,0.0,0.0,9.90882682800293,1.3809242248535156,6.142302513122559,-1793.517333984375,0
1169.5919999999987,-0.004454091191291809,-0.014976573176681995,0.00038821814814582467,0.0,0.0,0.0,0.0,-1.2871858416474424e-05,-0.004198773298412561,0.0009290257003158331,0.9987194538116455,0.0,0.0,0.0,9.907995223999023,1.3768235445022583,6.150251865386963,-1793.366943359375,0
1179.4879999999994,-0.00446530245244503,-0.014946697279810905,0.0004372798139229417,0.0,0.0,0.0,0.0,-0.001268536550924182,0.0024008529726415873,-0.003303270088508725,1.0003477334976196,0.0,0.0,0.0,9.91153621673584,1.3845446109771729,6.159435272216797,-1794.0078125,0
1189.4079999999994,-0.00443206075578928,-0.014909079298377037,0.0003445277106948197,0.0,0.0,0.0,0.0,0.000436645932495594,-0.0036232953425496817,0.002118606586009264,0.9995234608650208,0.0,0.0,0.0,9.91010856628418,1.3943644762039185,6.164927005767822,-1793.7493896484375,0
1199.3139999999985,-0.004414867609739304,-0.014899078756570816,0.00039344115066342056,0.0,0.0,0.0,0.0,0.0028362402226775885,0.004320700187236071,-0.00318704079836607,0.998993992805481,0.0,0.0,0.0,9.912589073181152,1.4029484987258911,6.177204608917236,-1794.1983642578125,0
1209.2299999999996,-0.004449270665645599,-0.01495507825165987,0.0003400214191060513,0.0,0.0,0.0,0.0,7.690965867368504e-05,-0.0042258333414793015,7.938998169265687e-05,0.9999037981033325,0.0,0.0,0.0,9.91806411743164,1.3899431228637695,6.167912483215332,-1795.1893310546875,0
1219.1369999999988,-0.0044348761439323425,-0.014945343136787415,0.00038509504520334303,0.0,0.0,0.0,0.0,-0.0024814712814986706,0.006683971267193556,0.0029064298141747713,0.9987293481826782,0.0,0.0,0.0,9.92098617553711,1.3895022869110107,6.182101726531982,-1795.7181396484375,0
1229.0559999999987,-0.004472749773412943,-0.01503207627683878,0.0003185560926795006,0.0,0.0,0.0,0.0,-0.002776013920083642,-0.006238817237317562,0.0023369158152490854,0.9997556805610657,0.0,0.0,0.0,9.930866241455078,1.3835810422897339,6.166996955871582,-1797.5067138671875,0
1238.9629999999997,-0.004454230889678001,-0.01496244128793478,0.00038716738345101476,0.0,0.0,0.0,0.0,-0.0008532452629879117,8.287872333312407e-05,-0.0012328774901106954,1.0007723569869995,0.0,0.0,0.0,9.930788040161133,1.3993440866470337,6.177545547485352,-1797.4923095703125,0
1248.8769999999986,-0.004528496880084276,-0.015077535063028336,0.0003557345480658114,0.0,0.0,0.0,0.0,0.0010538462083786726,0.0012969133676961064,-0.00137830909807235,0.9985867738723755,0.0,0.0,0.0,9.933371543884277,1.3904516696929932,6.162995338439941,-1797.9600830078125,0
1258.7819999999992,-0.00448354659602046,-0.015081078745424747,0.00041102911927737296,0.0,0.0,0.0,0.0,-0.00041026948019862175,-0.0006794880609959364,0.002417260315269232,0.9984446167945862,0.0,0.0,0.0,9.932476997375488,1.3900527954101562,6.173189640045166,-1797.798095703125,0
1268.7060000000001,-0.004516090732067823,-0.01512988656759262,0.00035786276566796005,0.0,0.0,0.0,0.0,-0.005054685287177563,-0.0004582532274071127,0.002411257242783904,0.9993194341659546,0.0,0.0,0.0,9.933119773864746,1.3888007402420044,6.1759209632873535,-1797.9144287109375,0
1278.6079999999984,-0.004489255137741566,-0.015112379565834999,0.0004110424779355526,0.0,0.0,0.0,0.0,-0.001472744159400463,-0.00019965604587923735,-0.004831261932849884,0.998302161693573,0.0,0.0,0.0,9.934042930603027,1.4002169370651245,6.182576656341553,-1798.0814208984375,0
1288.5239999999994,-0.004525694064795971,-0.015142855234444141,0.0003690606390591711,0.0,0.0,0.0,0.0,-0.001378204789943993,0.0011566668981686234,-0.0039036411326378584,0.9985686540603638,0.0,0.0,0.0,9.93107795715332,1.40345299243927,6.182373046875,-1797.5447998046875,0
1298.432999999999,-0.004504057578742504,-0.015111323446035385,0.00042466414743103087,0.0,0.0,0.0,0.0,-0.00046774695510976017,-0.0008186756749637425,0.0014021367533132434,0.9979811310768127,0.0,0.0,0.0,9.930997848510742,1.4125548601150513,6.1814141273498535,-1797.5302734375,0
1308.351999999999,-0.004486590623855591,-0.015108656138181686,0.0003253375762142241,0.0,0.0,0.0,0.0,0.0008156204130500555,-0.0018884032033383846,-0.0010832644766196609,1.0007456541061401,0.0,0.0,0.0,9.931517601013184,1.418514370918274,6.188963890075684,-1797.62451171875,0
1318.2599999999984,-0.004462186247110367,-0.015087255276739597,0.0003685836272779852,0.0,0.0,0.0,0.0,0.0008798725320957601,0.0028907887171953917,0.0013640689430758357,0.9987680912017822,0.0,0.0,0.0,9.932941436767578,1.4222402572631836,6.197025299072266,-1797.88232421875,0
1328.1759999999995,-0.004463469609618187,-0.015102962963283062,0.00028193125035613775,0.0,0.0,0.0,0.0,-0.0006153329159133136,-0.00577878812327981,0.0057744672521948814,0.9986567497253418,0.0,0.0,0.0,9.939407348632812,1.4192086458206177,6.197519302368164,-1799.0526123046875,0
1338.0819999999985,-0.004446067847311497,-0.01506971474736929,0.00032123440178111196,0.0,0.0,0.0,0.0,-0.003137913765385747,-0.004399722907692194,0.0008667482761666179,0.9994612336158752,0.0,0.0,0.0,9.942530632019043,1.425699234008789,6.2170491218566895,-1799.6177978515625,0
1347.9899999999998,-0.0044603594578802586,-0.0150957852602005,0.00024206069065257907,0.0,0.0,0.0,0.0,0.0019887047819793224,0.002019704319536686,0.0017966099549084902,1.0021464824676514,0.0,0.0,0.0,9.94906997680664,1.427319884300232,6.227597236633301,-1800.801513671875,0
1357.9049999999988,-0.0044549438171088696,-0.0149995107203722,0.00029819479095749557,0.0,0.0,0.0,0.0,-0.0015510719968006015,-0.002361760474741459,-0.002351116854697466,0.9997092485427856,0.0,0.0,0.0,9.950719833374023,1.4388259649276733,6.227199554443359,-1801.1002197265625,0
1367.813,-0.004472972825169563,-0.015009277500212193,0.00023362066713161767,0.0,0.0,0.0,0.0,-0.0005732296267524362,0.0004599211097229272,-0.002520847599953413,0.9992263317108154,0.0,0.0,0.0,9.946974754333496,1.4397380352020264,6.237475395202637,-1800.42236328125,0
1377.7349999999988,-0.004433635156601667,-0.014965211041271687,0.00028485548682510853,0.0,0.0,0.0,0.0,0.001232102862559259,-0.001926614553667605,0.0013055790914222598,0.9992233514785767,0.0,0.0,0.0,9.94613265991211,1.4464219808578491,6.243648052215576,-1800.2696533203125,0
1387.6369999999988,-0.004454225767403841,-0.014986250549554825,0.00022043890203349292,0.0,0.0,0.0,0.0,-0.0017751692794263363,0.001323825679719448,-0.0007897704490460455,1.0005700588226318,0.0,0.0,0.0,9.946499824523926,1.4450870752334595,6.248730182647705,-1800.336181640625,0
1397.5549999999985,-0.004428952466696501,-0.014916187152266502,0.000279088388197124,0.0,0.0,0.0,0.0,-0.002778765745460987,-0.004412462469190359,0.007327129133045673,0.9995501637458801,0.0,0.0,0.0,9.944229125976562,1.4607133865356445,6.259263038635254,-1799.92529296875,0
1407.4599999999991,-0.0044795069843530655,-0.014973710291087627,0.00023841240908950567,0.0,0.0,0.0,0.0,-0.002939757890999317,0.0025847284123301506,-0.004338494502007961,0.9991351962089539,0.0,0.0,0.0,9.942859649658203,1.4580317735671997,6.2598652839660645,-1799.6773681640625,0
1417.3759999999984,-0.004422322381287813,-0.014951867051422596,0.0002936042728833854,0.0,0.0,0.0,0.0,0.000552307057660073,-0.00032908847788348794,0.0016968552954494953,1.000596046447754,0.0,0.0,0.0,9.941667556762695,1.4607683420181274,6.2577056884765625,-1799.461669921875,0
1427.2839999999997,-0.00446188822388649,-0.01499972678720951,0.00024063934688456357,0.0,0.0,0.0,0.0,-3.2430398277938366e-05,-0.0004090771253686398,-0.0015213408041745424,0.9995558261871338,0.0,0.0,0.0,9.950129508972168,1.4578877687454224,6.2562575340271,-1800.9932861328125,0
1437.199999999999,-0.004469614010304213,-0.014918855391442776,0.0002945287269540131,0.0,0.0,0.0,0.0,-0.000819347333163023,-0.0009285411215387285,-0.0004722706798929721,1.0013591051101685,0.0,0.0,0.0,9.93982982635498,1.4611812829971313,6.2499213218688965,-1799.1290283203125,0
1447.1139999999996,-0.004520572256296873,-0.014926373958587646,0.0002776140463538468,0.0,0.0,0.0,0.0,-0.0016613950720056891,-0.001547776279039681,0.000884287292137742,1.0006910562515259,0.0,0.0,0.0,9.93061351776123,1.4592435359954834,6.2419114112854,-1797.4608154296875,0
1457.0229999999992,-0.004445761442184448,-0.014934517443180084,0.00033427393645979464,0.0,0.0,0.0,0.0,0.0018075123662129045,0.006166491657495499,-0.00022197997896000743,0.9971652626991272,0.0,0.0,0.0,9.928751945495605,1.4618959426879883,6.256168842315674,-1797.1240234375,0
1466.9299999999985,-0.004493244457989931,-0.014936545863747597,0.0003210412396583706,0.0,0.0,0.0,0.0,-0.00010931611905107275,0.0006931782118044794,-0.0014796120813116431,0.9981351494789124,0.0,0.0,0.0,9.925618171691895,1.461270809173584,6.244377136230469,-1796.5567626953125,0
1476.8469999999998,-0.004439887125045061,-0.014940589666366577,0.0003740255197044462,0.0,0.0,0.0,0.0,-0.0029211770743131638,0.0006332372431643307,-0.0027950387448072433,0.9988571405410767,0.0,0.0,0.0,9.92637825012207,1.4594730138778687,6.24374532699585,-1796.6942138671875,0
1486.7549999999992,-0.004504776559770107,-0.01495607104152441,0.00037674690247513354,0.0,0.0,0.0,0.0,0.00043721182737499475,-0.0025867577642202377,0.0011219446314498782,0.9998870491981506,0.0,0.0,0.0,9.915871620178223,1.467584252357483,6.236996650695801,-1794.79248046875,0
1496.6729999999989,-0.004480650648474693,-0.014977380633354187,0.0004041877982672304,0.0,0.0,0.0,0.0,0.0013319331919774413,0.0010539276991039515,-0.0017337508033961058,1.0018131732940674,0.0,0.0,0.0,9.907398223876953,1.4694479703903198,6.239905834197998,-1793.2586669921875,0
1506.574999999999,-0.004542819689959288,-0.014995471574366093,0.00040937672019936144,0.0,0.0,0.0,0.0,0.0028559123165905476,-0.0006826220196671784,-0.0017764309886842966,1.0009833574295044,0.0,0.0,0.0,9.897363662719727,1.464569091796875,6.2342658042907715,-1791.4425048828125,0
1516.4989999999998,-0.004492102190852165,-0.014971289783716202,0.000458991969935596,0.0,0.0,0.0,0.0,-0.000918105011805892,0.0036297424230724573,0.0005433425540104508,1.000060796737671,0.0,0.0,0.0,9.897734642028809,1.4620996713638306,6.26151180267334,-1791.5096435546875,0
1526.4089999999997,-0.004552516154944897,-0.014990095980465412,0.00046998244943097234,0.0,0.0,0.0,0.0,-0.0015908143250271678,0.0005074542132206261,0.0019960887730121613,1.0001592636108398,0.0,0.0,0.0,9.888162612915039,1.4622937440872192,6.24813985824585,-1789.777099609375,0
1536.315999999999,-0.004474311135709286,-0.015009230934083462,0.000522234826348722,0.0,0.0,0.0,0.0,-0.001322916243225336,-0.0004922462976537645,-0.0005608726060017943,0.9998750686645508,0.0,0.0,0.0,9.881531715393066,1.44840669631958,6.280460357666016,-1788.576904296875,0
1546.2209999999995,-0.0045293280854821205,-0.015030642971396446,0.0005372617160901427,0.0,0.0,0.0,0.0,0.001265811501070857,0.0010143861873075366,0.003064994001761079,1.0009931325912476,0.0,0.0,0.0,9.872054100036621,1.4488942623138428,6.2732648849487305,-1786.8614501953125,0
1556.1439999999984,-0.004501293879002333,-0.015051603317260742,0.0005826427368447185,0.0,0.0,0.0,0.0,-0.004110048525035381,-0.0003749215102288872,-9.082609176402912e-05,1.0014554262161255,0.0,0.0,0.0,9.877887725830078,1.4354779720306396,6.296637535095215,-1787.91748046875,0
1566.0479999999989,-0.004554098006337881,-0.015077845193445683,0.0006020081927999854,0.0,0.0,0.0,0.0,0.0009976290166378021,0.002025054069235921,-0.00147382786963135,1.0012058019638062,0.0,0.0,0.0,9.868130683898926,1.4418327808380127,6.299653053283691,-1786.1512451171875,0
1575.9779999999992,-0.0045595671981573105,-0.015074321068823338,0.0006511110696010292,0.0,0.0,0.0,0.0,-0.003383935196325183,0.003666612785309553,0.0016087503172457218,1.0015186071395874,0.0,0.0,0.0,9.858235359191895,1.4386510848999023,6.287650108337402,-1784.3603515625,0
1585.8689999999988,-0.004609651863574982,-0.015101718716323376,0.0006755812210030854,0.0,0.0,0.0,0.0,-0.00012656587932724506,-0.002128258813172579,0.001677388441748917,1.0021803379058838,0.0,0.0,0.0,9.849003791809082,1.4416041374206543,6.26605224609375,-1782.6890869140625,0
1595.7909999999993,-0.0046096667647361755,-0.015123109333217144,0.0007286572363227606,0.0,0.0,0.0,0.0,0.0008720650221221149,0.0016676235245540738,-0.004460606724023819,1.0009968280792236,0.0,0.0,0.0,9.839332580566406,1.4427497386932373,6.259984970092773,-1780.938720703125,0
1605.6899999999987,-0.004658479709178209,-0.015152999199926853,0.0007592369220219553,0.0,0.0,0.0,0.0,0.003986455500125885,-0.0019231922924518585,7.985760021256283e-05,1.0003819465637207,0.0,0.0,0.0,9.829445838928223,1.438778281211853,6.250669479370117,-1779.1492919921875,0
1615.6219999999994,-0.004656379576772451,-0.015115603804588318,0.0008399297366850078,0.0,0.0,0.0,0.0,-0.0026847210247069597,0.002547627780586481,0.0022804925683885813,0.9987179040908813,0.0,0.0,0.0,9.837550163269043,1.4491076469421387,6.276368618011475,-1780.6160888671875,0
1625.5169999999998,-0.004705233033746481,-0.015142747201025486,0.0008757719770073891,0.0,0.0,0.0,0.0,0.000942508049774915,0.0007011030102148652,0.0012049278011545539,0.9982293248176575,0.0,0.0,0.0,9.827168464660645,1.4562954902648926,6.25907564163208,-1778.737060546875,0
1635.4439999999995,-0.0046878778375685215,-0.015153481625020504,0.0009542852058075368,0.0,0.0,0.0,0.0,0.002063572406768799,0.00015875976532697678,0.004024708177894354,0.9997228980064392,0.0,0.0,0.0,9.833142280578613,1.4556082487106323,6.278994083404541,-1779.818359375,0
1645.3369999999995,-0.0047330413945019245,-0.015183700248599052,0.0009918806608766317,0.0,0.0,0.0,0.0,-0.0017057606019079685,5.619345756713301e-05,-0.0008751463028602302,1.000481128692627,0.0,0.0,0.0,9.824671745300293,1.4513293504714966,6.273474216461182,-1778.2850341796875,0
1655.2569999999996,-0.004731867462396622,-0.015164904296398163,0.0010755176190286875,0.0,0.0,0.0,0.0,-0.0011512772180140018,0.0021257102489471436,0.0020229355432093143,1.0005955696105957,0.0,0.0,0.0,9.831151008605957,1.4695161581039429,6.293154239654541,-1779.4578857421875,0
1665.161,-0.004774394445121288,-0.015192229300737381,0.0011171736987307668,0.0,0.0,0.0,0.0,-0.0013109494466334581,-3.124111390206963e-05,-0.0027101049199700356,0.9988465905189514,0.0,0.0,0.0,9.821648597717285,1.4709407091140747,6.280673503875732,-1777.738037109375,0
1675.08,-0.004818047396838665,-0.015220901928842068,0.0011588449124246836,0.0,0.0,0.0,0.0,0.0008608339121565223,0.0028174647595733404,-0.00145592144690454,1.0011284351348877,0.0,0.0,0.0,9.8106689453125,1.474474310874939,6.272775173187256,-1775.750732421875,0
1684.9839999999986,-0.004863876383751631,-0.015250581316649914,0.0012008293997496367,0.0,0.0,0.0,0.0,-0.0017696188297122717,-0.0035621067509055138,-0.0014594241511076689,1.0030391216278076,0.0,0.0,0.0,9.801082611083984,1.471806287765503,6.260134220123291,-1774.0155029296875,0
1694.9029999999984,-0.004912243690341711,-0.015280685387551785,0.0012447936460375786,0.0,0.0,0.0,0.0,-0.001995383994653821,-0.0018817652016878128,0.0026874798350036144,1.0001620054244995,0.0,0.0,0.0,9.789960861206055,1.4733198881149292,6.257396221160889,-1772.002197265625,0
1704.807999999999,-0.004962333012372255,-0.01531131286174059,0.001290630316361785,0.0,0.0,0.0,0.0,-0.00014279107563197613,-0.0031051926780492067,-0.003398595144972205,1.0006688833236694,0.0,0.0,0.0,9.779792785644531,1.4757957458496094,6.253721237182617,-1770.161865234375,0
1714.7309999999998,-0.00501401349902153,-0.015342537313699722,0.0013373203109949827,0.0,0.0,0.0,0.0,-0.0005903770797885954,-0.0024434856604784727,-0.0003799952974077314,0.9988186359405518,0.0,0.0,0.0,9.769168853759766,1.4762364625930786,6.251033782958984,-1768.2388916015625,0
1724.6329999999998,-0.004538631998002529,-0.014987017959356308,0.00011817603808594868,0.0,0.0,0.0,0.0,-0.0014005944831296802,-0.0029623385053128004,-0.0002625923661980778,0.9990254640579224,0.0,0.0,0.0,9.787585258483887,1.4978551864624023,6.341271877288818,-1771.5723876953125,0
1734.5529999999999,-0.004573625512421131,-0.015010209754109383,0.00011643970356089994,0.0,0.0,0.0,0.0,-0.0015905156033113599,-0.0006255125044845045,0.004265280440449715,0.9997028708457947,0.0,0.0,0.0,9.777944564819336,1.5003889799118042,6.343964099884033,-1769.8275146484375,0
1744.464,-0.004565192386507988,-0.015051169320940971,-4.077651828993112e-05,0.0,0.0,0.0,0.0,0.003211649600416422,0.0005023562698625028,-0.002008836716413498,1.0009082555770874,0.0,0.0,0.0,9.796426773071289,1.4941688776016235,6.347963333129883,-1773.1728515625,0
1754.3759999999984,-0.0046034217812120914,-0.015077197924256325,-4.919500497635454e-05,0.0,0.0,0.0,0.0,-0.0008025592542253435,0.00218395353294909,-0.001045427517965436,0.9991630911827087,0.0,0.0,0.0,9.785717010498047,1.4866069555282593,6.336361408233643,-1771.2342529296875,0
1764.2779999999984,-0.004623139277100563,-0.015109386295080185,-0.00011641450691968203,0.0,0.0,0.0,0.0,0.003850314300507307,0.004355543293058872,-0.0017146304016932845,1.0010184049606323,0.0,0.0,0.0,9.807892799377441,1.4806678295135498,6.3296685218811035,-1775.248291015625,0
1774.1970000000001,-0.004663470666855574,-0.015136973932385445,-0.00012780449469573796,0.0,0.0,0.0,0.0,0.002751614898443222,-0.001056577661074698,0.003406254341825843,0.9994881749153137,0.0,0.0,0.0,9.797060012817383,1.4705439805984497,6.307208061218262,-1773.287353515625,0
1784.1009999999987,-0.004681512247771025,-0.015144084580242634,-0.00017839213251136243,0.0,0.0,0.0,0.0,-0.0009192582219839096,0.002630470087751746,0.0044132741168141365,0.9986216425895691,0.0,0.0,0.0,9.819957733154297,1.4693603515625,6.3096442222595215,-1777.431884765625,0
1794.0259999999998,-0.004722669254988432,-0.015174624510109425,-0.00019302600412629545,0.0,0.0,0.0,0.0,0.00019521948706824332,-0.0003030085063073784,0.0013008047826588154,1.0012965202331543,0.0,0.0,0.0,9.810845375061035,1.4730298519134521,6.297007083892822,-1775.7825927734375,0
1803.9249999999993,-0.00475997943431139,-0.015174525789916515,-0.00019466778030619025,0.0,0.0,0.0,0.0,0.0018877272959798574,-0.002488943748176098,0.000924313033465296,1.0036430358886719,0.0,0.0,0.0,9.829595565795898,1.4746935367584229,6.291229248046875,-1779.17626953125,0
1813.8439999999991,-0.004805488046258688,-0.015206149779260159,-0.00020660331938415766,0.0,0.0,0.0,0.0,-0.002988620428368449,0.0010385768255218863,0.0035355333238840103,1.0004740953445435,0.0,0.0,0.0,9.820395469665527,1.4695285558700562,6.2870941162109375,-1777.510986328125,0
1823.7489999999998,-0.004837854765355587,-0.015147194266319275,-0.0001834575377870351,0.0,0.0,0.0,0.0,-0.0018717797938734293,-0.001493891584686935,6.064755666557176e-07,0.9992015957832336,0.0,0.0,0.0,9.829301834106445,1.4928582906723022,6.287654399871826,-1779.123291015625,0
1833.679,-0.0048856232315301895,-0.01517550740391016,-0.00019170943414792418,0.0,0.0,0.0,0.0,0.0028039179742336273,0.005213848315179348,-0.0019213642226532102,0.9984539151191711,0.0,0.0,0.0,9.819430351257324,1.492268681526184,6.287905216217041,-1777.33642578125,0
1843.5720000000001,-0.004881724715232849,-0.015103723853826523,-0.00022866280050948262,0.0,0.0,0.0,0.0,6.98177027516067e-05,-0.0016087181866168976,0.00047670971252955496,0.9983833432197571,0.0,0.0,0.0,9.83607292175293,1.5079963207244873,6.298496246337891,-1780.3487548828125,0
1853.4899999999998,-0.004928502254188061,-0.015128145925700665,-0.00024245816166512668,0.0,0.0,0.0,0.0,0.0004403719794936478,-0.0019152172608301044,0.002191548002883792,0.9996692538261414,0.0,0.0,0.0,9.826226234436035,1.5025653839111328,6.294032096862793,-1778.5665283203125,0
1863.3989999999994,-0.004929500166326761,-0.01508312113583088,-0.0002832369937095791,0.0,0.0,0.0,0.0,0.0014618332497775555,-5.660350507241674e-05,-0.002739802934229374,1.0007878541946411,0.0,0.0,0.0,9.84157657623291,1.5166932344436646,6.3064284324646,-1781.3448486328125,0
1873.3189999999995,-0.004974050913006067,-0.015104783698916435,-0.00030094783869571984,0.0,0.0,0.0,0.0,-0.0005099375266581774,-0.0009343915735371411,0.001462830463424325,1.001638650894165,0.0,0.0,0.0,9.831210136413574,1.5134042501449585,6.298129558563232,-1779.4686279296875,0
1883.2279999999992,-0.004995798692107201,-0.015057205222547054,-0.00030266959220170975,0.0,0.0,0.0,0.0,-0.0020391810685396194,0.001603074837476015,0.0017598444828763604,1.0031403303146362,0.0,0.0,0.0,9.846081733703613,1.5372488498687744,6.310907363891602,-1782.160400390625,0
1893.1369999999988,-0.0050424556247889996,-0.015074129216372967,-0.0003164192894473672,0.0,0.0,0.0,0.0,-0.0002748769475147128,0.0017693113768473268,0.00043237709905952215,1.0019471645355225,0.0,0.0,0.0,9.836423873901367,1.5402519702911377,6.30853796005249,-1780.412353515625,0
1903.0499999999993,-0.0050604138523340225,-0.015032101422548294,-0.0003195698664058,0.0,0.0,0.0,0.0,-0.0018005644669756293,-0.002613603603094816,0.001828975509852171,1.001523494720459,0.0,0.0,0.0,9.846269607543945,1.5588122606277466,6.3165812492370605,-1782.1944580078125,0
1912.9629999999997,-0.004484482109546661,-0.015071943402290344,0.00029134549549780786,0.0,0.0,0.0,0.0,0.004388417582958937,0.005053541157394648,-0.00024304191174451262,0.9998351335525513,0.0,0.0,0.0,9.8534517288208,1.546175479888916,6.4256720542907715,-1783.4942626953125,0
1922.8719999999994,-0.004486074671149254,-0.015072470530867577,0.00028491142438724637,0.0,0.0,0.0,0.0,0.00031573857995681465,0.0023594580125063658,0.003725021844729781,0.9997208714485168,0.0,0.0,0.0,9.865228652954102,1.5387650728225708,6.416672229766846,-1785.6260986328125,0
1932.7799999999988,-0.004420895595103502,-0.014990643598139286,0.0003915945999324322,0.0,0.0,0.0,0.0,-0.003062149044126272,-0.00234071072191,0.00223682657815516,0.9973492622375488,0.0,0.0,0.0,9.871106147766113,1.5465466976165771,6.411441326141357,-1786.68994140625,0
1942.6970000000001,-0.0043952576816082,-0.014994777739048004,0.00034390215296298265,0.0,0.0,0.0,0.0,-0.0042958068661391735,-0.0031311085913330317,0.0007875210721977055,1.0002715587615967,0.0,0.0,0.0,9.890238761901855,1.5437394380569458,6.41434383392334,-1790.15283203125,0
1952.607,-0.004365925211459398,-0.014935717917978764,0.0004026303649879992,0.0,0.0,0.0,0.0,0.0017501236870884895,-0.006007493939250708,0.0007615132490172982,1.000654697418213,0.0,0.0,0.0,9.895696640014648,1.5546833276748657,6.417975425720215,-1791.1407470703125,0
1962.5279999999984,-0.004387686029076576,-0.014996366575360298,0.0003990925324615091,0.0,0.0,0.0,0.0,0.0017153986264020205,-0.0023895460180938244,-0.0001770782400853932,1.0013290643692017,0.0,0.0,0.0,9.899080276489258,1.5444279909133911,6.421050071716309,-1791.7532958984375,0
1972.423999999999,-0.004363694228231907,-0.014953164383769035,0.0004493586311582476,0.0,0.0,0.0,0.0,0.0016730715287849307,-0.001275343238376081,0.001220571342855692,1.0024666786193848,0.0,0.0,0.0,9.904500007629395,1.5424883365631104,6.422540664672852,-1792.7342529296875,0
1982.3359999999993,-0.004341614432632923,-0.014980548061430454,0.0004006601229775697,0.0,0.0,0.0,0.0,-0.00045644125202670693,0.003376278793439269,-0.0034977393224835396,0.9994999170303345,0.0,0.0,0.0,9.92005443572998,1.5320621728897095,6.426085948944092,-1795.5496826171875,0
1992.2569999999996,-0.004347532521933317,-0.014934154227375984,0.00043837190605700016,0.0,0.0,0.0,0.0,8.421361599175725e-06,0.0023845965042710304,0.0013977168127894402,1.0007244348526,0.0,0.0,0.0,9.920228004455566,1.534348487854004,6.409479141235352,-1795.5810546875,0
2002.164999999999,-0.0043744882568717,-0.015011128038167953,0.00043497790466062725,0.0,0.0,0.0,0.0,-0.00039811976603232324,-0.0006970270769670606,-0.004451012704521418,0.9999145269393921,0.0,0.0,0.0,9.919184684753418,1.5312409400939941,6.39852237701416,-1795.392333984375,0
2012.0699999999997,-0.004373148549348116,-0.01495154108852148,0.00048302405048161745,0.0,0.0,0.0,0.0,0.0012130201794207096,-0.0016358309658244252,0.00034308494650758803,0.9988794922828674,0.0,0.0,0.0,9.922154426574707,1.5368880033493042,6.394436359405518,-1795.9298095703125,0
2021.9879999999994,-0.004359029699116945,-0.015014438889920712,0.0004244970914442092,0.0,0.0,0.0,0.0,-0.0003686310083139688,-0.0026097637601196766,0.0007107633864507079,1.0018467903137207,0.0,0.0,0.0,9.937127113342285,1.5266294479370117,6.391388416290283,-1798.639892578125,0
2031.896999999999,-0.00438318308442831,-0.014978663995862007,0.0004517649067565799,0.0,0.0,0.0,0.0,0.001414302852936089,0.002327149035409093,-0.0003651921288110316,1.000229835510254,0.0,0.0,0.0,9.927603721618652,1.523350477218628,6.388904094696045,-1796.9161376953125,0
2041.816999999999,-0.004367378074675798,-0.015039891004562378,0.0003889170184265822,0.0,0.0,0.0,0.0,-0.00011318751785438508,0.00310478825122118,-0.00016162022075150162,1.0000832080841064,0.0,0.0,0.0,9.938721656799316,1.5122851133346558,6.3777618408203125,-1798.9283447265625,0
2051.718999999999,-0.004369000438600779,-0.01501069962978363,0.00041625878657214344,0.0,0.0,0.0,0.0,0.0007691485225223005,-0.00015873106895014644,0.003649455728009343,1.0001329183578491,0.0,0.0,0.0,9.94178295135498,1.5162616968154907,6.364656925201416,-1799.4825439453125,0
2061.6409999999996,-0.0043586501851677895,-0.015070276334881783,0.0003563322243280709,0.0,0.0,0.0,0.0,-0.0021483711898326874,0.002539613051339984,-0.0030786360148340464,1.0005193948745728,0.0,0.0,0.0,9.949777603149414,1.5105234384536743,6.366977214813232,-1800.9295654296875,0
2071.545,-0.004329497925937176,-0.015017940662801266,0.00041325140045955777,0.0,0.0,0.0,0.0,0.0008726113592274487,0.003994325175881386,0.0005290918634273112,1.0018980503082275,0.0,0.0,0.0,9.93819808959961,1.5186740159988403,6.3571248054504395,-1798.83349609375,0
2081.464,-0.00432130042463541,-0.015076812356710434,0.000356409844243899,0.0,0.0,0.0,0.0,-0.001409275340847671,-0.0027046515606343746,-0.0005409675068221986,1.0007842779159546,0.0,0.0,0.0,9.948912620544434,1.5133166313171387,6.3435516357421875,-1800.77294921875,0
2091.3639999999996,-0.00427644606679678,-0.015031884424388409,0.0004166908038314432,0.0,0.0,0.0,0.0,-0.003778694197535515,0.0024334685876965523,0.0018904891330748796,1.0013179779052734,0.0,0.0,0.0,9.947524070739746,1.525577187538147,6.349841594696045,-1800.5216064453125,0
2101.2929999999997,-0.004284710623323917,-0.015126422978937626,0.00036761999945156276,0.0,0.0,0.0,0.0,-0.0004888023831881583,0.0030286931432783604,-0.004687439650297165,1.0004907846450806,0.0,0.0,0.0,9.958298683166504,1.5217227935791016,6.340010166168213,-1802.4718017578125,0
2111.188,-0.004362086765468121,-0.015033353120088577,0.0003949588572140783,0.0,0.0,0.0,0.0,0.0010400100145488977,-0.002411683788523078,0.001317429356276989,0.9993065595626831,0.0,0.0,0.0,9.947429656982422,1.5249019861221313,6.331978797912598,-1800.5045166015625,0
2121.1099999999988,-0.004353451542556286,-0.015070927329361439,0.00034612001036293805,0.0,0.0,0.0,0.0,-0.0009212075965479016,0.0028832105454057455,-0.0010770021472126245,0.9993563294410706,0.0,0.0,0.0,9.946825981140137,1.5184255838394165,6.333469867706299,-1800.3951416015625,0
2131.021999999999,-0.00436741579324007,-0.014985515736043453,0.0003932241233997047,0.0,0.0,0.0,0.0,0.0006637851474806666,-0.0011032517068088055,0.0008348466362804174,0.9994656443595886,0.0,0.0,0.0,9.947043418884277,1.5321093797683716,6.3207597732543945,-1800.4346923828125,0
2140.937,-0.004367676563560963,-0.015049072913825512,0.0003367433091625571,0.0,0.0,0.0,0.0,-0.0005854929913766682,0.001627543242648244,0.0014799764612689614,0.9974110126495361,0.0,0.0,0.0,9.94381332397461,1.5260165929794312,6.321975231170654,-1799.849853515625,0
2150.833999999999,-0.004410264547914267,-0.014955440536141396,0.00037473495467565954,0.0,0.0,0.0,0.0,-0.0001073850944521837,-0.005042875651270151,-0.0018107693176716566,1.0005013942718506,0.0,0.0,0.0,9.933457374572754,1.531314492225647,6.3135666847229,-1797.9755859375,0
2160.754999999999,-0.004392590839415789,-0.015007248148322105,0.00028781662695109844,0.0,0.0,0.0,0.0,-0.0001058607449522242,-0.0002564447931945324,-0.0005262212362140417,1.0009007453918457,0.0,0.0,0.0,9.937573432922363,1.529754400253296,6.325109481811523,-1798.720703125,0
2170.6579999999994,-0.004413948394358158,-0.014920900575816631,0.0003283575060777366,0.0,0.0,0.0,0.0,-0.0002957024553325027,0.002042570849880576,0.001984409522265196,1.0014166831970215,0.0,0.0,0.0,9.928051948547363,1.5325590372085571,6.320498466491699,-1796.997314453125,0
2180.5819999999985,-0.004404651466757059,-0.01497930008918047,0.00024237169418483973,0.0,0.0,0.0,0.0,0.0007933014421723783,-0.003482528030872345,0.0004627846064977348,1.0011202096939087,0.0,0.0,0.0,9.93875503540039,1.524033546447754,6.314680099487305,-1798.9345703125,0
