timestamp,stateEstimate.x,stateEstimate.y,stateEstimate.z,controller.cmd_thrust,controller.cmd_roll,controller.cmd_pitch,controller.cmd_yaw,controller.r_roll,controller.r_pitch,controller.r_yaw,controller.accelz,controller.actuatorThrust,controller.roll,controller.pitch,controller.yaw,controller.rollRate,controller.pitchRate,controller.yawRate,controller.ctr_yaw
0.0,-0.0002258492459077388,-5.9766087360912934e-05,-2.90277002932271e-05,0.0,0.0,0.0,0.0,0.0008921646513044834,-0.002368316985666752,-0.00022686934971716255,1.0012166500091553,0.0,0.0,0.0,0.4243974983692169,2.2938296794891357,6.230386257171631,-76.8167953491211,0
9.906999999999243,-0.0001856749295257032,-8.062928827712312e-05,2.1649828340741806e-05,0.0,0.0,0.0,0.0,0.003161127446219325,-0.0006534218555316329,0.0004736266564577818,0.9998679757118225,0.0,0.0,0.0,0.42425546050071716,2.2912516593933105,6.22503137588501,-76.79107666015625,0
19.826999999999316,-0.00020917800429742783,-3.81880636268761e-05,-4.087774141225964e-05,0.0,0.0,0.0,0.0,-0.00042102893348783255,0.0025634784251451492,-0.005912407301366329,0.9979646801948547,0.0,0.0,0.0,0.4342860281467438,2.2923755645751953,6.230778694152832,-78.60663604736328,0
29.73199999999997,-0.0001792739931261167,-7.222122803796083e-05,1.5973538438629475e-06,0.0,0.0,0.0,0.0,-0.002632790943607688,0.003641032613813877,-0.002592588309198618,0.9987971186637878,0.0,0.0,0.0,0.42487460374832153,2.2898519039154053,6.241865634918213,-76.90314483642578,0
39.64400000000023,-0.00019220422836951911,-7.096057288435986e-06,-5.5933651310624555e-05,0.0,0.0,0.0,0.0,-0.00199520168825984,-0.002884094836190343,0.0025205861311405897,0.9996957778930664,0.0,0.0,0.0,0.41495412588119507,2.3102099895477295,6.251142501831055,-75.1075210571289,0
49.55400000000009,-0.00015447185433004051,-9.323740232503042e-05,-3.28965179505758e-05,0.0,0.0,0.0,0.0,-0.00018078027642332017,0.0024921856820583344,0.00044544829870574176,0.9995927214622498,0.0,0.0,0.0,0.41559162735939026,2.3100693225860596,6.243926525115967,-75.22291564941406,0
59.47199999999975,-0.00014479650417342782,1.0296927030140068e-05,-0.00010298613779013976,0.0,0.0,0.0,0.0,0.0018842393765226007,-0.0006711765890941024,-8.076385711319745e-05,0.9992486834526062,0.0,0.0,0.0,0.42052701115608215,2.3261971473693848,6.250319957733154,-76.11621856689453,0
69.3799999999992,-0.00012261132360436022,-6.198056507855654e-05,-8.811038424028084e-05,0.0,0.0,0.0,0.0,8.01733331172727e-05,8.979878475656733e-05,-0.0012144651263952255,0.9979311227798462,0.0,0.0,0.0,0.4204117953777313,2.3284342288970947,6.243889331817627,-76.09536743164062,0
79.28899999999885,-0.00013058070908300579,3.1648601179767866e-06,-0.00015918316785246134,0.0,0.0,0.0,0.0,0.0018598528113216162,-0.0012552636908367276,0.000975136470515281,0.9997084736824036,0.0,0.0,0.0,0.4191347062587738,2.328019857406616,6.230857849121094,-75.86421203613281,0
89.19800000000032,-0.00011008587171090767,-6.631532596657053e-05,-0.00015000668645370752,0.0,0.0,0.0,0.0,-0.0031847336795181036,-0.003596586175262928,0.0017800134373828769,1.001173973083496,0.0,0.0,0.0,0.4185459315776825,2.326355457305908,6.23507833480835,-75.75764465332031,0
99.11000000000058,-0.00019608894945122302,-8.123389125103131e-05,-0.0001610087783774361,0.0,0.0,0.0,0.0,0.0007953462773002684,-0.0015373011119663715,0.0016401722095906734,0.99979168176651,0.0,0.0,0.0,0.4184238612651825,2.3240256309509277,6.235373020172119,-75.73554992675781,0
109.02100000000064,-0.00010467269748914987,-0.00011583668674575165,-0.00012266080011613667,0.0,0.0,0.0,0.0,-0.001963963033631444,0.0027055758982896805,-0.002833027858287096,0.9988079071044922,0.0,0.0,0.0,0.41022488474845886,2.320310115814209,6.264342308044434,-74.25151824951172,0
118.93499999999949,-0.00012827319733332843,-8.948716276790947e-05,-0.0002048867172561586,0.0,0.0,0.0,0.0,-2.1919029222772224e-06,-0.004609774798154831,0.0008279661415144801,1.0007134675979614,0.0,0.0,0.0,0.4096899628639221,2.320924997329712,6.253559112548828,-74.15469360351562,0
128.84499999999935,-0.00010913657752098516,-0.00011089694453403354,-0.000177459602127783,0.0,0.0,0.0,0.0,-0.00022722594439983368,-0.0012202481739223003,0.0011688172817230225,0.9984667301177979,0.0,0.0,0.0,0.409391313791275,2.3212735652923584,6.2493157386779785,-74.10063934326172,0
138.7579999999998,-0.00016461136692669243,-6.242866948014125e-05,-0.0001912529260152951,0.0,0.0,0.0,0.0,-0.0029733183328062296,-0.0034177808556705713,0.00019177650392521173,0.9991286993026733,0.0,0.0,0.0,0.40197011828422546,2.326195240020752,6.240987300872803,-72.75738525390625,0
148.68299999999908,-0.00013107132690493017,-4.555669875117019e-05,-0.00013692351058125496,0.0,0.0,0.0,0.0,-0.002967918524518609,0.0009561939514242113,0.0019323694286867976,0.999396026134491,0.0,0.0,0.0,0.4023374319076538,2.322427749633789,6.237099647521973,-72.82386779785156,0
158.58799999999974,-0.00019083003280684352,-5.3122163080843166e-05,-0.00017219879373442382,0.0,0.0,0.0,0.0,0.0024613479617983103,0.0075848898850381374,0.002075848402455449,1.0009479522705078,0.0,0.0,0.0,0.3947499394416809,2.3241312503814697,6.231992721557617,-71.45051574707031,0
168.4930000000004,-8.822951349429786e-05,-0.0001119087464758195,-0.00011733153223758563,0.0,0.0,0.0,0.0,-0.0005249425885267556,-0.0007168086594901979,0.002512264996767044,0.9990816712379456,0.0,0.0,0.0,0.3948803246021271,2.315241813659668,6.211280345916748,-71.47412872314453,0
178.40300000000025,-0.00016791970119811594,-0.00010769877553684637,-0.00011325912055326626,0.0,0.0,0.0,0.0,0.0008799216011539102,-0.004070970229804516,-0.0009368403698317707,0.9976134896278381,0.0,0.0,0.0,0.3954876661300659,2.313610076904297,6.1990065574646,-71.58405303955078,0
188.3150000000005,-0.00019032866111956537,-8.475550566799939e-05,-7.567661668872461e-05,0.0,0.0,0.0,0.0,0.000192355815670453,0.001322583993896842,0.00020259225857444108,0.9988068342208862,0.0,0.0,0.0,0.3873915374279022,2.3254473209381104,6.203918933868408,-70.11863708496094,0
198.22600000000057,-0.00023335800506174564,-6.288691656664014e-05,-0.00011880306556122378,0.0,0.0,0.0,0.0,0.0002455023059155792,0.00048061832785606384,-0.0018362851114943624,0.9989094734191895,0.0,0.0,0.0,0.3869348466396332,2.3238847255706787,6.2060346603393555,-70.03597259521484,0
208.14099999999962,-0.00017306006338912994,-7.537686178693548e-05,-6.416518590413034e-05,0.0,0.0,0.0,0.0,0.00013794485130347311,0.00027175855939276516,2.653325100254733e-05,1.0001274347305298,0.0,0.0,0.0,0.38548293709754944,2.3180222511291504,6.186370372772217,-69.77317810058594,0
218.05199999999968,-5.020785829401575e-05,0.00011673922563204542,-0.00024002243299037218,0.0,0.0,0.0,0.0,0.0012502671452239156,-6.544366624439135e-05,0.0002630449889693409,0.9996692538261414,0.0,0.0,0.0,0.3773353695869446,2.348688840866089,6.228061199188232,-68.29845428466797,0
227.96099999999933,-3.324233694002032e-05,8.431744208792225e-05,-0.0002247391821583733,0.0,0.0,0.0,0.0,0.0024856580421328545,0.007514475844800472,-0.005631871055811644,0.9993686676025391,0.0,0.0,0.0,0.37776121497154236,2.3439459800720215,6.2339982986450195,-68.37552642822266,0
356.8289999999997,-0.0003106177318841219,-0.00014779053162783384,-1.1738011380657554e-05,0.0,0.0,0.0,0.0,-0.00425123842433095,0.0021977361757308245,0.0009456431725993752,0.9990068674087524,0.0,0.0,0.0,0.39421552419662476,2.3277928829193115,6.119607448577881,-71.35379791259766,0
366.72799999999916,-0.00024749094154685736,-0.00019923027139157057,6.333844066830352e-05,0.0,0.0,0.0,0.0,3.6947814805898815e-05,-0.00016119969950523227,-0.0031862405594438314,0.9976635575294495,0.0,0.0,0.0,0.39407846331596375,2.330278158187866,6.113312721252441,-71.3289794921875,0
376.64899999999943,-0.000281842949334532,-0.0001305060723097995,3.898893191944808e-05,0.0,0.0,0.0,0.0,-0.0001691895886324346,0.004797890316694975,0.0023798097390681505,0.9984710812568665,0.0,0.0,0.0,0.4075827896595001,2.340613603591919,6.113633155822754,-73.7732925415039,0
386.5519999999997,-0.00023660952865611762,-0.00018586280930321664,9.609077096683905e-05,0.0,0.0,0.0,0.0,0.001228539040312171,-0.003492138348519802,0.0003309198364149779,0.9990830421447754,0.0,0.0,0.0,0.40828415751457214,2.342780113220215,6.099703311920166,-73.9002456665039,0
396.47899999999936,-0.0003104156057815999,-0.00015088946383912116,0.00010631782788550481,0.0,0.0,0.0,0.0,-0.0005431953468360007,0.0015975449932739139,-0.0014977753162384033,0.9976491928100586,0.0,0.0,0.0,0.41956308484077454,2.3494019508361816,6.110062122344971,-75.94175720214844,0
406.3719999999994,-0.0003058722068089992,-0.00020237747230567038,0.0001487352274125442,0.0,0.0,0.0,0.0,0.0011543851578608155,-0.00033434233046136796,0.0031863576732575893,0.9978100061416626,0.0,0.0,0.0,0.4183032512664795,2.3449041843414307,6.099410533905029,-75.7137222290039,0
416.29199999999946,-0.0003642797819338739,-0.00015263425302691758,0.0001372222468489781,0.0,0.0,0.0,0.0,-0.002158146118745208,0.004351604729890823,-0.002411177149042487,0.9994910955429077,0.0,0.0,0.0,0.4299217760562897,2.3507437705993652,6.103814125061035,-77.81669616699219,0
426.2009999999991,-0.00031136878533288836,-0.00022441316104959697,0.00019339227583259344,0.0,0.0,0.0,0.0,0.001495608128607273,0.0031515697482973337,-0.004355444107204676,1.0018963813781738,0.0,0.0,0.0,0.421647310256958,2.343477964401245,6.107437610626221,-76.31900024414062,0
436.119999999999,-0.00035679948632605374,-0.00015242243534885347,0.00017494244093541056,0.0,0.0,0.0,0.0,-0.0005969972116872668,-0.0010121259838342667,0.0016810452798381448,0.9990952014923096,0.0,0.0,0.0,0.42748647928237915,2.3528172969818115,6.10103702545166,-77.37590026855469,0
446.021999999999,-0.00034595216857269406,-0.000171125604538247,0.00023326942755375057,0.0,0.0,0.0,0.0,0.0008818898350000381,-0.0024968539364635944,-0.0013101011281833053,0.9974705576896667,0.0,0.0,0.0,0.4268643856048584,2.356567621231079,6.0914082527160645,-77.2633056640625,0
455.9310000000005,-0.00034739490365609527,-8.583950693719089e-05,0.0001595959474798292,0.0,0.0,0.0,0.0,0.003826454281806946,0.006184061523526907,-0.003286562394350767,1.0005909204483032,0.0,0.0,0.0,0.4334413409233093,2.3722054958343506,6.10858154296875,-78.45374298095703,0
465.84599999999955,-0.0003179272753186524,-0.0001787837827578187,0.0001909178536152467,0.0,0.0,0.0,0.0,-0.0004331214295234531,0.003385238815099001,-0.0052900370210409164,1.0001537799835205,0.0,0.0,0.0,0.4263807237148285,2.352931022644043,6.115373611450195,-77.1757583618164,0
475.7659999999996,-0.00035521917743608356,-0.00011973663640674204,0.0001467548863729462,0.0,0.0,0.0,0.0,0.005109668709337711,-0.0027530149091035128,-0.0014209551736712456,0.9980341196060181,0.0,0.0,0.0,0.42440682649612427,2.34891414642334,6.098447799682617,-76.81847381591797,0
485.66699999999946,-0.0003279767115600407,-0.00019768760830629617,0.00018159877799917012,0.0,0.0,0.0,0.0,0.0012831471394747496,-0.0022602654062211514,-0.002159837866201997,0.9991872906684875,0.0,0.0,0.0,0.4240002930164337,2.337338924407959,6.101315021514893,-76.7448959350586,0
495.58599999999933,-0.0003145128139294684,-0.00010462156205903739,8.14626255305484e-05,0.0,0.0,0.0,0.0,-0.002867341274395585,-0.0015426359605044127,-0.0012574210995808244,1.0014276504516602,0.0,0.0,0.0,0.4153779447078705,2.3517909049987793,6.1185526847839355,-75.18424224853516,0
505.4920000000002,-0.00029312376864254475,-0.00011613082460826263,0.00013610180758405477,0.0,0.0,0.0,0.0,-0.00040579569758847356,0.0015041767619550228,-0.0027334776241332293,0.9999172687530518,0.0,0.0,0.0,0.40510454773902893,2.3574297428131104,6.129284381866455,-73.32472229003906,0
515.4099999999999,-0.0003317830269224942,-7.508728594984859e-05,8.076857920968905e-05,0.0,0.0,0.0,0.0,-0.00023245731426868588,0.0008209104998968542,-0.0005532219656743109,1.000016450881958,0.0,0.0,0.0,0.41228580474853516,2.364859104156494,6.129671096801758,-74.62455749511719,0
525.3179999999993,-0.0003534683200996369,-9.963736374629661e-05,0.00011007877037627622,0.0,0.0,0.0,0.0,0.00038668245542794466,-0.0008335941820405424,0.0025965673848986626,1.0005762577056885,0.0,0.0,0.0,0.41303032636642456,2.3631858825683594,6.124864101409912,-74.75930786132812,0
535.2330000000002,-0.00036790905869565904,-4.1312934627057984e-05,2.4745446353335865e-05,0.0,0.0,0.0,0.0,0.0031834025867283344,0.005295028910040855,-0.0030757493805140257,1.0010970830917358,0.0,0.0,0.0,0.4127398133277893,2.3600966930389404,6.119174957275391,-74.70672607421875,0
545.1440000000002,-0.0002663678606040776,-0.00015504407929256558,7.247611210914329e-05,0.0,0.0,0.0,0.0,0.0009155859588645399,-0.0002445579448249191,0.0032833204604685307,0.9989729523658752,0.0,0.0,0.0,0.41088494658470154,2.350297451019287,6.097752094268799,-74.3709945678711,0
555.0569999999989,-0.00023902622342575341,-2.1432653738884255e-05,-2.7749620130634867e-05,0.0,0.0,0.0,0.0,0.0013917844044044614,-0.00010387133079348132,-0.0009140524780377746,0.9973840117454529,0.0,0.0,0.0,0.41975048184394836,2.3711795806884766,6.118612289428711,-75.97566986083984,0
564.9679999999989,-0.00023050495656207204,-0.00010964919783873484,-1.8635073502082378e-05,0.0,0.0,0.0,0.0,0.0021519740112125874,-0.0011546795722097158,-5.265911022434011e-05,0.9980506896972656,0.0,0.0,0.0,0.41300636529922485,2.360628843307495,6.130599021911621,-74.75496673583984,0
574.878999999999,-0.00025530130369588733,-2.5477627787040547e-05,-8.179455471690744e-05,0.0,0.0,0.0,0.0,-0.0009461513254791498,-0.0016385589260607958,0.0011241318425163627,0.9987219572067261,0.0,0.0,0.0,0.412893682718277,2.353642225265503,6.130801200866699,-74.73458099365234,0
584.789999999999,-0.0001805456995498389,-0.00012095510464860126,-5.107140532345511e-05,0.0,0.0,0.0,0.0,0.0013077446492388844,8.78273494890891e-05,-0.0031537103932350874,1.000117301940918,0.0,0.0,0.0,0.4066268801689148,2.34196138381958,6.152177333831787,-73.60027313232422,0
594.7019999999993,-0.00022012513363733888,-8.577558764955029e-05,-0.00012178664474049583,0.0,0.0,0.0,0.0,0.0030254407320171595,-0.005184951238334179,-0.001599730341695249,0.998130202293396,0.0,0.0,0.0,0.41515353322029114,2.347860097885132,6.152892589569092,-75.14361572265625,0
604.6180000000004,-0.00017108049360103905,-0.00014103240391705185,-8.774713205639273e-05,0.0,0.0,0.0,0.0,0.0010443286737427115,-0.002417865442112088,-0.0013810839736834168,0.9994664192199707,0.0,0.0,0.0,0.40876907110214233,2.3371403217315674,6.181281089782715,-73.9880142211914,0
614.530999999999,-0.0002572548983152956,-0.0001315585250267759,-0.0001099406581488438,0.0,0.0,0.0,0.0,0.0028056330047547817,0.0010248464532196522,0.0008952530915848911,1.0004769563674927,0.0,0.0,0.0,0.41689231991767883,2.33756422996521,6.181438446044922,-75.45833587646484,0
624.4369999999999,-0.00026520685059949756,-0.00010070567805087194,-6.440983270294964e-05,0.0,0.0,0.0,0.0,-0.000644569518044591,0.0015053279930725694,-0.0007944299140945077,1.0008636713027954,0.0,0.0,0.0,0.4167101979255676,2.331819772720337,6.173043727874756,-75.42536926269531,0
634.351999999999,-0.00029675394762307405,2.654524905665312e-06,-0.00011220732994843274,0.0,0.0,0.0,0.0,-0.0014071790501475334,0.005126663018018007,-0.0034114194568246603,1.0009571313858032,0.0,0.0,0.0,0.4242584705352783,2.346494674682617,6.17335844039917,-76.7916259765625,0
644.277,-0.00025543762603774667,-3.869734428008087e-05,-7.179812382673845e-05,0.0,0.0,0.0,0.0,1.868483923317399e-05,-0.001202463754452765,0.0011023164261132479,0.9998530745506287,0.0,0.0,0.0,0.4231688678264618,2.345149040222168,6.157238006591797,-76.59441375732422,0
654.1790000000001,-0.0003141835331916809,-2.1606378140859306e-05,-0.00012378868996165693,0.0,0.0,0.0,0.0,0.0006391978240571916,-0.002331534633412957,-0.0006936818244867027,1.0014574527740479,0.0,0.0,0.0,0.43144872784614563,2.347005605697632,6.164302349090576,-78.09307861328125,0
664.0839999999989,-0.00030929158674553037,-4.6543325879611075e-05,-8.977411198429763e-05,0.0,0.0,0.0,0.0,0.002464431105181575,-0.0031751564238220453,0.003402720671147108,1.0004475116729736,0.0,0.0,0.0,0.42228779196739197,2.3439884185791016,6.180935382843018,-76.4349365234375,0
673.9969999999994,-0.0003983828064519912,-3.029646904906258e-05,-0.00010481621575308964,0.0,0.0,0.0,0.0,0.0037236958742141724,0.0002744910307228565,0.0008863204857334495,0.9992837309837341,0.0,0.0,0.0,0.43892380595207214,2.3400845527648926,6.187729358673096,-79.44608306884766,0
683.914999999999,-0.0003486143541522324,-6.503915938083082e-05,-5.0781127356458455e-05,0.0,0.0,0.0,0.0,-0.001127808354794979,0.0010371749522164464,0.003662876086309552,0.998614490032196,0.0,0.0,0.0,0.4385662376880646,2.3348519802093506,6.176855087280273,-79.38136291503906,0
693.8249999999989,-0.0004168933955952525,-2.6642728698789142e-05,-8.48142517497763e-05,0.0,0.0,0.0,0.0,0.001916899112984538,-0.002149951411411166,-0.0010167064610868692,0.9992037415504456,0.0,0.0,0.0,0.45209750533103943,2.3430275917053223,6.1781325340271,-81.83055114746094,0
703.7379999999994,-0.00028469719109125435,-0.00012990293907932937,-1.8214717783848755e-05,0.0,0.0,0.0,0.0,0.004438829142600298,-0.0010598610388115048,-0.0033492420334368944,1.0007678270339966,0.0,0.0,0.0,0.4431644082069397,2.3238561153411865,6.216475486755371,-80.2136459350586,0
713.6450000000004,-0.00036102504236623645,-9.421353024663404e-05,-3.4414239053148776e-05,0.0,0.0,0.0,0.0,-0.0009772995254024863,0.001610564417205751,-0.0023508055601269007,0.9988831877708435,0.0,0.0,0.0,0.4421382248401642,2.3116536140441895,6.204898834228516,-80.02790069580078,0
723.5619999999999,-0.0002899318642448634,-0.00017300528998021036,1.725033507682383e-05,0.0,0.0,0.0,0.0,-0.000812835234683007,-0.002916486468166113,-0.0010004910873249173,0.9987431168556213,0.0,0.0,0.0,0.4415028691291809,2.310728073120117,6.196249008178711,-79.91289520263672,0
733.4750000000004,-0.00037572887958958745,-0.000135043213958852,2.2708158212481067e-05,0.0,0.0,0.0,0.0,0.00013157830107957125,-0.0002462485572323203,-0.0007170794997364283,0.9971814155578613,0.0,0.0,0.0,0.4490301012992859,2.322817087173462,6.203860759735107,-81.27534484863281,0
743.3780000000006,-0.0002857389044947922,-0.0002008958690566942,8.828663703752682e-05,0.0,0.0,0.0,0.0,-0.0027331134770065546,-0.003750354517251253,0.00018485187320038676,0.9989476203918457,0.0,0.0,0.0,0.44832366704940796,2.323086977005005,6.199331283569336,-81.14747619628906,0
753.2909999999993,-0.0003216522454749793,-0.00012826804595533758,4.6949306124588475e-05,0.0,0.0,0.0,0.0,0.0008248146041296422,0.003408669726923108,-0.0014161993749439716,0.9996504783630371,0.0,0.0,0.0,0.44021278619766235,2.339789390563965,6.21693229675293,-79.67938232421875,0
763.2060000000001,-0.0002667320950422436,-0.000195956788957119,9.347720333607867e-05,0.0,0.0,0.0,0.0,0.0020550526678562164,-0.00041997371590696275,0.0002841301029548049,1.0014432668685913,0.0,0.0,0.0,0.4385903477668762,2.334777593612671,6.207372665405273,-79.3857192993164,0
773.1090000000004,-0.0002511464699637145,-3.937792280339636e-05,2.620135092001874e-05,0.0,0.0,0.0,0.0,-0.0007742175366729498,-0.00213907053694129,-0.0043564168736338615,1.0004171133041382,0.0,0.0,0.0,0.443963885307312,2.3521697521209717,6.221834659576416,-80.35833740234375,0
783.0319999999992,-0.00021834979997947812,-0.0001138973530032672,5.71311975363642e-05,0.0,0.0,0.0,0.0,-0.001090956386178732,-0.0006283971597440541,-0.0023923402186483145,0.9996255040168762,0.0,0.0,0.0,0.43637651205062866,2.3440887928009033,6.23277473449707,-78.9850082397461,0
792.9329999999991,-0.00023656265693716705,-1.652981518418528e-05,1.0266548088111449e-05,0.0,0.0,0.0,0.0,0.0008423253311775625,0.0016942501533776522,0.002128116087988019,0.9996576905250549,0.0,0.0,0.0,0.442657470703125,2.357818841934204,6.24206018447876,-80.12187957763672,0
802.8539999999994,-0.00019033715943805873,-0.0001117736246669665,3.554436261765659e-05,0.0,0.0,0.0,0.0,0.00048053183127194643,0.004164498299360275,-0.001012201770208776,1.0009162425994873,0.0,0.0,0.0,0.44279202818870544,2.3490493297576904,6.227848052978516,-80.14623260498047,0
812.7520000000004,-0.00021909836505074054,-2.7986565328319557e-05,-2.4163289253920084e-06,0.0,0.0,0.0,0.0,-0.0025888956151902676,0.0006260804948396981,-0.00020300113828852773,1.0020831823349,0.0,0.0,0.0,0.45113280415534973,2.355531692504883,6.220966815948486,-81.65592956542969,0
822.6729999999989,-0.00021985865896567702,-0.00010099762585014105,1.2052337297063787e-05,0.0,0.0,0.0,0.0,0.0022132808808237314,0.004389505833387375,-0.002000948879867792,0.9989548921585083,0.0,0.0,0.0,0.4510129988193512,2.355830430984497,6.212946891784668,-81.63424682617188,0
832.5799999999999,-0.00020214497635606676,9.93032972473884e-06,-8.01462956587784e-05,0.0,0.0,0.0,0.0,-0.0036012723576277494,-0.003786811837926507,-0.0011315018637105823,0.9979217052459717,0.0,0.0,0.0,0.43959420919418335,2.3695437908172607,6.214837074279785,-79.56742095947266,0
842.5069999999996,-0.00018387660384178162,-3.0714722925040405e-06,-3.7909543607383966e-05,0.0,0.0,0.0,0.0,0.0011226687347516418,0.0010764658218249679,-0.0014899553498253226,0.9995126724243164,0.0,0.0,0.0,0.430391788482666,2.375518321990967,6.236756324768066,-77.90177154541016,0
852.4049999999988,-0.0002536284737288952,2.235147258033976e-05,-6.323918933048844e-05,0.0,0.0,0.0,0.0,0.0018604100914672017,0.003336826106533408,-0.0037552881985902786,0.9994171261787415,0.0,0.0,0.0,0.4219016432762146,2.3790998458862305,6.240512847900391,-76.36503601074219,0
862.3189999999995,-0.00022760620049666613,-3.1244220735970885e-05,-3.394284431124106e-05,0.0,0.0,0.0,0.0,0.0011601264122873545,-0.00044741699821315706,-0.001839740783907473,0.9973465800285339,0.0,0.0,0.0,0.42142045497894287,2.3730227947235107,6.225460529327393,-76.27793884277344,0
872.223,-0.00028075743466615677,3.3595177228562534e-05,-6.526320066768676e-05,0.0,0.0,0.0,0.0,-0.0017498988891020417,-0.0009654369787313044,-0.0027631151024252176,0.9987748265266418,0.0,0.0,0.0,0.4293556213378906,2.3782565593719482,6.221132278442383,-77.71422576904297,0
882.1479999999992,-0.0002433801128063351,-3.2197705877479166e-05,-3.58915094693657e-05,0.0,0.0,0.0,0.0,0.0025517181493341923,0.0019896095618605614,-0.004419264383614063,0.9997380375862122,0.0,0.0,0.0,0.42136555910110474,2.3701484203338623,6.236691474914551,-76.26799774169922,0
892.0460000000003,-0.00012584823707584292,-0.00010423541243653744,-4.5875331124989316e-05,0.0,0.0,0.0,0.0,0.0003740403335541487,-0.001284617348574102,0.0031528340186923742,1.0005792379379272,0.0,0.0,0.0,0.42017194628715515,2.3649590015411377,6.222919940948486,-76.05196380615234,0
901.9689999999991,-0.00022221494873519987,-0.00011272254050709307,-4.967477798345499e-05,0.0,0.0,0.0,0.0,-0.002750393934547901,-0.004642364103347063,0.0033582071773707867,1.0005899667739868,0.0,0.0,0.0,0.42026641964912415,2.3594253063201904,6.219592571258545,-76.06905364990234,0
911.869999999999,-0.0002768930862657726,-3.1826290069147944e-05,-6.713098991895095e-05,0.0,0.0,0.0,0.0,-0.0002547194017097354,0.0051759397611021996,0.00494642648845911,1.0002881288528442,0.0,0.0,0.0,0.42599600553512573,2.37601375579834,6.221421241760254,-77.10612487792969,0
921.7950000000001,-0.0002330094575881958,-0.00010390888928668573,-3.417577318032272e-05,0.0,0.0,0.0,0.0,0.002548656426370144,0.0019498385954648256,0.0005833595641888678,0.9988594651222229,0.0,0.0,0.0,0.4208225905895233,2.3646299839019775,6.2215471267700195,-76.16972351074219,0
931.6939999999995,-0.00013110064901411533,-0.00012644464732147753,-1.247842828888679e-05,0.0,0.0,0.0,0.0,0.002194585045799613,0.0008530428167432547,-0.004576920066028833,1.0004280805587769,0.0,0.0,0.0,0.41991496086120605,2.3566372394561768,6.214073657989502,-76.00544738769531,0
941.6190000000006,-0.00022482272470369935,-0.00013667019084095955,-1.1337499927321915e-05,0.0,0.0,0.0,0.0,0.00041725829942151904,-0.0017111465567722917,-0.0014071211917325854,0.999951958656311,0.0,0.0,0.0,0.4178830683231354,2.356215715408325,6.2046427726745605,-75.6376724243164,0
951.5349999999999,-0.00021127589570824057,-0.00016805485938675702,1.6437104932265356e-05,0.0,0.0,0.0,0.0,0.0013919583288952708,0.0004788571095559746,-0.002287849085405469,0.999685525894165,0.0,0.0,0.0,0.41688308119773865,2.3558404445648193,6.201798915863037,-75.4566650390625,0
961.4369999999999,-0.00030635978328064084,-0.00018001787248067558,2.0482246327446774e-05,0.0,0.0,0.0,0.0,-0.0012765503488481045,-0.0004402962513267994,0.0022155882325023413,0.998764157295227,0.0,0.0,0.0,0.41565632820129395,2.351309299468994,6.187838554382324,-75.234619140625,0
971.3469999999998,-0.00015799878747202456,-0.00011875532800331712,-5.245086504146457e-05,0.0,0.0,0.0,0.0,0.0004128261934965849,0.0043542212806642056,0.002549475058913231,0.9987943768501282,0.0,0.0,0.0,0.42421674728393555,2.3711605072021484,6.206029415130615,-76.7840805053711,0
981.2700000000004,-0.00024989107623696327,-0.00012732183677144349,-5.502198473550379e-05,0.0,0.0,0.0,0.0,0.0005801976658403873,0.0005387294804677367,-0.0006084310589358211,0.9988130927085876,0.0,0.0,0.0,0.42375028133392334,2.3678934574127197,6.18599796295166,-76.69964599609375,0
991.164999999999,-0.00013188118464313447,-0.00013313583622220904,-6.334744102787226e-05,0.0,0.0,0.0,0.0,-0.00031712293275631964,0.005369709338992834,-0.003607996040955186,0.9990167021751404,0.0,0.0,0.0,0.4134409427642822,2.3801634311676025,6.185189247131348,-74.83362579345703,0
1001.0830000000005,-0.0002232458209618926,-0.00014089587784837931,-6.745131395291537e-05,0.0,0.0,0.0,0.0,0.00231632380746305,0.00238213362172246,0.0014509035972878337,0.9994451999664307,0.0,0.0,0.0,0.4121258556842804,2.3781111240386963,6.1693196296691895,-74.59559631347656,0
1010.9869999999992,-0.00011238578736083582,-9.164657967630774e-05,-0.0001308097125729546,0.0,0.0,0.0,0.0,-0.0004412256530486047,-0.0032754100393503904,0.004696369636803865,0.998975396156311,0.0,0.0,0.0,0.3991714119911194,2.380436897277832,6.189951419830322,-72.25081634521484,0
1020.9089999999997,-0.00020348888938315213,-9.816491365199909e-05,-0.00013954580936115235,0.0,0.0,0.0,0.0,-7.176020881161094e-05,0.004140302073210478,-0.0034795955289155245,1.0007423162460327,0.0,0.0,0.0,0.3996429443359375,2.3740897178649902,6.190962314605713,-72.33616638183594,0
1030.8189999999995,-7.625773287145421e-05,-7.003703649388626e-05,-0.00012005977623630315,0.0,0.0,0.0,0.0,-0.001405908726155758,0.0014571294886991382,0.002913296688348055,1.0005944967269897,0.0,0.0,0.0,0.39794793725013733,2.3754231929779053,6.177626609802246,-72.02936553955078,0
1040.7299999999996,-0.00016571389278396964,-7.538741192547604e-05,-0.00012548717495519668,0.0,0.0,0.0,0.0,-0.0003771180345211178,-0.0022671755868941545,0.005242884159088135,0.9998858571052551,0.0,0.0,0.0,0.3990291953086853,2.374396562576294,6.170162200927734,-72.2250747680664,0
1050.6370000000006,-0.00012846128083765507,-0.00010990132432198152,-0.00010204150021309033,0.0,0.0,0.0,0.0,-0.0017165499739348888,-0.0002849304582923651,-0.004314388148486614,1.00038480758667,0.0,0.0,0.0,0.40019500255584717,2.3712525367736816,6.16956090927124,-72.43608856201172,0
1060.5529999999999,-0.00021782096882816404,-0.00011645807535387576,-0.0001042622679960914,0.0,0.0,0.0,0.0,-0.0019435135181993246,7.639495743205771e-05,-0.0030986887868493795,1.0004159212112427,0.0,0.0,0.0,0.3984890282154083,2.3741049766540527,6.163147926330566,-72.12730407714844,0
1070.4560000000001,-0.00012143208732595667,-8.430354500887915e-05,-9.928521467372775e-05,0.0,0.0,0.0,0.0,-0.00028360425494611263,0.003641522489488125,0.0018146397778764367,0.999083399772644,0.0,0.0,0.0,0.39753296971321106,2.381801128387451,6.181303024291992,-71.95426177978516,0
1080.3889999999992,-0.00020981002307962626,-9.068087820196524e-05,-9.979575406759977e-05,0.0,0.0,0.0,0.0,0.0017068100860342383,-0.0033736731857061386,0.0014340031193569303,0.9996678829193115,0.0,0.0,0.0,0.39828136563301086,2.3792383670806885,6.1720290184021,-72.08971405029297,0
1090.286,-0.00010211806511506438,-3.0127488571451977e-05,-0.00011934503709198907,0.0,0.0,0.0,0.0,-0.0005115565145388246,-0.0002570372016634792,0.002163718454539776,1.0007466077804565,0.0,0.0,0.0,0.3824904263019562,2.3849642276763916,6.204103469848633,-69.23152923583984,0
1100.1990000000005,-0.00018638945766724646,-3.552269117790274e-05,-0.00012089097435818985,0.0,0.0,0.0,0.0,-0.001530562760308385,-0.0024703419767320156,0.0009322731057181954,0.9999421238899231,0.0,0.0,0.0,0.3819957673549652,2.3850204944610596,6.201745510101318,-69.14199829101562,0
1110.1039999999994,-0.00013599528756458312,-7.501886284444481e-05,-0.00011381108924979344,0.0,0.0,0.0,0.0,0.00044853147119283676,0.0015376986702904105,0.0042144195176661015,0.9990211129188538,0.0,0.0,0.0,0.3817732632160187,2.389592170715332,6.202854633331299,-69.10172271728516,0
1120.021999999999,-0.00022514468582812697,-7.91507845860906e-05,-0.00011380911018932238,0.0,0.0,0.0,0.0,-0.0012510056840255857,-0.002816664520651102,-0.0022728329058736563,0.998453676700592,0.0,0.0,0.0,0.3834383189678192,2.386016368865967,6.191871643066406,-69.4030990600586,0
1129.9269999999997,-0.00011395072942832485,-0.000143325756653212,-4.182431803201325e-05,0.0,0.0,0.0,0.0,0.0008053319761529565,0.0008081652340479195,-0.003159867599606514,0.9985194802284241,0.0,0.0,0.0,0.37633824348449707,2.376199722290039,6.220086574554443,-68.11797332763672,0
1139.8559999999998,-0.00020297133596614003,-0.00015044106112327427,-3.794279837165959e-05,0.0,0.0,0.0,0.0,-0.00023776314628776163,0.006961036007851362,-0.0026718650478869677,1.0009151697158813,0.0,0.0,0.0,0.37681519985198975,2.3712050914764404,6.211764335632324,-68.20430755615234,0
1149.7579999999998,-0.00010907613614108413,-0.00017297954764217138,1.3573989235737827e-05,0.0,0.0,0.0,0.0,-0.002487393794581294,-0.0018220419296994805,-0.002818735782057047,1.000396728515625,0.0,0.0,0.0,0.36987119913101196,2.375112771987915,6.195773124694824,-66.94742584228516,0
1159.6689999999999,-0.00019951067224610597,-0.00018094040569849312,2.2042389900889248e-05,0.0,0.0,0.0,0.0,0.0010406504152342677,0.001595234964042902,-0.0012506621424108744,0.9979406595230103,0.0,0.0,0.0,0.3696747422218323,2.3749053478240967,6.188547611236572,-66.911865234375,0
1169.5730000000003,-0.0001701231230981648,-0.00011112606443930417,2.6262867322657257e-05,0.0,0.0,0.0,0.0,0.001526028965599835,0.002625336404889822,-0.0006524003692902625,0.9999139904975891,0.0,0.0,0.0,0.3688117563724518,2.366872549057007,6.183735370635986,-66.75566101074219,0
1179.5,-0.0002644979686010629,-0.00011501034168759361,3.34226424456574e-05,0.0,0.0,0.0,0.0,-0.000328661612002179,-0.001185228698886931,-0.00013277173275128007,0.999398946762085,0.0,0.0,0.0,0.36821720004081726,2.360457420349121,6.171901702880859,-66.64805603027344,0
1189.396999999999,-0.00010725601168815047,-8.986158354673535e-05,1.6288167898892425e-05,0.0,0.0,0.0,0.0,0.00044714368414133787,-0.006669799331575632,0.003566968021914363,1.000583291053772,0.0,0.0,0.0,0.37867748737335205,2.370983362197876,6.180655002593994,-68.54137420654297,0
1199.315999999999,-0.00019834765407722443,-8.995655662147328e-05,2.2179598090588115e-05,0.0,0.0,0.0,0.0,-0.0040679979138076305,-0.001765712513588369,-0.0013666877057403326,0.9998474717140198,0.0,0.0,0.0,0.3783934414386749,2.366513729095459,6.187576770782471,-68.4899673461914,0
1209.223,-9.936987044056877e-05,-7.666227611480281e-05,-8.405678272538353e-06,0.0,0.0,0.0,0.0,0.0011457852087914944,0.002845785114914179,0.0012328175362199545,0.9968860745429993,0.0,0.0,0.0,0.3805795907974243,2.373856544494629,6.212939262390137,-68.88566589355469,0
1219.1419999999998,-0.0001894258602987975,-7.505019311793149e-05,-5.805542059533764e-06,0.0,0.0,0.0,0.0,-0.0007183111738413572,-0.003293724963441491,-0.0020091445185244083,0.9987832903862,0.0,0.0,0.0,0.38028186559677124,2.3722805976867676,6.196641445159912,-68.83177947998047,0
1229.0439999999999,-0.00014896020002197474,-1.2795888324035332e-05,-6.914020923431963e-05,0.0,0.0,0.0,0.0,-0.0009927755454555154,0.0006260012742131948,-0.0021568231750279665,0.9992270469665527,0.0,0.0,0.0,0.3867131471633911,2.389352798461914,6.214701175689697,-69.995849609375,0
1238.973,-0.00024118504370562732,-9.921772289089859e-06,-7.362260657828301e-05,0.0,0.0,0.0,0.0,-0.0006087984656915069,-0.0022044824436306953,-0.0012273585889488459,0.9983037114143372,0.0,0.0,0.0,0.38602080941200256,2.391890525817871,6.213156223297119,-69.87052917480469,0
1248.8670000000002,-0.00012734263145830482,-0.00010814301640493795,-3.597371687646955e-05,0.0,0.0,0.0,0.0,-0.0024666578974574804,0.002522183582186699,-0.0021407324820756912,0.9978933930397034,0.0,0.0,0.0,0.392528235912323,2.389829635620117,6.218985080718994,-71.04839324951172,0
1258.7889999999989,-0.00021744301193393767,-0.0001091616359190084,-3.9189893868751824e-05,0.0,0.0,0.0,0.0,-0.0001107067073462531,-0.0013976996997371316,-0.0009305149433203042,0.9979137182235718,0.0,0.0,0.0,0.3917232155799866,2.3958771228790283,6.21657133102417,-70.9026870727539,0
1268.6900000000005,-0.00012570199032779783,-9.888865315588191e-05,-3.104589268332347e-05,0.0,0.0,0.0,0.0,-0.0037266856525093317,-0.00037101752241142094,0.001850219676271081,0.9973115921020508,0.0,0.0,0.0,0.3985064923763275,2.410142660140991,6.225142478942871,-72.13046264648438,0
1278.6090000000004,-0.00021556050342042,-9.739129745867103e-05,-3.669584839371964e-05,0.0,0.0,0.0,0.0,0.000577631639316678,-0.0030676156748086214,-0.00015925680054351687,0.9966747760772705,0.0,0.0,0.0,0.3982909619808197,2.411327600479126,6.22008752822876,-72.0914535522461,0
1288.5139999999992,-9.30179885472171e-05,-7.630616164533421e-05,-4.597707447828725e-05,0.0,0.0,0.0,0.0,-0.0021622295025736094,-0.0023064943961799145,0.0047802370972931385,0.998225748538971,0.0,0.0,0.0,0.4066760838031769,2.4233994483947754,6.235767364501953,-73.60918426513672,0
1298.4359999999997,-0.00018314822227694094,-7.489310519304127e-05,-5.6471450079698116e-05,0.0,0.0,0.0,0.0,0.0016637899680063128,0.003184131346642971,0.0002711165579967201,0.9996857047080994,0.0,0.0,0.0,0.40669986605644226,2.420562267303467,6.236161708831787,-73.61349487304688,0
1308.3369999999995,-0.00011962072312599048,-3.3924199669854715e-05,-6.190519343363121e-05,0.0,0.0,0.0,0.0,-0.0004618495295289904,-0.001364530180580914,-0.00017182546434924006,0.9985854625701904,0.0,0.0,0.0,0.41453829407691956,2.423457145690918,6.229641914367676,-75.03225708007812,0
1318.2559999999994,-0.0002127620973624289,-3.0396442525670864e-05,-7.318735151784495e-05,0.0,0.0,0.0,0.0,-0.00030555747798644006,0.00297738891094923,0.0008978010155260563,1.0012272596359253,0.0,0.0,0.0,0.41435176134109497,2.4212136268615723,6.222960472106934,-74.99849700927734,0
1328.1599999999999,-0.00014490378089249134,-3.032975109817926e-05,-8.48255367600359e-05,0.0,0.0,0.0,0.0,0.00216766819357872,0.002172514097765088,0.00014284311328083277,1.0009899139404297,0.0,0.0,0.0,0.4133201837539673,2.419968843460083,6.207126140594482,-74.811767578125,0
1338.0830000000005,-0.00023918264196254313,-2.8607522835955024e-05,-9.422822768101469e-05,0.0,0.0,0.0,0.0,0.001491875504143536,0.0027595870196819305,0.0015691284788772464,0.9987223744392395,0.0,0.0,0.0,0.41312655806541443,2.414660930633545,6.195120334625244,-74.77672576904297,0
1347.991,-0.0001700760331004858,-3.223659223294817e-05,-9.540378232486546e-05,0.0,0.0,0.0,0.0,-0.0016371073434129357,0.0009310299647040665,0.0026590824127197266,0.9989213347434998,0.0,0.0,0.0,0.40524786710739136,2.4031004905700684,6.199301719665527,-73.35066986083984,0
1357.9159999999993,-0.0002666128275450319,-3.090056634391658e-05,-0.00010442800703458488,0.0,0.0,0.0,0.0,-0.0023211603984236717,0.0008009616867639124,-0.0036007887683808804,0.9991130232810974,0.0,0.0,0.0,0.4061400890350342,2.4027748107910156,6.186964511871338,-73.51216125488281,0
1367.816999999999,-0.00013736871187575161,-6.59168217680417e-05,-0.00011420922237448394,0.0,0.0,0.0,0.0,0.00033375981729477644,-0.0007521379739046097,0.0004066859546583146,0.9991370439529419,0.0,0.0,0.0,0.40594378113746643,2.399825096130371,6.228808879852295,-73.47662353515625,0
1377.732,-0.00023172906367108226,-6.595749437110499e-05,-0.00012430752394720912,0.0,0.0,0.0,0.0,-0.00046697951620444655,-0.0026194974780082703,-0.00042879811371676624,0.9991785287857056,0.0,0.0,0.0,0.40608689188957214,2.3961493968963623,6.224581241607666,-73.50253295898438,0
1387.6329999999998,-0.00011648936197161674,-5.5126569350250065e-05,-0.00016200152458623052,0.0,0.0,0.0,0.0,-0.0009019890567287803,-0.0008385569672100246,-0.003134874626994133,1.0013405084609985,0.0,0.0,0.0,0.39860764145851135,2.41225266456604,6.2388529777526855,-72.14877319335938,0
1397.5509999999995,-0.00020818665507249534,-5.3944630053592846e-05,-0.00017447129357606173,0.0,0.0,0.0,0.0,0.0002717411844059825,0.0029397401958703995,-0.002563705900683999,1.0004947185516357,0.0,0.0,0.0,0.39743298292160034,2.412214994430542,6.2309417724609375,-71.9361572265625,0
1407.4539999999997,-9.075074194697663e-05,-2.5623728561186e-06,-0.00017929229943547398,0.0,0.0,0.0,0.0,0.00011185163020854816,-0.003738621948286891,0.0030737468041479588,0.9986711740493774,0.0,0.0,0.0,0.38358205556869507,2.4207966327667236,6.256181240081787,-69.42911529541016,0
1417.3809999999994,-0.0001802970073185861,1.1560086932149716e-06,-0.00018957931024488062,0.0,0.0,0.0,0.0,-0.0013892946299165487,-0.00014297800953499973,0.002770130056887865,0.9999326467514038,0.0,0.0,0.0,0.38368698954582214,2.41620135307312,6.256022930145264,-69.44811248779297,0
1427.2819999999992,-0.00010085840767715126,-1.1304621239105472e-06,-0.00014418846694752574,0.0,0.0,0.0,0.0,0.0045026689767837524,8.24043236207217e-05,-0.0009870893554762006,0.9987649917602539,0.0,0.0,0.0,0.3877701461315155,2.416166305541992,6.275571823120117,-70.18717193603516,0
1437.1970000000001,-0.00018871002248488367,2.2535223251907155e-06,-0.00015095004346221685,0.0,0.0,0.0,0.0,-0.0019244530703872442,0.0015567467780783772,0.004958708304911852,0.9999205470085144,0.0,0.0,0.0,0.38754743337631226,2.4049232006073,6.266096591949463,-70.14686584472656,0
1447.1010000000006,-0.00011551736679393798,-5.135863830219023e-05,-0.00012523873010650277,0.0,0.0,0.0,0.0,0.0014292554697021842,7.822542102076113e-05,-0.00427345372736454,0.9991162419319153,0.0,0.0,0.0,0.3876540958881378,2.402994394302368,6.257273197174072,-70.16616821289062,0
1457.0249999999996,-0.00020170278730802238,-5.359291026252322e-05,-0.0001296446134801954,0.0,0.0,0.0,0.0,0.00035807566018775105,-0.003939512651413679,-0.0005094473599456251,0.9981729984283447,0.0,0.0,0.0,0.3861171007156372,2.4003031253814697,6.2501630783081055,-69.8879623413086,0
1466.9249999999993,-0.0001460917410440743,-2.874598249036353e-05,-6.369643961079419e-05,0.0,0.0,0.0,0.0,0.0007499852799810469,-0.002136925235390663,0.0032348553650081158,0.9997684955596924,0.0,0.0,0.0,0.3940106928348541,2.4030988216400146,6.246627330780029,-71.31671905517578,0
1476.8449999999993,-0.00023373053409159184,-2.936356577265542e-05,-6.409475463442504e-05,0.0,0.0,0.0,0.0,-0.0009850949281826615,0.006590878590941429,0.0024309984873980284,1.000419020652771,0.0,0.0,0.0,0.39600715041160583,2.400728702545166,6.242809772491455,-71.67808532714844,0
1486.759,-0.00026322854682803154,-0.000132573171867989,0.00010197463416261598,0.0,0.0,0.0,0.0,0.0009244968532584608,0.005944095551967621,-0.0029468536376953125,0.9992366433143616,0.0,0.0,0.0,0.40187960863113403,2.383277416229248,6.205806255340576,-72.74100494384766,0
1496.6729999999989,-0.0003549082321114838,-0.00013734375534113497,0.00011448619625298306,0.0,0.0,0.0,0.0,8.623342000646517e-05,0.004374798387289047,-0.0004696869873441756,0.9985324740409851,0.0,0.0,0.0,0.40021800994873047,2.377337694168091,6.1896209716796875,-72.44025421142578,0
1506.5830000000005,-0.0002439867821522057,-0.00020663098257500678,0.00014954335347283632,0.0,0.0,0.0,0.0,0.0028431741520762444,-0.002637889701873064,-0.002925608307123184,0.9976314306259155,0.0,0.0,0.0,0.41478997468948364,2.3723607063293457,6.180540561676025,-75.07781219482422,0
1516.4899999999998,-0.0003368253237567842,-0.00021616525191348046,0.00016219461394939572,0.0,0.0,0.0,0.0,-0.002063371241092682,0.001538065611384809,-2.6497073122300208e-05,0.9972074627876282,0.0,0.0,0.0,0.4147946536540985,2.369647264480591,6.1803178787231445,-75.07866668701172,0
1526.3950000000004,-0.0001918509224196896,-0.00018779629317577928,0.00015092486864887178,0.0,0.0,0.0,0.0,0.00031671131728217006,0.003938721492886543,0.0003588985709939152,0.9981503486633301,0.0,0.0,0.0,0.41397029161453247,2.3700191974639893,6.1736016273498535,-74.92945098876953,0
1536.3310000000001,-0.0002817178319673985,-0.00019722578872460872,0.0001579436648171395,0.0,0.0,0.0,0.0,0.0001420150074409321,-0.0026579939294606447,0.0041337693110108376,0.9992189407348633,0.0,0.0,0.0,0.41400250792503357,2.366117238998413,6.166258811950684,-74.93528747558594,0
1546.2199999999993,-0.00011454446939751506,-9.298520308220759e-05,5.1534330850699916e-05,0.0,0.0,0.0,0.0,-0.000734389410354197,0.0023544642608612776,-0.001994132064282894,1.000283122062683,0.0,0.0,0.0,0.4015623927116394,2.3815674781799316,6.2006940841674805,-72.68358612060547,0
1556.1389999999992,-0.0002011533360928297,-9.785231668502092e-05,4.911914948024787e-05,0.0,0.0,0.0,0.0,0.00021439205738715827,0.002576007740572095,0.005681147333234549,0.999636709690094,0.0,0.0,0.0,0.40032315254211426,2.3779025077819824,6.185874938964844,-72.45928192138672,0
1566.0409999999993,-0.00023586156021337956,-9.764552669366822e-05,6.508806109195575e-05,0.0,0.0,0.0,0.0,-0.0011357744224369526,0.0018888734048232436,-0.000574107572901994,0.9998614192008972,0.0,0.0,0.0,0.39162129163742065,2.371807813644409,6.177504539489746,-70.88423919677734,0
1575.9650000000001,-0.00032862048828974366,-0.00010229569306829944,6.466227205237374e-05,0.0,0.0,0.0,0.0,-0.0025395092088729143,0.0022302463185042143,0.001910194754600525,1.000095248222351,0.0,0.0,0.0,0.3912368416786194,2.3672266006469727,6.164005279541016,-70.81464385986328,0
1585.8649999999998,-0.00023947382578626275,-0.00015145195357035846,0.0001015422458294779,0.0,0.0,0.0,0.0,-0.00042866222793236375,0.0002780739450827241,-0.0007196000078693032,0.9999268054962158,0.0,0.0,0.0,0.38924485445022583,2.351867914199829,6.203843593597412,-70.45409393310547,0
1595.7889999999989,-0.0003292843757662922,-0.00016056989261414856,0.00010491898865438998,0.0,0.0,0.0,0.0,4.815300781046972e-05,0.001774654840119183,0.0013879293110221624,0.9991471171379089,0.0,0.0,0.0,0.38798704743385315,2.3490729331970215,6.199613094329834,-70.22642517089844,0
1605.699999999999,-0.00028398787253536284,-0.0001922262745210901,0.00014005249249748886,0.0,0.0,0.0,0.0,0.0023452015593647957,0.00565881934016943,0.003294376889243722,0.9977530837059021,0.0,0.0,0.0,0.3828631341457367,2.3325235843658447,6.230893135070801,-69.29898834228516,0
1615.625,-0.00037038582377135754,-0.00020652892999351025,0.0001451986317988485,0.0,0.0,0.0,0.0,-0.00016339904686901718,0.0016202894039452076,-0.0009469717042520642,0.9984124302864075,0.0,0.0,0.0,0.38302937150001526,2.3289012908935547,6.210022926330566,-69.3290786743164,0
1625.5120000000006,-0.00031916171428747475,-0.0002381240774411708,0.00018762520630843937,0.0,0.0,0.0,0.0,0.0011418616631999612,0.003131486941128969,0.002977481111884117,0.9987228512763977,0.0,0.0,0.0,0.3785136640071869,2.3133387565612793,6.2474236488342285,-68.51171875,0
1635.4310000000005,-0.00040098174940794706,-0.0002584251051302999,0.0001936710614245385,0.0,0.0,0.0,0.0,0.0024889728520065546,0.004017917905002832,0.0018816591473296285,0.9996780157089233,0.0,0.0,0.0,0.37937620282173157,2.308462381362915,6.23058557510376,-68.6678466796875,0
1645.3349999999991,-0.00036451074993237853,-0.000279926200164482,0.00024298032803926617,0.0,0.0,0.0,0.0,-0.0009468713542446494,-0.001587461680173874,0.0008215392590500414,0.9989148378372192,0.0,0.0,0.0,0.3750884532928467,2.2974913120269775,6.26519775390625,-67.89175415039062,0
1655.268,-0.0004413362476043403,-0.00030320591758936644,0.0002522060531191528,0.0,0.0,0.0,0.0,-0.0005255686119198799,-0.00028044928330928087,0.0008301283814944327,0.9987195730209351,0.0,0.0,0.0,0.3750375211238861,2.3000547885894775,6.2638258934021,-67.88253784179688,0
1665.164999999999,-0.00040627981070429087,-0.0003225979453418404,0.0003111266123596579,0.0,0.0,0.0,0.0,0.001967023592442274,-0.0012896839762106538,-0.0016363500617444515,1.0023143291473389,0.0,0.0,0.0,0.3706285059452057,2.2923102378845215,6.315323829650879,-67.0844955444336,0
1675.0779999999995,-0.0004758621216751635,-0.0003481440362520516,0.00032445983379147947,0.0,0.0,0.0,0.0,0.0017986503662541509,0.0014830810250714421,-0.0005848882719874382,1.0014605522155762,0.0,0.0,0.0,0.36967208981513977,2.2898447513580322,6.312138557434082,-66.91138458251953,0
1684.9899999999998,-0.00044115938362665474,-0.0003527672670315951,0.0003973561979364604,0.0,0.0,0.0,0.0,-0.0014082558918744326,0.0045384736731648445,0.0007591815083287656,1.0010628700256348,0.0,0.0,0.0,0.36719879508018494,2.2869150638580322,6.354966163635254,-66.46371459960938,0
1694.9069999999992,-0.0005059592658653855,-0.00037489188252948225,0.0004195827932562679,0.0,0.0,0.0,0.0,-0.0005051271291449666,-0.002817712724208832,-0.0017664189217612147,0.9973412156105042,0.0,0.0,0.0,0.36707183718681335,2.2904164791107178,6.351085186004639,-66.44072723388672,0
1704.807999999999,-0.00047528615687042475,-0.0003439101274125278,0.000510751677211374,0.0,0.0,0.0,0.0,0.0008599926368333399,0.0015034013194963336,0.00031610994483344257,0.9975858926773071,0.0,0.0,0.0,0.3609841763973236,2.3095850944519043,6.398859977722168,-65.33885955810547,0
1714.726999999999,-0.000536533014383167,-0.00036006688605993986,0.0005371450679376721,0.0,0.0,0.0,0.0,0.0013579986989498138,-0.002930611139163375,0.0006969760870561004,0.9987559914588928,0.0,0.0,0.0,0.36135709285736084,2.3028266429901123,6.391074180603027,-65.40635681152344,0
1724.6309999999994,-0.0005463027046062052,-0.00034808009513653815,0.0006038614665158093,0.0,0.0,0.0,0.0,-0.001168912509456277,-0.0009298293734900653,0.001321554183959961,0.9998160004615784,0.0,0.0,0.0,0.3550228178501129,2.2992100715637207,6.420414447784424,-64.25983428955078,0
1734.5409999999993,-0.0006084812921471894,-0.0003608590050134808,0.0006317291990853846,0.0,0.0,0.0,0.0,-0.004160618409514427,0.001622367650270462,0.0007918230257928371,1.0000745058059692,0.0,0.0,0.0,0.35478416085243225,2.3033406734466553,6.417455673217773,-64.21664428710938,0
1744.4580000000005,-0.0006727864965796471,-0.0003730605822056532,0.000659619749058038,0.0,0.0,0.0,0.0,0.0022099055349826813,0.003865216625854373,-0.001362145529128611,0.9984474778175354,0.0,0.0,0.0,0.35480883717536926,2.3094751834869385,6.414305210113525,-64.22110748291016,0
1754.3739999999998,-0.0007392115658149123,-0.00038493931060656905,0.0006871318910270929,0.0,0.0,0.0,0.0,2.1208959879004396e-05,0.0013300053542479873,-0.001501579536125064,0.9999754428863525,0.0,0.0,0.0,0.354241281747818,2.300567150115967,6.405136585235596,-64.11837768554688,0
1764.2759999999998,-0.0008078966639004648,-0.000396181974792853,0.0007141605019569397,0.0,0.0,0.0,0.0,-0.004979992751032114,-0.0017880529630929232,0.0031830240041017532,0.999445915222168,0.0,0.0,0.0,0.35413190722465515,2.2994275093078613,6.399166584014893,-64.09857940673828,0
1774.1949999999997,-0.0008790759602561593,-0.0004074175958521664,0.0007410498219542205,0.0,0.0,0.0,0.0,-0.000788044766522944,0.002105835359543562,-0.000546341878362,1.0007736682891846,0.0,0.0,0.0,0.3533394932746887,2.2956881523132324,6.395058631896973,-63.95515060424805,0
1784.1000000000004,-0.0009536072029732168,-0.0004192432970739901,0.0007683050353080034,0.0,0.0,0.0,0.0,0.0006634492892771959,-0.005143396090716124,0.0032486601267009974,1.0007960796356201,0.0,0.0,0.0,0.35294392704963684,2.2957489490509033,6.3884758949279785,-63.88355255126953,0
1794.0159999999996,-0.0010317284613847733,-0.0004308110219426453,0.0007966670673340559,0.0,0.0,0.0,0.0,-0.0012652094010263681,-0.0016756824916228652,-0.001246068044565618,1.0004830360412598,0.0,0.0,0.0,0.35366201400756836,2.2881650924682617,6.395443916320801,-64.0135269165039,0
1803.9249999999993,-0.0011129097547382116,-0.0004424730141181499,0.0008259015157818794,0.0,0.0,0.0,0.0,0.00294773792847991,0.003703090827912092,0.0005389383295550942,1.0011422634124756,0.0,0.0,0.0,0.35231509804725647,2.2923903465270996,6.39393424987793,-63.769737243652344,0
1813.8369999999995,-0.0011966138845309615,-0.0004556513449642807,0.0008559197303839028,0.0,0.0,0.0,0.0,-0.0016028967220336199,0.00010825353092513978,-0.0025305759627372026,1.0003302097320557,0.0,0.0,0.0,0.3511101305484772,2.2809245586395264,6.378942489624023,-63.55162811279297,0
1823.753999999999,-0.0012828718172386289,-0.0004703646991401911,0.0008869320154190063,0.0,0.0,0.0,0.0,-0.0020747159142047167,0.0009484533220529556,4.129768512939336e-06,1.002394437789917,0.0,0.0,0.0,0.34991884231567383,2.27551531791687,6.374052047729492,-63.33600616455078,0
1833.6599999999999,-0.0013720854185521603,-0.0004854731960222125,0.0009193828445859253,0.0,0.0,0.0,0.0,-0.0008533999789506197,0.0007586951251141727,0.0010888685937970877,1.0013755559921265,0.0,0.0,0.0,0.3502499759197235,2.2755472660064697,6.367715358734131,-63.39594650268555,0
1843.5699999999997,-0.0014647897332906723,-0.0005011065513826907,0.000953751674387604,0.0,0.0,0.0,0.0,-0.0014932502526789904,-0.0016449009999632835,0.00121384731028229,1.0002844333648682,0.0,0.0,0.0,0.3506171405315399,2.2768688201904297,6.364654541015625,-63.46240234375,0
1853.4809999999998,-0.001561808050610125,-0.0005180302541702986,0.0009893584065139294,0.0,0.0,0.0,0.0,0.0017932435730472207,-0.0018571506952866912,0.0018937276909127831,0.9995074272155762,0.0,0.0,0.0,0.3494793474674225,2.280179500579834,6.366334915161133,-63.2564582824707,0
1863.3979999999992,-0.0016628314042463899,-0.0005351650761440396,0.001025482313707471,0.0,0.0,0.0,0.0,-0.0013823051704093814,-0.0016039846232160926,0.00021443098376039416,0.9981726408004761,0.0,0.0,0.0,0.34969085454940796,2.279226779937744,6.3708600997924805,-63.294734954833984,0
1873.3050000000003,-0.001766743022017181,-0.0005515170632861555,0.0010610895697027445,0.0,0.0,0.0,0.0,-0.0007781682070344687,-0.004014680627733469,0.00168482749722898,0.9990741610527039,0.0,0.0,0.0,0.34873926639556885,2.280620574951172,6.36720609664917,-63.122501373291016,0
1883.2189999999991,-0.0018728137947618961,-0.0005679349415004253,0.001095601124688983,0.0,0.0,0.0,0.0,-0.0013822895707562566,-0.0012042535236105323,-0.0021725536789745092,1.0004233121871948,0.0,0.0,0.0,0.3485599458217621,2.276646137237549,6.370742321014404,-63.09004592895508,0
1893.1280000000006,-0.001981398556381464,-0.0005864518461748958,0.001129791489802301,0.0,0.0,0.0,0.0,-0.00035796474548988044,0.003573463298380375,0.00035939249210059643,0.9985215663909912,0.0,0.0,0.0,0.3474843204021454,2.2756526470184326,6.368067741394043,-62.895355224609375,0
1903.0389999999989,-0.0020932285115122795,-0.0006076483987271786,0.0011638441355898976,0.0,0.0,0.0,0.0,0.0031376557890325785,-0.0031549131963402033,-0.0004529908183030784,0.9973061680793762,0.0,0.0,0.0,0.3471162021160126,2.2747817039489746,6.354206085205078,-62.8287239074707,0
1912.9529999999995,-0.0022076480090618134,-0.0006298343650996685,0.0011966146994382143,0.0,0.0,0.0,0.0,-0.0005948182079009712,0.0011357738403603435,0.002837676089257002,0.998231828212738,0.0,0.0,0.0,0.34705981612205505,2.273505449295044,6.354427337646484,-62.818519592285156,0
1922.869999999999,-0.0023245823103934526,-0.0006522569456137717,0.0012273681350052357,0.0,0.0,0.0,0.0,0.0016583086689934134,-0.003172121476382017,-0.00361760426312685,1.0017626285552979,0.0,0.0,0.0,0.34642860293388367,2.266721248626709,6.3436760902404785,-62.70426940917969,0
1932.7749999999996,-0.00244514481164515,-0.0006752578774467111,0.0012577869929373264,0.0,0.0,0.0,0.0,0.0016116873594000936,0.0027637772727757692,-0.0002849239099305123,1.0010216236114502,0.0,0.0,0.0,0.34586215019226074,2.2613396644592285,6.3405656814575195,-62.60173416137695,0
1942.6859999999997,-0.002569895936176181,-0.0006989114917814732,0.0012895814143121243,0.0,0.0,0.0,0.0,0.00038342492189258337,0.0028339573182165623,-0.0026725484058260918,0.9995193481445312,0.0,0.0,0.0,0.34520384669303894,2.2613468170166016,6.332964897155762,-62.482582092285156,0
1952.6049999999996,-0.0026986324228346348,-0.0007226569578051567,0.0013223582645878196,0.0,0.0,0.0,0.0,0.0024974686093628407,0.0007218411192297935,-0.004738094750791788,0.9972931146621704,0.0,0.0,0.0,0.3435664176940918,2.2571678161621094,6.323031902313232,-62.18620300292969,0
1962.5100000000002,-0.0028308588080108166,-0.000746504811104387,0.0013542692176997662,0.0,0.0,0.0,0.0,0.0014613134553655982,0.004140120465308428,-0.0021056290715932846,0.9991707801818848,0.0,0.0,0.0,0.3420851528644562,2.251271963119507,6.316911697387695,-61.9180908203125,0
1972.423999999999,-0.0015678373165428638,0.0005329189007170498,-0.001179544604383409,0.0,0.0,0.0,0.0,-0.0019447728991508484,-0.0010653724893927574,-0.0018285932019352913,0.9990941286087036,0.0,0.0,0.0,0.33220699429512024,2.3870365619659424,6.464609146118164,-60.130123138427734,0
1982.3330000000005,-0.0016620280221104622,0.000549614429473877,-0.0012149129761382937,0.0,0.0,0.0,0.0,0.0009416589164175093,-0.0002623600885272026,0.0016758315032348037,0.9983722567558289,0.0,0.0,0.0,0.3320717513561249,2.3846330642700195,6.453597545623779,-60.10565185546875,0
1992.244999999999,-0.0017160945571959019,0.0005723282229155302,-0.0013593967305496335,0.0,0.0,0.0,0.0,0.0025907326489686966,0.003982656169682741,-0.002807020442560315,0.999122142791748,0.0,0.0,0.0,0.33211204409599304,2.3785998821258545,6.448665618896484,-60.11294174194336,0
2002.1569999999992,-0.001815430587157607,0.0005892871413379908,-0.001400295179337263,0.0,0.0,0.0,0.0,0.0029992868658155203,-0.0007484817178919911,0.0017589136259630322,0.9997901320457458,0.0,0.0,0.0,0.33122414350509644,2.3733057975769043,6.437623023986816,-59.952232360839844,0
2012.0679999999993,-0.0019085922976955771,0.0005788368289358914,-0.0014878063229843974,0.0,0.0,0.0,0.0,0.0005173209356144071,-0.0006372939678840339,-0.001766151050105691,0.9977665543556213,0.0,0.0,0.0,0.35582152009010315,2.3543198108673096,6.436729431152344,-64.4043960571289,0
2021.9809999999998,-0.0020125447772443295,0.0005945205339230597,-0.00153165718074888,0.0,0.0,0.0,0.0,-0.0004553005564957857,0.0005322220968082547,-0.004807098302990198,0.9985405206680298,0.0,0.0,0.0,0.35534971952438354,2.349705934524536,6.429454803466797,-64.31900024414062,0
2031.8940000000002,-0.0020767822861671448,0.0006310706958174706,-0.0016253087669610977,0.0,0.0,0.0,0.0,5.6014410802163184e-05,0.0011439587688073516,-0.0012038652785122395,0.9992003440856934,0.0,0.0,0.0,0.370909720659256,2.360445261001587,6.444887161254883,-67.13539123535156,0
2041.815999999999,-0.0021844704169780016,0.000647718901745975,-0.001675308682024479,0.0,0.0,0.0,0.0,-0.001825584564357996,0.0005146607873030007,0.002921272302046418,0.9978106021881104,0.0,0.0,0.0,0.3702578842639923,2.3589820861816406,6.434945106506348,-67.01741790771484,0
2051.7170000000006,-0.0022513726726174355,0.000686919258441776,-0.001762102940119803,0.0,0.0,0.0,0.0,-0.004264009650796652,-0.00042742391815409064,0.0024483627639710903,0.9988448023796082,0.0,0.0,0.0,0.3865920603275299,2.370025396347046,6.450446128845215,-69.97392272949219,0
2061.6280000000006,-0.0023609325289726257,0.0007027163519524038,-0.0018184727523475885,0.0,0.0,0.0,0.0,-0.002017822815105319,-0.0023835727479308844,0.0010737590491771698,0.9995134472846985,0.0,0.0,0.0,0.3868192434310913,2.380201816558838,6.439791679382324,-70.01504516601562,0
2071.548999999999,-0.002424703910946846,0.0006903686444275081,-0.0019494930747896433,0.0,0.0,0.0,0.0,-0.0015137891750782728,-0.0010091000003740191,0.0006498490110971034,0.9992191791534424,0.0,0.0,0.0,0.3771590292453766,2.378758430480957,6.453967094421387,-68.26653289794922,0
2081.450999999999,-0.002535977866500616,0.0007044218946248293,-0.0020135194063186646,0.0,0.0,0.0,0.0,-0.0007319023716263473,-0.0020639507565647364,-0.005172952078282833,0.9986088871955872,0.0,0.0,0.0,0.37668102979660034,2.3842058181762695,6.440544605255127,-68.18001556396484,0
2091.361999999999,-0.0026016945485025644,0.0007079292554408312,-0.002132992260158062,0.0,0.0,0.0,0.0,-0.0020798149053007364,0.0001873478904599324,0.004758746363222599,0.9992067217826843,0.0,0.0,0.0,0.36910346150398254,2.385547399520874,6.4562668800354,-66.80846405029297,0
2101.2739999999994,-0.00271279807202518,0.000721912772860378,-0.0022038272581994534,0.0,0.0,0.0,0.0,-0.001049752114340663,-0.0008237922447733581,0.00025448601809330285,0.9984757304191589,0.0,0.0,0.0,0.3687730133533478,2.388148307800293,6.44733190536499,-66.7486572265625,0
2111.187,-0.0027945805341005325,0.0007489686831831932,-0.0022991634905338287,0.0,0.0,0.0,0.0,-0.0001824499195208773,0.0012647983385249972,-0.0002027545269811526,1.0002000331878662,0.0,0.0,0.0,0.3840644061565399,2.392969846725464,6.4531965255737305,-69.51642608642578,0
2121.098,-0.002906267764046788,0.0007652318454347551,-0.0023738814052194357,0.0,0.0,0.0,0.0,-0.001301803276874125,-0.0010934689780697227,0.003910149913281202,0.9999567866325378,0.0,0.0,0.0,0.38353225588798523,2.3881828784942627,6.43796443939209,-69.42010498046875,0
2131.012999999999,-0.002996938768774271,0.0007994345505721867,-0.00246606208384037,0.0,0.0,0.0,0.0,0.0006941315368749201,0.0031540952622890472,0.0006824175943620503,0.9992303252220154,0.0,0.0,0.0,0.4046476185321808,2.398292303085327,6.442413806915283,-73.24202728271484,0
2140.9210000000003,-0.0031141091603785753,0.0008196277194656432,-0.0025428570806980133,0.0,0.0,0.0,0.0,-0.0022415861021727324,0.0015336109790951014,0.00010840166214620695,0.9974032640457153,0.0,0.0,0.0,0.40420013666152954,2.399758815765381,6.4305315017700195,-73.16102600097656,0
2150.8330000000005,-0.003198410617187619,0.00086125050438568,-0.0026463810354471207,0.0,0.0,0.0,0.0,0.0016028551617637277,-0.003336310386657715,-0.003631145693361759,0.9989404082298279,0.0,0.0,0.0,0.4242043197154999,2.4104011058807373,6.429955959320068,-76.78182220458984,0
2160.7440000000006,-0.0032850047573447227,0.0008969506598077714,-0.0027641698252409697,0.0,0.0,0.0,0.0,-0.002733113942667842,-0.0029310996178537607,0.0008321672794409096,1.001844882965088,0.0,0.0,0.0,0.41206905245780945,2.4161388874053955,6.435472011566162,-74.58531188964844,0
2170.6569999999992,-0.0002500126138329506,-7.443682989105582e-05,-0.0001460088969906792,0.0,0.0,0.0,0.0,0.0013153419131413102,0.0004135856288485229,0.0009098377777263522,1.0008646249771118,0.0,0.0,0.0,0.40339601039886475,2.290038585662842,6.791879653930664,-73.01548767089844,0
2180.5679999999993,-0.0002399418008280918,-3.1753424991620705e-05,-0.00019517246983014047,0.0,0.0,0.0,0.0,0.0005294328439049423,0.0020803515799343586,3.399238266865723e-05,1.000661015510559,0.0,0.0,0.0,0.4139602780342102,2.292365789413452,6.791395664215088,-74.92764282226562,0
2190.486999999999,-0.0001307067577727139,-4.126508429180831e-05,-0.00012341160618234426,0.0,0.0,0.0,0.0,0.0028030460234731436,0.0021123767364770174,-0.0014545429730787873,0.9994521737098694,0.0,0.0,0.0,0.4132416248321533,2.2887229919433594,6.773575305938721,-74.79755401611328,0
2200.3979999999992,-0.00013102615776006132,1.2837971553381067e-05,-0.00013565161498263478,0.0,0.0,0.0,0.0,-0.0018783282721415162,-0.0029642765875905752,-0.0009286409476771951,1.0015512704849243,0.0,0.0,0.0,0.4227732717990875,2.290424108505249,6.7618560791015625,-76.5228042602539,0
2210.313,-0.0001239124540006742,3.8353305171767715e-06,-0.0001301047159358859,0.0,0.0,0.0,0.0,0.0027042445726692677,-0.0010993403848260641,0.00015104684280231595,1.000727653503418,0.0,0.0,0.0,0.41212090849876404,2.291790246963501,6.756901741027832,-74.5947036743164,0
2220.214,-0.00011213059042347595,4.6670429583173245e-05,-0.00017784928786568344,0.0,0.0,0.0,0.0,0.0012994405115023255,0.0008220794843509793,0.0017881602980196476,0.9981507062911987,0.0,0.0,0.0,0.4120120704174042,2.2849836349487305,6.7509870529174805,-74.57500457763672,0
2230.133,-3.2165848097065464e-05,-3.3717275073286146e-05,-0.0001662838039919734,0.0,0.0,0.0,0.0,0.003772171912714839,0.0015599298058077693,-0.003430661279708147,1.0000391006469727,0.0,0.0,0.0,0.41250675916671753,2.283376932144165,6.739779949188232,-74.66455078125,0
