timestamp,stateEstimate.x,stateEstimate.y,stateEstimate.z,controller.cmd_thrust,controller.cmd_roll,controller.cmd_pitch,controller.cmd_yaw,controller.r_roll,controller.r_pitch,controller.r_yaw,controller.accelz,controller.actuatorThrust,controller.roll,controller.pitch,controller.yaw,controller.rollRate,controller.pitchRate,controller.yawRate,controller.ctr_yaw
0.0,-0.00012603390496224165,-1.7313332136836834e-05,-0.00017880965606309474,0.0,0.0,0.0,0.0,0.00021248034317977726,-0.003882431657984853,-0.001409516902640462,0.9993481636047363,0.0,0.0,0.0,0.2502579092979431,2.538238525390625,3.950413703918457,-45.29718017578125,0
9.904999999998836,-0.0001768322108546272,-5.088797115604393e-05,-0.00017839879728853703,0.0,0.0,0.0,0.0,0.0011329634580761194,-0.0027533983811736107,-0.0032538557425141335,0.9984486699104309,0.0,0.0,0.0,0.250724196434021,2.532033920288086,3.9476850032806396,-45.38157653808594,0
19.836999999999534,-0.00018829293549060822,-1.8271039152750745e-05,-0.00023804046213626862,0.0,0.0,0.0,0.0,0.0017188660567626357,0.0010179959936067462,0.0016733335796743631,0.9995115399360657,0.0,0.0,0.0,0.2500993311405182,2.528852701187134,3.947409152984619,-45.26847457885742,0
29.730999999999767,-0.00010673503129510209,-8.511705527780578e-05,-0.00021097055287100375,0.0,0.0,0.0,0.0,-0.0008797095506452024,0.0005982904694974422,0.0020463119726628065,0.9998528361320496,0.0,0.0,0.0,0.2504082918167114,2.528235673904419,3.9407334327697754,-45.324398040771484,0
39.65300000000025,-0.00011115033703390509,-3.995701263193041e-05,-0.0002690460532903671,0.0,0.0,0.0,0.0,-0.002211613580584526,-0.0051913196220994,0.000567952636629343,0.9987894296646118,0.0,0.0,0.0,0.2508852481842041,2.524941921234131,3.9373416900634766,-45.410728454589844,0
49.550999999999476,-0.0001052712686941959,-6.41843507764861e-05,-0.0002529710181988776,0.0,0.0,0.0,0.0,-0.0012272729072719812,-0.0025280327536165714,-0.004315198864787817,0.9981843829154968,0.0,0.0,0.0,0.2515893578529358,2.5237786769866943,3.9432976245880127,-45.53817367553711,0
59.469999999999345,-0.00011139236448798329,-2.0210252841934562e-05,-0.0003118310123682022,0.0,0.0,0.0,0.0,-0.0002576734696049243,0.0022180781234055758,0.0012175129959359765,0.998945415019989,0.0,0.0,0.0,0.24404525756835938,2.5403361320495605,3.954037666320801,-44.17267608642578,0
69.38299999999981,-5.5736807553330436e-05,-6.221319199539721e-05,-0.0002925940207205713,0.0,0.0,0.0,0.0,-0.00062800437444821,-0.0019251072080805898,-0.0008109998307190835,0.9996659159660339,0.0,0.0,0.0,0.24467283487319946,2.538538694381714,3.950150489807129,-44.2862663269043,0
79.29299999999967,-0.0001282210578210652,-7.010040280874819e-05,-0.00029845337849110365,0.0,0.0,0.0,0.0,-0.0006864251918159425,0.005714135710150003,-0.0016727702459320426,0.9986060857772827,0.0,0.0,0.0,0.24352946877479553,2.5355396270751953,3.9487686157226562,-44.079322814941406,0
89.19700000000012,-0.0001232660870300606,-8.840832015266642e-05,-0.0002814105246216059,0.0,0.0,0.0,0.0,0.0018186457455158234,0.003179289633408189,-0.000645152002107352,1.000785231590271,0.0,0.0,0.0,0.24219383299350739,2.5374135971069336,3.9309146404266357,-43.83756637573242,0
99.11799999999857,-0.00023702759062871337,-0.0001804564381018281,-0.0002408660075161606,0.0,0.0,0.0,0.0,0.0012128457892686129,0.0027123296167701483,0.003466481575742364,0.9999777674674988,0.0,0.0,0.0,0.24107825756072998,2.535175085067749,3.915952682495117,-43.635643005371094,0
109.02099999999882,-0.00013963624951429665,-0.00022206109133549035,-0.0001937816123245284,0.0,0.0,0.0,0.0,-0.0017579196719452739,-0.005234713200479746,0.0011971801286563277,0.9978373050689697,0.0,0.0,0.0,0.24123135209083557,2.53338360786438,3.9115636348724365,-43.663352966308594,0
118.95099999999911,-0.0001983942202059552,-0.00022261541744228452,-0.00018827631720341742,0.0,0.0,0.0,0.0,0.0011148507473990321,0.001678942353464663,-0.0021966793574392796,0.9988297820091248,0.0,0.0,0.0,0.24066944420337677,2.531733512878418,3.9158380031585693,-43.5616455078125,0
128.85499999999956,-0.00010272684448864311,-0.0002509707701392472,-0.0001340008166152984,0.0,0.0,0.0,0.0,0.001355184824205935,-0.00010636634397087619,0.002696843584999442,0.9994629621505737,0.0,0.0,0.0,0.23910962045192719,2.5239028930664062,3.9003841876983643,-43.27931594848633,0
138.7639999999992,-0.00012077586870873347,-0.00022186590649653226,-0.00017492428014520556,0.0,0.0,0.0,0.0,-0.0013223192654550076,-0.0019179373048245907,0.005607455037534237,0.9994093179702759,0.0,0.0,0.0,0.23864270746707916,2.514575242996216,3.8950321674346924,-43.19480514526367,0
148.66899999999987,-0.00011823265231214464,-0.00023830025747884065,-0.00014347350224852562,0.0,0.0,0.0,0.0,0.00019735752721317112,0.004312969744205475,-0.0003259472723584622,1.0010840892791748,0.0,0.0,0.0,0.2399147003889084,2.5140302181243896,3.901035785675049,-43.4250373840332,0
158.59000000000015,-0.00017564524023327976,-0.00024875227245502174,-0.00014540065603796393,0.0,0.0,0.0,0.0,-0.0007552065653726459,-0.0007204862777143717,0.002369524911046028,0.9993705749511719,0.0,0.0,0.0,0.24040471017360687,2.5136220455169678,3.89963960647583,-43.513729095458984,0
168.4920000000002,-0.00014589462080039084,-0.00024306455452460796,-8.942960266722366e-05,0.0,0.0,0.0,0.0,0.0007305897306650877,-0.0005495019140653312,0.0023578910622745752,1.000751256942749,0.0,0.0,0.0,0.24045057594776154,2.5122430324554443,3.898560047149658,-43.522029876708984,0
178.41799999999967,-0.00015779564273543656,-0.0001912433363031596,-0.00012867929763160646,0.0,0.0,0.0,0.0,0.000134739835630171,-7.084099343046546e-05,-0.000664426595903933,0.999656081199646,0.0,0.0,0.0,0.24072282016277313,2.508230447769165,3.8926737308502197,-43.57130813598633,0
188.3169999999991,-0.00013520312495529652,-0.00020838910131715238,-8.52919984026812e-05,0.0,0.0,0.0,0.0,0.0016745299799367785,0.0063722929917275906,-0.0011785478563979268,1.001564383506775,0.0,0.0,0.0,0.24020324647426605,2.5042271614074707,3.8851382732391357,-43.477264404296875,0
198.24099999999999,-0.00015425766468979418,-0.0001859671901911497,-0.00012982485350221395,0.0,0.0,0.0,0.0,0.0007984666153788567,-0.000514863058924675,0.0011536303209140897,0.9993797540664673,0.0,0.0,0.0,0.23910684883594513,2.4989173412323,3.865199089050293,-43.27881622314453,0
208.14599999999882,-0.0001735650293994695,-0.0001472224248573184,-7.317322888411582e-05,0.0,0.0,0.0,0.0,-0.0017317368183284998,0.0009896467672660947,-0.0015286818379536271,0.9983338713645935,0.0,0.0,0.0,0.23951572179794312,2.496753215789795,3.8677031993865967,-43.35282516479492,0
218.0679999999993,-0.0001689852651907131,-8.631219679955393e-05,-0.00014331792772281915,0.0,0.0,0.0,0.0,-0.00015746577992103994,0.003977298270910978,0.0017853275639936328,0.9979278445243835,0.0,0.0,0.0,0.23862510919570923,2.4970643520355225,3.8634729385375977,-43.191619873046875,0
227.96599999999853,-0.00014730775728821754,-0.00011723111674655229,-0.00011019200610462576,0.0,0.0,0.0,0.0,-0.000855016172863543,-0.0021812845952808857,0.0008751681307330728,0.9998877644538879,0.0,0.0,0.0,0.2386551797389984,2.493485689163208,3.845283269882202,-43.197059631347656,0
237.887999999999,-0.00018994604761246592,-0.00011156207619933411,-0.00013307336485013366,0.0,0.0,0.0,0.0,0.003729419317096472,-0.0012802229030057788,0.0003430080250836909,1.0008974075317383,0.0,0.0,0.0,0.23867590725421906,2.4898571968078613,3.8456170558929443,-43.2008171081543,0
247.78999999999905,-0.00022064140648581088,-0.00011757493484765291,-0.00010345599002903327,0.0,0.0,0.0,0.0,-0.0025638192892074585,-0.005732305813580751,0.001045023207552731,0.999724805355072,0.0,0.0,0.0,0.2378925383090973,2.4776558876037598,3.8409037590026855,-43.059024810791016,0
257.71299999999974,-0.00024324883997906,-9.399565897183493e-05,-0.00014961832494009286,0.0,0.0,0.0,0.0,-0.000962902617175132,0.002541844267398119,-0.001671917736530304,1.0005464553833008,0.0,0.0,0.0,0.23778168857097626,2.4791975021362305,3.8484108448028564,-43.03895950317383,0
267.6139999999996,-0.00016389894881285727,-0.00013082174700684845,-0.00010138697689399123,0.0,0.0,0.0,0.0,0.0006771486951038241,5.496087032952346e-05,0.00016174557094927877,1.0000067949295044,0.0,0.0,0.0,0.23704780638217926,2.4795703887939453,3.842251777648926,-42.906124114990234,0
277.53299999999945,-0.00020325549121480435,-0.0001679830311331898,-0.00014284311328083277,0.0,0.0,0.0,0.0,0.0004161777615081519,0.0033477693796157837,0.0005179086001589894,0.997651219367981,0.0,0.0,0.0,0.23718321323394775,2.470792770385742,3.841594934463501,-42.93062973022461,0
287.4359999999997,-0.00013054096780251712,-0.00020279764430597425,-9.398826659889892e-05,0.0,0.0,0.0,0.0,-0.0012334174243733287,0.0012189496774226427,0.0004873473953921348,0.9994928240776062,0.0,0.0,0.0,0.2375517189502716,2.4649956226348877,3.829613447189331,-42.997337341308594,0
297.35999999999876,-0.00016868030070327222,-0.00021549178927671164,-0.00012982163752894849,0.0,0.0,0.0,0.0,0.0026135253719985485,-0.00036270770942792296,0.003062719013541937,0.998958170413971,0.0,0.0,0.0,0.23697087168693542,2.4622976779937744,3.822916030883789,-42.89219665527344,0
307.2600000000002,-0.00015740164963062853,-0.00022205692948773503,-8.909414464142174e-05,0.0,0.0,0.0,0.0,0.001980684231966734,0.0002012579352594912,-0.0022740771528333426,1.0006214380264282,0.0,0.0,0.0,0.2372155785560608,2.451674699783325,3.8239002227783203,-42.93648910522461,0
317.1769999999997,-0.0001826020743465051,-0.00016613509797025472,-0.00012138394231442362,0.0,0.0,0.0,0.0,-0.0014245354104787111,-0.0014213613467290998,-0.0018496994161978364,0.9992300271987915,0.0,0.0,0.0,0.2359003871679306,2.4457342624664307,3.8187692165374756,-42.69844055175781,0
327.0849999999991,-0.00012505373160820454,-0.00019059027545154095,-7.298853597603738e-05,0.0,0.0,0.0,0.0,-0.000771411054302007,-0.0027344918344169855,4.09529784519691e-05,0.9994832277297974,0.0,0.0,0.0,0.23567721247673035,2.442669153213501,3.814531087875366,-42.65804672241211,0
337.0079999999998,-0.00011572266521397978,-0.00013286712055560201,-0.0001522699894849211,0.0,0.0,0.0,0.0,0.002818842651322484,-0.001121759763918817,0.00031267869053408504,1.000117301940918,0.0,0.0,0.0,0.23465292155742645,2.446180820465088,3.8093044757843018,-42.4726448059082,0
346.90799999999945,-0.00015357320080511272,-0.00018089512013830245,-0.00014998755068518221,0.0,0.0,0.0,0.0,0.000884185719769448,-0.00046274211490526795,0.0002593277604319155,0.9991267919540405,0.0,0.0,0.0,0.23439538478851318,2.4449827671051025,3.8047475814819336,-42.426029205322266,0
356.8279999999995,-0.0001504926913185045,-0.0001119630760513246,-0.00022116048785392195,0.0,0.0,0.0,0.0,-0.0005701553891412914,0.007438156753778458,0.002768708160147071,0.9997754096984863,0.0,0.0,0.0,0.2408798187971115,2.458972215652466,3.817533016204834,-43.59972381591797,0
366.73199999999997,-0.00011712976265698671,-0.00014496986113954335,-0.00019693057402037084,0.0,0.0,0.0,0.0,-0.0012760868994519114,-0.002193277236074209,8.897323277778924e-05,0.998695433139801,0.0,0.0,0.0,0.24096234142780304,2.4539871215820312,3.8031797409057617,-43.614662170410156,0
376.65300000000025,-0.00017610480426810682,-0.0001394156861351803,-0.0002032932679867372,0.0,0.0,0.0,0.0,0.00018152313714381307,-0.0038179364055395126,0.0004958658246323466,0.9991720914840698,0.0,0.0,0.0,0.24108752608299255,2.4508056640625,3.800025701522827,-43.63732147216797,0
386.5599999999995,-9.487921488471329e-05,-0.00020787275570910424,-0.00017564123845659196,0.0,0.0,0.0,0.0,-0.004640669096261263,-0.0033961450681090355,-0.005830998066812754,1.0010241270065308,0.0,0.0,0.0,0.24094122648239136,2.4472081661224365,3.8032379150390625,-43.61083984375,0
396.47699999999895,-0.00013816925638820976,-0.000175429493538104,-0.00019039734615944326,0.0,0.0,0.0,0.0,0.00047735049156472087,-0.0008023428963497281,0.0009044990874826908,0.9991394281387329,0.0,0.0,0.0,0.23914408683776855,2.454615354537964,3.8105742931365967,-43.285552978515625,0
406.378999999999,-8.296385931316763e-05,-0.00022954119776841253,-0.00016125099500641227,0.0,0.0,0.0,0.0,-0.0016370449448004365,-0.002545501571148634,-0.001686566392891109,0.9975786209106445,0.0,0.0,0.0,0.23897811770439148,2.4502453804016113,3.8096823692321777,-43.25551223754883,0
416.3009999999995,-0.00017471319006290287,-0.00027377609512768686,-0.0001332313840975985,0.0,0.0,0.0,0.0,0.0025622129905968904,0.005541462916880846,-0.0020327556412667036,1.0003196001052856,0.0,0.0,0.0,0.23858299851417542,2.449680805206299,3.8110785484313965,-43.183998107910156,0
426.2029999999995,-0.00013251433847472072,-0.00026282158796675503,-7.453242142219096e-05,0.0,0.0,0.0,0.0,-0.0024532831739634275,0.000358617544407025,0.002149782842025161,1.001150369644165,0.0,0.0,0.0,0.23703047633171082,2.4385123252868652,3.7893786430358887,-42.90298843383789,0
436.1359999999986,-0.00015788114978931844,-0.00025335801183246076,-0.00012294409680180252,0.0,0.0,0.0,0.0,0.004058283753693104,0.00021196284797042608,0.0024905113968998194,0.9993709921836853,0.0,0.0,0.0,0.2420293390750885,2.4516119956970215,3.7853493690490723,-43.80779266357422,0
446.02899999999863,-0.0001684374874457717,-0.00021890805510338396,-6.758268136763945e-05,0.0,0.0,0.0,0.0,0.0008714566938579082,0.002925025997683406,0.0035793334245681763,0.9980978965759277,0.0,0.0,0.0,0.2417346090078354,2.441418170928955,3.777090549468994,-43.75444793701172,0
455.9589999999989,-0.00015570520190522075,-0.00013825974019709975,-0.0001502496306784451,0.0,0.0,0.0,0.0,0.0013942538062110543,-1.2984854038222693e-05,5.2506296924548224e-05,0.9982479810714722,0.0,0.0,0.0,0.24207966029644012,2.44010329246521,3.7689993381500244,-43.816898345947266,0
465.85199999999895,-0.00016204797429963946,-0.00015779794193804264,-0.000124567246530205,0.0,0.0,0.0,0.0,0.001442219247110188,-0.0021189895924180746,3.851949441013858e-05,0.9987819790840149,0.0,0.0,0.0,0.24214361608028412,2.436326265335083,3.7671210765838623,-43.82847595214844,0
475.78099999999904,-0.00013016363664064556,-7.331751112360507e-05,-0.00024357142683584243,0.0,0.0,0.0,0.0,0.0014054927742108703,-0.0003674109175335616,0.00018348633602727205,1.0007362365722656,0.0,0.0,0.0,0.2482399344444275,2.45316481590271,3.782567262649536,-44.931922912597656,0
485.6749999999993,-0.00013146692072041333,-9.592127753421664e-05,-0.00022702135902363807,0.0,0.0,0.0,0.0,-0.0025167963467538357,0.0015659363707527518,-0.0025859216693788767,0.9995627999305725,0.0,0.0,0.0,0.246856227517128,2.450103759765625,3.775482654571533,-44.68146514892578,0
495.59799999999996,-0.00012599385809153318,-4.097976488992572e-05,-0.0003253387985751033,0.0,0.0,0.0,0.0,-0.002368311630561948,0.0018712986493483186,0.0006243413081392646,1.0002782344818115,0.0,0.0,0.0,0.2524873614311218,2.4671266078948975,3.7802789211273193,-45.700714111328125,0
505.5049999999992,-9.172309364657849e-05,-0.00013485239469446242,-0.0003361599810887128,0.0,0.0,0.0,0.0,-0.001128710457123816,-0.004695819225162268,0.005406296346336603,1.000047206878662,0.0,0.0,0.0,0.2526579797267914,2.46720027923584,3.7715039253234863,-45.731597900390625,0
515.4249999999993,-0.00010513889719732106,-8.491297194268554e-05,-0.0004123997350689024,0.0,0.0,0.0,0.0,-0.0005837838398292661,0.002732842694967985,0.00239543616771698,0.9999016523361206,0.0,0.0,0.0,0.25950726866722107,2.4798972606658936,3.7831406593322754,-46.97133255004883,0
525.3229999999985,-2.102460348396562e-05,-0.00012941588647663593,-0.00038590645999647677,0.0,0.0,0.0,0.0,-0.0018951704259961843,0.0034425947815179825,0.004022931680083275,0.9997743368148804,0.0,0.0,0.0,0.25895121693611145,2.4752652645111084,3.772315740585327,-46.87068557739258,0
535.2519999999986,-7.6297641498968e-05,-0.0001058320194715634,-0.0004051431023981422,0.0,0.0,0.0,0.0,-0.00048373776371590793,-0.0006039354484528303,-0.0007820662576705217,0.999445378780365,0.0,0.0,0.0,0.2593897879123688,2.4784207344055176,3.7611100673675537,-46.95006561279297,0
545.1479999999992,-7.210874900920317e-05,-0.00015394281945191324,-0.0004030602576676756,0.0,0.0,0.0,0.0,-0.0007593269110657275,-7.150077726691961e-05,0.0017649398650974035,0.9997924566268921,0.0,0.0,0.0,0.25828152894973755,2.477569341659546,3.7561492919921875,-46.74946975708008,0
555.0689999999995,-0.0001593881897861138,-0.000180502247530967,-0.00039552710950374603,0.0,0.0,0.0,0.0,0.0006158123142085969,-0.0022830613888800144,0.003961335401982069,1.0008165836334229,0.0,0.0,0.0,0.25820356607437134,2.4783360958099365,3.7514753341674805,-46.735355377197266,0
564.9740000000002,-0.00010582489630905911,-0.0001909997663460672,-0.00035283289616927505,0.0,0.0,0.0,0.0,-0.003386446973308921,0.0007186956936493516,0.0018424721201881766,1.0008610486984253,0.0,0.0,0.0,0.25898098945617676,2.471876382827759,3.7576277256011963,-46.876075744628906,0
574.8959999999988,-0.00018046196782961488,-0.00018248369451612234,-0.0003433881502132863,0.0,0.0,0.0,0.0,0.0029236041009426117,-0.0017001302912831306,0.0003953009145334363,0.9998237490653992,0.0,0.0,0.0,0.2588697075843811,2.4779295921325684,3.759012460708618,-46.855934143066406,0
584.7979999999989,-0.00016669374599587172,-0.00015091428940650076,-0.0002875109203159809,0.0,0.0,0.0,0.0,-0.003152943216264248,0.0003198415506631136,-0.00022279769473243505,0.9999959468841553,0.0,0.0,0.0,0.2593803107738495,2.469132900238037,3.7589449882507324,-46.9483528137207,0
594.7129999999997,-0.000265979440882802,-0.00018735173216555268,-0.0002559241547714919,0.0,0.0,0.0,0.0,0.00029024251853115857,0.00033208096283487976,0.0029887522105127573,0.999186098575592,0.0,0.0,0.0,0.2584927976131439,2.467257022857666,3.7516279220581055,-46.787715911865234,0
604.6189999999988,-0.00015223535592667758,-0.00019144480756949633,-0.00017270912940148264,0.0,0.0,0.0,0.0,-0.003908177372068167,0.001099281245842576,-0.0006086499779485166,0.9990150928497314,0.0,0.0,0.0,0.25829771161079407,2.4659347534179688,3.749058485031128,-46.75239562988281,0
614.5450000000001,-0.00021645810920745134,-0.00021428920445032418,-0.00018627459940034896,0.0,0.0,0.0,0.0,-0.001343253767117858,0.0018671657890081406,0.0022733588702976704,0.9983449578285217,0.0,0.0,0.0,0.25797897577285767,2.462752342224121,3.743786573410034,-46.69470977783203,0
624.4419999999991,-0.00017374451272189617,-0.00021162224584259093,-0.00011809008719865233,0.0,0.0,0.0,0.0,-0.0011102334829047322,-0.0006938442820683122,0.0011592272203415632,0.9991872906684875,0.0,0.0,0.0,0.2579147517681122,2.456430196762085,3.7371408939361572,-46.683082580566406,0
634.3649999999998,-0.0002198838337790221,-0.0002236200380139053,-0.00015886854089330882,0.0,0.0,0.0,0.0,0.0006462956662289798,-0.003996703308075666,0.002015553880482912,0.9998561143875122,0.0,0.0,0.0,0.2574649453163147,2.4560835361480713,3.7309882640838623,-46.60166549682617,0
644.2709999999988,-0.00018866427126340568,-0.00021307767019607127,-9.341655822936445e-05,0.0,0.0,0.0,0.0,0.0017817965708673,0.003085292410105467,-0.002127682790160179,1.0002720355987549,0.0,0.0,0.0,0.2584393322467804,2.453078508377075,3.738107919692993,-46.77803421020508,0
654.1989999999987,-0.00018086022464558482,-0.00011635251576080918,-0.00017518605454824865,0.0,0.0,0.0,0.0,0.00012870176578871906,-0.0004897836479358375,0.001565340324304998,1.000866174697876,0.0,0.0,0.0,0.2652560770511627,2.473895788192749,3.742462396621704,-48.011878967285156,0
664.0929999999989,-0.00022099413035903126,-0.00011019418889191002,-0.00013692231732420623,0.0,0.0,0.0,0.0,0.0036836746148765087,0.0029801735654473305,-0.0009689689613878727,1.0020098686218262,0.0,0.0,0.0,0.2658528685569763,2.471989631652832,3.7371718883514404,-48.11989212036133,0
674.021999999999,-0.0002241476613562554,-3.9948237827047706e-05,-0.00021908686903771013,0.0,0.0,0.0,0.0,0.001614406704902649,-0.004358657635748386,-0.0004631430783774704,1.0003793239593506,0.0,0.0,0.0,0.2654375731945038,2.4643394947052,3.734483242034912,-48.04472732543945,0
683.9139999999989,-0.00019273282669018954,-8.141751459334046e-05,-0.00018476147670298815,0.0,0.0,0.0,0.0,0.0015205355593934655,0.003931646700948477,0.0008781183278188109,1.0007061958312988,0.0,0.0,0.0,0.2653730511665344,2.4618070125579834,3.737685441970825,-48.033050537109375,0
693.8429999999989,-0.00023034066543914378,-3.811045462498441e-05,-0.00022911255655344576,0.0,0.0,0.0,0.0,-0.0004560790548566729,-0.0022907406091690063,0.0021410975605249405,0.9981703162193298,0.0,0.0,0.0,0.2725166976451874,2.46743106842041,3.7304623126983643,-49.32606887817383,0
703.7389999999996,-0.00022656979854218662,-5.0714217650238425e-05,-0.00018792504852171987,0.0,0.0,0.0,0.0,0.0023769207764416933,0.002759119961410761,-0.0006063761538825929,0.9994907379150391,0.0,0.0,0.0,0.2727527320384979,2.4695935249328613,3.7309391498565674,-49.3687858581543,0
713.655999999999,-0.0002403066901024431,4.049084964208305e-05,-0.0002524614392314106,0.0,0.0,0.0,0.0,0.000984450802206993,0.00012015905667794868,0.0010924075031653047,0.9993708729743958,0.0,0.0,0.0,0.27216610312461853,2.466560125350952,3.720414876937866,-49.262603759765625,0
723.5720000000001,-0.00020391124417074025,-7.586822903249413e-06,-0.0002219902235083282,0.0,0.0,0.0,0.0,-0.0002697419549804181,0.003044917481020093,0.0006928766961209476,1.001749038696289,0.0,0.0,0.0,0.27165940403938293,2.4621407985687256,3.7110748291015625,-49.17089080810547,0
733.485999999999,-0.00025218178052455187,2.657152435858734e-06,-0.0002654856361914426,0.0,0.0,0.0,0.0,0.0007767407223582268,-0.0017796381143853068,1.8910664948634803e-05,1.0010093450546265,0.0,0.0,0.0,0.27229058742523193,2.457777976989746,3.701601028442383,-49.28514099121094,0
743.3940000000002,-0.00016670991317369044,-5.1279312174301594e-05,-0.0002234210114693269,0.0,0.0,0.0,0.0,-0.00039989163633435965,-0.004142478108406067,0.002626876812428236,1.0017094612121582,0.0,0.0,0.0,0.27173668146133423,2.4511611461639404,3.7053604125976562,-49.184879302978516,0
753.3029999999999,-0.00020900889649055898,-2.554352795414161e-05,-0.0002604076580610126,0.0,0.0,0.0,0.0,0.0009654468158259988,0.0018345678690820932,-0.0005390971782617271,1.001158595085144,0.0,0.0,0.0,0.27944740653038025,2.4608829021453857,3.7190167903900146,-50.58053970336914,0
763.2179999999989,-0.000147386992466636,-6.603794463444501e-05,-0.00021685572573915124,0.0,0.0,0.0,0.0,-0.001531153917312622,0.00022254795476328582,-0.0005662544863298535,1.0013327598571777,0.0,0.0,0.0,0.27797237038612366,2.458981513977051,3.7087912559509277,-50.31355285644531,0
773.1409999999996,-0.00021506068878807127,-9.897029667627066e-05,-0.00023177459661383182,0.0,0.0,0.0,0.0,0.000370829802704975,-0.0028374975081533194,-0.0002926533343270421,1.0000114440917969,0.0,0.0,0.0,0.2776607573032379,2.463320255279541,3.7041451930999756,-50.25715255737305,0
783.0450000000001,-0.00016329868230968714,-0.00012714980402961373,-0.00018043960153590888,0.0,0.0,0.0,0.0,0.001765517401508987,-0.0024289865978062153,0.0037335259839892387,1.0004310607910156,0.0,0.0,0.0,0.2776776850223541,2.466919183731079,3.7077083587646484,-50.260215759277344,0
792.9509999999991,-0.0002101800637319684,-0.0001128373623942025,-0.0002029838942689821,0.0,0.0,0.0,0.0,-0.0009585457155480981,0.0031073330901563168,0.0026451183948665857,1.0003360509872437,0.0,0.0,0.0,0.27815642952919006,2.4605419635772705,3.7057039737701416,-50.34686279296875,0
802.8739999999998,-0.00012611006968654692,-0.00019684762810356915,-0.0001644634612603113,0.0,0.0,0.0,0.0,0.0009372946806252003,-1.2745979802275542e-05,0.002692968351766467,1.0000754594802856,0.0,0.0,0.0,0.2780320644378662,2.4593346118927,3.6948964595794678,-50.32435607910156,0
812.7780000000002,-0.00016747257905080914,-0.00017613626550883055,-0.000189953891094774,0.0,0.0,0.0,0.0,0.003528411965817213,-0.0009676459594629705,-0.002466523554176092,1.0011544227600098,0.0,0.0,0.0,0.2792394757270813,2.4565646648406982,3.691131591796875,-50.54290008544922,0
822.6909999999989,-7.320843724301085e-05,-0.00021225030650384724,-0.00012509661610238254,0.0,0.0,0.0,0.0,0.0021053049713373184,0.005383742041885853,-0.003155598882585764,1.0013080835342407,0.0,0.0,0.0,0.27826958894729614,2.449174404144287,3.6894333362579346,-50.367347717285156,0
832.5939999999991,-7.697763066971675e-05,-0.00014026908320374787,-0.00018099263252224773,0.0,0.0,0.0,0.0,-0.0031041514594107866,0.0005790728610008955,-0.001286800834350288,0.9993870854377747,0.0,0.0,0.0,0.2691035568714142,2.4610939025878906,3.684382438659668,-48.70827865600586,0
842.5190000000002,-3.074604683206417e-05,-0.0002455711946822703,-0.00016544345999136567,0.0,0.0,0.0,0.0,-0.0010316733969375491,-0.0012703965185210109,0.0010105753317475319,0.9989345669746399,0.0,0.0,0.0,0.26923033595085144,2.463181972503662,3.6783950328826904,-48.731224060058594,0
852.4210000000003,-4.1256804252043366e-05,-0.00016787982895039022,-0.00021106121130287647,0.0,0.0,0.0,0.0,0.0010008052922785282,0.0010958720231428742,-0.0006513235857710242,1.0000364780426025,0.0,0.0,0.0,0.2688412666320801,2.4621694087982178,3.674548864364624,-48.660804748535156,0
862.3379999999997,-2.5199828087352216e-05,-0.0002270801633130759,-0.0001901848299894482,0.0,0.0,0.0,0.0,0.0019824423361569643,-0.001149319694377482,0.0007871436537243426,0.9994451999664307,0.0,0.0,0.0,0.26760685443878174,2.4577956199645996,3.6711063385009766,-48.43737030029297,0
872.2439999999988,-7.899377669673413e-05,-0.00018748821457847953,-0.00018745117995422333,0.0,0.0,0.0,0.0,-4.7747918870300055e-05,0.007433968596160412,-0.0031888745725154877,1.0007785558700562,0.0,0.0,0.0,0.26052337884902954,2.4636857509613037,3.6740615367889404,-47.15525436401367,0
882.1629999999986,-4.196836380288005e-05,-0.00025148122222162783,-0.00015291880117729306,0.0,0.0,0.0,0.0,-0.0018523610197007656,-0.008426397107541561,-0.002629351569339633,1.0005589723587036,0.0,0.0,0.0,0.259056955575943,2.4581754207611084,3.65040922164917,-46.88982391357422,0
892.0689999999995,-8.702684863237664e-05,-0.00019388673536013812,-0.00015891743532847613,0.0,0.0,0.0,0.0,-0.0012093724217265844,-0.0003906428755726665,0.002667711116373539,0.999332845211029,0.0,0.0,0.0,0.26478680968284607,2.4767510890960693,3.6674375534057617,-47.92694091796875,0
901.9889999999996,-1.8038586858892813e-05,-0.0002687239903025329,-0.00011983166041318327,0.0,0.0,0.0,0.0,-0.0005073337815701962,-0.0004717801639344543,2.08903438760899e-05,0.9993714690208435,0.0,0.0,0.0,0.2657117545604706,2.4789235591888428,3.665849447250366,-48.09435272216797,0
911.8919999999998,-4.486908801482059e-05,-0.00018396628729533404,-0.00014041937538422644,0.0,0.0,0.0,0.0,0.0019446988590061665,-0.001119147753342986,0.0009885553736239672,1.0000184774398804,0.0,0.0,0.0,0.25899967551231384,2.5010874271392822,3.6678884029388428,-46.87945556640625,0
921.8179999999993,-0.00010624627611832693,-0.00023743472411297262,-0.0001356424909317866,0.0,0.0,0.0,0.0,0.0009896737756207585,-0.002222662325948477,-0.002837882377207279,0.9999170899391174,0.0,0.0,0.0,0.25894057750701904,2.4960365295410156,3.6638712882995605,-46.86875534057617,0
931.7150000000001,-0.0001507369161117822,-0.00018850241031032056,-0.00015013648953754455,0.0,0.0,0.0,0.0,-0.0007906770333647728,-0.001819656346924603,-0.0006527575314976275,0.9990483522415161,0.0,0.0,0.0,0.2631089687347412,2.5065910816192627,3.6676745414733887,-47.62324523925781,0
941.6329999999998,-0.0001255430543096736,-0.000231562415137887,-0.00010925052629318088,0.0,0.0,0.0,0.0,-0.0028482216876000166,-7.288468623301014e-05,-0.002772955922409892,0.9979427456855774,0.0,0.0,0.0,0.25331535935401917,2.510141372680664,3.678467035293579,-45.8505859375,0
951.5370000000003,-0.00015753530897200108,-0.00017295964062213898,-0.0001438118051737547,0.0,0.0,0.0,0.0,0.0009483854519203305,0.003326768521219492,-0.0003495245473459363,1.001104712486267,0.0,0.0,0.0,0.2525738477706909,2.5118143558502197,3.6752219200134277,-45.716365814208984,0
961.4569999999985,-0.00016775174299255013,-0.00017590122297406197,-0.00010095300240209326,0.0,0.0,0.0,0.0,-0.0014619216090068221,0.0007821045583114028,-0.0024506463669240475,0.9991815686225891,0.0,0.0,0.0,0.25267112255096436,2.5074527263641357,3.666924238204956,-45.73397445678711,0
971.3599999999988,-0.0001978465006686747,-0.00011989886115770787,-0.00014161878789309412,0.0,0.0,0.0,0.0,-0.004881548695266247,-0.00028908095555379987,-0.0038217350374907255,0.9978227615356445,0.0,0.0,0.0,0.24452310800552368,2.5222394466400146,3.6698875427246094,-44.25917053222656,0
981.2799999999988,-0.0002017701044678688,-9.415617387276143e-05,-8.136518590617925e-05,0.0,0.0,0.0,0.0,0.004682856146246195,-0.0014530124608427286,-0.002556178253144026,0.9987571239471436,0.0,0.0,0.0,0.24298541247844696,2.528968572616577,3.6631319522857666,-43.98084259033203,0
991.1849999999995,-0.00025966664543375373,-0.00012114568380638957,-0.00011592209193622693,0.0,0.0,0.0,0.0,0.0022216113284230232,0.0031440369784832,0.0009913670364767313,0.9997135996818542,0.0,0.0,0.0,0.24259774386882782,2.519231081008911,3.6607096195220947,-43.91067123413086,0
1001.1089999999986,-0.00026183927548117936,-0.00011308310786262155,-6.546521763084456e-05,0.0,0.0,0.0,0.0,0.0015006705652922392,0.0006174536538310349,0.0002840434026438743,0.9989573955535889,0.0,0.0,0.0,0.2424556463956833,2.5137646198272705,3.648646354675293,-43.884952545166016,0
1011.0100000000002,-0.00032056152122095227,-0.00012131944095017388,-9.313643386121839e-05,0.0,0.0,0.0,0.0,0.0013548674760386348,-0.0034974776208400726,0.003623613156378269,0.9981712102890015,0.0,0.0,0.0,0.242176353931427,2.50645112991333,3.6416876316070557,-43.83440017700195,0
1020.9339999999993,-0.00024075096007436514,-0.0001244333980139345,-2.2982427253737114e-05,0.0,0.0,0.0,0.0,-0.0013080025091767311,-0.004023351706564426,0.00479434709995985,0.9993319511413574,0.0,0.0,0.0,0.24322718381881714,2.4999701976776123,3.642531633377075,-44.02460479736328,0
1030.833999999999,-0.00023748044623062015,-4.846960655413568e-05,-0.00011182817979715765,0.0,0.0,0.0,0.0,-0.0031763522420078516,-0.0011459712404757738,-0.003704867558553815,1.0012468099594116,0.0,0.0,0.0,0.2437424659729004,2.5004451274871826,3.6419975757598877,-44.11787033081055,0
1040.7559999999994,-0.00020914553897455335,-7.40350951673463e-05,-7.25133650121279e-05,0.0,0.0,0.0,0.0,0.0013993304455652833,0.0026346666272729635,-0.001594467437826097,1.0002291202545166,0.0,0.0,0.0,0.2421429455280304,2.505851984024048,3.641714096069336,-43.82835388183594,0
1050.655999999999,-0.0002551918150857091,-7.771173841319978e-05,-0.00012248827260918915,0.0,0.0,0.0,0.0,0.000461393065052107,-0.002727797254920006,0.00047369615640491247,1.002007246017456,0.0,0.0,0.0,0.24131974577903748,2.5036234855651855,3.6349174976348877,-43.67935562133789,0
1060.574999999999,-0.0002607381611596793,-4.489806815399788e-05,-6.667937122983858e-05,0.0,0.0,0.0,0.0,0.0007731883670203388,0.00018831148918252438,-0.003642503172159195,1.0035481452941895,0.0,0.0,0.0,0.24104882776737213,2.4969146251678467,3.6301157474517822,-43.630313873291016,0
1070.4799999999996,-0.000270701915724203,1.1648115105344914e-05,-0.00014696574362460524,0.0,0.0,0.0,0.0,-0.0015645691892132163,9.578453318681568e-05,0.003139583859592676,0.9988937973976135,0.0,0.0,0.0,0.24647986888885498,2.5078914165496826,3.635064125061035,-44.613346099853516,0
1080.402,-0.0002781132352538407,-5.410923040471971e-05,-0.0001348702935501933,0.0,0.0,0.0,0.0,-0.00017141130228992552,0.0015246630646288395,-0.0016189288580790162,0.9978924989700317,0.0,0.0,0.0,0.24778014421463013,2.5054054260253906,3.635542392730713,-44.848697662353516,0
1090.304,-0.0003171520074829459,-4.471664215088822e-05,-0.00019726983737200499,0.0,0.0,0.0,0.0,0.0037396049592643976,0.0008981265127658844,0.0026793733704835176,0.9983099102973938,0.0,0.0,0.0,0.24125564098358154,2.5118587017059326,3.639578342437744,-43.667747497558594,0
1100.2299999999996,-0.00018908643687609583,-0.00010132403258467093,-0.0001424975780537352,0.0,0.0,0.0,0.0,-0.002257124986499548,-0.004333073273301125,-0.000883215107023716,0.9990507364273071,0.0,0.0,0.0,0.24242065846920013,2.501246690750122,3.6335155963897705,-43.878623962402344,0
1110.1279999999988,-0.00020729278912767768,-5.107769538881257e-05,-0.00021461841242853552,0.0,0.0,0.0,0.0,0.0012330623576417565,0.0021202440839260817,0.0003496503923088312,0.9988118410110474,0.0,0.0,0.0,0.24212181568145752,2.500655174255371,3.640852451324463,-43.82453155517578,0
1120.048999999999,-0.00016167471767403185,-0.00010096569894813001,-0.0001902634248835966,0.0,0.0,0.0,0.0,-0.002234765561297536,0.0023755645379424095,-0.005150416865944862,0.9969785213470459,0.0,0.0,0.0,0.2424139678478241,2.4924960136413574,3.63102388381958,-43.877410888671875,0
1129.9519999999993,-0.00017862739332485944,-5.8626188547350466e-05,-0.0002687255619093776,0.0,0.0,0.0,0.0,0.002696656621992588,0.001411201199516654,-0.001675868988968432,0.9989471435546875,0.0,0.0,0.0,0.23289991915225983,2.513076066970825,3.636695384979248,-42.15534591674805,0
1139.869999999999,-5.905310172238387e-05,-0.00015468697529286146,-0.000246708543272689,0.0,0.0,0.0,0.0,-0.0013855240540578961,0.005532707553356886,-0.0019242994021624327,0.9966848492622375,0.0,0.0,0.0,0.23235996067523956,2.505725860595703,3.6340677738189697,-42.0576171875,0
1149.7749999999996,-0.00014273136912379414,-0.00016186061839107424,-0.00024920341093093157,0.0,0.0,0.0,0.0,-0.0011488543823361397,0.0018827053718268871,-0.0037420920561999083,0.9983090162277222,0.0,0.0,0.0,0.23191235959529877,2.505840301513672,3.6189451217651367,-41.976600646972656,0
1159.688,-2.40858098550234e-05,-0.00019950808200519532,-0.00019827963842544705,0.0,0.0,0.0,0.0,-0.0017276584403589368,-0.001233400427736342,0.004157707095146179,1.0021684169769287,0.0,0.0,0.0,0.23077918589115143,2.502446413040161,3.6108970642089844,-41.77149200439453,0
1169.6029999999992,-5.132525984663516e-05,-0.00014957369421608746,-0.00026108179008588195,0.0,0.0,0.0,0.0,0.0030516446568071842,0.0012223076773807406,0.0003346199810039252,1.000677227973938,0.0,0.0,0.0,0.22578643262386322,2.51888370513916,3.619403839111328,-40.86779022216797,0
1179.5199999999986,-6.903661414980888e-06,-0.0001753779943101108,-0.00022671437181998044,0.0,0.0,0.0,0.0,-0.0023370294366031885,-0.004294831305742264,0.0021668660920113325,1.0005908012390137,0.0,0.0,0.0,0.22543767094612122,2.509575128555298,3.613464832305908,-40.80466842651367,0
1189.423999999999,-5.375369801186025e-05,-0.000141687982250005,-0.00026561503182165325,0.0,0.0,0.0,0.0,0.0012028993805870414,0.0012582849012687802,0.0005493429489433765,0.9994114637374878,0.0,0.0,0.0,0.23224538564682007,2.522493839263916,3.621250867843628,-42.0368766784668,0
1199.3359999999993,-6.29299902357161e-05,-0.00017244680202566087,-0.0002478022943250835,0.0,0.0,0.0,0.0,0.0009546597138978541,-8.353313023690134e-05,0.0016864539356902242,0.9998877048492432,0.0,0.0,0.0,0.2328282743692398,2.5166537761688232,3.6158783435821533,-42.14237976074219,0
1209.25,-1.6348434655810706e-05,-0.0001476947363698855,-0.0002262441994389519,0.0,0.0,0.0,0.0,0.0010058258194476366,-0.00013008805399294943,-0.0018116167047992349,0.9996986389160156,0.0,0.0,0.0,0.23324915766716003,2.51078462600708,3.6097466945648193,-42.21855926513672,0
1219.161,-0.00011371079017408192,-0.00018956669373437762,-0.0002325090317754075,0.0,0.0,0.0,0.0,0.0014437903882935643,-0.0009676088811829686,0.0033279522322118282,1.0004843473434448,0.0,0.0,0.0,0.23164521157741547,2.499406576156616,3.6023006439208984,-41.92824172973633,0
1229.074999999999,-8.46135662868619e-05,-0.00018377100059296936,-0.00014759493933524936,0.0,0.0,0.0,0.0,-0.0011337271425873041,-0.00013192863843869418,-0.002471798798069358,0.9998374581336975,0.0,0.0,0.0,0.23174555599689484,2.4922285079956055,3.5991132259368896,-41.946407318115234,0
1238.9839999999986,-0.00017648708308115602,-0.00022436297149397433,-0.00014553165237884969,0.0,0.0,0.0,0.0,0.003623771481215954,-0.001468360424041748,-0.0030056822579354048,0.9995068907737732,0.0,0.0,0.0,0.23093919456005096,2.4928677082061768,3.5922913551330566,-41.800453186035156,0
1248.9030000000002,5.104943738842849e-06,-0.0001719889260130003,-0.00013640137331094593,0.0,0.0,0.0,0.0,-0.0008361386717297137,-0.002267851959913969,0.0012664900859817863,0.9997612237930298,0.0,0.0,0.0,0.23020020127296448,2.4842143058776855,3.586658239364624,-41.66669845581055,0
1258.8089999999993,-8.358955528819934e-05,-0.00021054291573818773,-0.00013351846428122371,0.0,0.0,0.0,0.0,-0.001773071358911693,0.0028398223221302032,-0.002952685346826911,1.000823974609375,0.0,0.0,0.0,0.2309863120317459,2.4849185943603516,3.583725929260254,-41.80897903442383,0
1268.7199999999993,-1.8413889847579412e-05,-0.00018517120042815804,-0.00017462913820054382,0.0,0.0,0.0,0.0,-0.0007571903406642377,-0.0007219419931061566,0.0006253290339373052,1.000453233718872,0.0,0.0,0.0,0.22992904484272003,2.4849300384521484,3.570002317428589,-41.61761474609375,0
1278.6309999999994,-0.0001091771773644723,-0.00022648455342277884,-0.00017390689754392952,0.0,0.0,0.0,0.0,-0.0028632457833737135,0.0005197673453949392,0.0015839418629184365,0.9998786449432373,0.0,0.0,0.0,0.22964629530906677,2.479745864868164,3.5673232078552246,-41.56643295288086,0
1288.545,-4.0505077777197585e-05,-0.0001361939503112808,-0.00020893602049909532,0.0,0.0,0.0,0.0,0.0032296895515173674,0.0018111291574314237,-0.0021446363534778357,0.999131977558136,0.0,0.0,0.0,0.22435860335826874,2.502659559249878,3.5707788467407227,-40.60935592651367,0
1298.4579999999987,-0.00013076484901830554,-0.00017470898455940187,-0.00021072561503387988,0.0,0.0,0.0,0.0,-0.0015534303383901715,-0.0025899584870785475,0.0022833175025880337,0.9991541504859924,0.0,0.0,0.0,0.22412008047103882,2.4945614337921143,3.5592217445373535,-40.56618118286133,0
1308.3679999999986,-3.482489410089329e-05,-0.00011791809811256826,-0.00021405199368018657,0.0,0.0,0.0,0.0,-0.001955141546204686,-0.0024453522637486458,-0.00043945256038568914,0.9992108345031738,0.0,0.0,0.0,0.23111477494239807,2.5078749656677246,3.566293716430664,-41.83223342895508,0
1318.2799999999988,-0.00012531544780358672,-0.00015465625619981438,-0.00021754846966359764,0.0,0.0,0.0,0.0,-0.0017876651836559176,0.002999825170263648,0.0015396659728139639,1.0000252723693848,0.0,0.0,0.0,0.23040780425071716,2.5052907466888428,3.5672805309295654,-41.70426940917969,0
1328.1929999999993,-0.00011032861220883206,-8.871808677213266e-05,-0.0002613386604934931,0.0,0.0,0.0,0.0,-0.00019633203919511288,0.0004309014475438744,-0.0036607461515814066,1.002251148223877,0.0,0.0,0.0,0.23131197690963745,2.5013654232025146,3.5546188354492188,-41.86792755126953,0
1338.107,-0.00020323469652794302,-0.00012335625069681555,-0.0002667045337148011,0.0,0.0,0.0,0.0,-0.00021616165759041905,0.0006136884912848473,-0.0014540188712999225,0.9994201064109802,0.0,0.0,0.0,0.22985167801380157,2.4953577518463135,3.550382375717163,-41.60361099243164,0
1348.0149999999994,-0.0001137151411967352,1.8388540411251597e-05,-0.0003240749647375196,0.0,0.0,0.0,0.0,0.004248267039656639,0.0015566308284178376,-0.0011167011689394712,1.0009760856628418,0.0,0.0,0.0,0.2287295162677765,2.4912779331207275,3.544996500015259,-41.40049743652344,0
1357.9269999999997,-0.00020472233882173896,-1.1998616173514165e-05,-0.00033158526639454067,0.0,0.0,0.0,0.0,-0.004477084614336491,0.0017348587280139327,-0.0016675430815666914,0.9989528656005859,0.0,0.0,0.0,0.2287902534008026,2.479766368865967,3.5383129119873047,-41.41149139404297,0
1367.839,-6.601554196095094e-05,-3.895194095093757e-05,-0.00032692222157493234,0.0,0.0,0.0,0.0,0.000437062990386039,0.00019220377726014704,0.0027019656263291836,0.9978247284889221,0.0,0.0,0.0,0.22809052467346191,2.48252010345459,3.532829999923706,-41.28483963012695,0
1377.7519999999986,-0.0001245679595740512,-2.3949087335495278e-05,-0.00035878890776075423,0.0,0.0,0.0,0.0,-0.0012498261639848351,-0.0008610732038505375,-0.005223762709647417,0.9986257553100586,0.0,0.0,0.0,0.22835642099380493,2.480943441390991,3.5312979221343994,-41.332969665527344,0
1387.6639999999989,-7.947023550514132e-05,-7.687181641813368e-05,-0.0003354943182785064,0.0,0.0,0.0,0.0,-0.0026455142069607973,0.0003230898000765592,0.00043981740600429475,0.9965336322784424,0.0,0.0,0.0,0.2266172617673874,2.4804751873016357,3.5367543697357178,-41.01817321777344,0
1397.5810000000001,-0.00021303990797605366,-0.00015752794570289552,-0.00029574023210443556,0.0,0.0,0.0,0.0,0.002621357562020421,0.0030046531464904547,0.002165067009627819,0.9986002445220947,0.0,0.0,0.0,0.22631528973579407,2.4852776527404785,3.534554958343506,-40.96351623535156,0
1407.4869999999992,-0.0001355636486550793,-0.00017377972835674882,-0.00024082056188490242,0.0,0.0,0.0,0.0,-0.0007629662868566811,0.0016322677256539464,-0.0009502200991846621,0.9987876415252686,0.0,0.0,0.0,0.22593143582344055,2.477585792541504,3.528210163116455,-40.89403533935547,0
1417.4009999999998,-0.00021894025849178433,-0.0001694568054517731,-0.0002361070946790278,0.0,0.0,0.0,0.0,0.0026585482992231846,-0.002936573000624776,-0.0032599931582808495,0.9982075095176697,0.0,0.0,0.0,0.22545252740383148,2.4765331745147705,3.5205447673797607,-40.80735397338867,0
1427.3099999999995,-0.00015123099728953093,-0.00019013899145647883,-0.00018281293159816414,0.0,0.0,0.0,0.0,-0.00047540507512167096,-0.003203141503036022,0.0005599266733042896,0.9989588856697083,0.0,0.0,0.0,0.22459344565868378,2.471560001373291,3.521868944168091,-40.651859283447266,0
1437.2240000000002,-0.00023567288008052856,-0.00019742643053177744,-0.0001777316356310621,0.0,0.0,0.0,0.0,-6.417206168407574e-05,0.003277033567428589,2.1879390260437503e-05,0.9997937679290771,0.0,0.0,0.0,0.22451646625995636,2.473569631576538,3.5190155506134033,-40.6379280090332,0
1447.134,-0.00011633028043434024,-0.00020405171380843967,-9.939746814779937e-05,0.0,0.0,0.0,0.0,0.0020893753971904516,0.001286597573198378,-0.0018572397530078888,0.998907208442688,0.0,0.0,0.0,0.22412720322608948,2.4726250171661377,3.5107192993164062,-40.567474365234375,0
1457.0469999999987,-0.00013432977721095085,-0.0001609893806744367,-0.0001599849492777139,0.0,0.0,0.0,0.0,0.001009447849355638,0.0018255104077979922,0.001646540593355894,0.9995502829551697,0.0,0.0,0.0,0.22286255657672882,2.47234845161438,3.5084221363067627,-40.338565826416016,0
1466.9579999999987,-0.00011136792454635724,-0.00016125287220347673,-0.0001126429924624972,0.0,0.0,0.0,0.0,0.0011460796231403947,0.004179553594440222,0.0017001739470288157,1.0002914667129517,0.0,0.0,0.0,0.2221909463405609,2.4697654247283936,3.4993369579315186,-40.21699905395508,0
1476.869999999999,-0.00015407567843794823,-0.00011550026101758704,-0.00014213871327228844,0.0,0.0,0.0,0.0,0.002932147588580847,0.0008936314843595028,0.0010775928385555744,1.0019612312316895,0.0,0.0,0.0,0.22201761603355408,2.460872173309326,3.4875094890594482,-40.185630798339844,0
1486.7819999999992,-6.504190241685137e-05,-0.00014475446369033307,-8.470666216453537e-05,0.0,0.0,0.0,0.0,-0.003082313807681203,0.002193745458498597,-0.00029267536592669785,1.0005966424942017,0.0,0.0,0.0,0.22216977179050446,2.452075242996216,3.4897983074188232,-40.21316909790039,0
1496.6949999999997,-7.513840682804585e-05,-7.743531750747934e-05,-0.00015127734513953328,0.0,0.0,0.0,0.0,0.0019057714380323887,-0.0011157713597640395,-0.0004344166081864387,0.9980303645133972,0.0,0.0,0.0,0.22104978561401367,2.4603888988494873,3.480900526046753,-40.01044845581055,0
1506.6089999999986,-3.259686127421446e-05,-0.00011497727246023715,-0.00011286204244242981,0.0,0.0,0.0,0.0,-0.00016604609845671803,-0.004242674447596073,-0.00022132341109681875,0.9990373849868774,0.0,0.0,0.0,0.22045284509658813,2.457571268081665,3.473475933074951,-39.90240478515625,0
1516.518,-4.144490958424285e-05,-4.401324622449465e-05,-0.0001846133527578786,0.0,0.0,0.0,0.0,0.0007485980167984962,-0.0007678153342567384,-3.6792527680518106e-05,1.001597285270691,0.0,0.0,0.0,0.2200004905462265,2.4582643508911133,3.4829540252685547,-39.820526123046875,0
1526.4300000000003,-6.44812171231024e-05,-7.732016820227727e-05,-0.00016898706962820143,0.0,0.0,0.0,0.0,8.734509174246341e-05,0.0001485885732108727,0.000981940422207117,0.9991886615753174,0.0,0.0,0.0,0.21923525631427765,2.4512364864349365,3.490346670150757,-39.6820182800293,0
1536.3419999999987,-9.279571531806141e-05,-3.254699186072685e-05,-0.00023078598314896226,0.0,0.0,0.0,0.0,-0.0010229446925222874,0.0016151757445186377,0.002364133484661579,0.9975700974464417,0.0,0.0,0.0,0.21910059452056885,2.451606512069702,3.492143392562866,-39.65764236450195,0
1546.2609999999986,-3.3684089430607855e-05,-5.361310832086019e-05,-0.00018679465574678034,0.0,0.0,0.0,0.0,-0.0017208104254677892,0.000839929620269686,-0.006098615936934948,1.0013132095336914,0.0,0.0,0.0,0.22001615166664124,2.453512191772461,3.4909744262695312,-39.823360443115234,0
1556.17,-8.275109576061368e-05,-3.57326862285845e-05,-0.00023299583699554205,0.0,0.0,0.0,0.0,-0.0027911781799048185,-0.003803666215389967,0.0024445124436169863,1.001315712928772,0.0,0.0,0.0,0.22342650592327118,2.465090036392212,3.4941461086273193,-40.44063949584961,0
1566.0829999999987,-6.762365956092253e-05,-5.341974974726327e-05,-0.0001990916207432747,0.0,0.0,0.0,0.0,0.0021049550268799067,-0.0023321753833442926,0.0017974653746932745,0.9978910684585571,0.0,0.0,0.0,0.21806803345680237,2.4692883491516113,3.5085549354553223,-39.47074508666992,0
1575.9929999999986,-0.0001578788214828819,-0.00010195203503826633,-0.00021108139480929822,0.0,0.0,0.0,0.0,0.002717464230954647,-0.0009917696006596088,0.003516989527270198,0.9995846152305603,0.0,0.0,0.0,0.21839015185832977,2.4635837078094482,3.511336088180542,-39.529048919677734,0
1585.902,-8.064432040555403e-05,-0.00013962241064291447,-0.00016315653920173645,0.0,0.0,0.0,0.0,-0.001971926772966981,-0.0038222563453018665,-0.00014680159802082926,0.9992836117744446,0.0,0.0,0.0,0.21951866149902344,2.4597439765930176,3.5115232467651367,-39.733314514160156,0
1595.815999999999,-0.0001480350038036704,-0.00015342241385951638,-0.00019355695985723287,0.0,0.0,0.0,0.0,0.0014028813457116485,-0.003384095849469304,0.0028856650460511446,0.9993378520011902,0.0,0.0,0.0,0.21886968612670898,2.4594485759735107,3.5180795192718506,-39.615848541259766,0
1605.7249999999985,-0.00010863653005799279,-0.0001494644966442138,-0.00013710129132959992,0.0,0.0,0.0,0.0,6.519375165225938e-05,0.0035560664255172014,-0.00016494578449055552,0.9986845850944519,0.0,0.0,0.0,0.21835261583328247,2.4495184421539307,3.518568754196167,-39.522254943847656,0
1615.637999999999,-0.00013811272219754755,-7.657919195480645e-05,-0.00018942373571917415,0.0,0.0,0.0,0.0,-0.0012265080586075783,-0.0021751250606030226,0.002329359296709299,0.9990358948707581,0.0,0.0,0.0,0.21154095232486725,2.4628419876098633,3.5143041610717773,-38.28933334350586,0
1625.548999999999,-9.609043627278879e-05,-0.00010155646305065602,-0.00014634964463766664,0.0,0.0,0.0,0.0,0.003779175691306591,0.001972159370779991,0.0020085894502699375,0.9994156956672668,0.0,0.0,0.0,0.2112157642841339,2.4600889682769775,3.5163769721984863,-38.23047637939453,0
1635.4650000000001,-0.00015345742576755583,-0.0001029405539156869,-0.0001879193150671199,0.0,0.0,0.0,0.0,-0.0017735793953761458,-5.1369515858823434e-05,-0.0030698126647621393,0.9973583221435547,0.0,0.0,0.0,0.21129727363586426,2.4504029750823975,3.500636339187622,-38.2452278137207,0
1645.3739999999998,-6.414148083422333e-05,-0.00012197598698548973,-0.00012975737627130002,0.0,0.0,0.0,0.0,-0.003347001038491726,-0.002862981054931879,0.0028143911622464657,0.9970259070396423,0.0,0.0,0.0,0.20943479239940643,2.4497005939483643,3.4900150299072266,-37.908111572265625,0
1655.2849999999999,-0.00011177871783729643,-7.852132694097236e-05,-0.00017020759696606547,0.0,0.0,0.0,0.0,-0.0014430726878345013,-0.0020064362324774265,0.0008259533788077533,0.9993429780006409,0.0,0.0,0.0,0.2107713222503662,2.4556117057800293,3.496507406234741,-38.15003204345703,0
1665.1970000000001,-2.1739358999184333e-05,-0.0001561235258122906,-0.00013948071864433587,0.0,0.0,0.0,0.0,-0.0001096940177376382,0.0007191758486442268,0.0006861471338197589,0.9994385242462158,0.0,0.0,0.0,0.21041856706142426,2.4483611583709717,3.499255895614624,-38.086181640625,0
1675.1089999999986,-5.8279980294173583e-05,-0.00011324875958962366,-0.00019770169456023723,0.0,0.0,0.0,0.0,-0.0015639056218788028,-0.0015926661435514688,-0.0003243905957788229,1.0020298957824707,0.0,0.0,0.0,0.2102569043636322,2.4459452629089355,3.499077796936035,-38.056915283203125,0
1685.021999999999,-3.0294735552161e-05,-0.0001714206300675869,-0.00017987177125178277,0.0,0.0,0.0,0.0,-0.0010625384747982025,0.000371760776033625,-0.002096703043207526,1.0002329349517822,0.0,0.0,0.0,0.2096439152956009,2.4445436000823975,3.5031840801239014,-37.94596481323242,0
1694.9349999999995,-9.226182010024786e-05,-0.00013427469821181148,-0.00020669680088758469,0.0,0.0,0.0,0.0,-0.0003186237590853125,-0.0006990229594521224,-0.0006181611679494381,1.0003443956375122,0.0,0.0,0.0,0.20908533036708832,2.443333625793457,3.497257709503174,-37.84486389160156,0
1704.8469999999998,-4.29919091402553e-05,-0.00018595047004055232,-0.00017512490740045905,0.0,0.0,0.0,0.0,-0.0016795214032754302,-0.00015254251775331795,0.00015002259169705212,1.00071382522583,0.0,0.0,0.0,0.20965193212032318,2.441056251525879,3.4967522621154785,-37.94741439819336,0
1714.7609999999986,-9.794257493922487e-05,-0.00014455572818405926,-0.000207484292332083,0.0,0.0,0.0,0.0,0.002238722750917077,-0.00037829147186130285,0.0007292144582606852,1.0016796588897705,0.0,0.0,0.0,0.20926974713802338,2.4406027793884277,3.4956066608428955,-37.87824249267578,0
1724.6749999999993,-4.835717481910251e-05,-0.0002090037742163986,-0.00017821521032601595,0.0,0.0,0.0,0.0,2.7967105779680423e-05,-0.0025936237070709467,0.001845011254772544,1.000063419342041,0.0,0.0,0.0,0.20953182876110077,2.4320435523986816,3.496605157852173,-37.92567825317383,0
1734.5859999999993,-0.00011743208597181365,-0.00020797632168978453,-0.00020526532898657024,0.0,0.0,0.0,0.0,0.00046661237138323486,0.001381405396386981,-3.789838228840381e-05,0.9993322491645813,0.0,0.0,0.0,0.20992188155651093,2.4313859939575195,3.490903377532959,-37.996280670166016,0
1744.4929999999986,-7.809775706846267e-05,-0.00024401239352300763,-0.0001634633372304961,0.0,0.0,0.0,0.0,0.0020022173412144184,-0.00236108317039907,-0.002539997920393944,0.9999198317527771,0.0,0.0,0.0,0.20968706905841827,2.4315645694732666,3.4880995750427246,-37.95377731323242,0
1754.4129999999986,-0.0001260685094166547,-0.00017406941333319992,-0.00019601793610490859,0.0,0.0,0.0,0.0,0.0001890794956125319,-0.002773253247141838,0.003314582398161292,1.0003784894943237,0.0,0.0,0.0,0.20797371864318848,2.422593355178833,3.49037766456604,-37.643653869628906,0
1764.315999999999,-9.271208546124399e-05,-0.00017540135013405234,-0.00014036244829185307,0.0,0.0,0.0,0.0,0.0005343323573470116,0.002135342452675104,5.2020681323483586e-05,1.0024503469467163,0.0,0.0,0.0,0.20877811312675476,2.424422264099121,3.495701551437378,-37.78925323486328,0
1774.2379999999994,-0.00014364684466272593,-0.00012980453902855515,-0.00017456780187785625,0.0,0.0,0.0,0.0,-0.0007179260719567537,-0.0023640284780412912,0.0008391648880206048,1.0009171962738037,0.0,0.0,0.0,0.20792827010154724,2.4256162643432617,3.4920220375061035,-37.63542938232422,0
1784.1409999999996,-8.574113599024713e-05,-0.00014757938333787024,-0.00011550589988473803,0.0,0.0,0.0,0.0,0.0014174196403473616,0.00023644221073482186,0.0012298886431381106,0.9993433952331543,0.0,0.0,0.0,0.20733542740345,2.4241292476654053,3.4889461994171143,-37.52812576293945,0
1794.062,-0.00016822961333673447,-0.0001469738781452179,-0.00011721594637492672,0.0,0.0,0.0,0.0,-0.0005212260875850916,0.0012808401370421052,-0.0007491566357202828,0.9974661469459534,0.0,0.0,0.0,0.2067837417125702,2.419297456741333,3.48482084274292,-37.42826843261719,0
1803.964,-0.00011907979933312163,-0.00016038664034567773,-5.6824155763024464e-05,0.0,0.0,0.0,0.0,0.0015738804358989,0.0012308412697166204,0.00032674160320311785,1.0011587142944336,0.0,0.0,0.0,0.2072899490594864,2.417332172393799,3.4822919368743896,-37.519893646240234,0
1813.8859999999986,-0.00020284279889892787,-0.00018432692741043866,-6.981834303587675e-05,0.0,0.0,0.0,0.0,-1.1814213394245598e-05,-0.0022141442168504,0.0008001759415492415,0.9992563128471375,0.0,0.0,0.0,0.2069304883480072,2.4103646278381348,3.4811387062072754,-37.45482635498047,0
1823.7939999999999,-0.00014659682346973568,-0.0001999506785068661,-5.21129732078407e-06,0.0,0.0,0.0,0.0,0.0005594405811280012,-7.468162948498502e-05,0.002779597882181406,1.0010541677474976,0.0,0.0,0.0,0.20734116435050964,2.4084064960479736,3.4853031635284424,-37.5291633605957,0
1833.7079999999987,-0.00019407000218052417,-0.000155279238242656,-3.8725345802959055e-05,0.0,0.0,0.0,0.0,0.003479822538793087,0.0046052695252001286,-0.004081163089722395,0.9997619390487671,0.0,0.0,0.0,0.20860622823238373,2.4115281105041504,3.4776601791381836,-37.758140563964844,0
1843.6119999999992,-0.00011048098531318828,-0.00018969026859849691,2.8944614314241335e-05,0.0,0.0,0.0,0.0,0.00275577325373888,0.003492491552606225,0.0007451429264619946,1.0000050067901611,0.0,0.0,0.0,0.20690502226352692,2.402207612991333,3.467092514038086,-37.450218200683594,0
1853.5479999999989,-8.837084169499576e-05,-7.165971328504384e-05,-7.223795546451584e-05,0.0,0.0,0.0,0.0,0.0006871268851682544,0.0023536363150924444,0.0001289130304940045,1.000020980834961,0.0,0.0,0.0,0.20679767429828644,2.3952956199645996,3.4539103507995605,-37.430789947509766,0
1863.4359999999997,-8.17045001895167e-05,-6.193490844452754e-05,-1.7387941625202075e-05,0.0,0.0,0.0,0.0,0.002879094099625945,-0.0003821192658506334,0.0011484880233183503,0.9972429871559143,0.0,0.0,0.0,0.2066509872674942,2.3915441036224365,3.4479548931121826,-37.40423583984375,0
1873.3599999999988,-8.756062015891075e-05,7.699235538893845e-06,-0.0001008936160360463,0.0,0.0,0.0,0.0,-0.000542297144420445,-0.003859039396047592,0.0013519440544769168,0.9983021020889282,0.0,0.0,0.0,0.20626211166381836,2.390831470489502,3.4538488388061523,-37.3338508605957,0
1883.2649999999994,-8.426079875789583e-05,-1.3415608009381685e-05,-6.588375981664285e-05,0.0,0.0,0.0,0.0,0.0010745147010311484,-0.0007300946745090187,0.0009914556285366416,0.9984319806098938,0.0,0.0,0.0,0.20712779462337494,2.386258840560913,3.4559319019317627,-37.49054718017578,0
1893.1800000000003,-0.00011879172961926088,1.048711419571191e-05,-0.00013361297897063196,0.0,0.0,0.0,0.0,2.0867426428594626e-05,-0.0016749235801398754,0.0006371813360601664,1.000602126121521,0.0,0.0,0.0,0.21628747880458832,2.3916733264923096,3.4621055126190186,-39.14846420288086,0
1903.0869999999995,-7.750951772322878e-05,-5.192990283831023e-05,-0.00011160033318446949,0.0,0.0,0.0,0.0,-0.001135793048888445,0.0058894408866763115,-0.0031411130912601948,0.9991517066955566,0.0,0.0,0.0,0.21560555696487427,2.3877201080322266,3.4614856243133545,-39.02503204345703,0
1913.012999999999,-0.0001059186106431298,-1.2939425687363837e-05,-0.00018585275392979383,0.0,0.0,0.0,0.0,-0.0006505336496047676,-0.0004851449921261519,0.003873114939779043,0.9991386532783508,0.0,0.0,0.0,0.22134128212928772,2.4006569385528564,3.4580764770507812,-40.06321334838867,0
1922.9120000000003,-8.817708294373006e-05,-1.9165843241353286e-06,-0.0001396077568642795,0.0,0.0,0.0,0.0,0.002473536878824234,0.005250608082860708,-0.0049150618724524975,0.998306930065155,0.0,0.0,0.0,0.22207659482955933,2.3883216381073,3.448509454727173,-40.19630432128906,0
1932.8289999999997,-0.00011773652659030631,3.440164800849743e-05,-0.0002156557748094201,0.0,0.0,0.0,0.0,-3.1336599931819364e-05,0.0001375120336888358,0.0008637714781798422,0.9985232949256897,0.0,0.0,0.0,0.2206856608390808,2.382289409637451,3.428420305252075,-39.94454574584961,0
1942.732,-0.000136147893499583,2.231150028819684e-05,-0.0001917992631206289,0.0,0.0,0.0,0.0,-0.0016454373253509402,0.00572151318192482,-0.0021923361346125603,0.9997346997261047,0.0,0.0,0.0,0.22262977063655853,2.376554250717163,3.424302101135254,-40.29643249511719,0
1952.6530000000002,-0.000205552380066365,-9.192762263410259e-06,-0.00023959975806064904,0.0,0.0,0.0,0.0,0.0039278664626181126,-0.002709930529817939,0.0013659544056281447,0.9986584782600403,0.0,0.0,0.0,0.22183361649513245,2.3785994052886963,3.4157347679138184,-40.15232467651367,0
1962.5559999999987,-0.00011082054697908461,-2.427023537165951e-05,-0.00018563985941000283,0.0,0.0,0.0,0.0,-0.0037684361450374126,0.0009426632313989103,0.000628601701464504,0.998956024646759,0.0,0.0,0.0,0.22349046170711517,2.368997097015381,3.4216625690460205,-40.45221710205078,0
1972.482,-0.0002512372739147395,-0.00010265641321893781,-0.0001361108006676659,0.0,0.0,0.0,0.0,-0.004133039154112339,0.0008117076940834522,-0.00047740223817527294,0.9994247555732727,0.0,0.0,0.0,0.22292496263980865,2.3705694675445557,3.4087815284729004,-40.3498649597168,0
1982.3799999999992,-0.0001070281577995047,-0.00016877577581908554,-7.83768409746699e-05,0.0,0.0,0.0,0.0,-0.001076366170309484,-0.002256120089441538,0.0010781398741528392,1.0001332759857178,0.0,0.0,0.0,0.22262758016586304,2.3710832595825195,3.443702220916748,-40.29603576660156,0
1992.3009999999995,-0.00025900136097334325,-0.0002902091364376247,-1.527390668343287e-05,0.0,0.0,0.0,0.0,0.00022662935953121632,0.004010907374322414,-0.002010114025324583,1.001018762588501,0.0,0.0,0.0,0.2213178277015686,2.3695242404937744,3.4405863285064697,-40.05896759033203,0
2002.2039999999997,-0.00013934180606156588,-0.0002910947077907622,7.703286973992363e-05,0.0,0.0,0.0,0.0,0.001122699468396604,-0.0012415943201631308,0.0018928750650957227,1.000448226928711,0.0,0.0,0.0,0.2204727679491043,2.3699421882629395,3.428006172180176,-39.90601348876953,0
2012.1269999999986,-0.00024409792968071997,-0.0003629866405390203,9.828934707911685e-05,0.0,0.0,0.0,0.0,-0.0014031536411494017,-0.001453450764529407,-0.00047724871546961367,0.9985843896865845,0.0,0.0,0.0,0.2212509959936142,2.3659749031066895,3.4207210540771484,-40.046871185302734,0
2022.0280000000002,-0.0001586155703989789,-0.00036379657103680074,0.00018947271746583283,0.0,0.0,0.0,0.0,0.00015984941273927689,0.0006563402712345123,0.001826759078539908,0.9986623525619507,0.0,0.0,0.0,0.22051547467708588,2.3718414306640625,3.4219489097595215,-39.91374206542969,0
2031.9489999999987,-0.00014507076411973685,-0.000253328587859869,0.0001169963798020035,0.0,0.0,0.0,0.0,0.0030778993386775255,0.001553332433104515,-0.0035623284056782722,0.9989645481109619,0.0,0.0,0.0,0.22044560313224792,2.3700969219207764,3.4193780422210693,-39.901092529296875,0
2041.860999999999,-9.350603068014607e-05,-0.00032301867031492293,0.00016020229668356478,0.0,0.0,0.0,0.0,0.0002202922332799062,-0.0019342504674568772,0.002458390314131975,0.9977942109107971,0.0,0.0,0.0,0.2195865660905838,2.356321096420288,3.417227268218994,-39.74560546875,0
2051.7819999999992,-1.8517380340199452e-06,-0.00013979624782223254,-6.531024041578348e-07,0.0,0.0,0.0,0.0,-0.0002429959859000519,-0.0028671748004853725,-0.005071169231086969,1.0009030103683472,0.0,0.0,0.0,0.22596795856952667,2.397197961807251,3.442204475402832,-40.9006462097168,0
2061.6749999999993,-4.4385673390934244e-05,-0.00021694524912163615,-7.797873877279926e-06,0.0,0.0,0.0,0.0,-0.002478385576978326,-0.0018116888822987676,-0.0007860742043703794,1.0021902322769165,0.0,0.0,0.0,0.2247062772512436,2.389749050140381,3.439546823501587,-40.67228317260742,0
2071.593999999999,4.883689325652085e-05,-2.6634619644028135e-05,-0.00018118142907042056,0.0,0.0,0.0,0.0,-0.0018018969567492604,-2.3630314899492078e-05,-0.002874238882213831,1.0004149675369263,0.0,0.0,0.0,0.22640463709831238,2.433901786804199,3.468201160430908,-40.97969436645508,0
2081.5059999999994,9.247914931620471e-06,-0.00010976923658745363,-0.00020313689310569316,0.0,0.0,0.0,0.0,-0.003715337021276355,0.002065077656880021,0.0007892597350291908,0.9992856383323669,0.0,0.0,0.0,0.2257748544216156,2.4376158714294434,3.466165065765381,-40.86569595336914,0
2091.4219999999987,5.137809057487175e-05,2.7105499611934647e-05,-0.0003373418003320694,0.0,0.0,0.0,0.0,0.0020873555913567543,0.0029143199790269136,-0.002921300008893013,0.998610258102417,0.0,0.0,0.0,0.22506392002105713,2.4414572715759277,3.4622623920440674,-40.73701477050781,0
2101.3229999999985,2.1164483769098297e-05,-4.619719402398914e-05,-0.0003644004464149475,0.0,0.0,0.0,0.0,-0.00021157832816243172,-0.001268623978830874,-0.0010072741424664855,0.9998788237571716,0.0,0.0,0.0,0.22401295602321625,2.4397106170654297,3.4571762084960938,-40.54678726196289,0
