timestamp,stateEstimate.x,stateEstimate.y,stateEstimate.z,controller.cmd_thrust,controller.cmd_roll,controller.cmd_pitch,controller.cmd_yaw,controller.r_roll,controller.r_pitch,controller.r_yaw,controller.accelz,controller.actuatorThrust,controller.roll,controller.pitch,controller.yaw,controller.rollRate,controller.pitchRate,controller.yawRate,controller.ctr_yaw
0.0,-0.02368040755391121,0.02723946049809456,0.0004744933976326138,0.0,0.0,0.0,0.0,-0.00036912577343173325,-0.0010312037775292993,0.00033635032013989985,0.9999159574508667,0.0,0.0,0.0,50.442832946777344,-2.4610438346862793,7.603229999542236,-9130.2529296875,0
9.912999999998647,-0.02367735095322132,0.02721753530204296,0.00047847090172581375,0.0,0.0,0.0,0.0,-0.002252472098916769,0.002652666997164488,-0.001790088601410389,0.9995647072792053,0.0,0.0,0.0,50.47871398925781,-2.4799160957336426,7.596404552459717,-9136.7470703125,0
19.834999999999127,-0.023554997518658638,0.02753317914903164,-0.0002610308292787522,0.0,0.0,0.0,0.0,0.0007276818505488336,0.006732385139912367,-0.0025021755136549473,0.999075174331665,0.0,0.0,0.0,50.519893646240234,-2.468015670776367,7.653571128845215,-9144.2001953125,0
29.729999999999563,-0.023587370291352272,0.02754843235015869,-0.00020683143520727754,0.0,0.0,0.0,0.0,-0.005120834335684776,-0.0012023627059534192,1.537394018669147e-05,0.99786376953125,0.0,0.0,0.0,50.551971435546875,-2.478987693786621,7.63438606262207,-9150.0078125,0
39.65599999999904,-0.023569194599986076,0.027554426342248917,-0.0003503947809804231,0.0,0.0,0.0,0.0,0.0020425361581146717,-0.0013160192174836993,-0.00090158631792292,0.9996974468231201,0.0,0.0,0.0,50.59237289428711,-2.484877109527588,7.623405933380127,-9157.3212890625,0
49.55499999999847,-0.023582706227898598,0.027599282562732697,-0.0003040498122572899,0.0,0.0,0.0,0.0,0.0030129209626466036,-0.004962140694260597,0.0018435880774632096,0.9984428286552429,0.0,0.0,0.0,50.62068176269531,-2.4927616119384766,7.63518762588501,-9162.4443359375,0
59.47599999999875,-0.023629434406757355,0.027476681396365166,-0.00033688449184410274,0.0,0.0,0.0,0.0,-0.0011517549864947796,0.0023596887476742268,-0.003241766942664981,0.9973242878913879,0.0,0.0,0.0,50.65652847290039,-2.506336212158203,7.623655319213867,-9168.93359375,0
69.37799999999879,-0.023653782904148102,0.027461178600788116,-0.0003583775833249092,0.0,0.0,0.0,0.0,-0.0014697059523314238,-0.0025268378667533398,0.000434465502621606,0.9994192123413086,0.0,0.0,0.0,50.606971740722656,-2.5014901161193848,7.611119747161865,-9159.962890625,0
79.30099999999948,-0.023671830072999,0.027412762865424156,-0.00041520761442370713,0.0,0.0,0.0,0.0,-0.0007677332614548504,-0.005171543452888727,-0.0015156491426751018,1.0003550052642822,0.0,0.0,0.0,50.63857650756836,-2.5075650215148926,7.597395420074463,-9165.6826171875,0
89.19999999999891,-0.023635566234588623,0.027506448328495026,-0.0002986413601320237,0.0,0.0,0.0,0.0,-0.0014442837564274669,0.004052277188748121,-0.000328950525727123,0.9995006322860718,0.0,0.0,0.0,50.66111755371094,-2.529399871826172,7.622097015380859,-9169.7626953125,0
99.1309999999994,-0.02368231676518917,0.027413811534643173,-0.00031040419708006084,0.0,0.0,0.0,0.0,-0.0009775582002475858,0.0023198649287223816,-0.0004869250988122076,0.9978676438331604,0.0,0.0,0.0,50.68638229370117,-2.529301166534424,7.601508140563965,-9174.3359375,0
109.02399999999943,-0.023653803393244743,0.02748217061161995,-0.00024133309489116073,0.0,0.0,0.0,0.0,0.00024086603661999106,-0.0019423230551183224,0.0037945392541587353,0.9983096718788147,0.0,0.0,0.0,50.703941345214844,-2.547039031982422,7.608548164367676,-9177.513671875,0
118.9479999999985,-0.023692680522799492,0.027381019666790962,-0.00025913401623256505,0.0,0.0,0.0,0.0,-0.0008549639605917037,-0.004421279300004244,0.00013297655095811933,0.9994499087333679,0.0,0.0,0.0,50.724334716796875,-2.553114414215088,7.5717549324035645,-9181.205078125,0
128.84799999999996,-0.023634357377886772,0.027405673637986183,-0.00020813406445086002,0.0,0.0,0.0,0.0,0.0006524465861730278,0.00785471498966217,-0.0021925626788288355,1.0000211000442505,0.0,0.0,0.0,50.73656463623047,-2.5586180686950684,7.583921432495117,-9183.4189453125,0
138.76699999999983,-0.02365769073367119,0.027332816272974014,-0.00023209051869343966,0.0,0.0,0.0,0.0,-0.002252270933240652,0.0006790552870370448,-0.003492258256301284,0.9993533492088318,0.0,0.0,0.0,50.755611419677734,-2.5620901584625244,7.568785667419434,-9186.8662109375,0
148.67399999999907,-0.023647481575608253,0.02746233157813549,-0.00014296329754870385,0.0,0.0,0.0,0.0,0.0006394106894731522,-0.0002500562695786357,-0.0027091822121292353,0.999200165271759,0.0,0.0,0.0,50.7713737487793,-2.572432041168213,7.5670084953308105,-9189.7197265625,0
158.58399999999892,-0.023666249588131905,0.02737603522837162,-0.0001744570763548836,0.0,0.0,0.0,0.0,-0.0023744599893689156,-0.0032772007398307323,0.000750829407479614,0.9966782927513123,0.0,0.0,0.0,50.790401458740234,-2.5761067867279053,7.55498743057251,-9193.1630859375,0
168.5019999999986,-0.02365628257393837,0.027443047612905502,-0.00011351571447448805,0.0,0.0,0.0,0.0,-0.000241125060711056,-0.00039413568447344005,0.0007433619466610253,0.9999906420707703,0.0,0.0,0.0,50.79631805419922,-2.5859405994415283,7.565540313720703,-9194.2353515625,0
178.40999999999985,-0.023655738681554794,0.02738756500184536,-0.00015690550208091736,0.0,0.0,0.0,0.0,-0.0008550063939765096,0.006745961029082537,-0.0014072624035179615,0.9997491836547852,0.0,0.0,0.0,50.812294006347656,-2.5948989391326904,7.556347370147705,-9197.126953125,0
188.3119999999999,-0.02364373952150345,0.02748565562069416,-7.500831998186186e-05,0.0,0.0,0.0,0.0,-0.0021578019950538874,-0.0023426299449056387,0.0009660149225965142,0.9983789920806885,0.0,0.0,0.0,50.82198715209961,-2.600414991378784,7.560092449188232,-9198.8798828125,0
198.23599999999897,-0.023667244240641594,0.027341041713953018,-0.00010806509817484766,0.0,0.0,0.0,0.0,-0.0009627377730794251,0.0008399782818742096,0.002478815382346511,1.0005884170532227,0.0,0.0,0.0,50.83341598510742,-2.608494997024536,7.530607223510742,-9200.94921875,0
208.13999999999942,-0.023674748837947845,0.02744486927986145,-2.2790984075982124e-05,0.0,0.0,0.0,0.0,-0.0006752036861144006,-0.005059612449258566,-0.0020600692369043827,0.9985781311988831,0.0,0.0,0.0,50.841285705566406,-2.608175754547119,7.542629718780518,-9202.3740234375,0
218.0689999999995,-0.023653162643313408,0.027393227443099022,-7.910406566224992e-05,0.0,0.0,0.0,0.0,0.00041367331868968904,0.0007543237879872322,-0.003333593951538205,0.9986059069633484,0.0,0.0,0.0,50.85129165649414,-2.612794876098633,7.5399394035339355,-9204.1845703125,0
227.95799999999872,-0.02366470731794834,0.027347110211849213,-7.91052880231291e-05,0.0,0.0,0.0,0.0,-1.84298369276803e-05,0.0020077209919691086,0.0014487780863419175,1.0003010034561157,0.0,0.0,0.0,50.801483154296875,-2.6093854904174805,7.541073322296143,-9195.1689453125,0
237.8809999999994,-0.02367815375328064,0.027300946414470673,-8.001565583981574e-05,0.0,0.0,0.0,0.0,-0.0005224019405432045,-0.0017496924847364426,-0.002597993705421686,1.0007503032684326,0.0,0.0,0.0,50.75214767456055,-2.6055710315704346,7.532633304595947,-9186.2392578125,0
247.78899999999885,-0.02369367703795433,0.027255142107605934,-8.079750114120543e-05,0.0,0.0,0.0,0.0,0.0009163492359220982,0.0021436517126858234,-0.0012493202229961753,1.0011026859283447,0.0,0.0,0.0,50.70376205444336,-2.5995824337005615,7.525532245635986,-9177.4814453125,0
257.7079999999987,-0.02365129441022873,0.027240199968218803,-0.00017137971008196473,0.0,0.0,0.0,0.0,-0.0006599774351343513,0.0004871563578490168,-0.000863674737047404,1.0006346702575684,0.0,0.0,0.0,50.72724533081055,-2.618490695953369,7.539443016052246,-9181.732421875,0
267.61099999999897,-0.023665975779294968,0.02719506248831749,-0.0001773836847860366,0.0,0.0,0.0,0.0,-0.005527791101485491,0.0034692538902163506,-0.0016124129761010408,0.9986304640769958,0.0,0.0,0.0,50.677860260009766,-2.6130781173706055,7.532552242279053,-9172.7939453125,0
277.52599999999984,-0.02363336645066738,0.027184396982192993,-0.00024866091553121805,0.0,0.0,0.0,0.0,0.0009757439838722348,0.0008475936483591795,0.0021116826683282852,0.9997639060020447,0.0,0.0,0.0,50.7104377746582,-2.6264665126800537,7.5405964851379395,-9178.6904296875,0
287.4259999999995,-0.02365913614630699,0.027089472860097885,-0.00027055799728259444,0.0,0.0,0.0,0.0,-0.002009297488257289,0.0011748925317078829,-0.002440450480207801,0.9999895095825195,0.0,0.0,0.0,50.6123046875,-2.6076881885528564,7.525684356689453,-9160.927734375,0
297.35199999999895,-0.02365913614630699,0.027089472860097885,-0.00027055799728259444,0.0,0.0,0.0,0.0,0.0008054819772951305,0.0010122236562892795,-0.0011991107603535056,0.9983142018318176,0.0,0.0,0.0,50.6123046875,-2.6076881885528564,7.525684356689453,-9160.927734375,0
307.2489999999998,-0.023690946400165558,0.026990508660674095,-0.00029285644995979965,0.0,0.0,0.0,0.0,-0.0011955815134570003,0.0029357674065977335,0.0029950279276818037,1.0005215406417847,0.0,0.0,0.0,50.51383972167969,-2.607231855392456,7.503157615661621,-9143.1044921875,0
317.17199999999866,-0.023628227412700653,0.02706657163798809,-0.0003380918060429394,0.0,0.0,0.0,0.0,-0.002545995870605111,-0.003925565164536238,0.0004432935093063861,1.0013922452926636,0.0,0.0,0.0,50.59699249267578,-2.618288278579712,7.542964458465576,-9158.15625,0
327.0729999999985,-0.023641269654035568,0.027017783373594284,-0.00035398395266383886,0.0,0.0,0.0,0.0,0.001895605237223208,-0.004433935508131981,0.0006971082184463739,1.0014913082122803,0.0,0.0,0.0,50.547218322753906,-2.6161303520202637,7.534195423126221,-9149.1474609375,0
336.99199999999837,-0.02356792613863945,0.02706347592175007,-0.0004204065480735153,0.0,0.0,0.0,0.0,-0.0018440567655488849,0.0022961634676903486,0.00012533750850707293,0.9989076852798462,0.0,0.0,0.0,50.58448791503906,-2.6168222427368164,7.588352203369141,-9155.892578125,0
346.89899999999943,-0.023573677986860275,0.027025334537029266,-0.0004361825995147228,0.0,0.0,0.0,0.0,-0.005236916244029999,0.00019828995573334396,0.000511782243847847,1.0008600950241089,0.0,0.0,0.0,50.535797119140625,-2.613666296005249,7.582742691040039,-9147.0791015625,0
356.8179999999993,-0.02352355234324932,0.02705666795372963,-0.000470135360956192,0.0,0.0,0.0,0.0,0.0010625666473060846,-0.0005382854724302888,0.000750591279938817,0.9999672174453735,0.0,0.0,0.0,50.5722541809082,-2.6114416122436523,7.617918014526367,-9153.6787109375,0
366.72599999999875,-0.023526644334197044,0.027022598311305046,-0.00048691866686567664,0.0,0.0,0.0,0.0,-0.002588155446574092,-0.0037854330148547888,0.00040208784048445523,1.0010210275650024,0.0,0.0,0.0,50.52212905883789,-2.598222494125366,7.613913536071777,-9144.60546875,0
376.6519999999982,-0.023525601252913475,0.02705490030348301,-0.0004645942826755345,0.0,0.0,0.0,0.0,0.0029476427007466555,-0.0025315566454082727,0.0026793021243065596,0.9996339678764343,0.0,0.0,0.0,50.567047119140625,-2.5897579193115234,7.622207164764404,-9152.736328125,0
386.54099999999926,-0.023530375212430954,0.027026619762182236,-0.00047739132423885167,0.0,0.0,0.0,0.0,0.002606806578114629,0.006577096413820982,-0.002000536071136594,1.0000144243240356,0.0,0.0,0.0,50.51734161376953,-2.5826234817504883,7.623179912567139,-9143.7392578125,0
396.46199999999953,-0.023532239720225334,0.027064552530646324,-0.00045047901221551,0.0,0.0,0.0,0.0,0.0015492152888327837,0.0010516997426748276,0.0034363684244453907,0.9992509484291077,0.0,0.0,0.0,50.558189392089844,-2.567326307296753,7.633302688598633,-9151.1328125,0
406.3639999999996,-0.02354072593152523,0.02704012580215931,-0.00046057483996264637,0.0,0.0,0.0,0.0,0.0010396766010671854,-0.002668161876499653,0.0013605537824332714,0.999473512172699,0.0,0.0,0.0,50.509849548339844,-2.566559076309204,7.623661041259766,-9142.3837890625,0
416.28199999999924,-0.02354242652654648,0.027073441073298454,-0.0004416180308908224,0.0,0.0,0.0,0.0,0.004205683246254921,0.0020578147377818823,-0.0018827226012945175,0.9987402558326721,0.0,0.0,0.0,50.5504264831543,-2.5540995597839355,7.636789321899414,-9149.728515625,0
426.1969999999983,-0.023555267602205276,0.027052605524659157,-0.0004508912970777601,0.0,0.0,0.0,0.0,0.0007801654865033925,0.0025085993111133575,-0.0031411279924213886,0.9982142448425293,0.0,0.0,0.0,50.502593994140625,-2.5457146167755127,7.636356830596924,-9141.0693359375,0
436.09999999999854,-0.023570280522108078,0.027031689882278442,-0.0004609573516063392,0.0,0.0,0.0,0.0,-6.443142046919093e-05,0.003402193309739232,0.0016674199141561985,0.9992000460624695,0.0,0.0,0.0,50.45203399658203,-2.5467207431793213,7.629204750061035,-9131.91796875,0
446.0189999999984,-0.023586902767419815,0.0270102359354496,-0.00047183604328893125,0.0,0.0,0.0,0.0,-0.003199792467057705,0.003389293560758233,-0.00013182865222916007,0.9985307455062866,0.0,0.0,0.0,50.404136657714844,-2.535151243209839,7.631126403808594,-9123.248046875,0
455.9259999999995,-0.023605091497302055,0.026987412944436073,-0.00048358715139329433,0.0,0.0,0.0,0.0,0.00021099024161230773,0.0009016900439746678,-0.000813187041785568,0.9987384080886841,0.0,0.0,0.0,50.355491638183594,-2.52878475189209,7.617781639099121,-9114.443359375,0
465.85099999999875,-0.02367871068418026,0.02731761895120144,-0.00011878344230353832,0.0,0.0,0.0,0.0,-0.00035028348793275654,0.0002691672125365585,-0.0006789243197999895,0.9979244470596313,0.0,0.0,0.0,50.39967727661133,-2.4678409099578857,7.680826187133789,-9122.4423828125,0
475.753999999999,-0.02370106615126133,0.027315843850374222,-0.00011171877849847078,0.0,0.0,0.0,0.0,0.001445394940674305,-0.0011997660622000694,0.0030730729922652245,0.9995814561843872,0.0,0.0,0.0,50.3497428894043,-2.463848352432251,7.672942638397217,-9113.404296875,0
485.6749999999993,-0.02372770942747593,0.027397409081459045,1.6480953490827233e-08,0.0,0.0,0.0,0.0,0.002495313761755824,-0.004267672076821327,0.00043300248216837645,0.9963664412498474,0.0,0.0,0.0,50.38926315307617,-2.459951162338257,7.687905788421631,-9120.5576171875,0
495.5749999999989,-0.023749584332108498,0.027399014681577682,1.0436117918288801e-05,0.0,0.0,0.0,0.0,-0.0006968414527364075,0.0033393537160009146,-0.0014897052897140384,0.9957559108734131,0.0,0.0,0.0,50.34134292602539,-2.460646390914917,7.68487024307251,-9111.8828125,0
505.4969999999994,-0.023773007094860077,0.027400169521570206,1.811586116673425e-05,0.0,0.0,0.0,0.0,-0.0032628129702061415,-0.001030907966196537,0.0026003120001405478,0.9977883100509644,0.0,0.0,0.0,50.2926025390625,-2.4562509059906006,7.677460193634033,-9103.0615234375,0
515.3989999999994,-0.023797759786248207,0.02740067057311535,2.268533717142418e-05,0.0,0.0,0.0,0.0,0.001600721850991249,0.001791959861293435,-0.00229548173956573,0.998342752456665,0.0,0.0,0.0,50.244293212890625,-2.44682240486145,7.671304225921631,-9094.31640625,0
525.3179999999993,-0.023694859817624092,0.02740669436752796,6.736629438819364e-05,0.0,0.0,0.0,0.0,0.002015532925724983,5.3137060604058206e-05,-0.0006624503876082599,1.0001507997512817,0.0,0.0,0.0,50.299949645996094,-2.484689474105835,7.686923503875732,-9104.390625,0
535.2189999999991,-0.023714503273367882,0.02740483544766903,7.207430462585762e-05,0.0,0.0,0.0,0.0,-0.0021685443352907896,0.0030543245375156403,0.0005755879101343453,0.9990833401679993,0.0,0.0,0.0,50.251220703125,-2.481931686401367,7.674318313598633,-9095.5712890625,0
545.134,-0.023598412051796913,0.027380725368857384,7.143606489989907e-05,0.0,0.0,0.0,0.0,0.00031492163543589413,-0.0002741072967182845,-0.0038622075226157904,0.9988523125648499,0.0,0.0,0.0,50.30019760131836,-2.5117435455322266,7.676906585693359,-9104.435546875,0
555.0359999999982,-0.02361411787569523,0.027372656390070915,7.538539648521692e-05,0.0,0.0,0.0,0.0,-0.005600031930953264,-0.0035788218956440687,-0.002582699991762638,0.9987433552742004,0.0,0.0,0.0,50.251739501953125,-2.510221242904663,7.674953937530518,-9095.6650390625,0
564.9529999999995,-0.023623619228601456,0.027406277135014534,0.00011698681919369847,0.0,0.0,0.0,0.0,0.003038364462554455,0.0013467676471918821,-0.005056798458099365,1.000279426574707,0.0,0.0,0.0,50.29972839355469,-2.514880418777466,7.69744873046875,-9104.3515625,0
574.860999999999,-0.023638403043150902,0.027398446574807167,0.00012287260324228555,0.0,0.0,0.0,0.0,0.0018934879917651415,-0.00011650819942587987,-4.551259189611301e-05,1.0002262592315674,0.0,0.0,0.0,50.250858306884766,-2.506775140762329,7.696810245513916,-9095.5048828125,0
584.7859999999982,-0.023585159331560135,0.02736288122832775,0.00011044555867556483,0.0,0.0,0.0,0.0,0.002556609222665429,0.002249206183478236,0.0045490930788218975,1.0001163482666016,0.0,0.0,0.0,50.298553466796875,-2.5359129905700684,7.687694549560547,-9104.1376953125,0
594.6879999999983,-0.02359716035425663,0.027347315102815628,0.000115938441012986,0.0,0.0,0.0,0.0,0.00019420083845034242,-0.0006823816802352667,-0.0020202428568154573,0.9992313981056213,0.0,0.0,0.0,50.2508544921875,-2.5386626720428467,7.67498779296875,-9095.50390625,0
604.6039999999994,-0.023610930889844894,0.02732987143099308,0.0001214270741911605,0.0,0.0,0.0,0.0,0.00020930630853399634,0.0014468345325440168,0.00028294476214796305,0.9986103177070618,0.0,0.0,0.0,50.202171325683594,-2.5281803607940674,7.665445327758789,-9086.6923828125,0
614.5069999999996,-0.023627309128642082,0.02731107547879219,0.0001262604637304321,0.0,0.0,0.0,0.0,0.0012113081756979227,0.003374160034582019,0.0032428607810288668,0.9970818161964417,0.0,0.0,0.0,50.154109954833984,-2.5311970710754395,7.656643867492676,-9077.994140625,0
624.4269999999997,-0.02366773411631584,0.027325693517923355,0.00016096039325930178,0.0,0.0,0.0,0.0,-0.0005109446938149631,0.004606787580996752,0.0006210377323441207,0.9977114796638489,0.0,0.0,0.0,50.21477127075195,-2.537623405456543,7.667463779449463,-9088.974609375,0
634.3329999999987,-0.02368387207388878,0.02730722725391388,0.00016553609748370945,0.0,0.0,0.0,0.0,0.0012398388935253024,0.004269718192517757,-0.001974336337298155,1.000724196434021,0.0,0.0,0.0,50.16614532470703,-2.5322954654693604,7.658308029174805,-9080.1728515625,0
644.253999999999,-0.023651622235774994,0.027339275926351547,0.00021482480224221945,0.0,0.0,0.0,0.0,0.001250536530278623,0.0007445753435604274,-0.0031063344795256853,0.9997047185897827,0.0,0.0,0.0,50.222843170166016,-2.5412540435791016,7.676026821136475,-9090.4345703125,0
654.1529999999984,-0.02368084527552128,0.027356162667274475,0.00024320415104739368,0.0,0.0,0.0,0.0,0.0039808438159525394,0.000245333940256387,-0.001333346008323133,1.0000693798065186,0.0,0.0,0.0,50.2749137878418,-2.5505638122558594,7.677107810974121,-9099.859375,0
664.0699999999997,-0.023697504773736,0.027342701330780983,0.00025436104624532163,0.0,0.0,0.0,0.0,0.0027212488930672407,-0.002237981650978327,-0.003422148758545518,0.9974132776260376,0.0,0.0,0.0,50.22488021850586,-2.549955129623413,7.671145915985107,-9090.8037109375,0
673.9809999999998,-0.023704396560788155,0.027487998828291893,-5.250981303106528e-06,0.0,0.0,0.0,0.0,0.00018900584836956114,0.0037042098119854927,-0.0006505904602818191,0.9977409243583679,0.0,0.0,0.0,50.38753128051758,-2.5763444900512695,7.683019638061523,-9120.2431640625,0
683.8979999999992,-0.023716481402516365,0.027473822236061096,-6.598372237931471e-06,0.0,0.0,0.0,0.0,-0.0017180473078042269,0.0030238942708820105,-0.0038928440771996975,0.9990532994270325,0.0,0.0,0.0,50.3377685546875,-2.571347713470459,7.680488109588623,-9111.2353515625,0
693.8029999999999,-0.02369026280939579,0.027509065344929695,-1.307396905758651e-05,0.0,0.0,0.0,0.0,-0.002399505116045475,-0.0007846932858228683,-0.004164515994489193,0.9978496432304382,0.0,0.0,0.0,50.475006103515625,-2.5995595455169678,7.6776604652404785,-9136.076171875,0
703.7289999999994,-0.02369888499379158,0.027490314096212387,-1.7552611097926274e-05,0.0,0.0,0.0,0.0,0.0009747730800881982,-0.0019899008329957724,0.0031936189625412226,0.9987618327140808,0.0,0.0,0.0,50.425254821777344,-2.589543342590332,7.671662330627441,-9127.0712890625,0
713.6259999999984,-0.023648139089345932,0.027527881786227226,-0.0001041055511450395,0.0,0.0,0.0,0.0,-0.0029620572458952665,0.001287343562580645,-0.002090547699481249,0.9997902512550354,0.0,0.0,0.0,50.548057556152344,-2.6153018474578857,7.67271089553833,-9149.298828125,0
723.5449999999983,-0.023654278367757797,0.027503926306962967,-0.00011476177314762026,0.0,0.0,0.0,0.0,0.001088583143427968,0.0015170591650530696,4.261902631697012e-06,0.9995238780975342,0.0,0.0,0.0,50.49810791015625,-2.6091501712799072,7.666077136993408,-9140.2568359375,0
733.4469999999983,-0.023636063560843468,0.02748996578156948,-0.00010073505836771801,0.0,0.0,0.0,0.0,-0.0009176259627565742,-0.002097157761454582,-0.0013094623573124409,0.9991312623023987,0.0,0.0,0.0,50.61186218261719,-2.6358065605163574,7.656331539154053,-9160.84765625,0
743.3649999999998,-0.02364445850253105,0.027461733669042587,-0.00010975776967825368,0.0,0.0,0.0,0.0,0.0010431659175083041,0.0008277475135400891,-0.0017629499780014157,0.9985513687133789,0.0,0.0,0.0,50.56278610229492,-2.6261348724365234,7.6589202880859375,-9151.9658203125,0
753.268,-0.023529501631855965,0.02741863578557968,-0.00014969269977882504,0.0,0.0,0.0,0.0,-0.001636623521335423,-6.371411291183904e-05,-0.002451641019433737,1.0009918212890625,0.0,0.0,0.0,50.66206741333008,-2.6614222526550293,7.654519557952881,-9169.935546875,0
763.1889999999985,-0.023536907508969307,0.027384508401155472,-0.0001614495413377881,0.0,0.0,0.0,0.0,-0.000910627597477287,0.0002787550038192421,0.0017330067930743098,0.9995452761650085,0.0,0.0,0.0,50.61271286010742,-2.6488921642303467,7.658231735229492,-9161.001953125,0
773.0929999999989,-0.02350173518061638,0.02741066738963127,-0.0001922341325553134,0.0,0.0,0.0,0.0,-0.0006942908512428403,0.0006321658147498965,-0.0021280553191900253,0.9988179802894592,0.0,0.0,0.0,50.70543670654297,-2.672537326812744,7.647898197174072,-9177.78515625,0
783.0149999999994,-0.02350572869181633,0.02737252600491047,-0.0002048881578957662,0.0,0.0,0.0,0.0,0.004580908454954624,8.289649122161791e-05,-0.0005492237396538258,0.9997298717498779,0.0,0.0,0.0,50.65351104736328,-2.6668155193328857,7.634698390960693,-9168.3857421875,0
792.9179999999997,-0.023528950288891792,0.027507681399583817,-0.00018762062245514244,0.0,0.0,0.0,0.0,-0.003522966057062149,-0.0007235006778500974,-0.003101181937381625,0.9994920492172241,0.0,0.0,0.0,50.740074157714844,-2.6765754222869873,7.645623683929443,-9184.0537109375,0
802.8429999999989,-0.023532329127192497,0.02746897004544735,-0.0001976197090698406,0.0,0.0,0.0,0.0,-0.002237372100353241,-0.0021179860923439264,-0.0011684682685881853,0.9983305931091309,0.0,0.0,0.0,50.68963623046875,-2.6597540378570557,7.645274639129639,-9174.9248046875,0
812.7369999999992,-0.023527493700385094,0.027374267578125,-0.0001552830362925306,0.0,0.0,0.0,0.0,-0.0025139418430626392,-0.0014697429724037647,0.002232736675068736,0.9985193610191345,0.0,0.0,0.0,50.7701416015625,-2.6832382678985596,7.6374735832214355,-9189.4970703125,0
822.6599999999999,-0.02353174425661564,0.027330348268151283,-0.00016290928761009127,0.0,0.0,0.0,0.0,-0.0013364719925448298,0.0005239946185611188,0.0012996738078072667,0.9991936087608337,0.0,0.0,0.0,50.72128677368164,-2.6736202239990234,7.628767490386963,-9180.654296875,0
832.5619999999999,-0.023613475263118744,0.027414310723543167,-0.0001162324333563447,0.0,0.0,0.0,0.0,0.0015063778264448047,0.0026698342990130186,0.0007666192250326276,0.9981608390808105,0.0,0.0,0.0,50.799888610839844,-2.681178092956543,7.635053634643555,-9194.880859375,0
842.4809999999998,-0.023620013147592545,0.02736889012157917,-0.00012035266263410449,0.0,0.0,0.0,0.0,-0.0006759450188837945,-0.0026341197080910206,0.0006144249928183854,0.9987446665763855,0.0,0.0,0.0,50.75077438354492,-2.667436361312866,7.621650218963623,-9185.9912109375,0
852.3869999999988,-0.0236631128937006,0.02739308960735798,-9.816028614295647e-05,0.0,0.0,0.0,0.0,-0.003338033799082041,-0.0020821287762373686,0.002634901087731123,0.9993104934692383,0.0,0.0,0.0,50.818443298339844,-2.6738533973693848,7.621853351593018,-9198.240234375,0
862.3119999999999,-0.023669861257076263,0.027344532310962677,-0.00010159480007132515,0.0,0.0,0.0,0.0,0.0038988632149994373,0.001615434419363737,0.0012896389234811068,0.998843789100647,0.0,0.0,0.0,50.768829345703125,-2.6640560626983643,7.620142459869385,-9189.259765625,0
872.2169999999987,-0.0236628670245409,0.02744516357779503,-7.309728971449658e-05,0.0,0.0,0.0,0.0,-0.0015620074700564146,-0.004967125132679939,-0.0004230824706610292,0.9990266561508179,0.0,0.0,0.0,50.84120178222656,-2.6796493530273438,7.628335952758789,-9202.3583984375,0
882.125,-0.023667341098189354,0.027394918724894524,-7.465387898264453e-05,0.0,0.0,0.0,0.0,0.003298507770523429,0.001743390690535307,-0.0008311856654472649,0.9982743263244629,0.0,0.0,0.0,50.79086685180664,-2.675804376602173,7.635237693786621,-9193.248046875,0
892.0289999999986,-0.023640526458621025,0.027466246858239174,-4.820480171474628e-05,0.0,0.0,0.0,0.0,0.004416387062519789,0.0007309957290999591,0.002223409479483962,0.9992515444755554,0.0,0.0,0.0,50.860538482666016,-2.692460060119629,7.643270969390869,-9205.8583984375,0
901.9489999999987,-0.023644717410206795,0.027413634583353996,-4.884112786385231e-05,0.0,0.0,0.0,0.0,0.0014380428474396467,-0.004251562058925629,0.0014430705923587084,1.000089168548584,0.0,0.0,0.0,50.81203079223633,-2.691601276397705,7.637705326080322,-9197.078125,0
911.851999999999,-0.023660873994231224,0.02742891013622284,-4.918007107335143e-05,0.0,0.0,0.0,0.0,-0.0022782415617257357,0.0036991301458328962,-0.0008603849564678967,0.9972718954086304,0.0,0.0,0.0,50.87192916870117,-2.709596633911133,7.634503364562988,-9207.919921875,0
921.771999999999,-0.02366499789059162,0.02737323008477688,-5.013910049456172e-05,0.0,0.0,0.0,0.0,-0.001198026118800044,-0.0003068374644499272,-0.0015499915461987257,0.9971863031387329,0.0,0.0,0.0,50.82315444946289,-2.703974962234497,7.628056526184082,-9199.091796875,0
931.6759999999995,-0.023643935099244118,0.027447042986750603,-0.00010605893476167694,0.0,0.0,0.0,0.0,0.0021221782080829144,0.0009125894284807146,0.002648507244884968,0.9975128769874573,0.0,0.0,0.0,50.88819122314453,-2.710984945297241,7.633319854736328,-9210.86328125,0
941.5949999999993,-0.02364584244787693,0.02738741785287857,-0.00011486325092846528,0.0,0.0,0.0,0.0,0.0027256645262241364,0.003942603245377541,-0.0008237812435254455,1.001206636428833,0.0,0.0,0.0,50.838287353515625,-2.7069108486175537,7.621105670928955,-9201.8310546875,0
951.4979999999996,-0.02363976277410984,0.027414944022893906,-0.00010955551260849461,0.0,0.0,0.0,0.0,-0.0006508459337055683,-0.004831342957913876,0.002519772620871663,1.0008670091629028,0.0,0.0,0.0,50.900569915771484,-2.728785991668701,7.617612361907959,-9213.103515625,0
961.4209999999985,-0.02364172413945198,0.02735249698162079,-0.00011719416215782985,0.0,0.0,0.0,0.0,-0.000814913772046566,0.001996076200157404,-0.0012638121843338013,0.9978423118591309,0.0,0.0,0.0,50.851478576660156,-2.7257351875305176,7.617512226104736,-9204.21875,0
971.3219999999983,-0.02352537028491497,0.027348045259714127,-0.0001514942414360121,0.0,0.0,0.0,0.0,-0.002619687933474779,-0.0009605155210010707,-0.0003891487140208483,0.9982470273971558,0.0,0.0,0.0,50.912513732910156,-2.754441499710083,7.6198320388793945,-9215.265625,0
981.2459999999992,-0.02352520450949669,0.02728012576699257,-0.00016202956612687558,0.0,0.0,0.0,0.0,-8.560145943192765e-06,0.002847143914550543,-0.002601609332486987,0.9992615580558777,0.0,0.0,0.0,50.86314010620117,-2.7441487312316895,7.626976490020752,-9206.3291015625,0
991.1449999999986,-0.02352624014019966,0.027314629405736923,-0.00018859776901081204,0.0,0.0,0.0,0.0,-0.0023964669089764357,0.0012095598503947258,-0.0015226812101900578,0.9987258911132812,0.0,0.0,0.0,50.92325973510742,-2.7480552196502686,7.6308369636535645,-9217.2109375,0
1001.0669999999991,-0.02352495677769184,0.027241606265306473,-0.0002017953374888748,0.0,0.0,0.0,0.0,-0.0005456982180476189,-0.0026633816305547953,-0.0022524006199091673,0.9996587634086609,0.0,0.0,0.0,50.87411880493164,-2.732698440551758,7.623365879058838,-9208.3173828125,0
1010.9709999999995,-0.023566044867038727,0.02741323597729206,-0.0002940928388852626,0.0,0.0,0.0,0.0,0.000518922577612102,-0.0006317093502730131,-0.0008843175019137561,1.0014907121658325,0.0,0.0,0.0,50.933597564697266,-2.718167781829834,7.641593933105469,-9219.08203125,0
1020.8889999999992,-0.023565568029880524,0.02734321355819702,-0.0003137317253276706,0.0,0.0,0.0,0.0,0.0015294941840693355,-0.002688405103981495,0.001789827598258853,1.001342535018921,0.0,0.0,0.0,50.8853759765625,-2.715092182159424,7.63731050491333,-9210.3544921875,0
1030.7929999999997,-0.02358829788863659,0.027477260679006577,-0.0002975735114887357,0.0,0.0,0.0,0.0,-0.0013314802199602127,0.0004954333999194205,-0.0026797589380294085,0.99949711561203,0.0,0.0,0.0,50.9463996887207,-2.711606979370117,7.660672187805176,-9221.3994140625,0
1040.7149999999983,-0.02358822524547577,0.02740968018770218,-0.00031087116803973913,0.0,0.0,0.0,0.0,-0.004744980949908495,-0.0020518838427960873,0.0009164858493022621,0.9968841671943665,0.0,0.0,0.0,50.897430419921875,-2.7058756351470947,7.646057605743408,-9212.5361328125,0
1050.6149999999998,-0.023685893043875694,0.02749791368842125,-0.0003054595727007836,0.0,0.0,0.0,0.0,-0.00038392801070585847,0.004382057581096888,-0.002642400562763214,0.9974378943443298,0.0,0.0,0.0,50.956722259521484,-2.695075750350952,7.652403831481934,-9223.267578125,0
1060.5349999999999,-0.02368893288075924,0.02742941863834858,-0.00031923301867209375,0.0,0.0,0.0,0.0,-0.0006429470959119499,-0.0009936837013810873,0.002476054709404707,1.0001410245895386,0.0,0.0,0.0,50.905967712402344,-2.694631576538086,7.643131732940674,-9214.0810546875,0
1070.437,-0.023666903376579285,0.027502333745360374,-0.00029593598446808755,0.0,0.0,0.0,0.0,0.0013015213189646602,0.0018299731891602278,0.0007838840829208493,1.0003770589828491,0.0,0.0,0.0,50.96245193481445,-2.6999428272247314,7.657674312591553,-9224.3046875,0
1080.3579999999984,-0.023667970672249794,0.02743419259786606,-0.00030724331736564636,0.0,0.0,0.0,0.0,-0.0010286737233400345,-0.0020681291352957487,-0.00034871281241066754,1.0002893209457397,0.0,0.0,0.0,50.91390609741211,-2.6873345375061035,7.659484386444092,-9215.517578125,0
1090.2599999999984,-0.023610875010490417,0.027468137443065643,-0.00027898905682377517,0.0,0.0,0.0,0.0,-0.00198603724129498,-0.0011093085631728172,-0.00010561192902969196,0.9983160495758057,0.0,0.0,0.0,50.970237731933594,-2.7040178775787354,7.6683430671691895,-9225.7138671875,0
1100.1789999999983,-0.023610549047589302,0.027400320395827293,-0.000285959366010502,0.0,0.0,0.0,0.0,-0.0015255194157361984,0.0020119170658290386,-0.000908980960957706,1.000001072883606,0.0,0.0,0.0,50.91972351074219,-2.696721076965332,7.663499355316162,-9216.5712890625,0
1110.0849999999991,-0.02359674498438835,0.027472028508782387,-0.00025562054361216724,0.0,0.0,0.0,0.0,0.0002750251442193985,0.00042906749877147377,-0.0026910428423434496,0.999389111995697,0.0,0.0,0.0,50.97414016723633,-2.7039570808410645,7.6735405921936035,-9226.419921875,0
1120.003999999999,-0.023594943806529045,0.027404332533478737,-0.00025979173369705677,0.0,0.0,0.0,0.0,0.0022927538957446814,-0.0003372177598066628,-0.00157224852591753,0.9967693090438843,0.0,0.0,0.0,50.92425537109375,-2.700208902359009,7.668620586395264,-9217.3916015625,0
1129.905999999999,-0.023609645664691925,0.027424916625022888,-0.00018010156054515392,0.0,0.0,0.0,0.0,0.0020602471195161343,0.0011048727901652455,0.004090426955372095,0.9997681975364685,0.0,0.0,0.0,50.980010986328125,-2.7096142768859863,7.67987060546875,-9227.482421875,0
1139.8319999999985,-0.023607328534126282,0.02735576219856739,-0.00017973910144064575,0.0,0.0,0.0,0.0,0.002853918820619583,0.0013887716922909021,0.0030494462698698044,1.0002774000167847,0.0,0.0,0.0,50.930301666259766,-2.7146284580230713,7.667372703552246,-9218.486328125,0
1149.7289999999994,-0.02362607792019844,0.027447637170553207,-0.00012887659249827266,0.0,0.0,0.0,0.0,-0.0029479486402124166,0.001808630651794374,-0.0014354209415614605,0.9963347315788269,0.0,0.0,0.0,50.9860725402832,-2.7222039699554443,7.686155796051025,-9228.580078125,0
1159.6509999999998,-0.023625120520591736,0.027323666960000992,-0.00015676970360800624,0.0,0.0,0.0,0.0,0.002369467169046402,0.005676834844052792,-0.0014944429276511073,0.9974522590637207,0.0,0.0,0.0,50.992835998535156,-2.733633279800415,7.6577277183532715,-9229.8037109375,0
1169.5539999999983,-0.023621749132871628,0.02738603577017784,-8.742330101085827e-05,0.0,0.0,0.0,0.0,0.002574662445113063,0.0020482775289565325,-0.0012386651942506433,1.000368595123291,0.0,0.0,0.0,50.99079895019531,-2.739056348800659,7.656136512756348,-9229.435546875,0
1179.4829999999984,-0.02364303544163704,0.02724563144147396,-8.756638271734118e-05,0.0,0.0,0.0,0.0,0.001067487639375031,-0.002593808574602008,0.0017424848629161716,0.9997062683105469,0.0,0.0,0.0,50.992679595947266,-2.7497003078460693,7.638335227966309,-9229.775390625,0
1189.3769999999986,-0.023638207465410233,0.027339061722159386,1.7173018704852439e-06,0.0,0.0,0.0,0.0,-0.0012492024106904864,-0.0004987092688679695,-0.0033980817534029484,0.9999353885650635,0.0,0.0,0.0,50.99245834350586,-2.74664044380188,7.656617641448975,-9229.736328125,0
1199.2979999999989,-0.02363833598792553,0.02721429616212845,-1.828310632845387e-05,0.0,0.0,0.0,0.0,-0.0008962805150076747,0.0015655081951990724,-0.0026307147927582264,0.9995469450950623,0.0,0.0,0.0,50.9947509765625,-2.7486231327056885,7.628997325897217,-9230.1513671875,0
1209.1979999999985,-0.023590348660945892,0.027263950556516647,7.042382640065625e-05,0.0,0.0,0.0,0.0,0.0044202678836882114,0.0025181774981319904,-0.0005364787066355348,0.9981867074966431,0.0,0.0,0.0,50.989620208740234,-2.7543845176696777,7.649722099304199,-9229.2216796875,0
1219.1239999999998,-0.023588165640830994,0.02719690091907978,8.486014121444896e-05,0.0,0.0,0.0,0.0,-0.0007634808425791562,0.0009409540798515081,-0.0004103206447325647,1.0013118982315063,0.0,0.0,0.0,50.940765380859375,-2.746568202972412,7.641001224517822,-9220.37890625,0
1229.0269999999982,-0.02362952195107937,0.02727760747075081,0.00012482544116210192,0.0,0.0,0.0,0.0,0.002210148610174656,0.004190762992948294,-0.0018385453149676323,1.001801609992981,0.0,0.0,0.0,50.992210388183594,-2.7477993965148926,7.640319347381592,-9229.6904296875,0
1238.9399999999987,-0.02352539263665676,0.027284547686576843,1.0059902706416324e-05,0.0,0.0,0.0,0.0,0.001380545785650611,2.4128687073243782e-05,0.0020353992003947496,1.0006473064422607,0.0,0.0,0.0,50.99662399291992,-2.760288715362549,7.642105579376221,-9230.4892578125,0
1248.8449999999993,-0.023534376174211502,0.027315082028508186,6.583008507732302e-05,0.0,0.0,0.0,0.0,-0.00019593721663113683,0.0015621187631040812,0.002131538698449731,1.0010552406311035,0.0,0.0,0.0,50.99448776245117,-2.7658519744873047,7.649733066558838,-9230.1025390625,0
1258.7619999999988,-0.023527132347226143,0.02725110948085785,7.962559175211936e-05,0.0,0.0,0.0,0.0,4.051220457768068e-05,0.0021051461808383465,0.0015194473089650273,0.9990496635437012,0.0,0.0,0.0,50.94536209106445,-2.765294313430786,7.640410900115967,-9221.2109375,0
1268.6689999999999,-0.023509517312049866,0.027342498302459717,3.722999736055499e-06,0.0,0.0,0.0,0.0,-0.0007973749889060855,0.0016728431219235063,0.0006024406757205725,0.9996994137763977,0.0,0.0,0.0,50.99763107299805,-2.7766082286834717,7.65102481842041,-9230.671875,0
1278.5809999999983,-0.023439420387148857,0.02732950448989868,-6.78981450619176e-05,0.0,0.0,0.0,0.0,-0.00018950100638903677,-0.004978815093636513,-0.003095189807936549,0.9976295232772827,0.0,0.0,0.0,50.99925231933594,-2.7858691215515137,7.650020122528076,-9230.96484375,0
1288.491,-0.023509230464696884,0.02737578935921192,-3.3935470128199086e-05,0.0,0.0,0.0,0.0,-0.0007833304698579013,-0.004830945748835802,0.0012856096727773547,0.9981248378753662,0.0,0.0,0.0,50.995079040527344,-2.774198293685913,7.654055595397949,-9230.2109375,0
1298.4029999999984,-0.023452764376997948,0.02732113189995289,-0.00010610691970214248,0.0,0.0,0.0,0.0,0.003927379380911589,0.0072078341618180275,-0.0012579028261825442,0.9995067119598389,0.0,0.0,0.0,50.998291015625,-2.778731107711792,7.653037071228027,-9230.791015625,0
1308.3139999999985,-0.0235324427485466,0.02742360718548298,-5.287600288284011e-05,0.0,0.0,0.0,0.0,0.0015847481554374099,-0.00147339201066643,0.001375232939608395,0.998039722442627,0.0,0.0,0.0,50.99534225463867,-2.7595534324645996,7.663769245147705,-9230.2578125,0
1318.2259999999987,-0.023485811427235603,0.02733420394361019,-0.00012885639443993568,0.0,0.0,0.0,0.0,-0.001154150115326047,-0.0019398245494812727,0.002574582351371646,0.9984711408615112,0.0,0.0,0.0,51.00639343261719,-2.7759933471679688,7.649544715881348,-9232.2578125,0
1328.1369999999988,-0.02359425462782383,0.02741948515176773,-9.54641291173175e-05,0.0,0.0,0.0,0.0,-0.002317921258509159,-0.005728403106331825,-0.0008654836565256119,0.9995926022529602,0.0,0.0,0.0,51.00861740112305,-2.754511594772339,7.664108753204346,-9232.66015625,0
1338.048999999999,-0.023572305217385292,0.027338698506355286,-0.00013578507059719414,0.0,0.0,0.0,0.0,0.003584788180887699,0.003678932087495923,0.0032799418549984694,0.9972127676010132,0.0,0.0,0.0,51.01494598388672,-2.756465196609497,7.663150787353516,-9233.806640625,0
1347.9689999999991,-0.023627519607543945,0.027442023158073425,-7.696163811488077e-05,0.0,0.0,0.0,0.0,0.001572847249917686,-0.001497800461947918,-5.919216346228495e-05,0.9974445104598999,0.0,0.0,0.0,51.01678466796875,-2.7438302040100098,7.677262306213379,-9234.138671875,0
1357.8739999999998,-0.023602081462740898,0.027348943054676056,-0.00012474549293983728,0.0,0.0,0.0,0.0,-0.0019190981984138489,-0.0034596214536577463,0.00020878028590232134,0.9997671246528625,0.0,0.0,0.0,51.02061080932617,-2.7614097595214844,7.659570217132568,-9234.83203125,0
1367.7859999999982,-0.023655259981751442,0.027437958866357803,-7.355587877100334e-05,0.0,0.0,0.0,0.0,-0.0004349461232777685,0.0011473172344267368,-0.0015001570573076606,0.9992510676383972,0.0,0.0,0.0,51.01753616333008,-2.7527613639831543,7.66995096206665,-9234.275390625,0
1377.6969999999983,-0.023633794859051704,0.02734910510480404,-0.00011742914648493752,0.0,0.0,0.0,0.0,-0.0010533567983657122,-0.001851381384767592,0.001174307893961668,1.0002562999725342,0.0,0.0,0.0,51.018619537353516,-2.75069522857666,7.675520420074463,-9234.470703125,0
1387.607,-0.023707183077931404,0.027467621490359306,-5.516984674613923e-05,0.0,0.0,0.0,0.0,-0.0005836461205035448,0.0013696026289835572,-0.0005103650037199259,0.9995400309562683,0.0,0.0,0.0,51.020416259765625,-2.733807325363159,7.679947853088379,-9234.7958984375,0
1397.5249999999996,-0.02367074228823185,0.02738662250339985,-0.00011617815471254289,0.0,0.0,0.0,0.0,0.0005226495559327304,0.00018554303096607327,-0.006732373032718897,0.9981814622879028,0.0,0.0,0.0,51.027015686035156,-2.737346649169922,7.673370361328125,-9235.9912109375,0
1407.4299999999985,-0.023622563108801842,0.02744564414024353,-4.069854912813753e-05,0.0,0.0,0.0,0.0,0.0008250218816101551,0.0015502795577049255,-0.00040997666656039655,0.9997653365135193,0.0,0.0,0.0,51.02797317504883,-2.7342159748077393,7.689784526824951,-9236.166015625,0
1417.348,-0.02360202744603157,0.027332216501235962,-8.04115625214763e-05,0.0,0.0,0.0,0.0,0.0008799079805612564,-0.004658539313822985,-0.0003114095889031887,0.9979357123374939,0.0,0.0,0.0,51.030723571777344,-2.748328685760498,7.678791046142578,-9236.6630859375,0
1427.2529999999988,-0.023621216416358948,0.02738782949745655,-2.8397043934091926e-05,0.0,0.0,0.0,0.0,-0.0009917046409100294,0.0012710272567346692,0.00021591469703707844,0.9982273578643799,0.0,0.0,0.0,51.0262451171875,-2.7413265705108643,7.690943241119385,-9235.8515625,0
1437.164999999999,-0.023572636768221855,0.027321774512529373,-8.991328650154173e-05,0.0,0.0,0.0,0.0,-0.0004607380833476782,0.0019711123313754797,-0.0016127807321026921,0.9988697171211243,0.0,0.0,0.0,51.031131744384766,-2.7482078075408936,7.690053462982178,-9236.736328125,0
1447.0779999999995,-0.023618923500180244,0.027386289089918137,-4.494112727115862e-05,0.0,0.0,0.0,0.0,0.00045947349281050265,-0.000254279060754925,0.0016774755204096437,1.0008175373077393,0.0,0.0,0.0,51.02713394165039,-2.7366654872894287,7.689054012298584,-9236.013671875,0
1456.9969999999994,-0.023550696671009064,0.027326785027980804,-0.000137479102704674,0.0,0.0,0.0,0.0,-0.0015441764844581485,-0.00011336077295709401,-0.001610849518328905,1.0012056827545166,0.0,0.0,0.0,51.03224563598633,-2.745292901992798,7.692377090454102,-9236.9384765625,0
1466.8989999999994,-0.023612115532159805,0.027412056922912598,-9.307343134423718e-05,0.0,0.0,0.0,0.0,-9.470123586652335e-06,-0.0008649295195937157,-0.0023737268056720495,0.9985904693603516,0.0,0.0,0.0,51.029014587402344,-2.7300872802734375,7.70200252532959,-9236.353515625,0
1476.8179999999993,-0.023539038375020027,0.02737995609641075,-0.00018179832841269672,0.0,0.0,0.0,0.0,-0.0016213927883654833,-0.0008931227494031191,-0.0024969191290438175,0.9992905259132385,0.0,0.0,0.0,51.03285598754883,-2.7371883392333984,7.706207752227783,-9237.0498046875,0
1486.7219999999998,-0.023613786324858665,0.02746986411511898,-0.00013944068632554263,0.0,0.0,0.0,0.0,0.00018760196689981967,0.00011537731916178018,-0.003028223989531398,0.9988197088241577,0.0,0.0,0.0,51.032920837402344,-2.719916582107544,7.721573352813721,-9237.060546875,0
1496.6389999999992,-0.023567071184515953,0.027386602014303207,-0.00021160801406949759,0.0,0.0,0.0,0.0,0.0012406716123223305,-0.000720686512067914,-0.0014877219218760729,1.000197172164917,0.0,0.0,0.0,51.03339767456055,-2.7258682250976562,7.7202911376953125,-9237.146484375,0
1506.5459999999985,-0.023617267608642578,0.02744787000119686,-0.00017793588631320745,0.0,0.0,0.0,0.0,-0.0003364567528478801,0.0032374581787735224,-0.0012303210096433759,0.9992308616638184,0.0,0.0,0.0,51.02865982055664,-2.7105722427368164,7.728978633880615,-9236.2890625,0
1516.4649999999983,-0.023572498932480812,0.027353113517165184,-0.0002558399282861501,0.0,0.0,0.0,0.0,0.002237362554296851,0.0012578611494973302,-0.0009735709754750133,0.9974428415298462,0.0,0.0,0.0,51.040279388427734,-2.7263941764831543,7.716256141662598,-9238.392578125,0
1526.369999999999,-0.023611310869455338,0.02743777446448803,-0.00021011184435337782,0.0,0.0,0.0,0.0,-0.0012286485871300101,-0.0005646441713906825,-0.0049096206203103065,0.9974009990692139,0.0,0.0,0.0,51.03779983520508,-2.716658592224121,7.7288970947265625,-9237.943359375,0
1536.2889999999989,-0.02352958172559738,0.027428168803453445,-0.00031339385895989835,0.0,0.0,0.0,0.0,0.0007689272169955075,-0.0026274756528437138,7.106597331585363e-05,0.998873770236969,0.0,0.0,0.0,51.03643798828125,-2.7204504013061523,7.727381229400635,-9237.697265625,0
1546.1929999999993,-0.023517731577157974,0.027359135448932648,-0.00033609193633310497,0.0,0.0,0.0,0.0,-0.0014393576420843601,0.0019208897138014436,-0.00023600739950779825,1.0006674528121948,0.0,0.0,0.0,50.98683166503906,-2.717041015625,7.726541519165039,-9228.716796875,0
1556.1059999999998,-0.023523075506091118,0.027253735810518265,-0.00034683509147726,0.0,0.0,0.0,0.0,-0.0012301568640396,-0.0012225151294842362,0.002379537560045719,1.0020009279251099,0.0,0.0,0.0,50.995216369628906,-2.720573902130127,7.700839519500732,-9230.2353515625,0
1566.0139999999992,-0.023616766557097435,0.027433358132839203,-0.0002478538954164833,0.0,0.0,0.0,0.0,0.001975730527192354,0.004390272311866283,-0.00025056576123461127,0.9991114139556885,0.0,0.0,0.0,50.99805450439453,-2.679946184158325,7.7292046546936035,-9230.7490234375,0
1575.9449999999997,-0.023619994521141052,0.02733420766890049,-0.00026643770979717374,0.0,0.0,0.0,0.0,0.0025490736588835716,-0.001419357256963849,0.00010742178710643202,0.9982427954673767,0.0,0.0,0.0,51.00126647949219,-2.69008731842041,7.700142860412598,-9231.3310546875,0
1585.8369999999995,-0.023598216474056244,0.02742735482752323,-0.0001777658617356792,0.0,0.0,0.0,0.0,-0.0015311295865103602,-0.002702269470319152,-0.0002994848182424903,0.9997797608375549,0.0,0.0,0.0,51.00202560424805,-2.688581943511963,7.7179365158081055,-9231.466796875,0
1595.7569999999996,-0.023639781400561333,0.02726772241294384,-0.0001563501573400572,0.0,0.0,0.0,0.0,0.004234340041875839,0.00168550421949476,0.0011269147507846355,0.9981248378753662,0.0,0.0,0.0,51.00598907470703,-2.699234962463379,7.692731857299805,-9232.185546875,0
1605.6629999999986,-0.02363441325724125,0.027369417250156403,-6.488495273515582e-05,0.0,0.0,0.0,0.0,0.002389921573922038,-0.0016375567065551877,0.005088220816105604,0.9981151819229126,0.0,0.0,0.0,51.004154205322266,-2.6968395709991455,7.712665557861328,-9231.853515625,0
1615.5789999999997,-0.023642675951123238,0.027152497321367264,-8.035325299715623e-05,0.0,0.0,0.0,0.0,-0.0004567839205265045,-0.0016829643864184618,-0.001160841784439981,0.9985508322715759,0.0,0.0,0.0,50.96727752685547,-2.700272798538208,7.695382118225098,-9225.177734375,0
1625.4839999999986,-0.023676417768001556,0.027362169697880745,1.8561759134172462e-05,0.0,0.0,0.0,0.0,-0.00043945395736955106,0.002932785777375102,0.001304600271396339,0.9985149502754211,0.0,0.0,0.0,51.0181770324707,-2.6927490234375,7.720951080322266,-9234.3916015625,0
1635.4039999999986,-0.023616520687937737,0.02724725380539894,-5.4109725169837475e-05,0.0,0.0,0.0,0.0,0.0004548697907011956,-0.009369589388370514,0.0056077116169035435,0.9991938471794128,0.0,0.0,0.0,50.97845458984375,-2.6972134113311768,7.724367618560791,-9227.2021484375,0
1645.307999999999,-0.02364000305533409,0.027406295761466026,2.2946220269659534e-05,0.0,0.0,0.0,0.0,-0.0007327105267904699,0.0005833389586769044,-0.0003977184824179858,0.9975962042808533,0.0,0.0,0.0,51.030128479003906,-2.6965363025665283,7.744027137756348,-9236.5546875,0
1655.226999999999,-0.023592740297317505,0.027250470593571663,-4.5047261664876714e-05,0.0,0.0,0.0,0.0,0.0031913607381284237,-0.0008765707025304437,0.0008461934048682451,0.9975249171257019,0.0,0.0,0.0,50.990089416503906,-2.6952967643737793,7.743252277374268,-9229.306640625,0
1665.1319999999996,-0.02360508032143116,0.027380185201764107,2.0525501895463094e-05,0.0,0.0,0.0,0.0,-0.0005197376012802124,0.0012582055060192943,0.0019678964745253325,1.0013426542282104,0.0,0.0,0.0,51.0403938293457,-2.69795560836792,7.75990104675293,-9238.4130859375,0
1675.0529999999999,-0.023551413789391518,0.02724272571504116,-4.841122427023947e-05,0.0,0.0,0.0,0.0,-0.0012211279245093465,0.002519394038245082,0.0020822298247367144,1.0001393556594849,0.0,0.0,0.0,51.00354766845703,-2.70086407661438,7.745489597320557,-9231.7431640625,0
1684.955,-0.02357630245387554,0.027387192472815514,1.99685000552563e-05,0.0,0.0,0.0,0.0,-0.00023579505796078593,-0.0013777109561488032,-0.00025700844707898796,1.0001616477966309,0.0,0.0,0.0,51.04823303222656,-2.699408769607544,7.763376712799072,-9239.83203125,0
1694.8779999999988,-0.023538049310445786,0.02730964682996273,-3.340471812407486e-05,0.0,0.0,0.0,0.0,-0.0011229913216084242,-0.005270867142826319,-0.0003017626004293561,1.0008867979049683,0.0,0.0,0.0,51.05638122558594,-2.713783025741577,7.7530903816223145,-9241.306640625,0
1704.7789999999986,-0.02351239323616028,0.02730611339211464,9.332770787295885e-06,0.0,0.0,0.0,0.0,0.0005772086442448199,0.004115544259548187,0.0013983038952574134,0.9977886080741882,0.0,0.0,0.0,51.05305099487305,-2.7170352935791016,7.767665863037109,-9240.7041015625,0
1714.6979999999985,-0.0234439205378294,0.027279382571578026,-7.276922406163067e-05,0.0,0.0,0.0,0.0,-0.002762243151664734,-0.0017700676107779145,0.003459295956417918,0.9969850182533264,0.0,0.0,0.0,51.052249908447266,-2.718841314315796,7.773305892944336,-9240.55859375,0
1724.6029999999992,-0.023495810106396675,0.027302073314785957,-5.084222721052356e-05,0.0,0.0,0.0,0.0,-0.0007034344016574323,0.005246942862868309,-0.00076210533734411,0.9971059560775757,0.0,0.0,0.0,51.04793167114258,-2.7094879150390625,7.773808002471924,-9239.7783203125,0
1734.5329999999994,-0.02343112789094448,0.02727406844496727,-0.00013449025573208928,0.0,0.0,0.0,0.0,0.0017157647525891662,0.0023034303449094296,-0.0029896353371441364,0.9990715980529785,0.0,0.0,0.0,51.04763412475586,-2.709343194961548,7.776156425476074,-9239.724609375,0
1744.423999999999,-0.023555440828204155,0.02739015780389309,-9.671579755377024e-05,0.0,0.0,0.0,0.0,0.0014701284235343337,-0.00244291708804667,-0.0007544987602159381,1.001619577407837,0.0,0.0,0.0,51.045318603515625,-2.6831493377685547,7.775568008422852,-9239.3046875,0
1754.3399999999983,-0.023506920784711838,0.02733074501156807,-0.00017353847215417773,0.0,0.0,0.0,0.0,0.00039481179555878043,0.0034732294734567404,-0.002420850330963731,0.9993764758110046,0.0,0.0,0.0,51.045875549316406,-2.693183183670044,7.773920059204102,-9239.40625,0
1764.2459999999992,-0.023578347638249397,0.027436204254627228,-0.0001259462151210755,0.0,0.0,0.0,0.0,-0.004217169247567654,-0.00017347707762382925,-0.0010612164624035358,0.9986119270324707,0.0,0.0,0.0,51.04148483276367,-2.6825294494628906,7.788594722747803,-9238.6103515625,0
1774.1679999999997,-0.023569831624627113,0.027340678498148918,-0.00015604843792971224,0.0,0.0,0.0,0.0,4.288647687644698e-05,-0.00026966395671479404,-0.006547283846884966,0.9995983839035034,0.0,0.0,0.0,51.043128967285156,-2.68422269821167,7.76512336730957,-9238.908203125,0
1784.0699999999997,-0.023587796837091446,0.027412910014390945,-0.00010408266098238528,0.0,0.0,0.0,0.0,0.00019462667114567012,0.004047038033604622,0.0001149828894995153,0.999772310256958,0.0,0.0,0.0,51.03938674926758,-2.6777639389038086,7.779306888580322,-9238.23046875,0
1793.9879999999994,-0.02357962541282177,0.027305690571665764,-0.00013909058179706335,0.0,0.0,0.0,0.0,-0.0009872368536889553,0.0015556929865851998,-0.0005695268046110868,0.9992405772209167,0.0,0.0,0.0,51.04017639160156,-2.6859612464904785,7.755054950714111,-9238.3740234375,0
1803.8919999999998,-0.023645395413041115,0.02738991379737854,-9.537324513075873e-05,0.0,0.0,0.0,0.0,-0.0020638974383473396,-0.0004101747472304851,0.0025791169609874487,0.9980493783950806,0.0,0.0,0.0,51.03099060058594,-2.6703202724456787,7.75901985168457,-9236.7109375,0
1813.8139999999985,-0.023623986169695854,0.027310775592923164,-0.0001427002571290359,0.0,0.0,0.0,0.0,-0.002129571046680212,-0.0008508428581990302,0.0022306283935904503,0.9994237422943115,0.0,0.0,0.0,51.0325927734375,-2.6771345138549805,7.742403030395508,-9237.0009765625,0
1823.717999999999,-0.023637821897864342,0.027419062331318855,-7.137882494134828e-05,0.0,0.0,0.0,0.0,-0.000736523768864572,-0.003938278183341026,0.002582700690254569,0.9992089867591858,0.0,0.0,0.0,51.03263854980469,-2.6711339950561523,7.766246318817139,-9237.009765625,0
1833.6399999999994,-0.023614542558789253,0.027333544567227364,-0.00011866676504723728,0.0,0.0,0.0,0.0,0.0001760249288054183,0.003030970226973295,-0.001899765687994659,0.9974608421325684,0.0,0.0,0.0,51.03531265258789,-2.6799089908599854,7.756316184997559,-9237.4931640625,0
1843.5419999999995,-0.023635489866137505,0.02744561806321144,-4.555064515443519e-05,0.0,0.0,0.0,0.0,-0.001361668691970408,-0.0036737697664648294,0.002857960993424058,0.9975427985191345,0.0,0.0,0.0,51.03193283081055,-2.6682212352752686,7.775704383850098,-9236.8818359375,0
1853.4559999999983,-0.023655854165554047,0.027279576286673546,-5.5086529755499214e-05,0.0,0.0,0.0,0.0,0.0036445059813559055,-0.0014142757281661034,-0.001824751845560968,0.999362587928772,0.0,0.0,0.0,51.034366607666016,-2.6866133213043213,7.7398457527160645,-9237.322265625,0
1863.3619999999992,-0.023676466196775436,0.027385061606764793,1.6039117326727137e-05,0.0,0.0,0.0,0.0,-0.0009744088747538626,-0.0024627388920634985,0.0015951343812048435,1.0017257928848267,0.0,0.0,0.0,51.030967712402344,-2.6718761920928955,7.762457370758057,-9236.70703125,0
1873.2849999999999,-0.023630326613783836,0.027319511398673058,-4.9045065679820254e-05,0.0,0.0,0.0,0.0,0.0002917602250818163,0.005367448087781668,-0.0037876919377595186,0.9988788962364197,0.0,0.0,0.0,51.03532028198242,-2.678196430206299,7.7513580322265625,-9237.4951171875,0
1883.1879999999983,-0.023619871586561203,0.027389802038669586,1.9046927263843827e-05,0.0,0.0,0.0,0.0,0.0013170470483601093,-0.0022453584242612123,0.0012332805199548602,0.9991028904914856,0.0,0.0,0.0,51.03285217285156,-2.671719789505005,7.760827541351318,-9237.048828125,0
1893.1009999999987,-0.02358909696340561,0.027290938422083855,-3.098545494140126e-05,0.0,0.0,0.0,0.0,0.001351175014860928,0.003374123014509678,-2.4660055714775808e-05,0.9999934434890747,0.0,0.0,0.0,51.03150177001953,-2.6879050731658936,7.744215488433838,-9236.8046875,0
1903.0079999999998,-0.023580633103847504,0.027226343750953674,-3.277062569395639e-05,0.0,0.0,0.0,0.0,0.0002728826366364956,-0.005547774955630302,0.0029100163374096155,0.9968413710594177,0.0,0.0,0.0,50.981842041015625,-2.6794486045837402,7.738436698913574,-9227.814453125,0
1912.9209999999985,-0.023530514910817146,0.027194004505872726,-9.12901377887465e-05,0.0,0.0,0.0,0.0,-0.0004529504512902349,0.0003964342758990824,-0.0045147729106247425,0.9977986812591553,0.0,0.0,0.0,50.98689651489258,-2.684133529663086,7.7392377853393555,-9228.728515625,0
1922.8319999999985,-0.02360953576862812,0.027332797646522522,-6.200200004968792e-06,0.0,0.0,0.0,0.0,-0.003756142221391201,-0.0007690672646276653,0.0016845427453517914,0.9993234872817993,0.0,0.0,0.0,50.98621368408203,-2.6502106189727783,7.772560119628906,-9228.60546875,0
1932.7429999999986,-0.023526504635810852,0.027247712016105652,-0.00012332227197475731,0.0,0.0,0.0,0.0,-0.0004884293884970248,0.000987953506410122,-0.002875728765502572,0.9986976385116577,0.0,0.0,0.0,50.94473648071289,-2.6536552906036377,7.783020973205566,-9221.09765625,0
1942.6619999999984,-0.02359761670231819,0.027404597029089928,-5.761955617344938e-05,0.0,0.0,0.0,0.0,0.0009005538886412978,0.0034029840026050806,-0.00014460872625932097,0.9995569586753845,0.0,0.0,0.0,50.994712829589844,-2.6461029052734375,7.800248146057129,-9230.14453125,0
1952.565999999999,-0.023560717701911926,0.027277542278170586,-0.0001224906591232866,0.0,0.0,0.0,0.0,-0.0012932645622640848,-0.0008312398567795753,0.0014762775972485542,0.998545229434967,0.0,0.0,0.0,50.95363235473633,-2.6504087448120117,7.780711650848389,-9222.7080078125,0
1962.4759999999987,-0.023596886545419693,0.02737773023545742,-7.846979860914871e-05,0.0,0.0,0.0,0.0,-0.0013255211524665356,-0.0008157386910170317,5.861980025656521e-05,1.0001152753829956,0.0,0.0,0.0,51.001522064208984,-2.651956081390381,7.791276454925537,-9231.3759765625,0
1972.387999999999,-0.023526549339294434,0.027280818670988083,-0.0001859294279711321,0.0,0.0,0.0,0.0,0.0011032209731638432,0.006338037084788084,-0.004447330255061388,0.9997143149375916,0.0,0.0,0.0,50.96052932739258,-2.6556661128997803,7.777527809143066,-9223.95703125,0
1982.298999999999,-0.02358512207865715,0.02743859589099884,-0.00012150318798376247,0.0,0.0,0.0,0.0,5.556654286920093e-05,0.002319504739716649,-0.0014721475308761,0.9979527592658997,0.0,0.0,0.0,51.01033020019531,-2.649707555770874,7.7938971519470215,-9232.970703125,0
1992.2149999999983,-0.023528074845671654,0.027331436052918434,-0.00022101217473391443,0.0,0.0,0.0,0.0,0.0025234920904040337,-0.0029490632005035877,0.00288190389983356,0.9989043474197388,0.0,0.0,0.0,50.967044830322266,-2.663857936859131,7.7764997482299805,-9225.13671875,0
2002.1219999999994,-0.023571860045194626,0.027465661987662315,-0.00016344262985512614,0.0,0.0,0.0,0.0,0.0017893487820401788,0.0021737259812653065,-0.00239804876036942,0.9993679523468018,0.0,0.0,0.0,51.01767349243164,-2.6624622344970703,7.790968418121338,-9234.30078125,0
2012.039999999999,-0.02353532984852791,0.027319077402353287,-0.000246865936787799,0.0,0.0,0.0,0.0,-0.0032620360143482685,0.0015477287815883756,0.0006343713612295687,0.9986162781715393,0.0,0.0,0.0,50.97810363769531,-2.6710805892944336,7.776317596435547,-9227.1376953125,0
2021.9489999999987,-0.023574311286211014,0.027461163699626923,-0.0001841691555455327,0.0,0.0,0.0,0.0,-0.0029737185686826706,-0.003809964284300804,0.001164261600933969,0.9978631138801575,0.0,0.0,0.0,51.028472900390625,-2.6692755222320557,7.792390823364258,-9236.2548828125,0
2031.8589999999986,-0.023581216111779213,0.027335306629538536,-0.00020722644694615155,0.0,0.0,0.0,0.0,0.004423578269779682,-0.0004635353689081967,-0.0033984826877713203,1.0007622241973877,0.0,0.0,0.0,51.03993225097656,-2.675854206085205,7.7725419998168945,-9238.3291015625,0
2041.7709999999988,-0.02359858900308609,0.02736733667552471,-0.00018190934497397393,0.0,0.0,0.0,0.0,9.572886483510956e-05,0.0027716215699911118,-0.0005833653267472982,0.9984447956085205,0.0,0.0,0.0,51.03823471069336,-2.6771626472473145,7.785628795623779,-9238.0224609375,0
2051.682999999999,-0.023582179099321365,0.027294084429740906,-0.00021870258206035942,0.0,0.0,0.0,0.0,0.0014458426740020514,-0.0043403650633990765,0.0035973130725324154,0.9978969097137451,0.0,0.0,0.0,51.04795455932617,-2.684687852859497,7.770642280578613,-9239.7822265625,0
2061.602999999999,-0.023612717166543007,0.027346283197402954,-0.00018781641847454011,0.0,0.0,0.0,0.0,0.0029753772541880608,-0.0011277622543275356,0.0023433093447238207,0.997275710105896,0.0,0.0,0.0,51.041072845458984,-2.6818125247955322,7.777693271636963,-9238.5361328125,0
2071.5099999999984,-0.023601481691002846,0.027245324105024338,-0.00022644772252533585,0.0,0.0,0.0,0.0,-0.0032955354545265436,-0.0018267654813826084,0.0030211741104722023,0.9979839324951172,0.0,0.0,0.0,51.04454040527344,-2.696427822113037,7.7630815505981445,-9239.1640625,0
2081.414999999999,-0.02355312556028366,0.02729148417711258,-0.0001746701600495726,0.0,0.0,0.0,0.0,0.00226006587035954,0.004702107049524784,-0.004800473805516958,0.9988207221031189,0.0,0.0,0.0,51.04001998901367,-2.7016725540161133,7.785806655883789,-9238.345703125,0
2091.325999999999,-0.02353259176015854,0.0272268857806921,-0.00020707152725663036,0.0,0.0,0.0,0.0,-0.0002737339527811855,0.0031706178560853004,0.001820666715502739,0.9995665550231934,0.0,0.0,0.0,51.045223236083984,-2.703132152557373,7.775706768035889,-9239.2880859375,0
2101.2419999999984,-0.023535681888461113,0.02729049138724804,-0.0001647175377001986,0.0,0.0,0.0,0.0,0.003372673410922289,-0.0032389976549893618,0.00027248013066127896,0.9985863566398621,0.0,0.0,0.0,51.037025451660156,-2.69818115234375,7.773370265960693,-9237.8037109375,0
2111.1499999999996,-0.023514006286859512,0.027218161150813103,-0.00019653433992061764,0.0,0.0,0.0,0.0,-0.0011038531083613634,0.00023639602295588702,0.001430542441084981,0.9970070123672485,0.0,0.0,0.0,51.037601470947266,-2.6997568607330322,7.761012077331543,-9237.9072265625,0
2121.0609999999997,-0.023555338382720947,0.02734043262898922,-0.00013861432671546936,0.0,0.0,0.0,0.0,0.002158765448257327,0.0025937785394489765,-0.0013058525510132313,1.0011614561080933,0.0,0.0,0.0,51.02825164794922,-2.6797595024108887,7.781859874725342,-9236.2158203125,0
2130.973,-0.023494629189372063,0.027297131717205048,-0.00021790024766232818,0.0,0.0,0.0,0.0,0.0017801246140152216,0.00016910405247472227,-0.0017808879492804408,0.9992036819458008,0.0,0.0,0.0,51.03409194946289,-2.6908464431762695,7.769080638885498,-9237.2724609375,0
2140.8909999999996,-0.02355002611875534,0.02737313136458397,-0.00018731385353021324,0.0,0.0,0.0,0.0,-0.001645750948227942,0.0022290931083261967,0.00770491361618042,0.998433530330658,0.0,0.0,0.0,51.02737808227539,-2.679763078689575,7.776357650756836,-9236.056640625,0
2150.7959999999985,-0.023535916581749916,0.0272960364818573,-0.00021008052863180637,0.0,0.0,0.0,0.0,0.001519865239970386,0.0014741687336936593,-0.0015986795770004392,0.9978099465370178,0.0,0.0,0.0,51.032222747802734,-2.684774160385132,7.766679763793945,-9236.93359375,0
2160.7069999999985,-0.023543991148471832,0.027428453788161278,-0.00013546123227570206,0.0,0.0,0.0,0.0,-0.0006478804280050099,0.005386372562497854,-0.002688217908143997,1.0001215934753418,0.0,0.0,0.0,51.02984619140625,-2.679842710494995,7.776599884033203,-9236.50390625,0
2170.619999999999,-0.02349255606532097,0.02735857665538788,-0.0002038269303739071,0.0,0.0,0.0,0.0,-0.0014234832488000393,0.0017954361392185092,0.0008914406062103808,0.9979503750801086,0.0,0.0,0.0,51.03142166137695,-2.6859934329986572,7.755436420440674,-9236.7890625,0
