timestamp,stateEstimate.x,stateEstimate.y,stateEstimate.z,controller.cmd_thrust,controller.cmd_roll,controller.cmd_pitch,controller.cmd_yaw,controller.r_roll,controller.r_pitch,controller.r_yaw,controller.accelz,controller.actuatorThrust,controller.roll,controller.pitch,controller.yaw,controller.rollRate,controller.pitchRate,controller.yawRate,controller.ctr_yaw
0.0,0.037456709891557693,0.018162909895181656,0.0009525423520244658,0.0,0.0,0.0,0.0,-0.0017238821601495147,-0.005987475160509348,-0.0011844104155898094,0.9995134472846985,0.0,0.0,0.0,-6.681983470916748,1.5824551582336426,5.80689811706543,1209.4522705078125,0
9.90899999999965,0.03742820769548416,0.01819726452231407,0.0009603271610103548,0.0,0.0,0.0,0.0,0.0002011970354942605,0.0016845619538798928,0.003412710502743721,1.001102089881897,0.0,0.0,0.0,-6.67590856552124,1.5859960317611694,5.81182861328125,1208.3526611328125,0
19.820999999999913,0.03740821033716202,0.018148180097341537,0.0009663500241003931,0.0,0.0,0.0,0.0,-0.001532812137156725,0.003146698232740164,-0.0016796750715002418,0.9995597004890442,0.0,0.0,0.0,-6.68914794921875,1.5803158283233643,5.809133052825928,1210.7491455078125,0
29.733000000000175,0.037411585450172424,0.018176183104515076,0.0009262324310839176,0.0,0.0,0.0,0.0,0.0013271773932501674,-0.0005979578709229827,-0.0030060657300055027,1.0002325773239136,0.0,0.0,0.0,-6.6832756996154785,1.5846136808395386,5.804257392883301,1209.68603515625,0
39.64799999999923,0.037347663193941116,0.018157463520765305,0.0009262701496481895,0.0,0.0,0.0,0.0,0.0035419000778347254,-0.0021733150351792574,0.00225455267354846,0.9991377592086792,0.0,0.0,0.0,-6.683437347412109,1.580797791481018,5.794344425201416,1209.7154541015625,0
49.556000000000495,0.03731335699558258,0.018191002309322357,0.0009330364991910756,0.0,0.0,0.0,0.0,0.0024909009225666523,0.0013335889670997858,-0.003969009965658188,0.9988199472427368,0.0,0.0,0.0,-6.6822509765625,1.5880986452102661,5.791896820068359,1209.5006103515625,0
59.46600000000035,0.03729811683297157,0.018153509125113487,0.0009405245073139668,0.0,0.0,0.0,0.0,0.0025241454131901264,0.0007170441676862538,0.00192925741430372,0.9993432760238647,0.0,0.0,0.0,-6.684088706970215,1.5796523094177246,5.786566734313965,1209.8333740234375,0
69.37799999999879,0.03726993501186371,0.018195994198322296,0.0009409317863173783,0.0,0.0,0.0,0.0,0.00011827378330053762,-0.002901083556935191,0.0006631434662267566,0.9999998807907104,0.0,0.0,0.0,-6.676189422607422,1.5731643438339233,5.774753570556641,1208.4034423828125,0
79.28899999999885,0.03733619675040245,0.018116215243935585,0.0009605205850675702,0.0,0.0,0.0,0.0,0.003682537470012903,-0.004464746918529272,0.0011213385732844472,0.9997711181640625,0.0,0.0,0.0,-6.691075325012207,1.565922737121582,5.793213367462158,1211.0980224609375,0
89.19999999999891,0.037359293550252914,0.01820140890777111,0.0009097435977309942,0.0,0.0,0.0,0.0,-5.0564634875627235e-05,-0.0028013032861053944,-0.0011273230193182826,0.999206006526947,0.0,0.0,0.0,-6.68447208404541,1.563543438911438,5.795125961303711,1209.9027099609375,0
99.11099999999897,0.0372951440513134,0.018171383067965508,0.0009037475101649761,0.0,0.0,0.0,0.0,-0.00575345940887928,-0.0038638797122985125,-0.0025312667712569237,0.9985852837562561,0.0,0.0,0.0,-6.678053379058838,1.5647085905075073,5.797178745269775,1208.740966796875,0
109.02800000000025,0.037303291261196136,0.018229704350233078,0.000856483296956867,0.0,0.0,0.0,0.0,-0.0025732521899044514,-0.0005769573035649955,-0.00021535395353566855,0.9980549812316895,0.0,0.0,0.0,-6.672438144683838,1.5701172351837158,5.796808242797852,1207.724609375,0
118.93499999999949,0.03733303025364876,0.018144462257623672,0.0008518839604221284,0.0,0.0,0.0,0.0,-0.001996605424210429,-0.0006065639317966998,0.0008735669543966651,0.9991434216499329,0.0,0.0,0.0,-6.6744513511657715,1.564259648323059,5.803681373596191,1208.0889892578125,0
128.85099999999875,0.037343889474868774,0.018217066302895546,0.0008060509571805596,0.0,0.0,0.0,0.0,0.001686791772954166,-0.00029597553657367826,-0.001077982597053051,1.0003483295440674,0.0,0.0,0.0,-6.667139530181885,1.5673292875289917,5.795322418212891,1206.7655029296875,0
138.7579999999998,0.037369389086961746,0.018102798610925674,0.0007873234571889043,0.0,0.0,0.0,0.0,-3.3917131077032536e-05,-0.0002126652398146689,-0.00329498085193336,0.9991036057472229,0.0,0.0,0.0,-6.678993225097656,1.5576502084732056,5.805850982666016,1208.9110107421875,0
148.67399999999907,0.03736976906657219,0.01817331835627556,0.0007533861789852381,0.0,0.0,0.0,0.0,0.0015783262206241488,0.0037239762023091316,-0.000528606993611902,0.998460054397583,0.0,0.0,0.0,-6.6731438636779785,1.558126449584961,5.795390605926514,1207.8521728515625,0
158.57999999999993,0.03736346215009689,0.018095713108778,0.0007356344140134752,0.0,0.0,0.0,0.0,-0.00041839954792521894,-0.0010031071724370122,-0.0025732351932674646,1.0006769895553589,0.0,0.0,0.0,-6.674655914306641,1.5480715036392212,5.785147190093994,1208.1259765625,0
168.4989999999998,0.03736565634608269,0.018178941681981087,0.0006983847124502063,0.0,0.0,0.0,0.0,0.0026718752924352884,-0.003048771293833852,-0.001003635348752141,0.9998485445976257,0.0,0.0,0.0,-6.669149398803711,1.5492421388626099,5.7801008224487305,1207.1292724609375,0
178.40200000000004,0.03737768530845642,0.018146716058254242,0.0007083026575855911,0.0,0.0,0.0,0.0,-8.535741653759032e-05,0.0036377813667058945,-0.0002443247358314693,0.9999322295188904,0.0,0.0,0.0,-6.679825782775879,1.5530234575271606,5.790721893310547,1209.061767578125,0
188.3249999999989,0.0373518206179142,0.018201544880867004,0.0007025892846286297,0.0,0.0,0.0,0.0,0.0004693329392466694,-0.0012706401757895947,0.004085520748049021,0.9995551705360413,0.0,0.0,0.0,-6.672952651977539,1.55052649974823,5.774467468261719,1207.817626953125,0
198.22599999999875,0.03745537996292114,0.018124431371688843,0.000723854114767164,0.0,0.0,0.0,0.0,-0.002177773742005229,-0.005538568366318941,0.0001988752919714898,1.00115966796875,0.0,0.0,0.0,-6.675468444824219,1.5426559448242188,5.787937164306641,1208.2730712890625,0
208.14199999999983,0.03743290156126022,0.018169289454817772,0.0007177226943895221,0.0,0.0,0.0,0.0,0.001948830671608448,0.0022713327780365944,-0.0026618842966854572,1.0011407136917114,0.0,0.0,0.0,-6.669069290161133,1.5438377857208252,5.797511577606201,1207.11474609375,0
218.04999999999927,0.037472955882549286,0.018113872036337852,0.000732965359929949,0.0,0.0,0.0,0.0,-0.0006368238246068358,0.0028212973847985268,0.0009316848590970039,1.0023397207260132,0.0,0.0,0.0,-6.673584938049316,1.5417630672454834,5.802764415740967,1207.93212890625,0
227.97799999999916,0.03744436427950859,0.01815458945930004,0.0007396977161988616,0.0,0.0,0.0,0.0,-0.001978693762794137,-0.0005664883647114038,0.0012227235129103065,1.0016720294952393,0.0,0.0,0.0,-6.666323184967041,1.5420081615447998,5.79885721206665,1206.61767578125,0
237.8729999999996,0.03742102533578873,0.01814253255724907,0.0007616371149197221,0.0,0.0,0.0,0.0,0.00313436146825552,-0.0026910731103271246,0.001320366282016039,1.0026506185531616,0.0,0.0,0.0,-6.67867374420166,1.550930380821228,5.7796406745910645,1208.8531494140625,0
247.78999999999905,0.037375085055828094,0.018164969980716705,0.0007916474132798612,0.0,0.0,0.0,0.0,0.0031355712562799454,0.004153532907366753,-0.002278634114190936,1.001617670059204,0.0,0.0,0.0,-6.671173095703125,1.5467674732208252,5.775078773498535,1207.4954833984375,0
257.6939999999995,0.03740181773900986,0.01812109723687172,0.0008266788790933788,0.0,0.0,0.0,0.0,-2.8469807148212567e-05,-0.0010824427008628845,0.0001223958097398281,1.0000979900360107,0.0,0.0,0.0,-6.682750225067139,1.546067237854004,5.76565408706665,1209.591064453125,0
267.60999999999876,0.03740358352661133,0.018185779452323914,0.0008112142677418888,0.0,0.0,0.0,0.0,-0.0010144246043637395,0.0011105160228908062,-0.0019266529707238078,1.000220775604248,0.0,0.0,0.0,-6.676226615905762,1.5388338565826416,5.759390354156494,1208.4102783203125,0
277.5159999999996,0.03741168975830078,0.018196724355220795,0.0008645435445941985,0.0,0.0,0.0,0.0,0.00030888267792761326,0.001687391777522862,0.0006896943086758256,1.001654028892517,0.0,0.0,0.0,-6.676850318908691,1.552011251449585,5.75827169418335,1208.523193359375,0
287.4349999999995,0.03737292066216469,0.01822403445839882,0.00089479103917256,0.0,0.0,0.0,0.0,0.0004038599436171353,-0.004276277497410774,-0.002187865786254406,1.0022698640823364,0.0,0.0,0.0,-6.670009613037109,1.5522003173828125,5.746379375457764,1207.284912109375,0
297.33899999999994,0.03731909766793251,0.018194889649748802,0.0009175820159725845,0.0,0.0,0.0,0.0,0.002118106000125408,0.0070210229605436325,-0.003047220641747117,0.999234676361084,0.0,0.0,0.0,-6.682818412780762,1.552059531211853,5.745058536529541,1209.6033935546875,0
307.2569999999996,0.03728548809885979,0.018198005855083466,0.0009260201477445662,0.0,0.0,0.0,0.0,0.0002837351057678461,-0.004472943022847176,-0.001257698517292738,0.9985935091972351,0.0,0.0,0.0,-6.677434921264648,1.5491294860839844,5.729691982269287,1208.62890625,0
317.16100000000006,0.03726039454340935,0.018178071826696396,0.000959539320319891,0.0,0.0,0.0,0.0,-0.0035370506811887026,0.00272111757658422,-0.0007759423460811377,0.9983386397361755,0.0,0.0,0.0,-6.670439720153809,1.5467777252197266,5.7309393882751465,1207.36279296875,0
327.08300000000054,0.037246089428663254,0.018228037282824516,0.0009564401698298752,0.0,0.0,0.0,0.0,-0.001607134472578764,0.0007912697619758546,-0.0018698694184422493,0.9994289875030518,0.0,0.0,0.0,-6.670400142669678,1.567297339439392,5.7228899002075195,1207.3555908203125,0
336.9840000000004,0.03723350167274475,0.018146563321352005,0.0009693388128653169,0.0,0.0,0.0,0.0,-0.00033776022610254586,0.0007580292876809835,0.0009161856141872704,0.9995291829109192,0.0,0.0,0.0,-6.682877540588379,1.5565640926361084,5.725411891937256,1209.6141357421875,0
346.91200000000026,0.037215955555438995,0.018161913380026817,0.00095146190142259,0.0,0.0,0.0,0.0,-0.0017214606050401926,0.0018740871455520391,-0.0029413553420454264,0.9984599351882935,0.0,0.0,0.0,-6.675995826721191,1.5516806840896606,5.724015235900879,1208.3685302734375,0
356.8069999999989,0.037269506603479385,0.018084676936268806,0.0009864283492788672,0.0,0.0,0.0,0.0,0.006244315300136805,-0.0010035450104624033,0.0008307637181133032,0.9986597895622253,0.0,0.0,0.0,-6.692389965057373,1.5494180917739868,5.732475757598877,1211.3359375,0
366.72699999999895,0.03727100044488907,0.018162628635764122,0.0009693988249637187,0.0,0.0,0.0,0.0,-0.0008045840659178793,-0.000587484217248857,-0.0034787910990417004,1.0004303455352783,0.0,0.0,0.0,-6.68493127822876,1.5405515432357788,5.731939315795898,1209.9859619140625,0
376.6299999999992,0.03727608174085617,0.018110407516360283,0.0009908480569720268,0.0,0.0,0.0,0.0,-0.00045468047028407454,0.0005374464089982212,0.0009261687519028783,1.0025289058685303,0.0,0.0,0.0,-6.679400444030762,1.537182331085205,5.726680755615234,1208.9847412109375,0
386.5550000000003,0.03735688701272011,0.018281452357769012,0.0008979623671621084,0.0,0.0,0.0,0.0,-0.0017369840061292052,0.000848058785777539,0.001558211981318891,1.0008114576339722,0.0,0.0,0.0,-6.679889678955078,1.5811254978179932,5.742031097412109,1209.0732421875,0
396.4519999999993,0.03733867034316063,0.018177619203925133,0.0008825271506793797,0.0,0.0,0.0,0.0,-0.0015088226646184921,-0.0010414303978905082,-0.000747598591260612,1.0012201070785522,0.0,0.0,0.0,-6.679096698760986,1.5708444118499756,5.738885879516602,1208.9296875,0
406.3729999999996,0.037390559911727905,0.01831100322306156,0.0008078567334450781,0.0,0.0,0.0,0.0,-0.0033505812752991915,-0.0014375138562172651,-0.0001893869775813073,1.0001033544540405,0.0,0.0,0.0,-6.682620525360107,1.6043685674667358,5.745265007019043,1209.5675048828125,0
416.27399999999943,0.03738511726260185,0.018151169642806053,0.0007714731036685407,0.0,0.0,0.0,0.0,8.975396485766396e-05,0.0002817175700329244,-5.83884866500739e-05,0.9973087310791016,0.0,0.0,0.0,-6.694549560546875,1.5928175449371338,5.753529071807861,1211.726806640625,0
426.2049999999999,0.03741680830717087,0.018282653763890266,0.0007155033526942134,0.0,0.0,0.0,0.0,0.002583317691460252,-0.0010090350406244397,0.00011337966861901805,0.9976127743721008,0.0,0.0,0.0,-6.694443702697754,1.6221565008163452,5.751411437988281,1211.7076416015625,0
436.09699999999975,0.03738223388791084,0.018156668171286583,0.0006765414727851748,0.0,0.0,0.0,0.0,0.0007056808099150658,-0.0028314257506281137,0.006207610480487347,0.9988884925842285,0.0,0.0,0.0,-6.70677375793457,1.6070154905319214,5.757026672363281,1213.9393310546875,0
446.0159999999996,0.03735104575753212,0.018200896680355072,0.0006616450264118612,0.0,0.0,0.0,0.0,-0.002385928062722087,-0.004170762840658426,0.0005232825060375035,0.9963150024414062,0.0,0.0,0.0,-6.699345111846924,1.5986281633377075,5.751689434051514,1212.5947265625,0
455.9210000000003,0.03734717145562172,0.018100250512361526,0.0006348742172122002,0.0,0.0,0.0,0.0,0.0016853117849677801,0.0023848481941968203,-0.0014733916614204645,0.9974061846733093,0.0,0.0,0.0,-6.6993513107299805,1.5973577499389648,5.762576580047607,1212.595947265625,0
465.84699999999975,0.03731726482510567,0.018163295462727547,0.0006173148867674172,0.0,0.0,0.0,0.0,-0.00010910344281001016,-0.0038808919489383698,0.0024400679394602776,0.9992872476577759,0.0,0.0,0.0,-6.693080425262451,1.5977632999420166,5.7538933753967285,1211.4608154296875,0
475.7430000000004,0.03730529174208641,0.018069863319396973,0.0005916724912822247,0.0,0.0,0.0,0.0,0.000623170577455312,0.0056536439806222916,-0.006269612815231085,1.0006978511810303,0.0,0.0,0.0,-6.702731132507324,1.5926051139831543,5.760566234588623,1213.207763671875,0
485.66799999999967,0.03728123754262924,0.018146483227610588,0.0005656701396219432,0.0,0.0,0.0,0.0,0.00018510702648200095,-0.0008284877403639257,0.004912900272756815,0.9981492161750793,0.0,0.0,0.0,-6.698050022125244,1.582024097442627,5.741006851196289,1212.3604736328125,0
495.5659999999989,0.037314921617507935,0.018076829612255096,0.0005622804164886475,0.0,0.0,0.0,0.0,0.002431349828839302,0.0008799838833510876,0.0037180446088314056,1.0001542568206787,0.0,0.0,0.0,-6.691049098968506,1.5817114114761353,5.7316694259643555,1211.0931396484375,0
505.4889999999996,0.037282153964042664,0.01815662905573845,0.0005474278004840016,0.0,0.0,0.0,0.0,0.0005855767522007227,-0.001439796993508935,0.0010482176439836621,0.9993021488189697,0.0,0.0,0.0,-6.6850690841674805,1.5745857954025269,5.717529773712158,1210.010986328125,0
515.387999999999,0.03724861517548561,0.01811966300010681,0.0005382690578699112,0.0,0.0,0.0,0.0,0.0016278503462672234,-0.0020197227131575346,0.0002510622434783727,0.998765766620636,0.0,0.0,0.0,-6.685234546661377,1.572424054145813,5.717126846313477,1210.0408935546875,0
525.3089999999993,0.037187959998846054,0.018180014565587044,0.000551594712305814,0.0,0.0,0.0,0.0,-0.0007459454936906695,-0.0062745134346187115,-0.0008003862458281219,1.000229835510254,0.0,0.0,0.0,-6.6776323318481445,1.561565637588501,5.714325428009033,1208.6646728515625,0
535.2119999999995,0.03727688267827034,0.018129704520106316,0.000582888547796756,0.0,0.0,0.0,0.0,0.0005443498375825584,-0.0028432500548660755,0.0009912976529449224,0.9995058178901672,0.0,0.0,0.0,-6.691225051879883,1.5633552074432373,5.741914749145508,1211.125,0
545.1270000000004,0.03724072873592377,0.018184876069426537,0.0005682935006916523,0.0,0.0,0.0,0.0,-0.003762788837775588,0.0012795459479093552,-0.0025508205872029066,1.0011495351791382,0.0,0.0,0.0,-6.6854681968688965,1.5574586391448975,5.7484002113342285,1210.0830078125,0
555.0339999999997,0.03728403523564339,0.018150195479393005,0.0005942575517110527,0.0,0.0,0.0,0.0,0.0034966517705470324,-0.0001822553458623588,0.0010184193961322308,0.9981800317764282,0.0,0.0,0.0,-6.701111316680908,1.5657135248184204,5.756847858428955,1212.9144287109375,0
564.9529999999995,0.037248220294713974,0.018212497234344482,0.0005860545788891613,0.0,0.0,0.0,0.0,0.000512251106556505,0.000196011271327734,0.0016431709518656135,0.9987488985061646,0.0,0.0,0.0,-6.693863391876221,1.5605294704437256,5.757404804229736,1211.6026611328125,0
574.8619999999992,0.03727203607559204,0.01815682277083397,0.000599097867961973,0.0,0.0,0.0,0.0,-0.0015992721309885383,0.005087726749479771,0.00018166819063480943,1.000458836555481,0.0,0.0,0.0,-6.708019256591797,1.5557329654693604,5.769092559814453,1214.1649169921875,0
584.771999999999,0.03724318742752075,0.018224582076072693,0.0005813139141537249,0.0,0.0,0.0,0.0,-0.00042990720248781145,0.004955232609063387,-0.000461123650893569,0.9997498393058777,0.0,0.0,0.0,-6.700502395629883,1.5528219938278198,5.749619960784912,1212.80419921875,0
594.6790000000001,0.03735095635056496,0.018117396160960197,0.0005973738734610379,0.0,0.0,0.0,0.0,-0.00019442025222815573,-0.003531582187861204,0.0017162710428237915,0.9991487860679626,0.0,0.0,0.0,-6.702683925628662,1.5452276468276978,5.761210918426514,1213.1990966796875,0
604.5929999999989,0.03731783479452133,0.018181145191192627,0.00059194874484092,0.0,0.0,0.0,0.0,-0.0001936457265401259,-0.0012998185120522976,7.695669410168193e-06,0.9982376098632812,0.0,0.0,0.0,-6.6953043937683105,1.547675609588623,5.761703968048096,1211.863525390625,0
614.5059999999994,0.03731784597039223,0.0181445199996233,0.0006099085439927876,0.0,0.0,0.0,0.0,-0.002560919150710106,-0.0021459772251546383,0.0014550050254911184,0.9981244206428528,0.0,0.0,0.0,-6.707157611846924,1.548279047012329,5.764713287353516,1214.0087890625,0
624.4139999999989,0.03728053718805313,0.01819128915667534,0.00060682074399665,0.0,0.0,0.0,0.0,-0.0009773054625838995,0.0009916099952533841,-0.0011821052758023143,0.9995546340942383,0.0,0.0,0.0,-6.700349807739258,1.5495160818099976,5.763340473175049,1212.7767333984375,0
634.3249999999989,0.037401191890239716,0.01815789006650448,0.0006644314271397889,0.0,0.0,0.0,0.0,0.0019354918040335178,0.0004760073497891426,-0.002970445202663541,0.9989915490150452,0.0,0.0,0.0,-6.701662540435791,1.5554319620132446,5.787693500518799,1213.0142822265625,0
644.235999999999,0.03733202815055847,0.01817585714161396,0.0007050212007015944,0.0,0.0,0.0,0.0,0.0006829368649050593,0.0018767802976071835,0.0017564144218340516,0.99894779920578,0.0,0.0,0.0,-6.693783760070801,1.5528433322906494,5.779476642608643,1211.588134765625,0
654.146999999999,0.03741003945469856,0.018156135454773903,0.0007624370628036559,0.0,0.0,0.0,0.0,-0.001976915169507265,-9.051700180862099e-05,-0.0002448514278512448,0.9998292922973633,0.0,0.0,0.0,-6.695157051086426,1.5533745288848877,5.790541172027588,1211.8367919921875,0
664.0599999999995,0.03737807273864746,0.01819300837814808,0.0007620857795700431,0.0,0.0,0.0,0.0,-0.0017716437578201294,0.0059268358163535595,-0.00048710612463764846,0.999642550945282,0.0,0.0,0.0,-6.693351745605469,1.5687710046768188,5.784483432769775,1211.5101318359375,0
673.9699999999993,0.037409503012895584,0.01814672164618969,0.0007946391124278307,0.0,0.0,0.0,0.0,0.00045948123442940414,0.0009465954499319196,0.0006158656324259937,0.9971621632575989,0.0,0.0,0.0,-6.702601909637451,1.570640206336975,5.780206680297852,1213.1842041015625,0
683.8860000000004,0.03734782710671425,0.018130475655198097,0.0008157897391356528,0.0,0.0,0.0,0.0,0.0012342323316261172,0.0010143109830096364,-0.0011515800142660737,0.9990740418434143,0.0,0.0,0.0,-6.6954665184021,1.5683506727218628,5.778622627258301,1211.892822265625,0
693.7939999999999,0.03743501007556915,0.01812869869172573,0.0008928713505156338,0.0,0.0,0.0,0.0,0.000273926358204335,0.001223415369167924,0.002289044437929988,1.0003217458724976,0.0,0.0,0.0,-6.711217403411865,1.5754488706588745,5.791107654571533,1214.7437744140625,0
703.7039999999997,0.03739846870303154,0.018162362277507782,0.000907388748601079,0.0,0.0,0.0,0.0,-0.002527132397517562,0.0005440026870928705,-0.0015512999380007386,1.0006446838378906,0.0,0.0,0.0,-6.703793525695801,1.5764188766479492,5.78314208984375,1213.39990234375,0
713.6219999999994,0.03739460930228233,0.018118156120181084,0.0009364542202092707,0.0,0.0,0.0,0.0,-0.0005674923886545002,-0.0011745308293029666,0.0008512755739502609,0.9989800453186035,0.0,0.0,0.0,-6.716095447540283,1.5836944580078125,5.792203903198242,1215.626708984375,0
723.527,0.037402503192424774,0.018196195363998413,0.0009023430175147951,0.0,0.0,0.0,0.0,-0.0005982393631711602,0.003720940789207816,-0.004458114039152861,0.9974312782287598,0.0,0.0,0.0,-6.70932149887085,1.5791445970535278,5.786186218261719,1214.400634765625,0
733.4470000000001,0.03735523298382759,0.018192118033766747,0.0009334879578091204,0.0,0.0,0.0,0.0,0.0003689267614390701,0.002280918415635824,-0.0006744498386979103,0.999250054359436,0.0,0.0,0.0,-6.720334053039551,1.586775541305542,5.779037952423096,1216.393798828125,0
743.3500000000004,0.03729666769504547,0.01815994456410408,0.0009440191788598895,0.0,0.0,0.0,0.0,-0.0022486078087240458,-0.0019333342788740993,0.0004333662218414247,0.9995951056480408,0.0,0.0,0.0,-6.712923049926758,1.5898240804672241,5.775474548339844,1215.052490234375,0
753.268,0.03735154867172241,0.01814284175634384,0.0010055901948362589,0.0,0.0,0.0,0.0,0.0016183765837922692,-0.002510311547666788,0.0014104207511991262,0.9984941482543945,0.0,0.0,0.0,-6.724562168121338,1.6013041734695435,5.792522430419922,1217.1591796875,0
763.1720000000005,0.037328362464904785,0.01816771738231182,0.0009920613374561071,0.0,0.0,0.0,0.0,0.0009692109888419509,-0.0008966452442109585,0.0003240503428969532,0.9985981583595276,0.0,0.0,0.0,-6.717994689941406,1.598204255104065,5.788021564483643,1215.9703369140625,0
773.0879999999997,0.03730887174606323,0.01812640018761158,0.0010166674619540572,0.0,0.0,0.0,0.0,0.000721022195648402,0.0010816364083439112,-0.003587174927815795,0.9998155236244202,0.0,0.0,0.0,-6.711688041687012,1.6005083322525024,5.777276515960693,1214.828857421875,0
782.994999999999,0.03731095418334007,0.018206415697932243,0.0009860446443781257,0.0,0.0,0.0,0.0,-0.00024724597460590303,-0.0009793592616915703,0.0016180869424715638,1.0014336109161377,0.0,0.0,0.0,-6.705496788024902,1.600501298904419,5.761913776397705,1213.7083740234375,0
792.9179999999997,0.03732145205140114,0.01812228560447693,0.0009976306464523077,0.0,0.0,0.0,0.0,-0.0010019055334851146,-0.0029600521083921194,0.0017538582906126976,1.0026147365570068,0.0,0.0,0.0,-6.717530250549316,1.5943002700805664,5.760924816131592,1215.8863525390625,0
802.8169999999991,0.03734583035111427,0.018210632726550102,0.0009371824562549591,0.0,0.0,0.0,0.0,0.0019113721791654825,0.000587106216698885,-0.005614975467324257,0.9971908926963806,0.0,0.0,0.0,-6.710659027099609,1.596358060836792,5.752521991729736,1214.642578125,0
812.7340000000004,0.037313636392354965,0.018166320398449898,0.0009476709528826177,0.0,0.0,0.0,0.0,0.0009481913293711841,-0.00046279089292511344,0.000252357916906476,0.9967777132987976,0.0,0.0,0.0,-6.7039899826049805,1.596783995628357,5.75753116607666,1213.435546875,0
822.6399999999994,0.03731796517968178,0.018233109265565872,0.0008973386138677597,0.0,0.0,0.0,0.0,-0.00010141916573047638,0.0021204936783760786,0.0006228438578546047,0.9999557733535767,0.0,0.0,0.0,-6.697354316711426,1.593277096748352,5.75001859664917,1212.2344970703125,0
832.5619999999999,0.03731593117117882,0.018198011443018913,0.000916791264899075,0.0,0.0,0.0,0.0,-0.0019427298102527857,-0.005931719671934843,-0.0012629886623471975,0.9996131062507629,0.0,0.0,0.0,-6.7097907066345215,1.5955199003219604,5.74623441696167,1214.485595703125,0
842.4619999999995,0.037309423089027405,0.01825287938117981,0.0008678636513650417,0.0,0.0,0.0,0.0,0.002355253789573908,-0.0006682990351691842,0.002122589386999607,1.0006897449493408,0.0,0.0,0.0,-6.7025275230407715,1.5996049642562866,5.7516560554504395,1213.1708984375,0
852.3819999999996,0.03730836510658264,0.018165457993745804,0.0008634807891212404,0.0,0.0,0.0,0.0,-0.0032551258336752653,-0.0006128672976046801,-0.0019656748045235872,0.9996248483657837,0.0,0.0,0.0,-6.716756343841553,1.5969457626342773,5.754482746124268,1215.7462158203125,0
862.2849999999999,0.03730512037873268,0.018230566754937172,0.0008136358228512108,0.0,0.0,0.0,0.0,0.0010416762670502067,-0.0009296751813963056,0.0010193119524046779,1.0002518892288208,0.0,0.0,0.0,-6.709534168243408,1.594188928604126,5.753449440002441,1214.43896484375,0
872.2049999999999,0.037310343235731125,0.01813478395342827,0.0008028340525925159,0.0,0.0,0.0,0.0,0.002271085511893034,-0.0024304368998855352,-0.0032038071658462286,0.9990785717964172,0.0,0.0,0.0,-6.721395015716553,1.5895239114761353,5.757430553436279,1216.5858154296875,0
882.1080000000002,0.03730033338069916,0.018208986148238182,0.0007545591215603054,0.0,0.0,0.0,0.0,0.002600773936137557,0.0020779708866029978,0.0024605721700936556,1.001861333847046,0.0,0.0,0.0,-6.7161970138549805,1.5822919607162476,5.758054733276367,1215.64501953125,0
892.0209999999988,0.03732116520404816,0.01812930777668953,0.0007545176194980741,0.0,0.0,0.0,0.0,-0.0019681602716445923,0.003975267987698317,-0.0006728588487021625,0.9998624324798584,0.0,0.0,0.0,-6.727950572967529,1.5785993337631226,5.752656936645508,1217.7723388671875,0
901.9429999999993,0.03730720281600952,0.01820678636431694,0.0007271502981893718,0.0,0.0,0.0,0.0,0.002236815169453621,-0.0011959257535636425,-0.0009322126861661673,1.000030279159546,0.0,0.0,0.0,-6.7221360206604,1.5772680044174194,5.7385687828063965,1216.719970703125,0
911.8509999999987,0.037357479333877563,0.018100515007972717,0.0007243277505040169,0.0,0.0,0.0,0.0,0.000971107860095799,0.0013008955866098404,-0.0009955005953088403,0.9999167919158936,0.0,0.0,0.0,-6.735596656799316,1.5673682689666748,5.754707336425781,1219.1563720703125,0
921.7559999999994,0.037340953946113586,0.018168790265917778,0.0006992758717387915,0.0,0.0,0.0,0.0,0.002306838519871235,-0.0023218393325805664,0.005188166629523039,0.9984444975852966,0.0,0.0,0.0,-6.729043960571289,1.5668292045593262,5.749659538269043,1217.9703369140625,0
931.6700000000001,0.03737309202551842,0.018085835501551628,0.0007002749480307102,0.0,0.0,0.0,0.0,-0.0003057696740143001,0.004610491916537285,0.002072331728413701,0.9982405304908752,0.0,0.0,0.0,-6.736011028289795,1.559342622756958,5.763978004455566,1219.2313232421875,0
941.5759999999991,0.03734452277421951,0.018149349838495255,0.000689920736476779,0.0,0.0,0.0,0.0,0.00012021552538499236,-0.005533937830477953,-0.0014920526882633567,0.9982261061668396,0.0,0.0,0.0,-6.7290167808532715,1.5583183765411377,5.739602088928223,1217.9654541015625,0
951.4889999999996,0.03738009184598923,0.01806413009762764,0.0006880612345412374,0.0,0.0,0.0,0.0,0.0012136483564972878,0.0016200777608901262,0.0033750920556485653,0.9961281418800354,0.0,0.0,0.0,-6.736617565155029,1.5500459671020508,5.766345500946045,1219.341064453125,0
961.3989999999994,0.03735733777284622,0.01814645528793335,0.0006720810197293758,0.0,0.0,0.0,0.0,0.002250823425129056,-0.001538555254228413,-0.002279052045196295,0.9990440011024475,0.0,0.0,0.0,-6.728548526763916,1.5461229085922241,5.759894847869873,1217.8807373046875,0
971.3109999999997,0.03741602972149849,0.018030572682619095,0.0006611358257941902,0.0,0.0,0.0,0.0,0.0015209491830319166,-0.0025725087616592646,0.0013539181090891361,1.0024058818817139,0.0,0.0,0.0,-6.736761569976807,1.5341293811798096,5.778229713439941,1219.3671875,0
981.226999999999,0.03733693063259125,0.0180334635078907,0.0006918660365045071,0.0,0.0,0.0,0.0,0.0019779810681939125,-0.002889643656089902,-0.0024355289060622454,1.0010727643966675,0.0,0.0,0.0,-6.729788780212402,1.5304430723190308,5.767018795013428,1218.105224609375,0
991.137999999999,0.037405695766210556,0.01800648309290409,0.0007315578986890614,0.0,0.0,0.0,0.0,-0.001266499632038176,0.00015648207045160234,-0.00033854731009341776,1.0017037391662598,0.0,0.0,0.0,-6.729036331176758,1.5334919691085815,5.7835373878479,1217.968994140625,0
1001.0470000000005,0.037391338497400284,0.0181078240275383,0.0007174197235144675,0.0,0.0,0.0,0.0,-0.0009768514428287745,-0.003138298401609063,-0.0004071498988196254,0.9990622401237488,0.0,0.0,0.0,-6.722670078277588,1.5342094898223877,5.777202606201172,1216.816650390625,0
1010.9619999999995,0.03737126663327217,0.018055249005556107,0.0007214326760731637,0.0,0.0,0.0,0.0,0.0005935460794717073,0.001934632076881826,-0.0008402688545174897,0.9992478489875793,0.0,0.0,0.0,-6.724218845367432,1.5344743728637695,5.778591156005859,1217.0970458984375,0
1020.8670000000002,0.037310950458049774,0.01811254397034645,0.0007504979148507118,0.0,0.0,0.0,0.0,0.000540020817425102,0.0043542273342609406,3.718606967595406e-05,0.9986419081687927,0.0,0.0,0.0,-6.717498779296875,1.5347862243652344,5.771167278289795,1215.880615234375,0
1030.7870000000003,0.037399694323539734,0.018048109486699104,0.0007868398097343743,0.0,0.0,0.0,0.0,-0.0002860593958757818,7.597093645017594e-05,-0.0003724768466781825,0.9998636245727539,0.0,0.0,0.0,-6.718269348144531,1.5313671827316284,5.785269737243652,1216.02001953125,0
1040.6900000000005,0.037378039211034775,0.018112782388925552,0.0007651493651792407,0.0,0.0,0.0,0.0,0.0014346495736390352,0.0018908825004473329,-0.0031241662800312042,0.9992184042930603,0.0,0.0,0.0,-6.711771488189697,1.5307763814926147,5.779089450836182,1214.843994140625,0
1050.607,0.03732219338417053,0.018085578456521034,0.000767100544180721,0.0,0.0,0.0,0.0,0.002036632737144828,-0.0031144176609814167,0.0016276836395263672,1.0001460313796997,0.0,0.0,0.0,-6.7054524421691895,1.5316218137741089,5.767508506774902,1213.7001953125,0
1060.521999999999,0.03731599822640419,0.01818208210170269,0.0007314609829336405,0.0,0.0,0.0,0.0,0.0024323021061718464,0.007237998303025961,-0.0005906688165850937,0.9991654753684998,0.0,0.0,0.0,-6.69832706451416,1.526045322418213,5.761745929718018,1212.4105224609375,0
1070.4310000000005,0.037304870784282684,0.01816786453127861,0.000752423657104373,0.0,0.0,0.0,0.0,0.0004030750715173781,-0.005490349140018225,0.0007503203814849257,0.9986072182655334,0.0,0.0,0.0,-6.69761323928833,1.5243735313415527,5.757419586181641,1212.2813720703125,0
1080.3349999999991,0.037278275936841965,0.01823396049439907,0.0007302252342924476,0.0,0.0,0.0,0.0,-0.0029498182702809572,-0.0014359871856868267,0.003527117893099785,1.0003581047058105,0.0,0.0,0.0,-6.690854072570801,1.5140807628631592,5.756319046020508,1211.057861328125,0
1090.2569999999996,0.03731611371040344,0.018156642094254494,0.0007394839776679873,0.0,0.0,0.0,0.0,-0.00418132496997714,0.0004558984946925193,-0.00026103464188054204,0.9989242553710938,0.0,0.0,0.0,-6.6903767585754395,1.5165010690689087,5.773636817932129,1210.9715576171875,0
1100.1630000000005,0.037290070205926895,0.018220875412225723,0.0007166927680373192,0.0,0.0,0.0,0.0,-0.00019541387155186385,0.0009765969589352608,-0.0004775519482791424,1.001347303390503,0.0,0.0,0.0,-6.683885097503662,1.524706244468689,5.762654781341553,1209.7965087890625,0
1110.08,0.0372990220785141,0.0181545652449131,0.0007234621443785727,0.0,0.0,0.0,0.0,-0.0010881172493100166,0.002779866335913539,-0.0021747543942183256,1.0008596181869507,0.0,0.0,0.0,-6.69567346572876,1.5213427543640137,5.772741794586182,1211.9302978515625,0
1119.9809999999998,0.03727446123957634,0.01821012608706951,0.0006967358640395105,0.0,0.0,0.0,0.0,-0.0028068034444004297,0.0020689810626208782,-0.001958613283932209,1.0007063150405884,0.0,0.0,0.0,-6.690568447113037,1.51885986328125,5.7555742263793945,1211.00634765625,0
1129.8979999999992,0.037285562604665756,0.01819937862455845,0.0007290692301467061,0.0,0.0,0.0,0.0,-6.646843394264579e-05,0.002707154955714941,0.0014126697788015008,1.000408411026001,0.0,0.0,0.0,-6.692051887512207,1.5296233892440796,5.758540630340576,1211.2747802734375,0
1139.8029999999999,0.03721821680665016,0.018221860751509666,0.0007527580019086599,0.0,0.0,0.0,0.0,0.0024726695846766233,0.004197238013148308,0.0017850019503384829,1.0018858909606934,0.0,0.0,0.0,-6.685323238372803,1.5294784307479858,5.751615047454834,1210.056884765625,0
1149.7219999999998,0.03724807873368263,0.018150992691516876,0.0007753534591756761,0.0,0.0,0.0,0.0,-0.0010510975262150168,-0.0025166103150695562,-0.0020541429985314608,1.0023576021194458,0.0,0.0,0.0,-6.700741291046143,1.520920991897583,5.7537360191345215,1212.8475341796875,0
1159.6260000000002,0.037239473313093185,0.0182357057929039,0.0007457511383108795,0.0,0.0,0.0,0.0,-0.00013262034917715937,0.0004153353220317513,-0.0006601198692806065,1.001549243927002,0.0,0.0,0.0,-6.694177150726318,1.511813759803772,5.743432521820068,1211.659423828125,0
1169.5439999999999,0.03724357858300209,0.018180271610617638,0.000768579076975584,0.0,0.0,0.0,0.0,-0.0022022926714271307,-0.0014841081574559212,-0.0007785290363244712,1.0014463663101196,0.0,0.0,0.0,-6.705630302429199,1.5151036977767944,5.7541399002075195,1213.732421875,0
1179.4490000000005,0.03723829984664917,0.018258236348628998,0.000736215035431087,0.0,0.0,0.0,0.0,0.0007236385135911405,-0.004708003252744675,0.0017746706726029515,1.000016450881958,0.0,0.0,0.0,-6.699270725250244,1.510940432548523,5.7522735595703125,1212.5814208984375,0
1189.3689999999988,0.0372735857963562,0.018215792253613472,0.0007686752360314131,0.0,0.0,0.0,0.0,0.0007654232322238386,0.00011615221592364833,0.0019866223447024822,1.0014328956604004,0.0,0.0,0.0,-6.6927995681762695,1.5048953294754028,5.756622791290283,1211.41015625,0
1199.2709999999988,0.03725873678922653,0.018269343301653862,0.0007419877802021801,0.0,0.0,0.0,0.0,0.0004400775069370866,0.0034678499214351177,-0.001727421535179019,1.0016134977340698,0.0,0.0,0.0,-6.685722827911377,1.5064361095428467,5.76016092300415,1210.1292724609375,0
1209.190999999999,0.0372580960392952,0.01822507753968239,0.0007671875646337867,0.0,0.0,0.0,0.0,0.0017533493228256702,0.002728465013206005,9.118849266087636e-05,1.0009801387786865,0.0,0.0,0.0,-6.699528694152832,1.503575325012207,5.763110160827637,1212.6280517578125,0
1219.0990000000002,0.03724272549152374,0.018277496099472046,0.0007455555023625493,0.0,0.0,0.0,0.0,-0.0025466473307460546,0.00027172736008651555,-0.0004588729643728584,1.0001633167266846,0.0,0.0,0.0,-6.692476749420166,1.4956729412078857,5.746931076049805,1211.3516845703125,0
1229.0159999999996,0.03728574141860008,0.01821843907237053,0.0007820221944712102,0.0,0.0,0.0,0.0,0.0017144072335213423,0.0006352512282319367,-0.0019678683020174503,0.9988201856613159,0.0,0.0,0.0,-6.692049980163574,1.496755599975586,5.760796070098877,1211.2744140625,0
1238.9189999999999,0.03727307543158531,0.01827131398022175,0.0007598698139190674,0.0,0.0,0.0,0.0,0.001778831472620368,-0.002548918593674898,-0.0006662479718215764,1.0002777576446533,0.0,0.0,0.0,-6.685903072357178,1.493774175643921,5.752403736114502,1210.161865234375,0
1248.839,0.03721197322010994,0.018236348405480385,0.0007685372256673872,0.0,0.0,0.0,0.0,-0.0012227736879140139,0.0006390769267454743,0.0018168931128457189,1.00091552734375,0.0,0.0,0.0,-6.678409099578857,1.4877890348434448,5.757661819458008,1208.8052978515625,0
1258.7439999999988,0.037162669003009796,0.018237262964248657,0.0007707352051511407,0.0,0.0,0.0,0.0,0.0007608567248098552,0.0025356789119541645,0.002046111971139908,0.9996345639228821,0.0,0.0,0.0,-6.671849250793457,1.4884251356124878,5.750600337982178,1207.6180419921875,0
1268.6669999999995,0.03709852695465088,0.018200645223259926,0.0007795950514264405,0.0,0.0,0.0,0.0,0.0025812843814492226,-0.0026598640251904726,0.0021304155234247446,1.000852346420288,0.0,0.0,0.0,-6.663702487945557,1.4867902994155884,5.747043609619141,1206.143310546875,0
1278.562,0.03706277534365654,0.018288344144821167,0.0007853209390304983,0.0,0.0,0.0,0.0,0.0005250169197097421,-0.0038020804058760405,-0.0004955586045980453,1.0001920461654663,0.0,0.0,0.0,-6.656795024871826,1.5276787281036377,5.752711296081543,1204.8931884765625,0
1288.4899999999998,0.03699997439980507,0.018256133422255516,0.0007950898143462837,0.0,0.0,0.0,0.0,-0.0027548535726964474,-0.0016392418183386326,-0.0041337511502206326,1.0013982057571411,0.0,0.0,0.0,-6.6506218910217285,1.518025517463684,5.748885154724121,1203.7757568359375,0
1298.3850000000002,0.036962736397981644,0.018322626128792763,0.0007998286164365709,0.0,0.0,0.0,0.0,0.0021935882978141308,-0.0014925043797120452,-0.00048345059622079134,0.9994481801986694,0.0,0.0,0.0,-6.6500163078308105,1.557037353515625,5.756460189819336,1203.666259765625,0
1308.3050000000003,0.03690098971128464,0.018292995169758797,0.0008101993007585406,0.0,0.0,0.0,0.0,-0.0017931387992575765,-0.003114748978987336,0.0035128563176840544,0.9978470802307129,0.0,0.0,0.0,-6.642724990844727,1.5503489971160889,5.741506576538086,1202.346435546875,0
1318.217999999999,0.03686191514134407,0.018305303528904915,0.000804950890596956,0.0,0.0,0.0,0.0,-0.0013384900521486998,0.001721818232908845,-0.0014876892091706395,0.996998131275177,0.0,0.0,0.0,-6.635340213775635,1.5492513179779053,5.746429920196533,1201.009765625,0
1328.1309999999994,0.03679998219013214,0.018273979425430298,0.0008117055986076593,0.0,0.0,0.0,0.0,0.002734790788963437,-0.002224958036094904,-0.0013733613304793835,0.9998270273208618,0.0,0.0,0.0,-6.628751277923584,1.552168607711792,5.7298712730407715,1199.817138671875,0
1338.0329999999994,0.03679214417934418,0.01833239011466503,0.0007880233461037278,0.0,0.0,0.0,0.0,0.0012242213124409318,0.00418916204944253,-0.0035547525621950626,0.9992787837982178,0.0,0.0,0.0,-6.626979351043701,1.5910460948944092,5.747706413269043,1199.4964599609375,0
1347.9560000000001,0.036731429398059845,0.01830865629017353,0.0007897028117440641,0.0,0.0,0.0,0.0,-0.003345089266076684,0.0003862316079903394,-0.00047440541675314307,0.9995739459991455,0.0,0.0,0.0,-6.619792461395264,1.586509108543396,5.739302635192871,1198.195556640625,0
1357.8529999999992,0.03678862005472183,0.018366338685154915,0.0007112452876754105,0.0,0.0,0.0,0.0,-0.002201830269768834,-0.000824713904876262,0.0008170490618795156,0.9998131990432739,0.0,0.0,0.0,-6.6226806640625,1.6326794624328613,5.778714179992676,1198.7183837890625,0
1367.7749999999996,0.03673641383647919,0.018347730860114098,0.0007056950125843287,0.0,0.0,0.0,0.0,-0.002062198705971241,0.0017331610433757305,-0.0005050378968007863,1.0003204345703125,0.0,0.0,0.0,-6.615810394287109,1.6292027235031128,5.771956443786621,1197.4747314453125,0
1377.6759999999995,0.03678344190120697,0.01839243434369564,0.0006396995740942657,0.0,0.0,0.0,0.0,-0.003748479764908552,0.0010925668757408857,0.0020874273031949997,0.9996480941772461,0.0,0.0,0.0,-6.618621826171875,1.6683775186538696,5.797722339630127,1197.983642578125,0
1387.5959999999995,0.03673526272177696,0.018379200249910355,0.0006292571779340506,0.0,0.0,0.0,0.0,-0.00057254359126091,0.0007131962338462472,0.0007838031742721796,1.0001734495162964,0.0,0.0,0.0,-6.611887454986572,1.6684656143188477,5.790462970733643,1196.7646484375,0
1397.4989999999998,0.036772746592760086,0.018427589908242226,0.0005756844766438007,0.0,0.0,0.0,0.0,-0.0012148749083280563,0.0043341671116650105,-0.001587856444530189,0.9996790289878845,0.0,0.0,0.0,-6.608194351196289,1.7007769346237183,5.810065269470215,1196.0963134765625,0
1407.4229999999989,0.036727603524923325,0.0184194203466177,0.0005611455999314785,0.0,0.0,0.0,0.0,-0.0011953783687204123,0.0016232815105468035,-0.0020270654931664467,0.9985285997390747,0.0,0.0,0.0,-6.602762222290039,1.6976211071014404,5.797767639160156,1195.113037109375,0
1417.3220000000001,0.036779843270778656,0.01849927008152008,0.0005101831047795713,0.0,0.0,0.0,0.0,-0.0012530246749520302,-0.0011839056387543678,-0.0008934729266911745,1.0006953477859497,0.0,0.0,0.0,-6.6074137687683105,1.7503695487976074,5.8155670166015625,1195.955078125,0
1427.2399999999998,0.03674142062664032,0.01849941350519657,0.0004912829608656466,0.0,0.0,0.0,0.0,0.0005485783913172781,-0.007155531086027622,0.0018520182929933071,1.001298189163208,0.0,0.0,0.0,-6.601420879364014,1.7539633512496948,5.812587261199951,1194.8702392578125,0
1437.1450000000004,0.03670240566134453,0.01849873922765255,0.0004732399247586727,0.0,0.0,0.0,0.0,0.0037412724923342466,0.0009783514542505145,-4.086468834429979e-05,0.9993286728858948,0.0,0.0,0.0,-6.594804763793945,1.7527167797088623,5.810907363891602,1193.6728515625,0
1447.065999999999,0.03666146472096443,0.018496744334697723,0.00045597105054184794,0.0,0.0,0.0,0.0,-0.0035873306915163994,-0.0008673755219206214,0.0029491721652448177,0.9998794198036194,0.0,0.0,0.0,-6.5882978439331055,1.7462196350097656,5.810971736907959,1192.4949951171875,0
1456.9719999999998,0.036617957055568695,0.01849314384162426,0.0004383764462545514,0.0,0.0,0.0,0.0,-0.0007589391898363829,-0.0001148912197095342,0.0016356997657567263,1.000457525253296,0.0,0.0,0.0,-6.58167839050293,1.7453219890594482,5.812832832336426,1191.2969970703125,0
1466.8940000000002,0.036572765558958054,0.01848834939301014,0.00042085457243956625,0.0,0.0,0.0,0.0,-0.000552981800865382,-0.0007047855760902166,0.0003971413243561983,1.0014113187789917,0.0,0.0,0.0,-6.575414657592773,1.7482470273971558,5.805251121520996,1190.1632080078125,0
1476.7939999999999,0.03652641549706459,0.01848221756517887,0.00040409123175777495,0.0,0.0,0.0,0.0,0.0016325151082128286,0.0031319193076342344,0.0007901646895334125,0.9984053373336792,0.0,0.0,0.0,-6.568126678466797,1.7435041666030884,5.7980427742004395,1188.8441162109375,0
1486.7080000000005,0.03738582506775856,0.018149591982364655,0.001043856143951416,0.0,0.0,0.0,0.0,0.0004360532038845122,0.004120349418371916,-0.002586882095783949,0.9972327351570129,0.0,0.0,0.0,-6.594977378845215,1.6989084482192993,5.936647415161133,1193.7039794921875,0
1496.6189999999988,0.037375856190919876,0.0181240476667881,0.001048494130373001,0.0,0.0,0.0,0.0,0.0002276425511809066,0.003039733273908496,0.0013023284263908863,0.997612476348877,0.0,0.0,0.0,-6.588547229766846,1.703382134437561,5.93427038192749,1192.5401611328125,0
1506.5370000000003,0.03737904876470566,0.01812725141644478,0.0010884251678362489,0.0,0.0,0.0,0.0,-0.0035908848512917757,0.005605516489595175,-0.00589773477986455,0.9992165565490723,0.0,0.0,0.0,-6.592605113983154,1.7112059593200684,5.918939113616943,1193.274658203125,0
1516.4339999999993,0.037367984652519226,0.018100576475262642,0.001091160112991929,0.0,0.0,0.0,0.0,-8.899165550246835e-05,0.0019083510851487517,0.0005093232612125576,1.0001533031463623,0.0,0.0,0.0,-6.587421417236328,1.712119698524475,5.904776573181152,1192.3363037109375,0
1526.351999999999,0.0373784676194191,0.018069827929139137,0.0010953941382467747,0.0,0.0,0.0,0.0,-0.0007004439830780029,0.0014966554008424282,0.00022821399034000933,0.9993814826011658,0.0,0.0,0.0,-6.608974933624268,1.714480996131897,5.901689529418945,1196.237548828125,0
1536.2569999999996,0.037366822361946106,0.018041012808680534,0.001097730128094554,0.0,0.0,0.0,0.0,0.0021583393681794405,-0.004212900996208191,0.0027318322099745274,0.9968349933624268,0.0,0.0,0.0,-6.602321147918701,1.7107374668121338,5.876193523406982,1195.033203125,0
1546.1769999999997,0.03736919164657593,0.01802133210003376,0.0011108998442068696,0.0,0.0,0.0,0.0,0.003630120772868395,0.001518114935606718,0.0008635810809209943,1.0006110668182373,0.0,0.0,0.0,-6.62786865234375,1.708088755607605,5.887297630310059,1199.657470703125,0
1556.08,0.03735319525003433,0.017991386353969574,0.0011116000823676586,0.0,0.0,0.0,0.0,-0.0017325571971014142,0.0006327828159555793,-0.003530409885570407,1.0006418228149414,0.0,0.0,0.0,-6.621764659881592,1.7059142589569092,5.878702640533447,1198.552490234375,0
1566.0029999999988,0.03733304142951965,0.017957717180252075,0.0011128000915050507,0.0,0.0,0.0,0.0,0.0033904246520251036,-0.003827691078186035,0.00195674248971045,0.9999145269393921,0.0,0.0,0.0,-6.615537166595459,1.7021551132202148,5.8630499839782715,1197.42529296875,0
1575.9049999999988,0.03731304034590721,0.017926497384905815,0.001114651095122099,0.0,0.0,0.0,0.0,-0.0002480270923115313,-0.003943280782550573,0.001807783031836152,0.9992620944976807,0.0,0.0,0.0,-6.608911514282227,1.696385145187378,5.864984035491943,1196.22607421875,0
1585.8240000000005,0.0372905395925045,0.017894195392727852,0.0011164327152073383,0.0,0.0,0.0,0.0,-0.0024268673732876778,-0.002559483051300049,0.0011893730843439698,1.0008445978164673,0.0,0.0,0.0,-6.601772785186768,1.6938767433166504,5.87549352645874,1194.9339599609375,0
1595.7279999999992,0.03726552426815033,0.01786067523062229,0.0011182893067598343,0.0,0.0,0.0,0.0,0.00044987897854298353,0.00018574019486550242,0.0009508843068033457,0.9982271194458008,0.0,0.0,0.0,-6.595119476318359,1.696013331413269,5.877803325653076,1193.729736328125,0
1605.6489999999994,0.03717724233865738,0.017934581264853477,0.0011999470880255103,0.0,0.0,0.0,0.0,-0.0011066882871091366,-0.0004266681207809597,-0.0045830304734408855,0.9993854761123657,0.0,0.0,0.0,-6.59881591796875,1.7395451068878174,5.848113536834717,1194.3988037109375,0
1615.5479999999989,0.03714560717344284,0.01790710538625717,0.0012066307244822383,0.0,0.0,0.0,0.0,-0.0014316178858280182,-0.0008060291293077171,-0.0004008810792583972,1.0008039474487305,0.0,0.0,0.0,-6.5931220054626465,1.7461720705032349,5.839299201965332,1193.3681640625,0
1625.4650000000001,0.03714102879166603,0.017936233431100845,0.0012589606922119856,0.0,0.0,0.0,0.0,0.000650523928925395,-0.0012519554002210498,-0.0003823503793682903,0.9998546242713928,0.0,0.0,0.0,-6.593564033508301,1.7660424709320068,5.822511672973633,1193.4481201171875,0
1635.3709999999992,0.03710559010505676,0.017909454181790352,0.0012699324870482087,0.0,0.0,0.0,0.0,0.0017808269476518035,-0.000813345774076879,0.00042915510130114853,0.9997603893280029,0.0,0.0,0.0,-6.587379455566406,1.7626895904541016,5.815401554107666,1192.3287353515625,0
1645.3019999999997,0.03711974620819092,0.01790856383740902,0.001309825456701219,0.0,0.0,0.0,0.0,0.0033146929927170277,-0.0024099417496472597,-0.0007349193328991532,1.0009208917617798,0.0,0.0,0.0,-6.594651699066162,1.770757794380188,5.820652961730957,1193.64501953125,0
1655.1949999999997,0.037081196904182434,0.017879344522953033,0.0013235751539468765,0.0,0.0,0.0,0.0,0.0005465998547151685,-0.000876902078744024,-0.0001066429540514946,0.9986806511878967,0.0,0.0,0.0,-6.589504718780518,1.7656844854354858,5.814565658569336,1192.71337890625,0
1665.1229999999996,0.037133846431970596,0.017831698060035706,0.001343118492513895,0.0,0.0,0.0,0.0,-0.000664717226754874,0.0016616838984191418,-0.000776067900005728,0.9990485310554504,0.0,0.0,0.0,-6.596165657043457,1.7572078704833984,5.827802658081055,1193.919189453125,0
1675.0209999999988,0.037295013666152954,0.018277013674378395,0.0004871163109783083,0.0,0.0,0.0,0.0,-0.0009668132988736033,0.0029895766638219357,-0.0024878093972802162,0.9988703727722168,0.0,0.0,0.0,-6.606729030609131,1.8646273612976074,5.839726448059082,1195.8310546875,0
1684.9390000000003,0.03730408102273941,0.01822321116924286,0.0004688767367042601,0.0,0.0,0.0,0.0,0.001234960975125432,0.0020744416397064924,0.0011619282886385918,0.9988059401512146,0.0,0.0,0.0,-6.626950263977051,1.8617990016937256,5.832189559936523,1199.4912109375,0
1694.839,0.0372931994497776,0.018270699307322502,0.00043699066736735404,0.0,0.0,0.0,0.0,-0.0002913867647293955,-0.001279266201891005,-0.0009226662223227322,0.9998081922531128,0.0,0.0,0.0,-6.6196208000183105,1.8554707765579224,5.818301200866699,1198.16455078125,0
1704.7610000000004,0.03730872645974159,0.018225980922579765,0.000428200961323455,0.0,0.0,0.0,0.0,-0.0018443503649905324,0.000518693879712373,-0.0029825035016983747,0.9992916584014893,0.0,0.0,0.0,-6.63904333114624,1.8552073240280151,5.810853481292725,1201.6800537109375,0
1714.6710000000003,0.03727094829082489,0.01824604719877243,0.0004271636134944856,0.0,0.0,0.0,0.0,-0.0002454117056913674,-0.0027376406360417604,0.0004091076261829585,0.9995865225791931,0.0,0.0,0.0,-6.638522624969482,1.8637020587921143,5.808875560760498,1201.5859375,0
1724.5849999999991,0.03731466829776764,0.01821259781718254,0.00043728589662350714,0.0,0.0,0.0,0.0,0.002604179782792926,-0.00729335518553853,0.0028485830407589674,1.0005073547363281,0.0,0.0,0.0,-6.656285762786865,1.867814064025879,5.819029808044434,1204.801025390625,0
1734.4989999999998,0.03726084157824516,0.018218496814370155,0.0004694480448961258,0.0,0.0,0.0,0.0,-0.0015333230840042233,-0.0007011708221398294,-0.001623373944312334,0.9996534585952759,0.0,0.0,0.0,-6.649115562438965,1.8667874336242676,5.8254523277282715,1203.5030517578125,0
1744.4069999999992,0.0373237207531929,0.018148239701986313,0.00047384362551383674,0.0,0.0,0.0,0.0,0.0013375460403040051,0.0005513883661478758,0.003412417136132717,0.9986816644668579,0.0,0.0,0.0,-6.668141841888428,1.870033621788025,5.830729007720947,1206.9468994140625,0
1754.321,0.03728097677230835,0.01818045601248741,0.0004996511852368712,0.0,0.0,0.0,0.0,-0.0001253778609680012,-0.005374889820814133,0.001278489944525063,0.9998432397842407,0.0,0.0,0.0,-6.669429779052734,1.8747568130493164,5.822847366333008,1207.1800537109375,0
1764.2349999999988,0.03731699660420418,0.01811610907316208,0.0004992609610781074,0.0,0.0,0.0,0.0,-0.00038414628943428397,0.0011635911650955677,-0.00033767454442568123,0.9978551268577576,0.0,0.0,0.0,-6.682982444763184,1.872280240058899,5.838258743286133,1209.633056640625,0
1774.1479999999992,0.037254415452480316,0.018151024356484413,0.0005573333473876119,0.0,0.0,0.0,0.0,8.353274461114779e-05,0.001796018797904253,-0.00250146072357893,0.998650312423706,0.0,0.0,0.0,-6.676187038421631,1.8702296018600464,5.830893516540527,1208.403076171875,0
1784.0499999999993,0.03730924427509308,0.01806819625198841,0.0005583826568908989,0.0,0.0,0.0,0.0,-0.0018142192857339978,0.003662821603938937,0.0006440060678869486,0.9981883764266968,0.0,0.0,0.0,-6.687638282775879,1.8624765872955322,5.8319597244262695,1210.4759521484375,0
1793.9570000000003,0.037243541330099106,0.01809859275817871,0.0006205724203027785,0.0,0.0,0.0,0.0,0.00014933951024431735,-0.003348883241415024,-0.002381852362304926,1.000422716140747,0.0,0.0,0.0,-6.6806254386901855,1.8687599897384644,5.81861686706543,1209.2064208984375,0
1803.8639999999996,0.037352144718170166,0.018032725900411606,0.0006540532340295613,0.0,0.0,0.0,0.0,-0.004769658204168081,-0.003043066244572401,0.0007309405482374132,1.000586986541748,0.0,0.0,0.0,-6.6921820640563965,1.8663581609725952,5.838958263397217,1211.2982177734375,0
1813.786,0.03727572038769722,0.018044739961624146,0.0007311119115911424,0.0,0.0,0.0,0.0,-0.0011252275435253978,-0.004789471160620451,0.007580678444355726,0.9992346167564392,0.0,0.0,0.0,-6.686501502990723,1.8754783868789673,5.835937023162842,1210.2701416015625,0
1823.687,0.03733409568667412,0.017982954159379005,0.0007580785895697773,0.0,0.0,0.0,0.0,0.0013692911015823483,0.005570805631577969,0.0019900596234947443,0.9984307885169983,0.0,0.0,0.0,-6.692826747894287,1.87962007522583,5.851302623748779,1211.4150390625,0
1833.6039999999994,0.03730694204568863,0.01805485226213932,0.0007963731186464429,0.0,0.0,0.0,0.0,0.0010163865517824888,-0.003119375091046095,-0.0015811705961823463,0.9977613687515259,0.0,0.0,0.0,-6.685543060302734,1.8795489072799683,5.832602024078369,1210.0966796875,0
1843.5200000000004,0.03734780102968216,0.01799585297703743,0.0008216769783757627,0.0,0.0,0.0,0.0,-0.0011151391081511974,0.0008152574300765991,-0.0005982076982036233,0.9999932646751404,0.0,0.0,0.0,-6.69983434677124,1.8752776384353638,5.841892719268799,1212.683349609375,0
1853.4300000000003,0.037342969328165054,0.01808754913508892,0.0008364090463146567,0.0,0.0,0.0,0.0,0.00010069942072732374,0.0003344421274960041,0.0009896151022985578,0.9999034404754639,0.0,0.0,0.0,-6.692539215087891,1.875565528869629,5.835954189300537,1211.363037109375,0
1863.3320000000003,0.03736085444688797,0.018018662929534912,0.0008502912824042141,0.0,0.0,0.0,0.0,-0.0014913375489413738,0.0001879317278508097,-0.002460307674482465,1.0001189708709717,0.0,0.0,0.0,-6.7037787437438965,1.8669706583023071,5.837120532989502,1213.397216796875,0
1873.2520000000004,0.03737577050924301,0.01810886338353157,0.0008337989565916359,0.0,0.0,0.0,0.0,0.003767547197639942,0.0032357845921069384,0.0006730708992108703,0.999546468257904,0.0,0.0,0.0,-6.69819450378418,1.8669325113296509,5.839902877807617,1212.3865966796875,0
1883.1549999999988,0.0373418927192688,0.018036946654319763,0.0008259810274466872,0.0,0.0,0.0,0.0,0.0011482486734166741,-0.0032859796192497015,0.0006251415470615029,1.0010052919387817,0.0,0.0,0.0,-6.70904016494751,1.8564203977584839,5.834041595458984,1214.3497314453125,0
1893.0679999999993,0.037355173379182816,0.01813165843486786,0.0008074418874457479,0.0,0.0,0.0,0.0,6.711480091325939e-05,0.0037407130002975464,-0.00538245402276516,0.9996945261955261,0.0,0.0,0.0,-6.7011637687683105,1.8529236316680908,5.838807582855225,1212.924072265625,0
1902.9779999999992,0.03732576221227646,0.018100036308169365,0.0008207876235246658,0.0,0.0,0.0,0.0,-0.0008999264682643116,0.002999482676386833,-0.0017905299318954349,0.9989004135131836,0.0,0.0,0.0,-6.716431140899658,1.852419137954712,5.827390193939209,1215.6873779296875,0
1912.8999999999996,0.037327561527490616,0.018168877810239792,0.0008014319464564323,0.0,0.0,0.0,0.0,-0.0020728083327412605,0.0008245240314863622,-0.001085288473404944,0.9984851479530334,0.0,0.0,0.0,-6.710904121398926,1.8483062982559204,5.817741394042969,1214.68701171875,0
1922.8050000000003,0.037291016429662704,0.018134163692593575,0.0008130768546834588,0.0,0.0,0.0,0.0,0.0006482475437223911,0.0018237852491438389,-0.0030570763628929853,1.0001804828643799,0.0,0.0,0.0,-6.728985786437988,1.85012948513031,5.812100410461426,1217.959716796875,0
1932.723,0.037289489060640335,0.01818986050784588,0.0007883917423896492,0.0,0.0,0.0,0.0,-0.0017191716469824314,-0.00425664521753788,0.0008395832264795899,1.001586675643921,0.0,0.0,0.0,-6.723133087158203,1.8432426452636719,5.805830478668213,1216.900390625,0
1942.6239999999998,0.037253886461257935,0.01817425712943077,0.0008090075571089983,0.0,0.0,0.0,0.0,0.000942156882956624,-0.00405579200014472,0.0016086327377706766,0.9986207485198975,0.0,0.0,0.0,-6.735779285430908,1.8487612009048462,5.812590599060059,1219.1893310546875,0
1952.5429999999997,0.03729171305894852,0.018297335132956505,0.0007487733964808285,0.0,0.0,0.0,0.0,-0.0025257489178329706,-0.00022861457546241581,0.004127131309360266,0.9974974989891052,0.0,0.0,0.0,-6.728357315063477,1.8461841344833374,5.813902854919434,1217.845947265625,0
1962.449999999999,0.03730947896838188,0.018247060477733612,0.0007640274707227945,0.0,0.0,0.0,0.0,-0.0006194747402332723,-0.0023822751827538013,0.0012682629749178886,0.9978061318397522,0.0,0.0,0.0,-6.737993240356445,1.8499709367752075,5.819530963897705,1219.5902099609375,0
1972.3639999999996,0.03727828338742256,0.018263455480337143,0.0007576673524454236,0.0,0.0,0.0,0.0,0.001011808286421001,-0.0033088510390371084,0.0009104362106882036,0.9994503855705261,0.0,0.0,0.0,-6.731723308563232,1.8431566953659058,5.814101696014404,1218.455322265625,0
1982.268,0.03729262948036194,0.018233835697174072,0.000780728121753782,0.0,0.0,0.0,0.0,0.001979338238015771,0.006273460108786821,-0.0011299103498458862,0.999718427658081,0.0,0.0,0.0,-6.742690086364746,1.839801549911499,5.816040992736816,1220.4403076171875,0
1992.1929999999993,0.03721487522125244,0.018211182206869125,0.0008268827805295587,0.0,0.0,0.0,0.0,0.000575089652556926,0.003036962589249015,-0.0010407089721411467,0.9994954466819763,0.0,0.0,0.0,-6.7360100746154785,1.8333325386047363,5.79578971862793,1219.2310791015625,0
2002.0990000000002,0.03727177157998085,0.018130945041775703,0.0008453376940451562,0.0,0.0,0.0,0.0,0.0004733610257972032,0.00259739370085299,0.004265851341187954,0.9996196627616882,0.0,0.0,0.0,-6.745096683502197,1.8271479606628418,5.805373191833496,1220.8759765625,0
2012.0110000000004,0.037248026579618454,0.018191153183579445,0.0008478446980006993,0.0,0.0,0.0,0.0,0.002680389443412423,0.001216425560414791,-0.0031699349638074636,0.9992936253547668,0.0,0.0,0.0,-6.737602710723877,1.8264789581298828,5.796734809875488,1219.51953125,0
2021.9279999999999,0.03725482523441315,0.01815418340265751,0.0008682110346853733,0.0,0.0,0.0,0.0,-0.0008045120630413294,0.0015180401969701052,0.001804938423447311,1.0002703666687012,0.0,0.0,0.0,-6.731921672821045,1.8233532905578613,5.786855697631836,1218.4910888671875,0
2031.8349999999991,0.037215083837509155,0.01818787306547165,0.0008822507224977016,0.0,0.0,0.0,0.0,-0.001124241971410811,0.002834231359884143,-0.0029239377472549677,0.9973204731941223,0.0,0.0,0.0,-6.725315570831299,1.8247730731964111,5.775743007659912,1217.2955322265625,0
2041.7430000000004,0.03723059967160225,0.018160859122872353,0.000915504468139261,0.0,0.0,0.0,0.0,-0.0021418395917862654,-0.0006329985335469246,-0.00016929797129705548,0.998439371585846,0.0,0.0,0.0,-6.736830711364746,1.8277424573898315,5.781065464019775,1219.3797607421875,0
2051.655999999999,0.03724091127514839,0.0182260200381279,0.0008686077781021595,0.0,0.0,0.0,0.0,4.8346824769396335e-05,0.0027854375075548887,-0.003549970453605056,0.9990266561508179,0.0,0.0,0.0,-6.729360580444336,1.8374049663543701,5.776501655578613,1218.0277099609375,0
2061.571,0.037307072430849075,0.018130430951714516,0.0008780650096014142,0.0,0.0,0.0,0.0,0.0015440217684954405,-0.0008258031448349357,-0.00048504944425076246,0.9978074431419373,0.0,0.0,0.0,-6.737913131713867,1.829616904258728,5.783014297485352,1219.5755615234375,0
2071.4789999999994,0.037312109023332596,0.018199831247329712,0.0008387323468923569,0.0,0.0,0.0,0.0,-0.004313923884183168,-0.000538058637175709,-0.0020665214397013187,0.9993667006492615,0.0,0.0,0.0,-6.731433391571045,1.825707197189331,5.7797136306762695,1218.4027099609375,0
2081.3899999999994,0.037308890372514725,0.018120914697647095,0.0008246530778706074,0.0,0.0,0.0,0.0,-0.000914991251192987,-0.0008155591785907745,-0.002401521895080805,0.9997341632843018,0.0,0.0,0.0,-6.725275993347168,1.8315722942352295,5.78183126449585,1217.288330078125,0
2091.2999999999993,0.03730812296271324,0.018193745985627174,0.0007896025199443102,0.0,0.0,0.0,0.0,0.0012471552472561598,0.004861033987253904,-0.0028860599268227816,0.9977133274078369,0.0,0.0,0.0,-6.7181549072265625,1.8345856666564941,5.784462928771973,1215.99951171875,0
2101.2119999999995,0.03730138763785362,0.018146684393286705,0.0007894684094935656,0.0,0.0,0.0,0.0,-0.0007848577806726098,0.002422339515760541,0.0028502189088612795,0.9972692131996155,0.0,0.0,0.0,-6.733067035675049,1.8323427438735962,5.775846481323242,1218.6986083984375,0
2111.125,0.037287939339876175,0.018207045271992683,0.0007593961199745536,0.0,0.0,0.0,0.0,-0.002401108620688319,-0.0034801019355654716,0.001921948860399425,0.999718964099884,0.0,0.0,0.0,-6.725365161895752,1.8319175243377686,5.76779842376709,1217.304443359375,0
2121.0419999999995,0.03726266697049141,0.018183864653110504,0.0007535546319559216,0.0,0.0,0.0,0.0,-0.001393252401612699,-5.7303426729049534e-05,0.003819116624072194,0.9994377493858337,0.0,0.0,0.0,-6.718825340270996,1.8306657075881958,5.769478797912598,1216.120849609375,0
2130.947,0.0372413732111454,0.018235914409160614,0.0007291225483641028,0.0,0.0,0.0,0.0,-0.0010772652458399534,0.0006564228679053485,0.001532314345240593,0.9964861869812012,0.0,0.0,0.0,-6.711080074310303,1.8309251070022583,5.769619464874268,1214.7188720703125,0
2140.8590000000004,0.03731326013803482,0.018190395087003708,0.0007473736768588424,0.0,0.0,0.0,0.0,-0.0032411981374025345,-0.002758368384093046,-0.0014716279692947865,0.9971989989280701,0.0,0.0,0.0,-6.7250237464904785,1.832649827003479,5.779308319091797,1217.2425537109375,0
2150.777,0.03725844621658325,0.01821497641503811,0.0007615636568516493,0.0,0.0,0.0,0.0,0.002756643807515502,0.0023743549827486277,-0.0038189792539924383,0.99740070104599,0.0,0.0,0.0,-6.719465255737305,1.8348785638809204,5.7761430740356445,1216.236572265625,0
2160.687,0.03727227821946144,0.01819636858999729,0.0007691957289353013,0.0,0.0,0.0,0.0,0.001181808183901012,-0.0024362148251384497,0.0009134873980656266,0.9991249442100525,0.0,0.0,0.0,-6.721261501312256,1.8288222551345825,5.7716383934021,1216.5616455078125,0
2170.5959999999995,0.03725811466574669,0.018260039389133453,0.0007382212206721306,0.0,0.0,0.0,0.0,0.0011159791611135006,-0.00307926326058805,-0.003643689677119255,1.0020068883895874,0.0,0.0,0.0,-6.714552402496338,1.8245441913604736,5.771767616271973,1215.347412109375,0
2180.509,0.0372818186879158,0.01822049543261528,0.0007386908400803804,0.0,0.0,0.0,0.0,0.0004713192174676806,0.0033842655830085278,-0.002781499642878771,1.0020643472671509,0.0,0.0,0.0,-6.708611488342285,1.8194706439971924,5.776760578155518,1214.2720947265625,0
