timestamp,stateEstimate.x,stateEstimate.y,stateEstimate.z,controller.cmd_thrust,controller.cmd_roll,controller.cmd_pitch,controller.cmd_yaw,controller.r_roll,controller.r_pitch,controller.r_yaw,controller.accelz,controller.actuatorThrust,controller.roll,controller.pitch,controller.yaw,controller.rollRate,controller.pitchRate,controller.yawRate,controller.ctr_yaw
0.0,2.62696084973868e-06,-1.2107821021345444e-06,-0.00036471476778388023,0.0,0.0,0.0,0.0,-0.0011194136459380388,-0.00029722604085691273,-0.0007520052022300661,0.9995883107185364,0.0,0.0,0.0,0.5190617442131042,6.3524861335754395,6.114881992340088,-93.95121002197266,0
9.907000000001062,-6.084012420615181e-05,-5.508692265721038e-05,-0.00035741302417591214,0.0,0.0,0.0,0.0,-0.003647515317425132,-0.002282356144860387,-0.0031168744899332523,0.9976203441619873,0.0,0.0,0.0,0.5263468623161316,6.343531608581543,6.102311611175537,-95.26983642578125,0
19.80999999999949,-1.4011816347192507e-05,-7.659153925487772e-05,-0.0003243490355089307,0.0,0.0,0.0,0.0,-0.001950530451722443,-0.002256717998534441,-0.004520318005234003,1.000802755355835,0.0,0.0,0.0,0.5250352621078491,6.343619346618652,6.1055073738098145,-95.03243255615234,0
29.72099999999955,-6.613208097405732e-05,-0.00012525325291790068,-0.00032876330078579485,0.0,0.0,0.0,0.0,0.0017623736057430506,0.00042122273589484394,-0.00329285254701972,1.000098466873169,0.0,0.0,0.0,0.5343928337097168,6.339594841003418,6.105201244354248,-96.7261734008789,0
39.63199999999961,-4.732664820039645e-05,-0.00011209984950255603,-0.00028533657314255834,0.0,0.0,0.0,0.0,0.0008340265485458076,0.005014353431761265,0.0022230560425668955,0.997629702091217,0.0,0.0,0.0,0.5328465104103088,6.329818248748779,6.101654529571533,-96.4462890625,0
49.542999999999665,-0.00010670746269170195,-0.00013955452595837414,-0.0002482414711266756,0.0,0.0,0.0,0.0,-0.0015350840985774994,-0.0007993909530341625,-0.0006479719304479659,0.9976874589920044,0.0,0.0,0.0,0.5327445864677429,6.3228759765625,6.093865394592285,-96.4278335571289,0
59.45800000000054,-8.027509466046467e-05,-0.00013386341743171215,-0.00019692396745085716,0.0,0.0,0.0,0.0,-0.003562292316928506,-0.00023156216775532812,0.00019607823924161494,0.9984409809112549,0.0,0.0,0.0,0.5319585204124451,6.316812515258789,6.096751689910889,-96.2855453491211,0
69.3739999999998,-0.0001218535253428854,-0.00014627022028435022,-0.00018659104534890503,0.0,0.0,0.0,0.0,0.001859318814240396,-0.0030698305927217007,-5.315570524544455e-05,0.999972403049469,0.0,0.0,0.0,0.5317900776863098,6.311328411102295,6.090020656585693,-96.25505828857422,0
79.28100000000086,-0.00011689349776133895,-0.0001406276860507205,-0.00013842991029378027,0.0,0.0,0.0,0.0,0.001791320275515318,-0.005613728892058134,0.0006604745285585523,0.9988604784011841,0.0,0.0,0.0,0.5244329571723938,6.3078179359436035,6.097293376922607,-94.92340087890625,0
89.19800000000032,-0.00016628002049401402,-0.00017454828775953501,-0.00013451917038764805,0.0,0.0,0.0,0.0,0.00010613250196911395,0.00039353856118395925,0.0031910783145576715,1.0005624294281006,0.0,0.0,0.0,0.5234102606773376,6.2972283363342285,6.100003242492676,-94.73829650878906,0
99.10400000000118,-0.00014091694902163,-0.00015624375373590738,-8.3770057244692e-05,0.0,0.0,0.0,0.0,-0.0004132708709221333,-0.002802205039188266,-0.0009302211692556739,1.000748634338379,0.0,0.0,0.0,0.5168167352676392,6.306343078613281,6.11049747467041,-93.54485321044922,0
109.01599999999962,-0.00012458578567020595,-0.00010093862510984764,-0.00014171605289448053,0.0,0.0,0.0,0.0,0.0018053847597911954,0.0022512031719088554,-0.0018192192073911428,0.9992889165878296,0.0,0.0,0.0,0.5241930484771729,6.331025123596191,6.119049072265625,-94.87997436523438,0
118.92400000000089,-0.00011439111403888091,-0.00010193075286224484,-9.178061009151861e-05,0.0,0.0,0.0,0.0,-0.0009712098981253803,0.0013704919256269932,9.58294822339667e-06,0.9992746114730835,0.0,0.0,0.0,0.51610267162323,6.331977844238281,6.120666027069092,-93.41561126708984,0
128.83300000000054,-0.00010967952403007075,-6.646968540735543e-05,-0.00014300383918453008,0.0,0.0,0.0,0.0,-4.283394810045138e-05,0.0005327656981535256,0.00035260242293588817,1.0006825923919678,0.0,0.0,0.0,0.5231834650039673,6.342676639556885,6.125113010406494,-94.6972427368164,0
138.7440000000006,-0.00010609101445879787,-8.356813486898318e-05,-0.00010723435116233304,0.0,0.0,0.0,0.0,0.0004348613729234785,0.005062098614871502,0.000687852967530489,1.000741958618164,0.0,0.0,0.0,0.5161892771720886,6.341246128082275,6.12335729598999,-93.43128967285156,0
148.66500000000087,-0.00010572237079031765,-5.1226950745331123e-05,-0.0001443297805963084,0.0,0.0,0.0,0.0,0.0022872749250382185,0.004657718352973461,0.0018307424616068602,1.0006048679351807,0.0,0.0,0.0,0.5267544984817505,6.345006465911865,6.115830898284912,-95.34361267089844,0
158.5699999999997,-9.547683293931186e-05,-7.017616735538468e-05,-0.00010497402399778366,0.0,0.0,0.0,0.0,0.0023637255653738976,0.0016273357905447483,0.0006137380842119455,0.9989489316940308,0.0,0.0,0.0,0.5198947787284851,6.33582067489624,6.114999294281006,-94.10198974609375,0
168.48500000000058,-0.00010314812971046194,-6.070720701245591e-05,-0.00013966955884825438,0.0,0.0,0.0,0.0,-0.001493142917752266,0.0028087247628718615,-0.002881597960367799,0.998163640499115,0.0,0.0,0.0,0.5258123278617859,6.336987495422363,6.112936496734619,-95.17308044433594,0
178.39600000000064,-9.445712203159928e-05,-7.958072819747031e-05,-0.0001024078082991764,0.0,0.0,0.0,0.0,0.002281910739839077,-0.006562336347997189,0.0046874466352164745,0.9997139573097229,0.0,0.0,0.0,0.5173776745796204,6.337308406829834,6.112353324890137,-93.6463851928711,0
188.3109999999997,-0.00013870626571588218,-0.00010959750215988606,-9.559465979691595e-05,0.0,0.0,0.0,0.0,0.001208776724524796,-0.00379985012114048,-0.0009914615657180548,0.9971305131912231,0.0,0.0,0.0,0.5180904865264893,6.327228546142578,6.115545272827148,-93.77540588378906,0
198.21199999999953,-0.00013183453120291233,-0.0001238643453689292,-6.760344695067033e-05,0.0,0.0,0.0,0.0,-0.0007515207398682833,0.0044705974869430065,-0.0050507839769124985,0.9976847767829895,0.0,0.0,0.0,0.5174514651298523,6.322885990142822,6.120511531829834,-93.65973663330078,0
208.13500000000022,-9.861005673883483e-05,-7.102291419869289e-05,-0.00017047286382876337,0.0,0.0,0.0,0.0,0.0011103397700935602,0.00547709921374917,-0.00283802323974669,0.9990507364273071,0.0,0.0,0.0,0.5260555744171143,6.338503837585449,6.1239013671875,-95.21710205078125,0
218.03499999999985,-0.00010812674736371264,-6.991535337874666e-05,-0.00013677228707820177,0.0,0.0,0.0,0.0,0.0012648969423025846,0.0004232358478475362,-0.0006063436740078032,0.9994162917137146,0.0,0.0,0.0,0.5171695351600647,6.341745376586914,6.1101975440979,-93.60871887207031,0
227.95499999999993,-8.952949428930879e-05,-3.638492489699274e-05,-0.00022013015404809266,0.0,0.0,0.0,0.0,0.003042164957150817,-0.0013047052780166268,0.00281281815841794,0.9998020529747009,0.0,0.0,0.0,0.5263233184814453,6.345761775970459,6.1149582862854,-95.26556396484375,0
237.86000000000058,-8.843962132232264e-05,-4.0564107621321455e-05,-0.0001889167178887874,0.0,0.0,0.0,0.0,-0.0008111890056170523,0.0031272186897695065,-0.0035804256331175566,0.9991592168807983,0.0,0.0,0.0,0.5164834260940552,6.346983432769775,6.118211269378662,-93.4845199584961,0
247.77599999999984,-0.0001026288591674529,-3.645848482847214e-05,-0.00022706069285050035,0.0,0.0,0.0,0.0,0.0014817675109952688,-0.0006246147095225751,0.003860975382849574,0.9988322854042053,0.0,0.0,0.0,0.5245689153671265,6.347890377044678,6.118317604064941,-94.94802856445312,0
257.6800000000003,-9.457456326344982e-05,-5.302745194057934e-05,-0.00020085970754735172,0.0,0.0,0.0,0.0,-0.002476899418979883,0.002234915504232049,0.0012739448575302958,0.997431218624115,0.0,0.0,0.0,0.5242549180984497,6.33467960357666,6.109248638153076,-94.89118194580078,0
267.59599999999955,-0.00012444891035556793,-6.825720629421994e-05,-0.00022128489217720926,0.0,0.0,0.0,0.0,0.0009899463038891554,-0.00432869466021657,-0.0005818348145112395,0.9966118335723877,0.0,0.0,0.0,0.5231572389602661,6.333667278289795,6.090076923370361,-94.6925048828125,0
277.5030000000006,-0.00011255304707447067,-8.155937393894419e-05,-0.00019167955906596035,0.0,0.0,0.0,0.0,0.00232314202003181,0.004139453638345003,0.0013805273920297623,0.9996950030326843,0.0,0.0,0.0,0.5217904448509216,6.321300506591797,6.092088222503662,-94.44510650634766,0
287.4220000000005,-0.00012233530287630856,-6.649982969975099e-05,-0.00022646485012955964,0.0,0.0,0.0,0.0,-0.004672247916460037,-0.00590498885139823,-0.0032001202926039696,1.0013115406036377,0.0,0.0,0.0,0.5284830927848816,6.324864864349365,6.092354774475098,-95.65650177001953,0
297.3240000000005,-0.00011505244765430689,-6.714293704135343e-05,-0.00019343581516295671,0.0,0.0,0.0,0.0,-0.001415532547980547,0.0006527350633405149,0.00010945771646220237,1.0012434720993042,0.0,0.0,0.0,0.5206913948059082,6.3260979652404785,6.094446182250977,-94.24617004394531,0
307.2399999999998,-0.00013261893764138222,-6.516955909319222e-05,-0.00021949292568024248,0.0,0.0,0.0,0.0,0.003899028990417719,-0.002213276457041502,-0.0013001151382923126,0.9995782375335693,0.0,0.0,0.0,0.5206972360610962,6.324398040771484,6.102170467376709,-94.24723052978516,0
317.14899999999943,-0.00010590140300337225,-7.384730997728184e-05,-0.0001780892926035449,0.0,0.0,0.0,0.0,0.0047112563624978065,0.0013370128581300378,0.004940675105899572,0.998614490032196,0.0,0.0,0.0,0.5124334692955017,6.3189697265625,6.1065897941589355,-92.75148010253906,0
327.0720000000001,-0.00010069117706734687,-3.4565586247481406e-05,-0.0002008889423450455,0.0,0.0,0.0,0.0,-0.00280212564393878,0.0002525959862396121,-0.0017472973559051752,0.999094545841217,0.0,0.0,0.0,0.51203852891922,6.306889533996582,6.109874248504639,-92.67999267578125,0
336.97500000000036,-8.550957136321813e-05,-4.832979539060034e-05,-0.000166249432368204,0.0,0.0,0.0,0.0,-0.00026083324337378144,-0.003955011256039143,-0.001250836648978293,0.9968360066413879,0.0,0.0,0.0,0.5030339956283569,6.3070878982543945,6.111543655395508,-91.05015563964844,0
346.8899999999994,-0.00011831238953163847,-9.107448568101972e-05,-0.00019244216673541814,0.0,0.0,0.0,0.0,0.002219811314716935,-2.3235694243339822e-05,0.0009220651700161397,0.9977236986160278,0.0,0.0,0.0,0.5105603933334351,6.307682991027832,6.108813285827637,-92.41244506835938,0
356.79199999999946,-7.906217797426507e-05,-0.00014648988144472241,-0.00017258602019865066,0.0,0.0,0.0,0.0,0.003457769751548767,-0.0029083869885653257,0.0014557719696313143,0.9983949661254883,0.0,0.0,0.0,0.5032809376716614,6.295076370239258,6.1194000244140625,-91.0948486328125,0
366.70800000000054,-8.389743743464351e-05,-0.00013750448124483228,-0.0002089109184453264,0.0,0.0,0.0,0.0,0.00262465956620872,0.0011962042190134525,0.0018418951658532023,0.999473512172699,0.0,0.0,0.0,0.5032414793968201,6.283455848693848,6.109235763549805,-91.08770751953125,0
376.6139999999996,-6.056208803784102e-05,-0.00017702483455650508,-0.00019017959129996598,0.0,0.0,0.0,0.0,-0.0005604895413853228,-0.001337562222033739,-0.0015673344023525715,0.9984737634658813,0.0,0.0,0.0,0.49671924114227295,6.280341625213623,6.112002372741699,-89.90716552734375,0
386.53700000000026,-9.802895510802045e-05,-0.00020161540305707604,-0.0001892511354526505,0.0,0.0,0.0,0.0,-0.0026134031359106302,-0.0005016118520870805,0.002338518388569355,0.9991607069969177,0.0,0.0,0.0,0.5048978328704834,6.277745246887207,6.103832244873047,-91.38751220703125,0
396.4369999999999,-9.266903362004086e-05,-0.00022092755534686148,-0.00016214321658480912,0.0,0.0,0.0,0.0,0.0020706388168036938,-0.0046845548786222935,0.0049069905653595924,1.0013986825942993,0.0,0.0,0.0,0.4994957149028778,6.278054714202881,6.103884696960449,-90.40971374511719,0
406.35499999999956,-7.37900409149006e-05,-0.00018312576867174357,-0.00020847833366133273,0.0,0.0,0.0,0.0,0.0004159923119004816,-0.0007002176134847105,-0.006865250412374735,0.9992266297340393,0.0,0.0,0.0,0.5071226954460144,6.283623695373535,6.124910354614258,-91.79021453857422,0
416.26900000000023,-0.00015640282072126865,-0.00012380699627101421,-0.00017199886497110128,0.0,0.0,0.0,0.0,0.0030775947961956263,0.0005495322402566671,-3.8970472814980894e-05,0.9988000392913818,0.0,0.0,0.0,0.5063765048980713,6.278660774230957,6.118587970733643,-91.65515899658203,0
426.1830000000009,-0.00012485762999858707,-7.334110705414787e-05,-0.000239665198023431,0.0,0.0,0.0,0.0,2.568889431131538e-05,0.0009089187369681895,0.00463535450398922,0.9989025592803955,0.0,0.0,0.0,0.5164294838905334,6.286310195922852,6.126307964324951,-93.47476196289062,0
436.08100000000013,-9.512441465631127e-05,-8.263644122052938e-05,-0.00020000842050649226,0.0,0.0,0.0,0.0,-8.774842717684805e-05,0.0026290344540029764,0.003487073816359043,0.9989064931869507,0.0,0.0,0.0,0.5104308724403381,6.286243438720703,6.130712509155273,-92.38899993896484,0
446.005000000001,-9.442882583243772e-05,-6.723513070028275e-05,-0.00023760700423736125,0.0,0.0,0.0,0.0,-0.0011613547103479505,0.001942173228599131,-0.001782331382855773,0.9991250038146973,0.0,0.0,0.0,0.5211856961250305,6.290508270263672,6.129062652587891,-94.33564758300781,0
455.90999999999985,-6.472267705248669e-05,-0.00011970805644523352,-0.00022592722962144762,0.0,0.0,0.0,0.0,-0.0011408519931137562,-0.0029598663095384836,-0.0031907435040920973,0.9982821941375732,0.0,0.0,0.0,0.5148838758468628,6.286888122558594,6.12451171875,-93.19500732421875,0
465.83100000000013,-9.177843458019197e-05,-0.00013821243192069232,-0.00023520324612036347,0.0,0.0,0.0,0.0,-0.00018794831703417003,0.0010792638640850782,-0.00222803489305079,0.9971284866333008,0.0,0.0,0.0,0.5136889219284058,6.285367488861084,6.118413925170898,-92.97871398925781,0
475.73199999999997,-6.763362762285396e-05,-0.00014154209929984063,-0.00019657184020616114,0.0,0.0,0.0,0.0,0.0010835828725248575,-0.002002341439947486,0.0014765085652470589,0.9973431825637817,0.0,0.0,0.0,0.5126920342445374,6.283762454986572,6.118643760681152,-92.79827117919922,0
485.65200000000004,-4.7453704610234126e-05,-0.00010830336395883933,-0.000258064508670941,0.0,0.0,0.0,0.0,0.0010859938338398933,-0.00069776939926669,-0.0004101827507838607,1.0009679794311523,0.0,0.0,0.0,0.5227680206298828,6.2944111824035645,6.132402420043945,-94.6220474243164,0
495.5590000000011,1.792666625988204e-05,-0.00011474529310362414,-0.00020515949290711433,0.0,0.0,0.0,0.0,0.001313177403062582,-0.0012665363028645515,0.002279625739902258,1.0002353191375732,0.0,0.0,0.0,0.5138258934020996,6.298652648925781,6.132482528686523,-93.00350952148438,0
505.47299999999996,-9.840741768130101e-06,-0.00013923026563134044,-0.00022073394211474806,0.0,0.0,0.0,0.0,-0.0012534783454611897,0.0035564068239182234,-0.002814393723383546,0.9987693428993225,0.0,0.0,0.0,0.5136673450469971,6.292643070220947,6.129961967468262,-92.97480773925781,0
515.375,1.6085459719761275e-05,-0.0001303415047004819,-0.00016907310055103153,0.0,0.0,0.0,0.0,0.0012197114992886782,-0.004599927458912134,1.0961133739328943e-05,0.9988438487052917,0.0,0.0,0.0,0.5111918449401855,6.281775951385498,6.117033004760742,-92.52674865722656,0
525.2970000000005,-7.560920039395569e-06,-0.00014621877926401794,-0.00018139426538255066,0.0,0.0,0.0,0.0,0.001458079437725246,0.0016201733378693461,0.002442518714815378,0.9981116652488708,0.0,0.0,0.0,0.5164951682090759,6.276164531707764,6.1276421546936035,-93.48664093017578,0
535.1949999999997,-4.550907397060655e-05,-0.00016865416546352208,-0.0001747624482959509,0.0,0.0,0.0,0.0,0.0013033330906182528,1.608191723789787e-06,-0.0023420569486916065,0.9998815655708313,0.0,0.0,0.0,0.5090926885604858,6.278090476989746,6.12635612487793,-92.14678192138672,0
545.1190000000006,-9.885965846478939e-05,-0.00022283787257038057,-0.00017179225687868893,0.0,0.0,0.0,0.0,-0.002426506718620658,0.00011420834198361263,-0.0010518705239519477,0.9999890327453613,0.0,0.0,0.0,0.5083463191986084,6.266499996185303,6.122756004333496,-92.0116958618164,0
555.0159999999996,-0.00016076945757959038,-0.00016575089830439538,-0.00012238301860634238,0.0,0.0,0.0,0.0,-0.0032091373577713966,-0.00016537476039957255,0.002798460889607668,1.0000659227371216,0.0,0.0,0.0,0.5063043236732483,6.262147426605225,6.120091438293457,-91.64208984375,0
564.9400000000005,-0.00014549348270520568,-0.0001287154300371185,-0.00017754723376128823,0.0,0.0,0.0,0.0,-0.0004839673638343811,0.0033164224587380886,-0.0025367229245603085,0.9993982315063477,0.0,0.0,0.0,0.5132650136947632,6.274746894836426,6.124609470367432,-92.90199279785156,0
574.8400000000001,-0.00016903554205782712,-0.00011992213694611564,-0.0001402212947141379,0.0,0.0,0.0,0.0,0.0008727334206923842,-0.002203508047387004,0.0032269153743982315,1.001927137374878,0.0,0.0,0.0,0.5119655132293701,6.268699645996094,6.1176629066467285,-92.6667709350586,0
584.7520000000004,-0.00016406128997914493,-9.476599370827898e-05,-0.00018399363034404814,0.0,0.0,0.0,0.0,-0.0008052036282606423,-0.00279018422588706,0.0032865935936570168,1.0012810230255127,0.0,0.0,0.0,0.5216376185417175,6.266818046569824,6.1283955574035645,-94.41744232177734,0
594.6620000000003,-0.00013290402421262115,-0.00011745702795451507,-0.00014074625505600125,0.0,0.0,0.0,0.0,0.000863594759721309,0.004775905981659889,0.0002429678715998307,1.0008912086486816,0.0,0.0,0.0,0.5162445306777954,6.270074367523193,6.1415534019470215,-93.4412841796875,0
604.5760000000009,-0.0001317407441092655,-0.00010167511209147051,-0.0001740470324875787,0.0,0.0,0.0,0.0,-0.0026870581787079573,0.0004380614263936877,0.0004708034102804959,1.0022382736206055,0.0,0.0,0.0,0.5249297022819519,6.273964881896973,6.135016441345215,-95.01332092285156,0
614.4899999999998,-0.00011745269148377702,-0.00010096652840729803,-0.00011964599980274215,0.0,0.0,0.0,0.0,-0.0030992666725069284,-0.005831060465425253,-0.0023596337996423244,0.9999341368675232,0.0,0.0,0.0,0.5154982209205627,6.28287935256958,6.133450508117676,-93.30619812011719,0
624.402,-0.0001116198836825788,-9.000646241474897e-05,-0.00015921432350296527,0.0,0.0,0.0,0.0,-0.0006654710741713643,-0.00012823355791624635,-0.003213432151824236,0.9980486631393433,0.0,0.0,0.0,0.5247910618782043,6.290682792663574,6.141282558441162,-94.98822021484375,0
634.3060000000005,-0.00010058348561869934,-0.00010618997475830838,-0.00011403248936403543,0.0,0.0,0.0,0.0,-0.003191556315869093,-0.0009778329404070973,-0.0025899489410221577,0.9984360337257385,0.0,0.0,0.0,0.5177478194236755,6.289055824279785,6.1516218185424805,-93.71338653564453,0
644.2250000000004,-8.385323599213734e-05,-8.04162846179679e-05,-0.00015826066373847425,0.0,0.0,0.0,0.0,0.0027074250392615795,-0.0024751487653702497,0.0034264903515577316,0.9974616169929504,0.0,0.0,0.0,0.5165332555770874,6.282487869262695,6.14776611328125,-93.49353790283203,0
654.1309999999994,-9.480284643359482e-05,-7.886867388151586e-05,-0.00011836711200885475,0.0,0.0,0.0,0.0,0.0012166618835180998,0.0005266965599730611,0.00017190733342431486,0.9987194538116455,0.0,0.0,0.0,0.5088869333267212,6.278773307800293,6.15667200088501,-92.10954284667969,0
664.0450000000001,-0.00010229802137473598,-8.62954038893804e-05,-0.0001517432538093999,0.0,0.0,0.0,0.0,-0.0009272049064747989,0.00305474572815001,0.00048557526315562427,1.000606656074524,0.0,0.0,0.0,0.5159100890159607,6.281833648681641,6.148834228515625,-93.38074493408203,0
673.9549999999999,-0.0001092587917810306,-9.527065412839875e-05,-0.00012036225234623998,0.0,0.0,0.0,0.0,-0.0004644552245736122,-0.0013844730565324426,-0.0017379167256876826,1.0000970363616943,0.0,0.0,0.0,0.5149737000465393,6.278279781341553,6.1415276527404785,-93.21126556396484,0
683.8639999999996,-0.0001523286191513762,-0.00012854314991272986,-0.0001075379695976153,0.0,0.0,0.0,0.0,-0.00177278695628047,-0.004384958650916815,-0.0026878383941948414,0.9978615045547485,0.0,0.0,0.0,0.5209127068519592,6.270839691162109,6.138725280761719,-94.2862319946289,0
693.7749999999996,-0.00013738218694925308,-0.00013974211469758302,-5.555656389333308e-05,0.0,0.0,0.0,0.0,-0.0007598787196911871,-3.6033081414643675e-05,-0.005040955264121294,0.996817946434021,0.0,0.0,0.0,0.5113866329193115,6.277042865753174,6.15470027923584,-92.56199645996094,0
703.6849999999995,-0.0001719714782666415,-0.00015744971460662782,-5.416922431322746e-05,0.0,0.0,0.0,0.0,-0.00251327664591372,-0.0002288910181960091,0.0027377253863960505,0.9955614805221558,0.0,0.0,0.0,0.5171778798103333,6.27657413482666,6.150739669799805,-93.6102294921875,0
713.5969999999998,-0.000171000137925148,-0.00017390544235240668,-1.9731494830921292e-05,0.0,0.0,0.0,0.0,0.000747538055293262,-0.0007766331546008587,0.000909431662876159,0.9993548393249512,0.0,0.0,0.0,0.5112255215644836,6.281775951385498,6.151089191436768,-92.5328369140625,0
723.5100000000002,-0.00015903501480352134,-0.00015023515152279288,-7.037581235636026e-05,0.0,0.0,0.0,0.0,0.0028323137667030096,0.0009866952896118164,0.0006856778636574745,1.0008257627487183,0.0,0.0,0.0,0.5186187028884888,6.284880638122559,6.155127048492432,-93.87100982666016,0
733.4240000000009,-0.0001500255602877587,-0.0001745929039316252,-4.1202903958037496e-05,0.0,0.0,0.0,0.0,-0.0009631009888835251,-0.0004044966190122068,-7.257550896611065e-05,1.0005431175231934,0.0,0.0,0.0,0.5128304958343506,6.279798984527588,6.149890899658203,-92.82332611083984,0
743.3379999999997,-0.00013192520418670028,-0.00014351790014188737,-9.038208372658119e-05,0.0,0.0,0.0,0.0,-0.0016886084340512753,-0.0007672260981053114,-0.0019518054323270917,0.9993389248847961,0.0,0.0,0.0,0.518981397151947,6.287815570831299,6.156537055969238,-93.9366683959961,0
753.2420000000002,-8.801846706774086e-05,-0.00019206610159017146,-6.375707016559318e-05,0.0,0.0,0.0,0.0,-6.718714575981721e-05,-0.0024081349838525057,0.0019268098985776305,1.0005253553390503,0.0,0.0,0.0,0.5177233219146729,6.283967018127441,6.1557183265686035,-93.70895385742188,0
763.152,-8.691760012879968e-05,-0.00019309211347717792,-0.00010542297968640924,0.0,0.0,0.0,0.0,-0.0006966657238081098,-0.0017395812319591641,0.0006556668085977435,1.000522494316101,0.0,0.0,0.0,0.5248879194259644,6.287839412689209,6.16460657119751,-95.0057601928711,0
773.0740000000005,-0.0001485696848249063,-0.00021386411390267313,-0.00010569223377387971,0.0,0.0,0.0,0.0,-2.9461631129379384e-05,4.0189926949096844e-05,-8.530501509085298e-05,1.000517725944519,0.0,0.0,0.0,0.524763286113739,6.281885623931885,6.162403583526611,-94.98320007324219,0
782.9740000000002,-0.00010209972242591903,-0.00016235554357990623,-0.00019726285245269537,0.0,0.0,0.0,0.0,-0.0013347937492653728,-0.004598212894052267,-0.006139862351119518,0.9984558820724487,0.0,0.0,0.0,0.531569242477417,6.294931411743164,6.167692184448242,-96.215087890625,0
792.893,-0.00010535062028793618,-0.0002028000308200717,-0.00018837163224816322,0.0,0.0,0.0,0.0,-0.0013882307102903724,0.0008356974576599896,0.0013686921447515488,0.999813973903656,0.0,0.0,0.0,0.5210124850273132,6.294965744018555,6.173372268676758,-94.3042984008789,0
802.8019999999997,-9.851342474576086e-05,-0.00017609527276363224,-0.00022701025591231883,0.0,0.0,0.0,0.0,-0.001942830509506166,-0.0015690812142565846,-0.0008953418000601232,1.002001404762268,0.0,0.0,0.0,0.526995837688446,6.30084753036499,6.1735029220581055,-95.38728332519531,0
812.7170000000006,-0.0001067676639650017,-0.00020847469568252563,-0.00021485860634129494,0.0,0.0,0.0,0.0,0.0014364731032401323,-0.0013086538529023528,0.0007734757964499295,1.002056360244751,0.0,0.0,0.0,0.520738422870636,6.3015031814575195,6.1765594482421875,-94.25469207763672,0
822.6309999999994,-0.00010892975842580199,-0.00019187683938071132,-0.00024295425100717694,0.0,0.0,0.0,0.0,-0.0006503274780698121,0.002002091147005558,0.004433083813637495,0.9979985356330872,0.0,0.0,0.0,0.529636025428772,6.30543327331543,6.188333988189697,-95.86517333984375,0
832.5370000000003,-0.00014091981574892998,-0.00015323996194638312,-0.00019258656539022923,0.0,0.0,0.0,0.0,-0.0014368498232215643,-0.004989896435290575,0.0011069747852161527,0.999247133731842,0.0,0.0,0.0,0.5300279855728149,6.297338485717773,6.178118705749512,-95.93611907958984,0
842.4500000000007,-0.00014605463366024196,-0.00013105088146403432,-0.0002143885794794187,0.0,0.0,0.0,0.0,8.095717203104869e-05,0.0030594735872000456,0.0001799642195692286,1.0018168687820435,0.0,0.0,0.0,0.5352964401245117,6.301554203033447,6.181069374084473,-96.88970947265625,0
852.3639999999996,-0.00018790725152939558,-0.00012589523976203054,-0.00018687653937377036,0.0,0.0,0.0,0.0,0.0010737348347902298,0.003972186706960201,0.003666964825242758,1.0007437467575073,0.0,0.0,0.0,0.5341678261756897,6.2930684089660645,6.16233491897583,-96.68544006347656,0
862.2820000000011,-0.0001581936376169324,-5.9100580983795226e-05,-0.00023885293921921402,0.0,0.0,0.0,0.0,0.0021638551261276007,0.003618075745180249,0.0023773738648742437,1.0011628866195679,0.0,0.0,0.0,0.5416389107704163,6.304601669311523,6.163907527923584,-98.03771209716797,0
872.1830000000009,-0.00014037266373634338,-3.138780812150799e-05,-0.00017125140584539622,0.0,0.0,0.0,0.0,-0.0021926863119006157,-0.0028909211978316307,0.0028452572878450155,0.9986708760261536,0.0,0.0,0.0,0.5408585071563721,6.2932257652282715,6.151812553405762,-97.8964614868164,0
882.0969999999998,-0.0001515654439572245,-1.155393329099752e-05,-0.00017786580428946763,0.0,0.0,0.0,0.0,0.0005050610634498298,-0.002853236859664321,-0.0012682293308898807,0.9987722635269165,0.0,0.0,0.0,0.5487342476844788,6.302826404571533,6.15468692779541,-99.32198333740234,0
892.0069999999996,-0.00012600507761817425,-1.7287437003687955e-05,-0.00012668073759414256,0.0,0.0,0.0,0.0,0.0012575573055073619,-0.0009441247093491256,-0.0023739368189126253,1.0001215934753418,0.0,0.0,0.0,0.5473548173904419,6.295047283172607,6.1512017250061035,-99.07230377197266,0
901.9179999999997,-0.00013908196706324816,-2.7195339498575777e-05,-0.00016022003546822816,0.0,0.0,0.0,0.0,-0.0012269202852621675,0.00015295702905859798,0.005497983191162348,0.9991128444671631,0.0,0.0,0.0,0.5529720783233643,6.292518615722656,6.154198169708252,-100.08904266357422,0
911.8299999999999,-0.0001231940113939345,-5.6049721024464816e-05,-0.0001276170660275966,0.0,0.0,0.0,0.0,0.0035907805431634188,0.003334394423291087,-0.0033980724401772022,1.0005099773406982,0.0,0.0,0.0,0.5467910170555115,6.283414363861084,6.156552314758301,-98.97026062011719,0
921.7399999999998,-0.00011800193169619888,-5.011495522921905e-05,-0.0001859213225543499,0.0,0.0,0.0,0.0,0.0025602071546018124,-0.005349871702492237,0.00021435735106933862,1.0001013278961182,0.0,0.0,0.0,0.5532727241516113,6.275132179260254,6.150940418243408,-100.14346313476562,0
931.6470000000008,-0.00010471995483385399,-0.00012390273332130164,-0.00018301817181054503,0.0,0.0,0.0,0.0,-0.0008145691244862974,-0.002010505413636565,-0.00249662296846509,1.0011413097381592,0.0,0.0,0.0,0.5453944206237793,6.259777545928955,6.161695957183838,-98.71748352050781,0
941.5590000000011,-0.00011786937830038369,-0.0001266508043045178,-0.0002050307230092585,0.0,0.0,0.0,0.0,0.0005664074560627341,0.0003927910001948476,-0.0005913135246373713,1.0002164840698242,0.0,0.0,0.0,0.5527756810188293,6.262444496154785,6.1680402755737305,-100.0534896850586,0
951.4670000000006,-0.00012488546781241894,-0.00012884862371720374,-0.0001648445031605661,0.0,0.0,0.0,0.0,0.000361295766197145,-0.000660904566757381,0.00040571109275333583,0.9989138841629028,0.0,0.0,0.0,0.5459563732147217,6.261989593505859,6.169076442718506,-98.8191909790039,0
961.3809999999994,-0.00015997933223843575,-0.00013905199011787772,-0.00014550167543347925,0.0,0.0,0.0,0.0,-0.0034873245749622583,-0.0014779812190681696,-0.002875113859772682,0.9990953207015991,0.0,0.0,0.0,0.5540491342544556,6.263779163360596,6.164132118225098,-100.28399658203125,0
971.2929999999997,-4.45452424173709e-05,-0.00020608097838703543,-8.615272963652387e-05,0.0,0.0,0.0,0.0,0.0032784384675323963,0.0005783621454611421,0.0014299649046733975,0.9987301230430603,0.0,0.0,0.0,0.5435870885848999,6.260844707489014,6.178903102874756,-98.39033508300781,0
981.2070000000003,-8.497246017213911e-05,-0.00023660657461732626,-6.538762681884691e-05,0.0,0.0,0.0,0.0,-0.0012463097227737308,0.001950533944182098,0.0011719731846824288,0.9996075630187988,0.0,0.0,0.0,0.5430907607078552,6.248572826385498,6.165488243103027,-98.30050659179688,0
991.1270000000004,-0.00010512182052480057,-0.0002707449602894485,-4.107973290956579e-05,0.0,0.0,0.0,0.0,0.0036279771011322737,0.0015090416418388486,-0.0014391735894605517,0.9987586140632629,0.0,0.0,0.0,0.535552442073822,6.240207195281982,6.158456802368164,-96.9360580444336,0
1001.0300000000007,-7.2865528636612e-05,-0.00020959111861884594,-7.954292232170701e-05,0.0,0.0,0.0,0.0,0.0011180016444996,0.0023967816960066557,-0.0024795369245111942,1.000444769859314,0.0,0.0,0.0,0.5408361554145813,6.247932434082031,6.161029815673828,-97.89241790771484,0
1010.9500000000007,-6.919910811120644e-05,-0.00026803946821019053,-6.456562550738454e-05,0.0,0.0,0.0,0.0,0.000548207142855972,0.001166469999589026,0.0032876585610210896,0.9986124634742737,0.0,0.0,0.0,0.5395168662071228,6.2388129234313965,6.146875858306885,-97.65361785888672,0
1020.8540000000012,-5.5440032156184316e-05,-0.00024450712953694165,-9.747399599291384e-05,0.0,0.0,0.0,0.0,-0.0015933132963255048,-0.002302921377122402,0.0015021831495687366,1.0008336305618286,0.0,0.0,0.0,0.5482555627822876,6.2430338859558105,6.149859428405762,-99.2353515625,0
1030.7669999999998,-9.246400441043079e-05,-0.00026850070571526885,-8.053476631175727e-05,0.0,0.0,0.0,0.0,0.0024149357341229916,0.006293105892837048,0.0010613796766847372,0.9999614953994751,0.0,0.0,0.0,0.5400559902191162,6.244572162628174,6.150338649749756,-97.75121307373047,0
1040.67,-6.164384831208736e-05,-0.00020560825942084193,-0.00011682946205837652,0.0,0.0,0.0,0.0,0.00016709876945242286,-0.001925321645103395,-0.0051754857413470745,0.9993136525154114,0.0,0.0,0.0,0.5396191477775574,6.233611106872559,6.127213954925537,-97.6721420288086,0
1050.5950000000012,-0.0001339179289061576,-0.00017333810683339834,-8.42703229864128e-05,0.0,0.0,0.0,0.0,0.0010351502569392323,-0.00048566353507339954,-0.0025673280470073223,0.9997711777687073,0.0,0.0,0.0,0.5298489332199097,6.242564678192139,6.118506908416748,-95.90371704101562,0
1060.4920000000002,-0.00016674643848091364,-0.00018907197227235883,-8.205281483242288e-05,0.0,0.0,0.0,0.0,-0.0009929063962772489,0.001273095840588212,-0.0033522509038448334,0.9995259046554565,0.0,0.0,0.0,0.529528021812439,6.2353129386901855,6.115157127380371,-95.84563446044922,0
1070.4140000000007,-0.00017265287169720978,-0.00019208501907996833,-3.816069511231035e-05,0.0,0.0,0.0,0.0,0.0015224011149257421,-0.0026032323949038982,-0.0044014593586325645,0.9989900588989258,0.0,0.0,0.0,0.5225518345832825,6.234591007232666,6.112237453460693,-94.58292388916016,0
1080.313,-0.00014410311996471137,-0.00012464994506444782,-8.465375867672265e-05,0.0,0.0,0.0,0.0,-0.0010708727641031146,0.0033397693186998367,-0.0010735106188803911,0.9984455704689026,0.0,0.0,0.0,0.5217816829681396,6.224849224090576,6.110184192657471,-94.44352722167969,0
1090.2309999999998,-0.0001915893953992054,-0.00013029630645178258,-6.469014624599367e-05,0.0,0.0,0.0,0.0,-0.0011828553397208452,-0.0061298543587327,-0.0028895593713968992,0.9997552633285522,0.0,0.0,0.0,0.5211831331253052,6.226755619049072,6.104533672332764,-94.3351821899414,0
1100.1350000000002,-0.00016846349171828479,-8.306871313834563e-05,-0.00012756891374010593,0.0,0.0,0.0,0.0,-0.00032286939676851034,0.00047891659778542817,-8.652578253531829e-05,0.9986785650253296,0.0,0.0,0.0,0.5190150141716003,6.2223005294799805,6.111000061035156,-93.94275665283203,0
1110.0650000000005,-0.00017912156181409955,-9.513455734122545e-05,-0.00010201211989624426,0.0,0.0,0.0,0.0,0.0010670580668374896,0.00530470535159111,-0.0006951943505555391,0.9981526732444763,0.0,0.0,0.0,0.5177173614501953,6.21730899810791,6.109582901000977,-93.70787048339844,0
1119.9590000000007,-0.0001380312314722687,-1.491794773755828e-05,-0.00017138905241154134,0.0,0.0,0.0,0.0,0.00073064467869699,-0.0028159061912447214,-0.00037350328057073057,1.0011522769927979,0.0,0.0,0.0,0.5285409092903137,6.228745460510254,6.107574939727783,-95.66695404052734,0
1129.8909999999996,-8.828200225252658e-05,-4.410928158904426e-05,-0.000138028510264121,0.0,0.0,0.0,0.0,0.0031747156754136086,-0.0006353636272251606,-0.0021165143698453903,0.999863862991333,0.0,0.0,0.0,0.5271352529525757,6.219985485076904,6.1031928062438965,-95.41252899169922,0
1139.7839999999997,-0.00010693832882679999,-4.007314419141039e-05,-0.00015470193466171622,0.0,0.0,0.0,0.0,0.0023817827459424734,0.00014298970927484334,-0.0024350364692509174,1.0000522136688232,0.0,0.0,0.0,0.5262148976325989,6.215054988861084,6.089250087738037,-95.24593353271484,0
1149.7110000000011,-7.120346708688885e-05,-9.680141374701634e-05,-0.00014046410797163844,0.0,0.0,0.0,0.0,-0.0009470792720094323,0.0002983198792207986,0.0021923233289271593,0.9996950626373291,0.0,0.0,0.0,0.5240655541419983,6.204470157623291,6.085209369659424,-94.8569107055664,0
1159.6100000000006,-0.00012104935012757778,-0.00014418615319300443,-0.00013904801744502038,0.0,0.0,0.0,0.0,-0.00013723982556257397,-0.00020735101134050637,0.0017800773493945599,1.000914454460144,0.0,0.0,0.0,0.5245794057846069,6.198291778564453,6.083590984344482,-94.94992065429688,0
1169.5239999999994,-8.637314749648795e-05,-0.0001746628258842975,-0.00010214693611487746,0.0,0.0,0.0,0.0,0.0029711422976106405,0.0005289882537908852,-0.002893043216317892,0.9995617866516113,0.0,0.0,0.0,0.5250945687294006,6.190995216369629,6.079880714416504,-95.04315948486328,0
1179.4349999999995,-0.00012355241051409394,-0.00019378801516722888,-8.559140405850485e-05,0.0,0.0,0.0,0.0,-0.0012294345069676638,0.003390402300283313,0.002974395640194416,1.0006459951400757,0.0,0.0,0.0,0.5232148170471191,6.176305294036865,6.0697855949401855,-94.70291900634766,0
1189.3459999999995,-0.0001578183873789385,-0.00022762702428735793,-7.479745545424521e-05,0.0,0.0,0.0,0.0,0.0006527938530780375,-0.002105260966345668,-0.0009005628526210785,0.9993252754211426,0.0,0.0,0.0,0.5229937434196472,6.172922611236572,6.056170463562012,-94.66290283203125,0
1199.2540000000008,-0.00020052350009791553,-0.00027120232698507607,-6.876062252558768e-05,0.0,0.0,0.0,0.0,-0.002196319866925478,0.0018483242020010948,-2.6832627554540522e-05,0.999597430229187,0.0,0.0,0.0,0.5218828916549683,6.163456439971924,6.057651996612549,-94.46183776855469,0
1209.1710000000003,-0.0001826587104005739,-0.0002648862136993557,-1.635404805711005e-05,0.0,0.0,0.0,0.0,0.0009952372638508677,0.0005410858429968357,-0.0006105162319727242,0.9997321963310242,0.0,0.0,0.0,0.5150583982467651,6.17641544342041,6.054167747497559,-93.2265853881836,0
1219.08,-4.896127211395651e-05,-9.132240666076541e-05,-0.00021404305880423635,0.0,0.0,0.0,0.0,0.00018008329789154232,0.0042280289344489574,-0.0023749384563416243,0.9988692998886108,0.0,0.0,0.0,0.5237932801246643,6.22048282623291,6.07992696762085,-94.80762481689453,0
1228.9889999999996,-6.223104719538242e-05,-0.0001376750587951392,-0.0002146614424418658,0.0,0.0,0.0,0.0,-0.0021934460382908583,0.00302008050493896,-0.001298540155403316,0.9980467557907104,0.0,0.0,0.0,0.5128726363182068,6.209992408752441,6.065292835235596,-92.83096313476562,0
1238.9040000000005,-3.682109309011139e-05,-8.357546903425828e-05,-0.0002672150149010122,0.0,0.0,0.0,0.0,-0.006071787327528,-0.0036590497475117445,0.0028500016778707504,0.9997403025627136,0.0,0.0,0.0,0.5204887986183167,6.2231035232543945,6.062886714935303,-94.20950317382812,0
1248.817000000001,-4.075062315678224e-05,-0.00010175516945309937,-0.0002503743744455278,0.0,0.0,0.0,0.0,-0.0010382137261331081,-0.0019263374852016568,0.001056813751347363,0.9984881281852722,0.0,0.0,0.0,0.5212759971618652,6.2320051193237305,6.068410873413086,-94.35199737548828,0
1258.732,-5.248697198112495e-05,-0.00011021080717910081,-0.0002855751954484731,0.0,0.0,0.0,0.0,-0.001234184019267559,0.0008270489051938057,-0.0018595869187265635,0.9997547268867493,0.0,0.0,0.0,0.5283677577972412,6.231308937072754,6.075000286102295,-95.6356201171875,0
1268.6470000000008,-0.00012637104373425245,-0.00011900898243766278,-0.00029660583822987974,0.0,0.0,0.0,0.0,-0.0014715404249727726,-0.00012176581367384642,-0.0015824541915208101,0.999602198600769,0.0,0.0,0.0,0.5277279615402222,6.227078437805176,6.07138729095459,-95.51981353759766,0
1278.558000000001,-0.00012199915363453329,-0.0001009706174954772,-0.0003461008018348366,0.0,0.0,0.0,0.0,-0.0009049932123161852,0.009610949084162712,-0.0019455670844763517,1.0001643896102905,0.0,0.0,0.0,0.5269805788993835,6.226663112640381,6.065329074859619,-95.384521484375,0
1288.4619999999995,-0.00016502889047842473,-8.276443986687809e-05,-0.0003217791672796011,0.0,0.0,0.0,0.0,0.0013776583364233375,0.0025121900252997875,-7.25671779946424e-05,0.9997045397758484,0.0,0.0,0.0,0.526741623878479,6.223198413848877,6.04177713394165,-95.34127044677734,0
1298.3700000000008,-0.0001273315865546465,-6.127869710326195e-06,-0.00038430452696047723,0.0,0.0,0.0,0.0,-0.0003741476684808731,0.002112308982759714,0.0029189514461904764,1.0000313520431519,0.0,0.0,0.0,0.5264508724212646,6.220458984375,6.035004138946533,-95.28865814208984,0
1308.2759999999998,-0.00011446239659562707,-7.455282684531994e-06,-0.0003508935042191297,0.0,0.0,0.0,0.0,-0.0037153679877519608,-0.00030840569525025785,0.002966283354908228,1.0007367134094238,0.0,0.0,0.0,0.519264280796051,6.222947597503662,6.034093379974365,-93.98786926269531,0
1318.1949999999997,-0.00017271217075176537,-6.439400021918118e-05,-0.00034108609543181956,0.0,0.0,0.0,0.0,-0.004004891496151686,-0.0007751596858724952,0.0018671182915568352,0.998602032661438,0.0,0.0,0.0,0.5314143300056458,6.221919536590576,6.027426242828369,-96.18704986572266,0
1328.1010000000006,-0.00011812410957645625,-0.00011098488175775856,-0.0003099546884186566,0.0,0.0,0.0,0.0,-0.0006107091903686523,0.005139917600899935,0.002708749147132039,0.9989784359931946,0.0,0.0,0.0,0.5311408042907715,6.217321395874023,6.029451370239258,-96.13754272460938,0
1338.0130000000008,-0.0001378157176077366,-0.00011370905849616975,-0.0003171376883983612,0.0,0.0,0.0,0.0,-0.001851530745625496,0.0006588779506273568,-8.02554059191607e-05,0.9965620636940002,0.0,0.0,0.0,0.5407458543777466,6.219151973724365,6.020178318023682,-97.87608337402344,0
1347.9259999999995,-8.620903827250004e-05,-0.00015436942339874804,-0.00028341292636469007,0.0,0.0,0.0,0.0,2.1730904791184003e-06,0.003907577134668827,-0.002088580746203661,0.9972696304321289,0.0,0.0,0.0,0.5319950580596924,6.215881824493408,6.026635646820068,-96.29216766357422,0
1357.8360000000011,-0.0001474802556913346,-0.00021659619233105332,-0.0002600512816570699,0.0,0.0,0.0,0.0,-0.0006957205478101969,-0.0006608314579352736,-0.002785896882414818,0.9990746378898621,0.0,0.0,0.0,0.5314728617668152,6.206968784332275,6.010762691497803,-96.19763946533203,0
1367.746000000001,-0.00013581739040091634,-0.00023827172117307782,-0.0002257049345644191,0.0,0.0,0.0,0.0,-0.0011825754772871733,-0.002344506559893489,0.0028209129814058542,0.9996277689933777,0.0,0.0,0.0,0.5305595397949219,6.1986470222473145,6.0008134841918945,-96.03233337402344,0
1377.6509999999998,-0.00016491783026140183,-0.0002454444475006312,-0.00021432305220514536,0.0,0.0,0.0,0.0,-0.0018179145408794284,0.00014461242244578898,0.0031950664706528187,1.0003010034561157,0.0,0.0,0.0,0.5304816365242004,6.195235252380371,5.998786449432373,-96.01823425292969,0
1387.5720000000001,-0.00014030004967935383,-0.00027561141178011894,-0.00017284021305385977,0.0,0.0,0.0,0.0,0.00020460330415517092,0.002047736430540681,0.0005875590140931308,1.0000715255737305,0.0,0.0,0.0,0.5229212045669556,6.19536018371582,6.003777027130127,-94.6497802734375,0
1397.4840000000004,-0.0001844443759182468,-0.0003233303432352841,-0.00017004671099130064,0.0,0.0,0.0,0.0,0.002778923837468028,0.0009674179018475115,0.00016795838018879294,1.0007266998291016,0.0,0.0,0.0,0.5229052901268005,6.188360691070557,5.995880603790283,-94.64689636230469,0
1407.389000000001,-0.00016714032972231507,-0.000325644708937034,-0.0001231495407409966,0.0,0.0,0.0,0.0,-0.00205502868629992,0.0017102364217862487,-0.004097402561455965,0.9988739490509033,0.0,0.0,0.0,0.5134326815605164,6.191552639007568,6.001218318939209,-92.93234252929688,0
1417.299000000001,-0.00011448630539234728,-0.00023435874027200043,-0.00021119769371580333,0.0,0.0,0.0,0.0,-0.0007444102666340768,0.0019834949634969234,-0.0005010470049455762,1.0005451440811157,0.0,0.0,0.0,0.5184879899024963,6.226995468139648,6.014780521392822,-93.84736633300781,0
1427.2119999999995,-0.00016887926904018968,-0.00022210716269910336,-0.00017706411017570645,0.0,0.0,0.0,0.0,-0.0023236519191414118,-0.002580126514658332,0.001125236740335822,1.0004894733428955,0.0,0.0,0.0,0.5185291767120361,6.225297451019287,6.00493049621582,-93.85482025146484,0
1437.1270000000004,-0.00014159947750158608,-0.0001444389345124364,-0.0002182795142289251,0.0,0.0,0.0,0.0,0.0023456141352653503,0.0024912019725888968,0.0006105859065428376,0.9981521368026733,0.0,0.0,0.0,0.525024950504303,6.248598098754883,6.0236053466796875,-95.03055572509766,0
1447.027,-0.0001594423083588481,-0.00013077101903036237,-0.00016525278624612838,0.0,0.0,0.0,0.0,-0.00046665288391523063,1.6823960322653875e-05,3.727908551809378e-05,0.9978122115135193,0.0,0.0,0.0,0.517131507396698,6.247439861297607,6.015922546386719,-93.60183715820312,0
1456.9449999999997,-0.0001606876467121765,-0.00011239235755056143,-0.00020329708058852702,0.0,0.0,0.0,0.0,2.6976071239914745e-05,-1.1955236004723702e-05,-0.002566553419455886,0.9974032640457153,0.0,0.0,0.0,0.5168928503990173,6.241880893707275,6.006593704223633,-93.55863952636719,0
1466.8490000000002,-0.0001594291243236512,-0.0001183550848509185,-0.0001576952199684456,0.0,0.0,0.0,0.0,-0.002004897454753518,-0.0006645357352681458,-0.00447468739002943,0.9982220530509949,0.0,0.0,0.0,0.5095447301864624,6.247008800506592,6.0098161697387695,-92.2286148071289,0
1476.773000000001,-0.0001389591780025512,-8.053684723563492e-05,-0.00022717093816027045,0.0,0.0,0.0,0.0,0.0017976424423977733,0.0008416507625952363,-0.0004745040787383914,1.001529574394226,0.0,0.0,0.0,0.5211466550827026,6.256926536560059,6.019033432006836,-94.32857513427734,0
1486.6730000000007,-0.0001102117239497602,-0.00014440366066992283,-0.0002103083679685369,0.0,0.0,0.0,0.0,0.0011984738521277905,0.005336758214980364,0.0007158424123190343,1.0011318922042847,0.0,0.0,0.0,0.5114849805831909,6.247251987457275,6.02116584777832,-92.57979583740234,0
1496.5920000000006,-0.00013201548426877707,-0.00015030783833935857,-0.00023110551410354674,0.0,0.0,0.0,0.0,0.0007642176933586597,-0.0030772523023188114,0.0025321051944047213,0.9996251463890076,0.0,0.0,0.0,0.5173755288124084,6.245387554168701,6.008172512054443,-93.64600372314453,0
1506.4989999999998,-0.00015506416093558073,-0.00014858663780614734,-0.00019418475858401507,0.0,0.0,0.0,0.0,-0.0015916520496830344,0.000372765731299296,-0.0012270323932170868,0.999779462814331,0.0,0.0,0.0,0.5171626806259155,6.233419418334961,6.0106682777404785,-93.60747528076172,0
1516.424000000001,-0.0001556023198645562,-0.00012011553917545825,-0.00022215920034796,0.0,0.0,0.0,0.0,-0.001935515203513205,-0.003336319699883461,0.00015889796486590058,0.9975486993789673,0.0,0.0,0.0,0.5156065821647644,6.236418724060059,6.011533260345459,-93.32581329345703,0
1526.3199999999997,-0.0001536165946163237,-0.00012558857270050794,-0.0001740624284138903,0.0,0.0,0.0,0.0,0.001487724483013153,0.004683631472289562,-0.0038849255070090294,0.9986690282821655,0.0,0.0,0.0,0.5057372450828552,6.235382556915283,6.0133209228515625,-91.5394515991211,0
1536.2399999999998,-0.00016551137377973646,-0.00011784976959461346,-0.0001990596210816875,0.0,0.0,0.0,0.0,-0.00036003158311359584,0.0008976499666459858,-0.001932357088662684,0.9981535077095032,0.0,0.0,0.0,0.5149744153022766,6.234862327575684,6.003812789916992,-93.21138763427734,0
1546.139000000001,-0.00016302368021570146,-0.00016939861234277487,-0.00018358540546614677,0.0,0.0,0.0,0.0,0.0007569685112684965,-0.0005995221436023712,0.003644091309979558,0.9987316131591797,0.0,0.0,0.0,0.515312910079956,6.230813980102539,6.001516819000244,-93.27265930175781,0
1556.0680000000011,-0.00019718447583727539,-0.00017193978419527411,-0.00017010846931952983,0.0,0.0,0.0,0.0,-0.0027381146792322397,0.00411572540178895,-0.0023084841668605804,0.9995124936103821,0.0,0.0,0.0,0.5150785446166992,6.221340179443359,5.9971604347229,-93.23023223876953,0
1565.9670000000006,-0.0001490930881118402,-0.00023136709933169186,-0.00013221529661677778,0.0,0.0,0.0,0.0,0.0010266085155308247,-0.0023775682784616947,-0.0032227193005383015,0.9983584880828857,0.0,0.0,0.0,0.5065540671348572,6.215423583984375,5.9999494552612305,-91.68729400634766,0
1575.8829999999998,-0.00014136586105450988,-0.00020814915478695184,-0.0001740647421684116,0.0,0.0,0.0,0.0,-0.002560955937951803,0.0039629461243748665,-0.004474785178899765,0.9995381236076355,0.0,0.0,0.0,0.5053099393844604,6.206783294677734,6.002343654632568,-91.46209716796875,0
1585.7839999999997,-0.0001646628079470247,-0.00019847581279464066,-0.0001272883964702487,0.0,0.0,0.0,0.0,-0.002355539705604315,-0.002051845658570528,2.2122116206446663e-05,1.0007035732269287,0.0,0.0,0.0,0.49800682067871094,6.214756011962891,5.99786901473999,-90.1402359008789,0
1595.7200000000012,-0.0001668947224970907,-0.0001860605989350006,-0.00016064960800576955,0.0,0.0,0.0,0.0,0.0019218919333070517,0.002280259970575571,0.0032284187618643045,0.999643087387085,0.0,0.0,0.0,0.5055361390113831,6.221749782562256,6.003127574920654,-91.5030517578125,0
1605.6100000000006,-0.0001738561986712739,-0.0001809708628570661,-0.00011025880667148158,0.0,0.0,0.0,0.0,-0.0006211127038113773,0.0035902310628443956,-0.00357106258161366,1.0003491640090942,0.0,0.0,0.0,0.5052321553230286,6.213829040527344,5.997591018676758,-91.4480209350586,0
1615.532000000001,-0.00022206615540198982,-0.00022835568233858794,-0.00010625074355630204,0.0,0.0,0.0,0.0,1.5049672583700158e-06,-0.0012317870277911425,0.0013931433204561472,0.9998140931129456,0.0,0.0,0.0,0.5028873085975647,6.209488868713379,5.982065677642822,-91.02361297607422,0
1625.4300000000003,-0.00020801629580091685,-0.0002556414110586047,-7.554583862656727e-05,0.0,0.0,0.0,0.0,0.0004363451153039932,0.0030794700141996145,0.0005223914049565792,0.9982997179031372,0.0,0.0,0.0,0.5022132992744446,6.202500820159912,5.975584506988525,-90.901611328125,0
1635.353000000001,-0.0001710163924144581,-0.00019502277427818626,-0.00017003327957354486,0.0,0.0,0.0,0.0,0.002210096223279834,-0.0005544899613596499,0.002410054672509432,0.9984816312789917,0.0,0.0,0.0,0.5097404718399048,6.22255277633667,5.976929664611816,-92.2640380859375,0
1645.2569999999996,-0.00013782529276795685,-0.00024083135940600187,-0.00013122239033691585,0.0,0.0,0.0,0.0,-0.002350147347897291,0.0023319930769503117,0.00047972938045859337,1.0005042552947998,0.0,0.0,0.0,0.5030892491340637,6.212673187255859,5.983218669891357,-91.06015014648438,0
1655.175000000001,-0.00018496550910640508,-0.0002893595374189317,-0.00012970532407052815,0.0,0.0,0.0,0.0,-0.002303870627656579,-0.0005039122188463807,-0.0015283148968592286,0.9994320273399353,0.0,0.0,0.0,0.5017638802528381,6.208176612854004,5.9736409187316895,-90.82025909423828,0
1665.0770000000011,1.9659353711176664e-05,-8.345300739165395e-05,-0.0002701164921745658,0.0,0.0,0.0,0.0,-0.0005766937974840403,0.001251266454346478,0.0011890701716765761,0.9984250664710999,0.0,0.0,0.0,0.5058085322380066,6.266116619110107,6.001580238342285,-91.55235290527344,0
1674.996000000001,-1.9853625417454168e-05,-0.00012196842726552859,-0.00027707943809218705,0.0,0.0,0.0,0.0,0.0013336181873455644,-0.0016313681844621897,0.0006389335612766445,0.9976789951324463,0.0,0.0,0.0,0.5051978230476379,6.255702018737793,5.991804599761963,-91.44181060791016,0
1684.9060000000009,-1.4825281141384039e-05,-7.630236359545961e-05,-0.0003171222051605582,0.0,0.0,0.0,0.0,0.001627642777748406,0.00287073221988976,0.00375048047862947,0.9976994395256042,0.0,0.0,0.0,0.5039470791816711,6.249699115753174,5.987330913543701,-91.21542358398438,0
1694.8199999999997,-5.7783920055953786e-05,-0.00011240725871175528,-0.000329003669321537,0.0,0.0,0.0,0.0,0.0029273303225636482,-0.002373630413785577,5.85245834372472e-05,0.9993342161178589,0.0,0.0,0.0,0.5033913254737854,6.236761093139648,5.978673458099365,-91.11483001708984,0
1704.719000000001,-0.00010389454837422818,-0.0001505373656982556,-0.0003423416637815535,0.0,0.0,0.0,0.0,0.00026231250376440585,-0.0016324151074513793,-0.001373210921883583,1.0008573532104492,0.0,0.0,0.0,0.5026537775993347,6.232326030731201,5.9836835861206055,-90.98133087158203,0
1714.639000000001,-0.00015165314835030586,-0.00019049331604037434,-0.00035571318585425615,0.0,0.0,0.0,0.0,0.0008279189351014793,0.005580618046224117,-0.002663540421053767,0.9998961091041565,0.0,0.0,0.0,0.5023366212844849,6.225841045379639,5.982717037200928,-90.92393493652344,0
1724.5460000000003,-0.0002004820853471756,-0.00023219232389237732,-0.0003685763804242015,0.0,0.0,0.0,0.0,-0.0002797891211230308,-0.0022400266025215387,0.0020184358581900597,1.0009299516677856,0.0,0.0,0.0,0.5009165406227112,6.214066028594971,5.966433525085449,-90.66688537597656,0
1734.464,-0.00025056282174773514,-0.000275417638476938,-0.0003808598266914487,0.0,0.0,0.0,0.0,0.003597778268158436,0.0037715185899287462,0.0013468638062477112,1.00020170211792,0.0,0.0,0.0,0.5012439489364624,6.21111536026001,5.966124534606934,-90.72615051269531,0
1744.3700000000008,-0.0002709722612053156,-0.000214361134567298,-0.00035265294718556106,0.0,0.0,0.0,0.0,-0.00035864004166796803,0.006316911429166794,-0.002454591915011406,0.9988875389099121,0.0,0.0,0.0,0.5039597153663635,6.238022327423096,5.971133232116699,-91.21771240234375,0
1754.2870000000003,-0.0003205901593901217,-0.00024997099535539746,-0.0003612807486206293,0.0,0.0,0.0,0.0,-0.0030624244827777147,0.0002941105340141803,0.0012547518126666546,1.0005122423171997,0.0,0.0,0.0,0.5038122534751892,6.233279228210449,5.955752849578857,-91.1910171508789,0
1764.1900000000005,-0.00033928631455637515,-0.00018171209376305342,-0.00032724213087931275,0.0,0.0,0.0,0.0,0.00021807457960676402,0.0006369751645252109,0.0005247045191936195,1.0005033016204834,0.0,0.0,0.0,0.5122113227844238,6.264763355255127,5.967082977294922,-92.71126556396484,0
1774.112000000001,-0.0003894272376783192,-0.00021165127691347152,-0.000332513329340145,0.0,0.0,0.0,0.0,-0.00014478134107775986,0.001555234077386558,-0.0010635157814249396,0.9987698793411255,0.0,0.0,0.0,0.5097175240516663,6.253973484039307,5.9516119956970215,-92.2598876953125,0
1784.0100000000002,-0.0004409544635564089,-0.00024348970327991992,-0.00033762853126972914,0.0,0.0,0.0,0.0,0.0011067967861890793,-0.0007613059715367854,0.001519962097518146,0.9978601932525635,0.0,0.0,0.0,0.5095986723899841,6.249505519866943,5.952108860015869,-92.2383804321289,0
1793.924000000001,-0.0004940630751661956,-0.0002775941975414753,-0.0003438138810452074,0.0,0.0,0.0,0.0,0.002522180089727044,0.002645377302542329,0.0005181998712942004,0.999988853931427,0.0,0.0,0.0,0.5094223618507385,6.239458084106445,5.9431071281433105,-92.20646667480469,0
1803.8330000000005,-0.0004336087731644511,-0.00013485216186381876,-0.00032660365104675293,0.0,0.0,0.0,0.0,0.001239808276295662,-0.0043641189113259315,0.001406827592290938,1.0006986856460571,0.0,0.0,0.0,0.513088583946228,6.297126770019531,5.972209930419922,-92.87005615234375,0
1813.7559999999994,-0.0004806900105904788,-0.00015980568423401564,-0.0003323241544421762,0.0,0.0,0.0,0.0,0.004639639984816313,-0.0019292053766548634,0.00038746820064261556,0.9990494847297668,0.0,0.0,0.0,0.5139190554618835,6.287538051605225,5.970071792602539,-93.0203628540039,0
1823.6550000000007,-0.00041206335299648345,-3.084156560362317e-05,-0.0003228945133741945,0.0,0.0,0.0,0.0,-0.0005717870662920177,0.0011983874719589949,-0.0017036222852766514,0.999443531036377,0.0,0.0,0.0,0.5201649069786072,6.327511787414551,6.00620174407959,-94.15087127685547,0
1833.58,-0.0004516216868069023,-4.794686537934467e-05,-0.0003285883867647499,0.0,0.0,0.0,0.0,-0.001751190866343677,0.00027354719350114465,-0.00021193159045651555,0.9996695518493652,0.0,0.0,0.0,0.5198496580123901,6.319556713104248,6.000490665435791,-94.09381103515625,0
1843.478000000001,-0.0004924560780636966,-6.758793460903689e-05,-0.00033449780312366784,0.0,0.0,0.0,0.0,0.0010659637628123164,0.0017606313340365887,8.61108346725814e-05,0.9994868040084839,0.0,0.0,0.0,0.5191789269447327,6.319371700286865,5.994805812835693,-93.97241973876953,0
1853.4050000000007,-0.000535526021849364,-8.937813981901854e-05,-0.00034037031582556665,0.0,0.0,0.0,0.0,0.00022991713194642216,0.0033926295582205057,0.0006007528281770647,1.001128077507019,0.0,0.0,0.0,0.5171982049942017,6.311165809631348,5.994929313659668,-93.61390686035156,0
1863.3029999999999,-0.0005810608854517341,-0.00011314246512483805,-0.00034599279752001166,0.0,0.0,0.0,0.0,-0.0014966073213145137,-0.004654000047594309,0.0029464897233992815,1.00080144405365,0.0,0.0,0.0,0.5163626074790955,6.309601306915283,5.976955413818359,-93.46266174316406,0
1873.2200000000012,-0.0006295164930634201,-0.00013848104572389275,-0.00035048191784881055,0.0,0.0,0.0,0.0,0.00012810714542865753,-0.0017180729191750288,0.0032434286549687386,0.9998561143875122,0.0,0.0,0.0,0.516154944896698,6.304102897644043,5.970529079437256,-93.4250717163086,0
1883.1219999999994,-0.0006809883052483201,-0.00016548279381822795,-0.0003541385813150555,0.0,0.0,0.0,0.0,-0.0006782966665923595,-0.0014865786070004106,0.0006148628308437765,1.0007487535476685,0.0,0.0,0.0,0.5167101621627808,6.30319881439209,5.973714828491211,-93.52555847167969,0
1893.0439999999999,-0.0007355508278124034,-0.0001945260155480355,-0.0003573128196876496,0.0,0.0,0.0,0.0,-0.002022207947447896,0.00272928923368454,-0.002064831554889679,1.0019638538360596,0.0,0.0,0.0,0.516830325126648,6.291616439819336,5.971646308898926,-93.54731750488281,0
1902.9539999999997,-0.0007936113397590816,-0.00022605089179705828,-0.0003590627165976912,0.0,0.0,0.0,0.0,0.0010175710776820779,-0.002227491931989789,-0.0004768678918480873,0.99870365858078,0.0,0.0,0.0,0.5160902738571167,6.2866363525390625,5.965133190155029,-93.41336822509766,0
1912.8600000000006,-0.000853853824082762,-0.0002604787878226489,-0.0003597007307689637,0.0,0.0,0.0,0.0,-0.001008208142593503,-0.0024858403485268354,0.0006756567163392901,0.9992912411689758,0.0,0.0,0.0,0.5157341361045837,6.2749457359313965,5.965662479400635,-93.34890747070312,0
1922.773000000001,-0.00027672629221342504,-0.00042521979776211083,0.0002947982575278729,0.0,0.0,0.0,0.0,0.0009259002981707454,-0.00016475912707392126,-0.001880174851976335,0.9988930821418762,0.0,0.0,0.0,0.5058412551879883,6.275359630584717,6.064696311950684,-91.55827331542969,0
1932.6820000000007,-0.00031108641996979713,-0.0004638764075934887,0.0003188715490978211,0.0,0.0,0.0,0.0,-0.0005748359835706651,-0.0036144598852843046,0.003900856478139758,0.9981033802032471,0.0,0.0,0.0,0.5059831142425537,6.264294624328613,6.058509349822998,-91.58395385742188,0
1942.5900000000001,-0.00027235603192821145,-0.00046406223555095494,0.00044494413305073977,0.0,0.0,0.0,0.0,0.00045447927550412714,0.00028578340425156057,0.0011376600014045835,0.9993841648101807,0.0,0.0,0.0,0.5064809918403625,6.2624359130859375,6.058137893676758,-91.67406463623047,0
1952.5020000000004,-0.000304474524455145,-0.0005018569063395262,0.00047205516602844,0.0,0.0,0.0,0.0,-0.0014599058777093887,-8.715309377294034e-05,0.00021033444500062615,0.9996013641357422,0.0,0.0,0.0,0.506909966468811,6.2533392906188965,6.05244779586792,-91.751708984375,0
1962.4120000000003,-0.00024784827837720513,-0.0005528013571165502,0.0005070291226729751,0.0,0.0,0.0,0.0,-0.0012093702098354697,-0.004412827547639608,0.00014919042587280273,0.9966816902160645,0.0,0.0,0.0,0.49771493673324585,6.24329948425293,6.063835144042969,-90.08738708496094,0
1972.3320000000003,-0.0002798187197186053,-0.0005941670387983322,0.0005331655847840011,0.0,0.0,0.0,0.0,0.002549609402194619,0.0018982429755851626,-0.0006952919065952301,0.9974227547645569,0.0,0.0,0.0,0.4959792196750641,6.2318644523620605,6.060205459594727,-89.77322387695312,0
1982.2340000000004,-0.0002567813789937645,-0.0006360278348438442,0.0005655741551890969,0.0,0.0,0.0,0.0,-0.0009505422785878181,-0.0020720032043755054,-0.0020428895950317383,0.9987158179283142,0.0,0.0,0.0,0.4868209660053253,6.221600532531738,6.059345722198486,-88.11557006835938,0
1992.1460000000006,-0.00029239963623695076,-0.0006821271381340921,0.000587963149882853,0.0,0.0,0.0,0.0,0.00244477903470397,-0.0004962907987646759,-0.0026283448096364737,0.9969510436058044,0.0,0.0,0.0,0.4850095212459564,6.217584609985352,6.052651882171631,-87.78768920898438,0
2002.062,-0.0002857287472579628,-0.0007090429426170886,0.0006343894638121128,0.0,0.0,0.0,0.0,-0.0011647086357697845,-0.005375577136874199,-0.0020851735025644302,0.996028482913971,0.0,0.0,0.0,0.47606852650642395,6.216652870178223,6.049895763397217,-86.16935729980469,0
2011.969000000001,-0.00032648054184392095,-0.0007585994899272919,0.0006543743656948209,0.0,0.0,0.0,0.0,0.001060084323398769,-0.0032586506567895412,0.0027394124772399664,0.9997714757919312,0.0,0.0,0.0,0.4751944839954376,6.210383892059326,6.053318977355957,-86.01114654541016,0
2021.8819999999996,-0.0003088725497946143,-0.0007862229831516743,0.00069687410723418,0.0,0.0,0.0,0.0,-0.0009691831655800343,0.0016050938284024596,-0.000656050571706146,1.0002343654632568,0.0,0.0,0.0,0.47617754340171814,6.2019782066345215,6.048338890075684,-86.18907928466797,0
2031.7980000000007,-0.0003541257756296545,-0.0008376266923733056,0.0007164294947870076,0.0,0.0,0.0,0.0,-0.004339595325291157,7.716641994193196e-05,0.0038497759960591793,1.0006375312805176,0.0,0.0,0.0,0.4756980538368225,6.20048713684082,6.044551849365234,-86.102294921875,0
2041.7070000000003,-0.00040215122862719,-0.0008905016584321856,0.0007365514757111669,0.0,0.0,0.0,0.0,-0.004835543222725391,-0.0055197360925376415,-0.0010082372464239597,0.9992769956588745,0.0,0.0,0.0,0.47513487935066223,6.202327728271484,6.03772497177124,-86.00035858154297,0
2051.6139999999996,-0.00045109615894034505,-0.0009448743658140302,0.0007571171154268086,0.0,0.0,0.0,0.0,-0.0003814376541413367,0.0007663356373086572,0.00018085706687998027,0.9988847374916077,0.0,0.0,0.0,0.47486987709999084,6.1982269287109375,6.034271240234375,-85.95238494873047,0
2061.5339999999997,-0.00041067873826250434,-0.0008960286504589021,0.0008641065796837211,0.0,0.0,0.0,0.0,0.003106619929894805,0.001210396527312696,-0.0017584396991878748,0.9986103177070618,0.0,0.0,0.0,0.47031643986701965,6.228370666503906,6.050182342529297,-85.12820434570312,0
2071.4349999999995,-0.0004569083102978766,-0.0009453502716496587,0.000892221461981535,0.0,0.0,0.0,0.0,0.0014445752603933215,0.0030294277239590883,0.0024614452850073576,0.9979649782180786,0.0,0.0,0.0,0.47018635272979736,6.2212395668029785,6.047783851623535,-85.10466766357422,0
2081.3629999999994,-0.00042370468145236373,-0.0009457865380682051,0.0009577212040312588,0.0,0.0,0.0,0.0,0.0027163224294781685,0.0010683855507522821,-0.000247119547566399,0.9978883862495422,0.0,0.0,0.0,0.4706767797470093,6.2123026847839355,6.030898571014404,-85.19342803955078,0
2091.258,-0.0004663010186050087,-0.0009957639267668128,0.000987638020887971,0.0,0.0,0.0,0.0,0.0008334752055816352,-2.8221533284522593e-05,-0.002887734677642584,0.9974599480628967,0.0,0.0,0.0,0.4692038297653198,6.203472137451172,6.021915912628174,-84.92682647705078,0
2101.178,-0.0005097224493511021,-0.0010487973922863603,0.00101568759419024,0.0,0.0,0.0,0.0,-0.0012131583644077182,-0.0028648406732827425,-8.090077608358115e-05,1.0016381740570068,0.0,0.0,0.0,0.4674476683139801,6.20229434967041,6.015140533447266,-84.60896301269531,0
2111.0830000000005,-0.0004348809306975454,-0.0009694312466308475,0.001127538620494306,0.0,0.0,0.0,0.0,0.0006410370697267354,0.0026157924439758062,-0.0012622439535334706,1.000325083732605,0.0,0.0,0.0,0.46876081824302673,6.245873928070068,6.072958469390869,-84.84664154052734,0
2120.999,-0.00014809705317020416,-0.00016237796808127314,-0.00021930801449343562,0.0,0.0,0.0,0.0,0.0037253452464938164,-0.00013319271965883672,0.000995925860479474,0.9978945851325989,0.0,0.0,0.0,0.4747017025947571,6.373106002807617,6.121604919433594,-85.92195129394531,0
