timestamp,stateEstimate.x,stateEstimate.y,stateEstimate.z,controller.cmd_thrust,controller.cmd_roll,controller.cmd_pitch,controller.cmd_yaw,controller.r_roll,controller.r_pitch,controller.r_yaw,controller.accelz,controller.actuatorThrust,controller.roll,controller.pitch,controller.yaw,controller.rollRate,controller.pitchRate,controller.yawRate,controller.ctr_yaw
0.0,-0.0001857233146438375,-0.00015297849313355982,-0.00015529939264524728,0.0,0.0,0.0,0.0,-0.00200654286891222,0.00038563410635106266,0.0017208345234394073,1.0003401041030884,0.0,0.0,0.0,0.3746470510959625,4.381943702697754,4.33487606048584,-67.81185913085938,0
9.905000000000655,-0.00017305600340478122,-0.0001796963915694505,-9.84573780442588e-05,0.0,0.0,0.0,0.0,0.00018921607988886535,-0.0022512839641422033,-5.2268362196628004e-05,0.9995630979537964,0.0,0.0,0.0,0.3739149570465088,4.379583835601807,4.337491512298584,-67.67935180664062,0
19.81500000000051,-0.000190676684724167,-0.00015553877165075392,-0.00016557169146835804,0.0,0.0,0.0,0.0,-0.0008668332011438906,0.003979924600571394,-0.00011682233161991462,0.9978362321853638,0.0,0.0,0.0,0.3734366297721863,4.376045227050781,4.340604305267334,-67.5927734375,0
29.715000000000146,-0.00017025320266839117,-0.00019768522179219872,-0.00011038671800633892,0.0,0.0,0.0,0.0,0.0002106904867105186,-0.003574545029550791,0.0010452826973050833,0.9989913702011108,0.0,0.0,0.0,0.36500662565231323,4.3833417892456055,4.3526611328125,-66.06693267822266,0
39.63199999999961,-0.00018227819236926734,-0.00015949599037412554,-0.0001738694409141317,0.0,0.0,0.0,0.0,-0.0012615361483767629,0.002653843490406871,-0.0018313191831111908,1.0002052783966064,0.0,0.0,0.0,0.36512601375579834,4.379960060119629,4.3505778312683105,-66.08853912353516,0
49.534999999999854,-0.0001711145305307582,-0.00019826946663670242,-0.00012215519382152706,0.0,0.0,0.0,0.0,0.0005514615913853049,-0.0022775428369641304,0.0034316424280405045,0.9982450008392334,0.0,0.0,0.0,0.35709619522094727,4.381893634796143,4.366547584533691,-64.63512420654297,0
59.45299999999952,-0.00020256335847079754,-0.00016667343152221292,-0.00015144790813792497,0.0,0.0,0.0,0.0,0.0002574568206910044,-0.003541523590683937,0.0009928123326972127,1.0001940727233887,0.0,0.0,0.0,0.35716333985328674,4.379603862762451,4.355381965637207,-64.64727783203125,0
69.35800000000017,-0.00013956069597043097,-0.00022134427854325622,-8.486853039357811e-05,0.0,0.0,0.0,0.0,-0.002179899252951145,-0.0016144687542691827,-0.0010176595533266664,1.0005899667739868,0.0,0.0,0.0,0.35773637890815735,4.374928951263428,4.366741180419922,-64.7509994506836,0
79.28199999999924,-0.0002211868850281462,-0.00028975040186196566,-8.442568650934845e-05,0.0,0.0,0.0,0.0,0.0005961070419289172,-0.003135736333206296,0.00020542749552987516,0.9976935982704163,0.0,0.0,0.0,0.3566179573535919,4.370746612548828,4.363727569580078,-64.5485610961914,0
89.17900000000009,-0.00019406153296586126,-0.0001993183686863631,-0.00017995004600379616,0.0,0.0,0.0,0.0,0.0011368489358574152,0.0013072676956653595,0.002625115215778351,0.999916672706604,0.0,0.0,0.0,0.35755953192710876,4.404581546783447,4.391012191772461,-64.71898651123047,0
99.10100000000057,-0.0002742186188697815,-0.00026591733330860734,-0.00018794242350850254,0.0,0.0,0.0,0.0,-0.0012379534309729934,0.0038002056535333395,-0.0006718905060552061,1.0008081197738647,0.0,0.0,0.0,0.35821524262428284,4.401760578155518,4.392059326171875,-64.83767700195312,0
109.003999999999,-0.0003578066825866699,-0.00033506983891129494,-0.00019596681522671133,0.0,0.0,0.0,0.0,0.002516736276447773,-0.0044380114413797855,0.00047173380153253675,1.0014965534210205,0.0,0.0,0.0,0.3568400740623474,4.400816917419434,4.371973514556885,-64.5887680053711,0
118.91699999999946,-0.0004450064152479172,-0.00040653374162502587,-0.00020272274559829384,0.0,0.0,0.0,0.0,0.002024772111326456,-0.005045255180448294,0.0035434032324701548,0.9997075200080872,0.0,0.0,0.0,0.3559642732143402,4.3969244956970215,4.372202396392822,-64.43024444580078,0
128.8150000000005,-0.0004218826361466199,-0.00027116257115267217,-0.00026725608040578663,0.0,0.0,0.0,0.0,0.0003774042415898293,-0.00019701523706316948,0.0002945894666481763,0.9995219707489014,0.0,0.0,0.0,0.35807663202285767,4.457498550415039,4.413527011871338,-64.81258392333984,0
138.72999999999956,-0.0005024546990171075,-0.0003329964238218963,-0.0002764782402664423,0.0,0.0,0.0,0.0,0.000634822528809309,-0.005175021477043629,0.003317764028906822,1.0007163286209106,0.0,0.0,0.0,0.35846957564353943,4.452697277069092,4.419107437133789,-64.88370513916016,0
148.63400000000001,-0.0005854914779774845,-0.00039824185660108924,-0.00028578215278685093,0.0,0.0,0.0,0.0,-0.00137505738530308,0.0028669738676398993,0.00012990832328796387,1.0001347064971924,0.0,0.0,0.0,0.3589998781681061,4.44396448135376,4.419731140136719,-64.97969055175781,0
158.55099999999948,-0.0006714019109494984,-0.0004669952322728932,-0.0002944062289316207,0.0,0.0,0.0,0.0,-0.004117250442504883,-0.0013464728835970163,0.0006766674923710525,1.0000673532485962,0.0,0.0,0.0,0.35929393768310547,4.435991287231445,4.420553207397461,-65.03291320800781,0
168.4509999999991,-0.0005895115900784731,-0.0002787851553875953,-0.0003937954897992313,0.0,0.0,0.0,0.0,-0.0008207953069359064,0.00031718454556539655,0.0037405695766210556,0.998465359210968,0.0,0.0,0.0,0.3638286590576172,4.529824256896973,4.484974384307861,-65.85370635986328,0
178.3670000000002,-0.0006622945656999946,-0.0003316659713163972,-0.00040830360376276076,0.0,0.0,0.0,0.0,0.0012747134314849973,-0.0021004928275942802,-0.0025657499209046364,0.9978467226028442,0.0,0.0,0.0,0.36335551738739014,4.526249408721924,4.484035491943359,-65.76806640625,0
188.27599999999984,-0.0005723427166230977,-0.0001653823273954913,-0.0004839262110181153,0.0,0.0,0.0,0.0,-0.0011889867018908262,0.001067980658262968,0.0004220823757350445,1.0008721351623535,0.0,0.0,0.0,0.3684670329093933,4.5978827476501465,4.5407633781433105,-66.69326782226562,0
198.1859999999997,-0.0006346861482597888,-0.00020571613276842982,-0.0005045417929068208,0.0,0.0,0.0,0.0,-0.0009094123961403966,0.00028480132459662855,0.0008301439229398966,0.9978259205818176,0.0,0.0,0.0,0.3681754171848297,4.588903427124023,4.533385753631592,-66.64048767089844,0
208.09100000000035,-0.0006184917292557657,-0.00013502355432137847,-0.0005400281515903771,0.0,0.0,0.0,0.0,-0.0011463180417194963,0.0002709789259824902,-0.0008581524598412216,1.0003935098648071,0.0,0.0,0.0,0.36806657910346985,4.628327369689941,4.561246395111084,-66.62077331542969,0
218.01699999999983,-0.0006763599230907857,-0.0001709294447209686,-0.0005631934618577361,0.0,0.0,0.0,0.0,0.005051360931247473,-0.00217528291977942,0.00012026826152577996,0.9992349743843079,0.0,0.0,0.0,0.36778995394706726,4.625174045562744,4.552820205688477,-66.57071685791016,0
227.91100000000006,-0.0007356941350735724,-0.00020953340572305024,-0.0005865735001862049,0.0,0.0,0.0,0.0,-0.0008163592428900301,-0.003532994771376252,-0.0012938999570906162,1.0003727674484253,0.0,0.0,0.0,0.3671414256095886,4.61759090423584,4.555487632751465,-66.45333099365234,0
237.82999999999993,-0.0007970078149810433,-0.00025187377468682826,-0.000610007846262306,0.0,0.0,0.0,0.0,-0.0038117028307169676,0.0025885968934744596,0.0002919916878454387,0.9997274279594421,0.0,0.0,0.0,0.3667437732219696,4.610588550567627,4.553212642669678,-66.38134765625,0
247.72999999999956,-0.0008605915354564786,-0.00029782718047499657,-0.0006332006305456161,0.0,0.0,0.0,0.0,0.0013874663272872567,-0.0022139903157949448,0.0019255791557952762,1.000684142112732,0.0,0.0,0.0,0.36663752794265747,4.605867862701416,4.541228294372559,-66.36212158203125,0
257.64999999999964,-0.0009269007132388651,-0.00034641794627532363,-0.0006557967280969024,0.0,0.0,0.0,0.0,-4.9460853915661573e-05,-0.001429521362297237,3.373939762241207e-05,1.0006043910980225,0.0,0.0,0.0,0.3653040826320648,4.602016925811768,4.546538829803467,-66.12076568603516,0
267.5499999999993,-0.0007692513172514737,-9.789741307031363e-05,-0.0006934363627806306,0.0,0.0,0.0,0.0,1.3354245311347768e-05,-0.0027900857385247946,-0.0017645846819505095,1.0006450414657593,0.0,0.0,0.0,0.371942400932312,4.7046990394592285,4.626274585723877,-67.32231140136719,0
277.47199999999975,-0.0008248095982708037,-0.00012954484554938972,-0.0007175577338784933,0.0,0.0,0.0,0.0,9.862147271633148e-05,0.001749261631630361,0.000805145304184407,1.0003918409347534,0.0,0.0,0.0,0.37144315242767334,4.697147846221924,4.628613471984863,-67.23194885253906,0
287.3690000000006,-0.0008824767428450286,-0.00016400052118115127,-0.0007408330566249788,0.0,0.0,0.0,0.0,-0.0032572844065725803,0.0036236639134585857,0.0028655531350523233,0.9978026747703552,0.0,0.0,0.0,0.3715042471885681,4.691630840301514,4.618773937225342,-67.24301147460938,0
297.28399999999965,-0.0009417773690074682,-0.00020067540754098445,-0.0007644452853128314,0.0,0.0,0.0,0.0,0.003188950242474675,-0.001448085531592369,0.0008492096094414592,0.9981344938278198,0.0,0.0,0.0,0.37248703837394714,4.691500663757324,4.613372802734375,-67.4208984375,0
307.1890000000003,-0.001002154080197215,-0.0002393805334577337,-0.0007896876777522266,0.0,0.0,0.0,0.0,0.002347805304452777,0.0013976243790239096,-0.0004297308041714132,0.9985281825065613,0.0,0.0,0.0,0.3726201057434082,4.680737495422363,4.605902194976807,-67.44497680664062,0
317.10399999999936,-0.0010640481486916542,-0.0002805064432322979,-0.000816487183328718,0.0,0.0,0.0,0.0,0.0015495795523747802,-0.0025851018726825714,0.004256450571119785,1.0008602142333984,0.0,0.0,0.0,0.37249132990837097,4.669118881225586,4.6001691818237305,-67.42166900634766,0
327.0110000000004,-0.0002058783284155652,-0.00042279684566892684,0.00015915338008198887,0.0,0.0,0.0,0.0,-0.001975791994482279,-0.0003240852674935013,-0.0005987003678455949,0.9985710382461548,0.0,0.0,0.0,0.37503838539123535,4.679455757141113,4.745657444000244,-67.8826904296875,0
336.9210000000003,-0.0002312244614586234,-0.0004653711221180856,0.00017371321155223995,0.0,0.0,0.0,0.0,0.0030418173409998417,-0.0002571803634054959,0.003791817231103778,0.9982089400291443,0.0,0.0,0.0,0.3748334050178528,4.674578666687012,4.738852500915527,-67.84558868408203,0
346.8279999999995,-0.00015408893523272127,-0.0004662775609176606,0.0003138163883704692,0.0,0.0,0.0,0.0,-0.0005159433931112289,-0.003466844791546464,-0.001948363846167922,0.9977869987487793,0.0,0.0,0.0,0.3754311501979828,4.6655402183532715,4.725552558898926,-67.95378112792969,0
356.7379999999994,-0.00017857583588920534,-0.000508490193169564,0.0003322285192552954,0.0,0.0,0.0,0.0,0.0013342072488740087,0.001788671244867146,0.002242716960608959,0.9996101260185242,0.0,0.0,0.0,0.3758157193660736,4.665001392364502,4.729556560516357,-68.02339935302734,0
366.65300000000025,-0.00015601242193952203,-0.0005358156631700695,0.0003834556555375457,0.0,0.0,0.0,0.0,0.0021578131709247828,-0.0004408356617204845,-0.0008921821136027575,1.000370740890503,0.0,0.0,0.0,0.36975255608558655,4.660858154296875,4.728437900543213,-66.92594909667969,0
376.5660000000007,-0.00018323677068110555,-0.0005821618833579123,0.0004020312335342169,0.0,0.0,0.0,0.0,-0.001766970963217318,0.0027259408961981535,0.0007386273937299848,0.9981557130813599,0.0,0.0,0.0,0.36861276626586914,4.6494574546813965,4.7196269035339355,-66.71965026855469,0
386.47600000000057,-0.00016777642304077744,-0.0005904553108848631,0.0004738720308523625,0.0,0.0,0.0,0.0,0.0019213100895285606,-0.0022433248814195395,-0.007076120935380459,0.9985293745994568,0.0,0.0,0.0,0.36882051825523376,4.6418070793151855,4.712172985076904,-66.75724792480469,0
396.3780000000006,-0.00019837889703921974,-0.0006378648104146123,0.0004946856060996652,0.0,0.0,0.0,0.0,-0.0011595108080655336,-0.003027126658707857,-0.000819881446659565,0.9992712736129761,0.0,0.0,0.0,0.3679329454898834,4.637608528137207,4.718755722045898,-66.59658813476562,0
406.28999999999905,-0.00022944313241168857,-0.0006880066939629614,0.0005141800502315164,0.0,0.0,0.0,0.0,0.0007822770858183503,-0.0010740688303485513,-0.0005555623210966587,0.9985195994377136,0.0,0.0,0.0,0.36708810925483704,4.6338582038879395,4.724275588989258,-66.44367980957031,0
416.2009999999991,-0.00026128601166419685,-0.0007416062871925533,0.0005330455023795366,0.0,0.0,0.0,0.0,-0.0013928684638813138,-0.002540481509640813,0.0007913608569651842,0.9974150061607361,0.0,0.0,0.0,0.36794233322143555,4.627470970153809,4.725733757019043,-66.59829711914062,0
426.11099999999897,-0.00026981477276422083,-0.0007122644456103444,0.0006410324713215232,0.0,0.0,0.0,0.0,-0.001717533334158361,-0.00523193646222353,-0.0013932007132098079,0.9972249865531921,0.0,0.0,0.0,0.3726186454296112,4.661366939544678,4.732654094696045,-67.44471740722656,0
436.0169999999998,-0.0003040948649868369,-0.0007639387040399015,0.0006640111678279936,0.0,0.0,0.0,0.0,0.0009091562242247164,0.0016052750870585442,-0.0020525846630334854,0.9994171857833862,0.0,0.0,0.0,0.37189003825187683,4.6570048332214355,4.739501953125,-67.31282806396484,0
445.9310000000005,-0.0003067364450544119,-0.0007519403588958085,0.0007492603617720306,0.0,0.0,0.0,0.0,0.004000748507678509,-0.004228412173688412,-0.00040470826206728816,0.9979566931724548,0.0,0.0,0.0,0.37111589312553406,4.649755954742432,4.734204292297363,-67.1727066040039,0
455.84300000000076,-0.00034446935751475394,-0.0008029952296055853,0.0007756787235848606,0.0,0.0,0.0,0.0,0.00040492022526450455,0.0017538844840601087,-0.001426434377208352,0.9994533658027649,0.0,0.0,0.0,0.3708966076374054,4.639993190765381,4.736845016479492,-67.13301849365234,0
465.7489999999998,-0.0003447924100328237,-0.0008016980136744678,0.0008576654945500195,0.0,0.0,0.0,0.0,0.004847401287406683,-0.0025721534620970488,-0.002481546951457858,0.9994089603424072,0.0,0.0,0.0,0.3704870939254761,4.6377644538879395,4.731941223144531,-67.05890655517578,0
475.66100000000006,-0.0003846945764962584,-0.0008548928308300674,0.0008880335954017937,0.0,0.0,0.0,0.0,-0.0004892650758847594,0.0004648240574169904,-0.0011550284689292312,1.0005885362625122,0.0,0.0,0.0,0.36956873536109924,4.623499393463135,4.7319793701171875,-66.8926773071289,0
485.5699999999997,-0.0003666260454338044,-0.0008562026778236032,0.000958508811891079,0.0,0.0,0.0,0.0,0.0004448620602488518,-0.00024495215620845556,-0.0007100863149389625,1.0023212432861328,0.0,0.0,0.0,0.36299237608909607,4.63647985458374,4.746018886566162,-65.70233917236328,0
495.47600000000057,-0.0004055513418279588,-0.0009118570014834404,0.0009946322534233332,0.0,0.0,0.0,0.0,0.0005448682350106537,-0.0013685256708413363,0.0002482650161255151,1.0006213188171387,0.0,0.0,0.0,0.3622688055038452,4.635990619659424,4.7436041831970215,-65.57137298583984,0
505.3899999999994,-0.00044524791883304715,-0.0009696721681393683,0.0010323429014533758,0.0,0.0,0.0,0.0,0.0003982031485065818,0.0010640276595950127,0.0011369962012395263,1.0004537105560303,0.0,0.0,0.0,0.362009733915329,4.626855850219727,4.734395503997803,-65.52448272705078,0
515.2999999999993,-0.0004855659499298781,-0.0010298684937879443,0.0010713168885558844,0.0,0.0,0.0,0.0,0.0007792757241986692,0.0027489846106618643,-0.0018585165962576866,0.9989422559738159,0.0,0.0,0.0,0.36097583174705505,4.621087551116943,4.739212512969971,-65.33734130859375,0
525.2109999999993,-0.00014774409646634012,-0.0001441286876797676,-0.00014889072917867452,0.0,0.0,0.0,0.0,-0.002153527457267046,0.004969906527549028,-0.00340023310855031,0.9976312518119812,0.0,0.0,0.0,0.3701637387275696,4.775026321411133,4.7970099449157715,-67.00037384033203,0
535.116,-0.0001720334985293448,-0.00016027942183427513,-0.00014988188922870904,0.0,0.0,0.0,0.0,-0.003291378729045391,0.0009499999578110874,0.0026005308609455824,0.9982251524925232,0.0,0.0,0.0,0.36878326535224915,4.775904655456543,4.777550220489502,-66.75050354003906,0
545.027,-9.828935435507447e-05,-0.00016096838226076216,-5.209654409554787e-05,0.0,0.0,0.0,0.0,0.0009169169934466481,0.005356447771191597,-0.0038981889374554157,1.0006235837936401,0.0,0.0,0.0,0.3684438467025757,4.775702953338623,4.767256259918213,-66.68907165527344,0
554.9380000000001,-0.00011311285925330594,-0.00016277795657515526,-5.868601510883309e-05,0.0,0.0,0.0,0.0,0.001803715480491519,0.0006738635711371899,0.0021119352895766497,0.9974379539489746,0.0,0.0,0.0,0.37583136558532715,4.772300720214844,4.751378059387207,-68.02622985839844,0
564.8469999999998,-8.273621642729267e-05,-0.0001907020341604948,-1.126981896959478e-05,0.0,0.0,0.0,0.0,-0.0003532110422383994,-0.003720351727679372,-0.001488689798861742,0.9976177215576172,0.0,0.0,0.0,0.3750707805156708,4.7614426612854,4.735225677490234,-67.88855743408203,0
574.759,-6.669398862868547e-05,-0.00016872295236680657,-6.522810144815594e-05,0.0,0.0,0.0,0.0,-0.00120465864893049,-0.000919821672141552,-0.005762901157140732,0.9994712471961975,0.0,0.0,0.0,0.37462615966796875,4.763278484344482,4.737251281738281,-67.80807495117188,0
584.6659999999993,-0.000113170754048042,-0.00014223137986846268,-2.9270522645674646e-05,0.0,0.0,0.0,0.0,-0.0015712715685367584,0.0003362195857334882,-0.0017338111065328121,1.000359296798706,0.0,0.0,0.0,0.3751140534877777,4.752357006072998,4.738325119018555,-67.89639282226562,0
594.5750000000007,-0.00010399190796306357,-0.00013169104931876063,-7.612066110596061e-05,0.0,0.0,0.0,0.0,0.0011885517742484808,-0.003980608191341162,0.0032489679288119078,0.9984533786773682,0.0,0.0,0.0,0.3737231492996216,4.750724792480469,4.7316508293151855,-67.64463806152344,0
604.4840000000004,-7.721069414401427e-05,-0.00014371456927619874,-2.8211890821694396e-05,0.0,0.0,0.0,0.0,0.0012181398924440145,0.0027850994374603033,-0.001996427308768034,0.9965881109237671,0.0,0.0,0.0,0.3654937744140625,4.753464221954346,4.740132808685303,-66.15509796142578,0
614.3940000000002,-3.646183540695347e-05,-7.999026274774224e-05,-9.79197138804011e-05,0.0,0.0,0.0,0.0,-0.0015037221601232886,-0.0023809841368347406,0.0018248297274112701,0.9991976022720337,0.0,0.0,0.0,0.36467793583869934,4.7499589920043945,4.730196475982666,-66.00743103027344,0
624.3050000000003,-2.065678927465342e-05,-0.0001365538191748783,-9.16646677069366e-05,0.0,0.0,0.0,0.0,0.0017039550002664328,-0.0013367475476115942,0.0038629688788205385,0.9976932406425476,0.0,0.0,0.0,0.3713947534561157,4.743782043457031,4.748779773712158,-67.22319030761719,0
634.2150000000001,2.0916057110298425e-05,-6.595320155611262e-05,-0.0001642978604650125,0.0,0.0,0.0,0.0,0.000452318781754002,-7.322904275497422e-05,0.00024513519019819796,0.9996929168701172,0.0,0.0,0.0,0.3805496394634247,4.754887580871582,4.7534074783325195,-68.88024139404297,0
644.1270000000004,-5.763188255514251e-06,-9.927640348905697e-05,-0.0001658754190430045,0.0,0.0,0.0,0.0,-0.0026850251015275717,0.0011240065796300769,0.0013223933055996895,1.0000824928283691,0.0,0.0,0.0,0.3797047436237335,4.7448883056640625,4.746840476989746,-68.7273178100586,0
654.0329999999994,-2.6216297555947676e-05,-0.00010935461614280939,-0.00019063433865085244,0.0,0.0,0.0,0.0,-0.0003831005597021431,0.0023274654522538185,0.004027560353279114,1.0009064674377441,0.0,0.0,0.0,0.3797614574432373,4.749019145965576,4.75446081161499,-68.73758697509766,0
663.9449999999997,-5.651651372318156e-05,-0.00011693110718624666,-0.00017126491002272815,0.0,0.0,0.0,0.0,0.0030241890344768763,0.000654947361908853,0.0017870637821033597,0.9977101683616638,0.0,0.0,0.0,0.3798914849758148,4.745727062225342,4.745706558227539,-68.76112365722656,0
673.8529999999992,-0.00010155386553378776,-0.0001487195841036737,-0.0001659435947658494,0.0,0.0,0.0,0.0,0.0012962992768734694,-3.3998702519966173e-07,-0.0005974501837044954,0.9980366826057434,0.0,0.0,0.0,0.3793332576751709,4.737183570861816,4.736281871795654,-68.66007232666016,0
683.7690000000002,-0.00012978709128219634,-0.00018193662981502712,-0.00015455827815458179,0.0,0.0,0.0,0.0,-0.0009816375095397234,-0.002824814524501562,-0.0015738920774310827,0.9996767640113831,0.0,0.0,0.0,0.37939727306365967,4.726594924926758,4.724834442138672,-68.6716537475586,0
693.6829999999991,-0.00014733934949617833,-0.00015672673180233687,-0.0001613539207028225,0.0,0.0,0.0,0.0,-0.0020723287016153336,-0.005118961911648512,-0.0007910117856226861,0.9985880255699158,0.0,0.0,0.0,0.379296213388443,4.720158576965332,4.7276201248168945,-68.65336608886719,0
703.5879999999997,-0.00013148329162504524,-0.00018719237414188683,-0.00012700236402451992,0.0,0.0,0.0,0.0,0.0012041493318974972,-0.005002325400710106,0.0009548793896101415,0.9992256760597229,0.0,0.0,0.0,0.37849703431129456,4.71445894241333,4.727296829223633,-68.50871276855469,0
713.494999999999,-0.00012228569539729506,-0.00015136408910620958,-0.00017906339780893177,0.0,0.0,0.0,0.0,-0.0024978541769087315,-0.0008491917396895587,0.00017641948943492025,0.9998065233230591,0.0,0.0,0.0,0.38487404584884644,4.72670841217041,4.741568088531494,-69.6629638671875,0
723.4099999999999,-0.00014780749916099012,-0.00014585057215299457,-0.00014186279440764338,0.0,0.0,0.0,0.0,-0.002531713340431452,0.0007560784579254687,-0.0017619269201532006,0.9992644786834717,0.0,0.0,0.0,0.3844020962715149,4.719555854797363,4.7434000968933105,-69.57754516601562,0
733.3119999999999,-0.00015924482431728393,-0.0001526540727354586,-0.00019012083066627383,0.0,0.0,0.0,0.0,0.0014864987460896373,0.0002696947776712477,-0.0015008316840976477,0.9999620318412781,0.0,0.0,0.0,0.3835267722606659,4.717707633972168,4.744846820831299,-69.41911315917969,0
743.232,-0.00014495025970973074,-0.000164252778631635,-0.0001443330111214891,0.0,0.0,0.0,0.0,0.0008548074983991683,0.0006545940414071083,0.003326366189867258,0.9993457198143005,0.0,0.0,0.0,0.3829282224178314,4.715239524841309,4.734154224395752,-69.3107681274414,0
753.1319999999996,-0.00015393889043480158,-0.00016172433970496058,-0.00018923378956969827,0.0,0.0,0.0,0.0,-0.0012317905202507973,-0.000989129301160574,-0.0025907407980412245,0.9986761212348938,0.0,0.0,0.0,0.38233113288879395,4.709278106689453,4.730154037475586,-69.20269012451172,0
763.0509999999995,-0.00010741481673903763,-0.00015436419926118106,-0.00011542596621438861,0.0,0.0,0.0,0.0,-0.0003070621460210532,0.0034437542781233788,0.0016048562247306108,0.9998283386230469,0.0,0.0,0.0,0.381696879863739,4.71661376953125,4.730880260467529,-69.08789825439453,0
772.9549999999999,-0.0001063967210939154,-0.0001345770579064265,-0.00016309181228280067,0.0,0.0,0.0,0.0,0.003398649161681533,-0.0003278232761658728,0.0007869377732276917,0.9996585249900818,0.0,0.0,0.0,0.3827059864997864,4.707618236541748,4.717350959777832,-69.27053833007812,0
782.8729999999996,-0.00012522538600023836,-0.0001423116191290319,-0.00012250452709849924,0.0,0.0,0.0,0.0,-0.0017515727085992694,0.001249492634087801,0.0026995737571269274,0.9978559017181396,0.0,0.0,0.0,0.3822590410709381,4.70297384262085,4.720118522644043,-69.18965148925781,0
792.7759999999998,-0.0001622866839170456,-0.00016801738820504397,-0.00013147869321983308,0.0,0.0,0.0,0.0,0.001347521785646677,0.002573304809629917,0.0028796615079045296,0.9977875351905823,0.0,0.0,0.0,0.38284751772880554,4.6984076499938965,4.713951110839844,-69.2961654663086,0
802.6900000000005,-0.00015625015657860786,-0.00018683791859075427,-8.331245771842077e-05,0.0,0.0,0.0,0.0,-0.0013089453568682075,0.0007740113651379943,0.0034899674355983734,1.0000232458114624,0.0,0.0,0.0,0.3828844428062439,4.692351341247559,4.706998348236084,-69.30284881591797,0
812.5939999999991,-0.00016978612984530628,-0.00016651552869006991,-0.00011020513193216175,0.0,0.0,0.0,0.0,-0.0008439274970442057,-0.0007840485777705908,0.001632452243939042,0.999201774597168,0.0,0.0,0.0,0.3831654489040375,4.680740833282471,4.695432186126709,-69.35370635986328,0
822.5120000000006,-0.00015230967255774885,-0.00018857627583201975,-5.576719922828488e-05,0.0,0.0,0.0,0.0,0.0006487533100880682,-0.0010646976297721267,-0.0008775316528044641,1.0004801750183105,0.0,0.0,0.0,0.3834227919578552,4.674483776092529,4.6894683837890625,-69.4002914428711,0
832.4140000000007,-0.00017338787438347936,-0.000189485726878047,-7.782384636811912e-05,0.0,0.0,0.0,0.0,0.0009453078964725137,0.003364627016708255,-0.003669326426461339,1.0000646114349365,0.0,0.0,0.0,0.38282784819602966,4.666721343994141,4.688928127288818,-69.29259490966797,0
842.3349999999991,-0.00012244252138771117,-0.00020685241906903684,3.200501339506445e-07,0.0,0.0,0.0,0.0,0.0030193820130079985,-0.0041203368455171585,-0.0018298234790563583,1.0010349750518799,0.0,0.0,0.0,0.38161006569862366,4.665426731109619,4.688304424285889,-69.07217407226562,0
852.2309999999998,-9.727489668875933e-05,-0.00015319946396630257,-6.779042450943962e-05,0.0,0.0,0.0,0.0,-0.0024113578256219625,0.0014123168075457215,-0.0008113867370411754,0.9981983304023743,0.0,0.0,0.0,0.38010773062705994,4.659525394439697,4.698464393615723,-68.80026245117188,0
862.1479999999992,-0.00012821010022889823,-0.00017889286391437054,-3.3345157135045156e-05,0.0,0.0,0.0,0.0,0.0009086763602681458,-0.0009729586308822036,-0.0037983451038599014,0.998681366443634,0.0,0.0,0.0,0.3792060911655426,4.660187721252441,4.683806419372559,-68.63705444335938,0
872.0529999999999,-0.00011603311577346176,-0.00014600700524169952,-9.669296559877694e-05,0.0,0.0,0.0,0.0,-0.0018041717121377587,-0.0013660567346960306,0.0013182314578443766,0.9994972944259644,0.0,0.0,0.0,0.3792779743671417,4.657296657562256,4.69096565246582,-68.65006256103516,0
881.9719999999998,-0.00014062487753108144,-0.00016792210226412863,-6.008292984915897e-05,0.0,0.0,0.0,0.0,0.001088909455575049,-0.0003287716244813055,4.7657602408435196e-05,0.9988487362861633,0.0,0.0,0.0,0.3791047930717468,4.650895595550537,4.690945625305176,-68.61871337890625,0
891.869999999999,-9.980278991861269e-05,-7.9649209510535e-05,-0.00014119692787062377,0.0,0.0,0.0,0.0,0.0016668125754222274,-0.002241453854367137,-0.004344740882515907,0.9981512427330017,0.0,0.0,0.0,0.38623470067977905,4.666696071624756,4.709134578704834,-69.90924072265625,0
901.7919999999995,-0.00012938522559124976,-9.87766616162844e-05,-0.00011073177302023396,0.0,0.0,0.0,0.0,-0.0024872904177755117,0.004386038985103369,0.00033886710298247635,0.9980443120002747,0.0,0.0,0.0,0.3851742148399353,4.664175987243652,4.70579195022583,-69.71729278564453,0
911.6900000000005,-0.00014679512241855264,-0.00011329323751851916,-0.0001617858069948852,0.0,0.0,0.0,0.0,0.001709544681943953,-0.0017620301805436611,0.0020759019535034895,1.0002819299697876,0.0,0.0,0.0,0.3848121762275696,4.660789966583252,4.700385093688965,-69.65177154541016,0
921.6139999999996,-0.0001514821342425421,-0.00012381718261167407,-0.00011882807302754372,0.0,0.0,0.0,0.0,0.0007465293165296316,-0.0001903531956486404,-0.0032426633406430483,0.9989420771598816,0.0,0.0,0.0,0.38506072759628296,4.654111862182617,4.684396743774414,-69.6967544555664,0
931.5100000000002,-0.00015799187531229109,-0.00010927761468337849,-0.00017244738410227,0.0,0.0,0.0,0.0,0.000711217347998172,0.001997365616261959,0.0037030549719929695,0.998087465763092,0.0,0.0,0.0,0.3846321403980255,4.648789882659912,4.687537670135498,-69.61917877197266,0
941.4300000000003,-0.00017218044376932085,-7.042015204206109e-05,-0.00010247075988445431,0.0,0.0,0.0,0.0,0.001895615947432816,0.003018502378836274,-0.0008793799206614494,1.0003855228424072,0.0,0.0,0.0,0.38559848070144653,4.639021396636963,4.673845291137695,-69.7940902709961,0
951.3349999999991,-0.00021407520398497581,-9.113727719523013e-05,-0.00011636067210929468,0.0,0.0,0.0,0.0,-0.0029337441083043814,0.006483311764895916,-0.0014501581899821758,1.001166582107544,0.0,0.0,0.0,0.3850984573364258,4.6306610107421875,4.661249160766602,-69.7035903930664,0
961.2520000000004,-0.00016932620201259851,-0.0001453673030482605,-7.588721928186715e-05,0.0,0.0,0.0,0.0,0.001691434532403946,0.002921094186604023,0.00024878064868971705,1.0008927583694458,0.0,0.0,0.0,0.38530755043029785,4.630771160125732,4.6474432945251465,-69.7414321899414,0
971.1550000000007,-0.00022837254800833762,-0.00020481232786551118,-7.571061723865569e-05,0.0,0.0,0.0,0.0,-0.0023022107779979706,-0.003566630417481065,-0.001642927061766386,0.999203085899353,0.0,0.0,0.0,0.383958637714386,4.618507385253906,4.635303020477295,-69.49727630615234,0
981.0740000000005,-0.00018000822456087917,-0.000218228466110304,-2.6981959308614023e-05,0.0,0.0,0.0,0.0,0.0026766289956867695,0.0013472429709509015,0.0012160266051068902,1.0010192394256592,0.0,0.0,0.0,0.38354063034057617,4.613193988800049,4.630859375,-69.42162322998047,0
990.9689999999991,-0.0001292292436119169,-0.00014306810044217855,-0.00016416139260400087,0.0,0.0,0.0,0.0,0.0005337502807378769,-0.002784253330901265,-0.002374108415096998,0.9982432723045349,0.0,0.0,0.0,0.3826602101325989,4.611549377441406,4.625374794006348,-69.26225280761719,0
1000.893,-0.000137896669912152,-0.00015274413453880697,-0.00011888208973687142,0.0,0.0,0.0,0.0,0.0028446170035749674,-0.006251187529414892,0.0026403055526316166,0.9997353553771973,0.0,0.0,0.0,0.3815717101097107,4.610098361968994,4.624900817871094,-69.06523895263672,0
1010.7919999999995,-0.00012365577276796103,-0.00012279559450689703,-0.0002112254296662286,0.0,0.0,0.0,0.0,-0.0005443235859274864,0.0015940552111715078,0.0008497115923091769,1.000643014907837,0.0,0.0,0.0,0.38051047921180725,4.600348949432373,4.630436897277832,-68.87316131591797,0
1020.7150000000001,-8.696740405866876e-05,-0.0001680183777352795,-0.00017361239588353783,0.0,0.0,0.0,0.0,0.003691259538754821,-0.00012408259499352425,-0.0013124692486599088,0.998481273651123,0.0,0.0,0.0,0.3803432285785675,4.592283248901367,4.626068115234375,-68.84288024902344,0
1030.6119999999992,-6.909239891683683e-05,-0.00011365301179466769,-0.00024336989736184478,0.0,0.0,0.0,0.0,0.0011712356936186552,0.0010551208397373557,-0.00010202873090747744,1.0005571842193604,0.0,0.0,0.0,0.3782593309879303,4.5847978591918945,4.629307746887207,-68.46569061279297,0
1040.5339999999997,-6.472217501141131e-05,-0.00013982359087094665,-0.00020734606368932873,0.0,0.0,0.0,0.0,-0.0024539590813219547,-0.0022481181658804417,0.0009015441755764186,1.000795602798462,0.0,0.0,0.0,0.3780614137649536,4.583476543426514,4.628384113311768,-68.42987060546875,0
1050.4279999999999,-3.5317178117111325e-05,-6.389117334038019e-05,-0.0002818685316015035,0.0,0.0,0.0,0.0,-0.001962037291377783,-0.0035181401763111353,0.002027228707447648,0.9996821880340576,0.0,0.0,0.0,0.384764701128006,4.605128765106201,4.636937141418457,-69.64317321777344,0
1060.3500000000004,-8.587796764913946e-05,-9.434774983674288e-05,-0.0002734852605499327,0.0,0.0,0.0,0.0,-0.0007388131343759596,-0.0014345378149300814,-0.0018158245366066694,0.9999476671218872,0.0,0.0,0.0,0.385151207447052,4.604018688201904,4.639408111572266,-69.713134765625,0
1070.2489999999998,-0.00010267650213791057,-7.153108163038269e-05,-0.00029776658629998565,0.0,0.0,0.0,0.0,0.0009087236248888075,0.0008497958187945187,-0.0038187436293810606,1.0012112855911255,0.0,0.0,0.0,0.38531604409217834,4.606254577636719,4.634134292602539,-69.74297332763672,0
1080.1620000000003,-5.5270149459829554e-05,-0.00010684443259378895,-0.0002523435978218913,0.0,0.0,0.0,0.0,-0.000824093644041568,0.0019918852485716343,0.0004204954020678997,1.0002496242523193,0.0,0.0,0.0,0.3837435245513916,4.602674961090088,4.630722999572754,-69.45834350585938,0
1090.066999999999,-9.803484135773033e-05,-0.00014234150876291096,-0.00026137527311220765,0.0,0.0,0.0,0.0,-0.0011997193796560168,-0.0017325065564364195,-0.0008026082068681717,0.999755322933197,0.0,0.0,0.0,0.38373643159866333,4.600073337554932,4.624500751495361,-69.45706176757812,0
1099.9869999999992,-8.531248022336513e-05,-0.00015896346303634346,-0.00021269010903779417,0.0,0.0,0.0,0.0,0.0009557704324834049,0.006637288723140955,0.0012280720984563231,1.0003589391708374,0.0,0.0,0.0,0.38272830843925476,4.586898326873779,4.622631549835205,-69.27458953857422,0
1109.8899999999994,-0.00011195203842362389,-0.00016388682706747204,-0.00023024478286970407,0.0,0.0,0.0,0.0,0.0007354804547503591,-0.002665015636011958,-7.709801866440102e-05,0.9994068145751953,0.0,0.0,0.0,0.3821869492530823,4.580644130706787,4.6106390953063965,-69.17659759521484,0
1119.8060000000005,-0.00010283397568855435,-0.0001750705559970811,-0.00017174305685330182,0.0,0.0,0.0,0.0,0.003215536242350936,-0.00032554802601225674,-0.0005615261034108698,0.9998522996902466,0.0,0.0,0.0,0.3814290463924408,4.57508659362793,4.6110944747924805,-69.03941345214844,0
1129.7080000000005,-0.00012570175749715418,-0.00017632514936849475,-0.00019513700681272894,0.0,0.0,0.0,0.0,0.0012081301538273692,0.000365653308108449,-0.0019917746540158987,0.9994297623634338,0.0,0.0,0.0,0.37974029779434204,4.568044662475586,4.604486465454102,-68.73374938964844,0
1139.6280000000006,-9.396070527145639e-05,-0.00021347342408262193,-0.00013665304868482053,0.0,0.0,0.0,0.0,0.001504922634921968,-0.006974466145038605,-0.0016248102765530348,0.9975705146789551,0.0,0.0,0.0,0.3796842098236084,4.558676242828369,4.5989460945129395,-68.72360229492188,0
1149.5259999999998,-9.354402573080733e-05,-0.00017987846513278782,-0.0001774065021891147,0.0,0.0,0.0,0.0,0.0024376721121370792,0.0014183887979015708,-0.00125215295702219,0.9994482398033142,0.0,0.0,0.0,0.3798762559890747,4.547898292541504,4.600644588470459,-68.75836181640625,0
1159.4529999999995,-0.00012642645742744207,-0.0002033253404079005,-0.00013665300502907485,0.0,0.0,0.0,0.0,-8.122284634737298e-05,-0.0019222375703975558,0.0005286505329422653,1.0014206171035767,0.0,0.0,0.0,0.379161536693573,4.542893886566162,4.601522445678711,-68.62899017333984,0
1169.3529999999992,-0.00017669277440290898,-0.000245002971496433,-0.00014383275993168354,0.0,0.0,0.0,0.0,-0.0008534856606274843,0.0014934008941054344,-0.0023360485211014748,1.0004632472991943,0.0,0.0,0.0,0.3793487250804901,4.540186882019043,4.597201824188232,-68.6628646850586,0
1179.262999999999,-0.00014554557856172323,-0.00024233055592048913,-4.748178253066726e-05,0.0,0.0,0.0,0.0,0.0011051669716835022,-0.001240575686097145,0.0023865841794759035,0.9994863271713257,0.0,0.0,0.0,0.37913891673088074,4.536839962005615,4.589062690734863,-68.62489318847656,0
1189.1679999999997,-0.00015545358473900706,-0.00021192169515416026,-7.219916005851701e-05,0.0,0.0,0.0,0.0,5.788806083728559e-05,-0.0042416928336024284,0.001028696889989078,0.9999269843101501,0.0,0.0,0.0,0.37816959619522095,4.537525653839111,4.576356410980225,-68.44945526123047,0
1199.0879999999997,-0.00010731480870163068,-0.00024036678951233625,9.32861803448759e-06,0.0,0.0,0.0,0.0,0.0007844553329050541,0.0015397178940474987,0.0026190425269305706,0.9988571405410767,0.0,0.0,0.0,0.3782363533973694,4.534502983093262,4.578619003295898,-68.4615249633789,0
1208.9869999999992,-0.00012184926890768111,-0.00022519147023558617,-1.3057298019703012e-05,0.0,0.0,0.0,0.0,-0.00219836737960577,-0.00012847183097619563,6.91631285008043e-05,0.9989003539085388,0.0,0.0,0.0,0.37841224670410156,4.531145095825195,4.574294567108154,-68.49337005615234,0
1218.9009999999998,-0.00010698952246457338,-0.0002486039884388447,5.713893915526569e-05,0.0,0.0,0.0,0.0,-0.001884703990072012,7.2417278715875e-05,-0.0013153401669114828,0.9991142153739929,0.0,0.0,0.0,0.3772471845149994,4.527713775634766,4.569940567016602,-68.28248596191406,0
1228.8099999999995,-8.601229637861252e-05,-0.00020088665769435465,-6.204553301358828e-06,0.0,0.0,0.0,0.0,-0.0013996479101479053,-4.345874060618371e-07,-0.000992586719803512,1.000410795211792,0.0,0.0,0.0,0.37665343284606934,4.524650573730469,4.564079284667969,-68.17501831054688,0
1238.7250000000004,-8.845853881211951e-05,-0.00020751188276335597,6.055554695194587e-05,0.0,0.0,0.0,0.0,-0.0008352979784831405,-0.004086298868060112,0.0017894749762490392,0.9991345405578613,0.0,0.0,0.0,0.3764638602733612,4.518617153167725,4.557018280029297,-68.14070892333984,0
1248.625,-4.0072667616186664e-05,-0.00012762042752001435,-3.10374925902579e-05,0.0,0.0,0.0,0.0,-0.00016940697969403118,-0.002575485035777092,1.863705278992711e-06,0.9978506565093994,0.0,0.0,0.0,0.37629109621047974,4.513354301452637,4.551090240478516,-68.10943603515625,0
1258.545,-0.0001033649969031103,-0.00014767187531106174,-6.2040080592851155e-06,0.0,0.0,0.0,0.0,-0.00044308166252449155,-0.001588737708516419,-0.0008749178959988058,0.9997631311416626,0.0,0.0,0.0,0.3761996030807495,4.50864315032959,4.552340030670166,-68.0928726196289,0
1268.4490000000005,-8.530418563168496e-05,-9.030840737977996e-05,-6.950191891519353e-05,0.0,0.0,0.0,0.0,0.0009316629730165005,-0.0022235705982893705,0.004486710298806429,1.0000044107437134,0.0,0.0,0.0,0.3767901659011841,4.504502296447754,4.554687023162842,-68.19977569580078,0
1278.369999999999,-8.512940257787704e-05,-0.00014602791634388268,-4.33449495176319e-05,0.0,0.0,0.0,0.0,0.0029673881363123655,-0.0008009423036128283,-0.002626699861139059,0.9994505643844604,0.0,0.0,0.0,0.3766581416130066,4.49576997756958,4.556506156921387,-68.17587280273438,0
1288.2649999999994,-9.189984848489985e-05,-0.0001288954954361543,-9.038222924573347e-05,0.0,0.0,0.0,0.0,-0.0010819254675880075,0.0009422163711860776,-0.003508244641125202,0.9982891082763672,0.0,0.0,0.0,0.3772725462913513,4.493661880493164,4.560090065002441,-68.28707885742188,0
1298.1800000000003,-0.00012094603152945638,-0.0001489441201556474,-5.955106462351978e-05,0.0,0.0,0.0,0.0,0.00021140171156730503,-0.0014558484544977546,0.0032469569705426693,0.9972564578056335,0.0,0.0,0.0,0.3764219582080841,4.487665176391602,4.5487589836120605,-68.13312530517578,0
1308.0859999999993,-0.00013099868374411017,-0.0001421991764800623,-0.00011308570537948981,0.0,0.0,0.0,0.0,0.0022347320336848497,-0.0035825977101922035,0.0014267850201576948,0.9988580346107483,0.0,0.0,0.0,0.37691977620124817,4.48322868347168,4.546191215515137,-68.22323608398438,0
1318.0020000000004,-0.00010467854008311406,-0.00015225530660245568,-5.6912467698566616e-05,0.0,0.0,0.0,0.0,0.0003898224967997521,-0.0014194638933986425,-0.0002534708473831415,0.9991422295570374,0.0,0.0,0.0,0.37528958916664124,4.484588146209717,4.551828861236572,-67.92816162109375,0
1327.9089999999997,-0.00012048835924360901,-0.00015175445878412575,-0.0001048420017468743,0.0,0.0,0.0,0.0,-0.000998657662421465,-0.0012487050844356418,-0.0006713671609759331,0.9992586970329285,0.0,0.0,0.0,0.37519410252571106,4.478170871734619,4.55891227722168,-67.91088104248047,0
1337.8240000000005,-8.894916391000152e-05,-0.00020173488883301616,-6.616783502977341e-05,0.0,0.0,0.0,0.0,0.0031300419941544533,-0.0003068237565457821,4.957968485541642e-06,0.9982449412345886,0.0,0.0,0.0,0.37511146068573,4.476396083831787,4.5608391761779785,-67.89591979980469,0
1347.7260000000006,-0.00015139805327635258,-0.000262369925621897,-6.968005618546158e-05,0.0,0.0,0.0,0.0,0.002386275213211775,-0.00036808379809372127,-0.0018320131348446012,0.9985621571540833,0.0,0.0,0.0,0.3749869763851166,4.467155456542969,4.556246757507324,-67.8733901977539,0
1357.6569999999992,-9.008228516904637e-05,-0.000289128947770223,-3.116330481134355e-05,0.0,0.0,0.0,0.0,-0.0016534647438675165,9.044643229572102e-05,0.00016896952001843601,0.9985601902008057,0.0,0.0,0.0,0.3686070442199707,4.469232559204102,4.580776214599609,-66.7186050415039,0
1367.548999999999,-7.609143358422443e-05,-0.00024669020785950124,-0.00011680502211675048,0.0,0.0,0.0,0.0,-0.00013121894153300673,-0.0011884684208780527,-0.0006293171318247914,0.9983712434768677,0.0,0.0,0.0,0.3694444000720978,4.470591068267822,4.583157539367676,-66.87017822265625,0
1377.4689999999991,-0.00010056388418888673,-0.0002527605392970145,-7.444715447491035e-05,0.0,0.0,0.0,0.0,-0.00040081783663481474,-0.0031851569656282663,0.00037110052653588355,0.999732494354248,0.0,0.0,0.0,0.367480605840683,4.468389511108398,4.579118728637695,-66.51472473144531,0
1387.3629999999994,-5.83568362344522e-05,-0.00017376634059473872,-0.0001906784891616553,0.0,0.0,0.0,0.0,0.0011816099286079407,-0.00039363137329928577,-0.00025677011581137776,1.000258445739746,0.0,0.0,0.0,0.3739105761051178,4.487876892089844,4.593098163604736,-67.67855834960938,0
1397.2819999999992,-6.229610880836844e-05,-0.0001478127232985571,-0.00013038329780101776,0.0,0.0,0.0,0.0,0.0003885455953422934,0.007531388662755489,0.0004137125797569752,1.0010932683944702,0.0,0.0,0.0,0.37401583790779114,4.486641883850098,4.588568210601807,-67.6976089477539,0
1407.1820000000007,-2.735644011409022e-05,-6.530534301418811e-05,-0.00021844844741281122,0.0,0.0,0.0,0.0,0.00014274388377089053,0.004034026525914669,0.003799533937126398,1.0012733936309814,0.0,0.0,0.0,0.37329259514808655,4.480526447296143,4.568546772003174,-67.56670379638672,0
1417.1049999999996,-4.4429165427573025e-05,-9.259751823265105e-05,-0.0001972262398339808,0.0,0.0,0.0,0.0,-0.0013551221927627921,0.003043993143364787,-0.0001009511761367321,0.9987863898277283,0.0,0.0,0.0,0.37309640645980835,4.478597164154053,4.549745082855225,-67.53118896484375,0
1427.0110000000004,-7.295300019904971e-05,-0.00010952314187306911,-0.0002248173695988953,0.0,0.0,0.0,0.0,-0.0035353777930140495,-0.005879251752048731,-0.0010454256553202868,0.9989222884178162,0.0,0.0,0.0,0.3723980784416199,4.4732561111450195,4.541440963745117,-67.40480041503906,0
1436.929,-6.480278534581885e-05,-0.00014416432532016188,-0.00019578670617192984,0.0,0.0,0.0,0.0,0.0016728590708225965,0.002574619837105274,-0.0024274440947920084,0.9996753334999084,0.0,0.0,0.0,0.37230533361434937,4.4737677574157715,4.548379421234131,-67.38801574707031,0
1446.825999999999,-8.240972238127142e-05,-0.00014198232383932918,-0.00022490810079034418,0.0,0.0,0.0,0.0,0.001820328994654119,-0.0018714001635089517,0.002617972670122981,0.9988528490066528,0.0,0.0,0.0,0.37209510803222656,4.46309757232666,4.53143310546875,-67.34996032714844,0
1456.7420000000002,-0.0001235289528267458,-0.00012919242726638913,-0.00018768676090985537,0.0,0.0,0.0,0.0,-0.0009769045282155275,-0.009149571880698204,-0.0009952515829354525,0.9985708594322205,0.0,0.0,0.0,0.37209251523017883,4.455806732177734,4.524646282196045,-67.3494873046875,0
1466.646999999999,-0.00012468142085708678,-8.459720993414521e-05,-0.0002209291997132823,0.0,0.0,0.0,0.0,-0.0003701005771290511,-0.0030228164978325367,0.001177032245323062,0.9997259378433228,0.0,0.0,0.0,0.37878793478012085,4.474640369415283,4.547563552856445,-68.56136322021484,0
1476.5660000000007,-0.0001259658602066338,-0.00010768773063318804,-0.00018751330208033323,0.0,0.0,0.0,0.0,-0.0013705540914088488,-0.0008996745455078781,0.0018893420929089189,1.000823736190796,0.0,0.0,0.0,0.378858357667923,4.468758583068848,4.546494483947754,-68.57411193847656,0
1486.4609999999993,-0.00014865760749671608,-0.00010962548549287021,-0.00022649101447314024,0.0,0.0,0.0,0.0,-0.0028731180354952812,0.0009667866979725659,0.004548016935586929,1.0006359815597534,0.0,0.0,0.0,0.37852320075035095,4.466511249542236,4.549740314483643,-68.5134506225586,0
1496.3780000000006,-0.00015332938346546143,-0.00012033570237690583,-0.0001828078384278342,0.0,0.0,0.0,0.0,0.00034048964153043926,-0.0005181020242162049,-0.0027871686033904552,0.9994499683380127,0.0,0.0,0.0,0.37805601954460144,4.463420867919922,4.537197113037109,-68.42888641357422,0
1506.2819999999992,-0.00016175386554095894,-0.00010315946565242484,-0.0002256547741126269,0.0,0.0,0.0,0.0,0.000538540305569768,0.0047664823941886425,-0.003062252188101411,0.9998684525489807,0.0,0.0,0.0,0.3778237998485565,4.454159259796143,4.541843414306641,-68.3868637084961,0
1516.2029999999995,-0.00014297416782937944,-0.00011362966324668378,-0.000171376159414649,0.0,0.0,0.0,0.0,0.0016567441634833813,-0.0013738855486735702,-0.002076441887766123,1.0000358819961548,0.0,0.0,0.0,0.37651675939559937,4.45240592956543,4.5249738693237305,-68.1502914428711,0
1526.1129999999994,-0.00015223408991005272,-9.734188643051311e-05,-0.0002116250980179757,0.0,0.0,0.0,0.0,0.0003947222721762955,0.0015932698734104633,-0.004160378128290176,1.0002583265304565,0.0,0.0,0.0,0.3755717873573303,4.442069053649902,4.522054672241211,-67.97924041748047,0
1536.0229999999992,-9.824391599977389e-05,-0.0001564639387652278,-0.00016701190907042474,0.0,0.0,0.0,0.0,0.0010379442246630788,0.005508824717253447,0.0009476138511672616,0.9966514706611633,0.0,0.0,0.0,0.3739023804664612,4.4408979415893555,4.513929843902588,-67.67707824707031,0
1545.9230000000007,-0.00012334961502347142,-0.00017335379379801452,-0.0001967359712580219,0.0,0.0,0.0,0.0,-0.0002720808843150735,-0.003009996609762311,0.0015067205531522632,0.9980422258377075,0.0,0.0,0.0,0.37317100167274475,4.436093330383301,4.498852729797363,-67.5447006225586,0
1555.8410000000003,-9.47436346905306e-05,-0.00019494062871672213,-0.00013662470155395567,0.0,0.0,0.0,0.0,0.0005682387272827327,0.008144304156303406,0.0010874292347580194,0.9997049570083618,0.0,0.0,0.0,0.3728969097137451,4.43278169631958,4.501811504364014,-67.49507904052734,0
1565.7459999999992,-9.84045909717679e-05,-0.00017518016102258116,-0.00017976781236939132,0.0,0.0,0.0,0.0,-0.002410936402156949,-0.0022502217907458544,0.0020023032557219267,1.0013636350631714,0.0,0.0,0.0,0.37183669209480286,4.425496578216553,4.485219955444336,-67.30317687988281,0
1575.6630000000005,-7.001454650890082e-05,-0.00020455144112929702,-0.00012649329437408596,0.0,0.0,0.0,0.0,-0.0019857713486999273,0.0006118820165283978,-0.0006766330334357917,0.9975711703300476,0.0,0.0,0.0,0.3715040385723114,4.425589084625244,4.487725734710693,-67.24297332763672,0
1585.5599999999995,-6.360359111567959e-05,-0.0001543646358186379,-0.00016155098273884505,0.0,0.0,0.0,0.0,0.0007483866065740585,0.001147173112258315,-0.0027911418583244085,0.9992948174476624,0.0,0.0,0.0,0.370867520570755,4.421859264373779,4.484875679016113,-67.12775421142578,0
1595.4779999999992,-4.603241541190073e-05,-0.00020822501392103732,-0.00012379518011584878,0.0,0.0,0.0,0.0,0.001681425143033266,-0.0006539479363709688,0.0016695968806743622,1.002219557762146,0.0,0.0,0.0,0.370643675327301,4.418828010559082,4.4761061668396,-67.08724212646484,0
1605.3799999999992,-3.953563282266259e-05,-0.0001460464991396293,-0.00015399092808365822,0.0,0.0,0.0,0.0,0.0014585967874154449,-0.001247268752194941,-0.003106540534645319,1.0008982419967651,0.0,0.0,0.0,0.3714326322078705,4.4090657234191895,4.465888023376465,-67.23004913330078,0
1615.3050000000003,-4.8021465772762895e-05,-0.00017602159641683102,-0.00011131895007565618,0.0,0.0,0.0,0.0,0.001254988368600607,-0.0009476184495724738,-0.00147426116745919,0.999988317489624,0.0,0.0,0.0,0.3701547682285309,4.400157451629639,4.458535671234131,-66.9987564086914,0
1625.205,-5.6375632993876934e-05,-0.00015499159053433686,-0.00014523591380566359,0.0,0.0,0.0,0.0,-0.0019528813427314162,-0.0019430705578997731,-0.0015486160991713405,0.99812251329422,0.0,0.0,0.0,0.36975833773612976,4.391946792602539,4.44911003112793,-66.927001953125,0
1635.1309999999994,-7.199667015811428e-05,-0.0001779477170202881,-9.591492562321946e-05,0.0,0.0,0.0,0.0,0.0022900975309312344,0.006154783070087433,0.002048279158771038,0.9996111392974854,0.0,0.0,0.0,0.3694712221622467,4.391022205352783,4.458554267883301,-66.8750228881836,0
1645.0300000000007,-0.00010756309347925708,-0.00018334123888053,-0.0001013303772197105,0.0,0.0,0.0,0.0,-0.004603179637342691,-0.0023534304928034544,0.00020112104539293796,0.9982626438140869,0.0,0.0,0.0,0.3694489002227783,4.380340099334717,4.450494766235352,-66.87098693847656,0
1654.950999999999,-0.0001395626604789868,-0.00019414494454395026,-4.9862803280120715e-05,0.0,0.0,0.0,0.0,-0.003057544818148017,-0.0011742778588086367,-0.0006181845092214644,0.9991469979286194,0.0,0.0,0.0,0.3696642518043518,4.382655620574951,4.452199459075928,-66.90996551513672,0
1664.8469999999998,-0.00016281990974675864,-0.00018523990001995116,-7.249328336911276e-05,0.0,0.0,0.0,0.0,0.004324307665228844,0.0014435090124607086,-0.004791914019733667,1.0009592771530151,0.0,0.0,0.0,0.37599632143974304,4.391148567199707,4.453916072845459,-68.05609130859375,0
1674.7620000000006,-0.00014614815881941468,-0.00020990148186683655,-7.154880677262554e-06,0.0,0.0,0.0,0.0,-0.002118148375302553,0.00026517981314100325,-8.21621433715336e-05,1.0017061233520508,0.0,0.0,0.0,0.37666988372802734,4.386155605316162,4.447661876678467,-68.17799377441406,0
1684.67,-0.00015726960555184633,-0.00018529122462496161,-4.8321744543500245e-05,0.0,0.0,0.0,0.0,0.0037957937456667423,-0.000573405995965004,0.004753053188323975,0.9983699321746826,0.0,0.0,0.0,0.37582340836524963,4.386251926422119,4.439955711364746,-68.02479553222656,0
1694.5849999999991,-0.00019573949975892901,-0.0002185580669902265,-1.0493993613636121e-05,0.0,0.0,0.0,0.0,-0.0009690733859315515,-0.006578037980943918,0.000691000372171402,0.9980623722076416,0.0,0.0,0.0,0.37622931599617004,4.3756303787231445,4.440361499786377,-68.09825897216797,0
1704.4850000000006,-0.00018911960069090128,-0.00018041282601188868,-6.777940143365413e-05,0.0,0.0,0.0,0.0,0.001058909809216857,0.0008092406787909567,0.0009365020086988807,0.9969028830528259,0.0,0.0,0.0,0.37634971737861633,4.375740051269531,4.448020935058594,-68.12004852294922,0
1714.4120000000003,-0.0002140626747859642,-0.00023754411085974425,-3.89328743040096e-05,0.0,0.0,0.0,0.0,0.0010112011805176735,0.00032356588053517044,-0.002032219199463725,0.9981035590171814,0.0,0.0,0.0,0.3682701587677002,4.374300479888916,4.450921058654785,-66.65763092041016,0
1724.3060000000005,-0.00020849215798079967,-0.000210687518119812,-0.00010956655751215294,0.0,0.0,0.0,0.0,-0.0023785780649632215,-0.0019410325912758708,-0.002254500985145569,1.0005167722702026,0.0,0.0,0.0,0.3679696321487427,4.370761871337891,4.442075252532959,-66.60322570800781,0
1734.223,-0.00022719407570548356,-0.00023807059915270656,-6.612717697862536e-05,0.0,0.0,0.0,0.0,0.0033824066631495953,0.0016378266736865044,-0.002220969879999757,0.9981621503829956,0.0,0.0,0.0,0.3671766221523285,4.3697638511657715,4.443997383117676,-66.4596939086914,0
1744.125,-0.0002012505428865552,-0.00020229959045536816,-0.00017195779946632683,0.0,0.0,0.0,0.0,-0.001211620750837028,-0.0017431552987545729,-3.582150748115964e-05,0.9999521374702454,0.0,0.0,0.0,0.3665667474269867,4.356776714324951,4.4248552322387695,-66.34931182861328,0
1754.0380000000005,-0.00021615339210256934,-0.00023030576994642615,-0.0001287339982809499,0.0,0.0,0.0,0.0,0.0003874461690429598,7.583554543089122e-05,0.004612294491380453,1.000257134437561,0.0,0.0,0.0,0.3665616810321808,4.346121788024902,4.419765472412109,-66.34839630126953,0
1763.9439999999995,-0.00021429288608487695,-0.0002050676557701081,-0.00020398957713041455,0.0,0.0,0.0,0.0,0.001140404725447297,0.001153996679931879,0.004183959681540728,0.9989113211631775,0.0,0.0,0.0,0.36723488569259644,4.34124231338501,4.4162211418151855,-66.4702377319336,0
1773.8590000000004,-0.0001755027042236179,-0.0002294693695148453,-0.00013658805983141065,0.0,0.0,0.0,0.0,0.0004953657044097781,0.0007198377861641347,0.005806727334856987,1.000301718711853,0.0,0.0,0.0,0.3677772283554077,4.331608295440674,4.4108357429504395,-66.56841278076172,0
1783.759,-0.00013986400153953582,-0.0001468714326620102,-0.00023228263307828456,0.0,0.0,0.0,0.0,-0.0011562370928004384,-0.0014402788365259767,0.0019184048287570477,0.9999028444290161,0.0,0.0,0.0,0.3684788942337036,4.321582794189453,4.406012535095215,-66.69541931152344,0
1793.688,-0.00015077725402079523,-0.00018842756981030107,-0.00018666805408429354,0.0,0.0,0.0,0.0,-0.0015814175130799413,0.0003257941862102598,0.0029608760960400105,1.0012351274490356,0.0,0.0,0.0,0.36153170466423035,4.329174041748047,4.418481349945068,-65.43795776367188,0
1803.5779999999995,-0.00015548800001852214,-0.00016102987865451723,-0.00024962524184957147,0.0,0.0,0.0,0.0,-0.000362718797987327,0.0001358693407382816,0.00011534980876604095,0.9986497759819031,0.0,0.0,0.0,0.36170122027397156,4.327527046203613,4.414854049682617,-65.46864318847656,0
1813.4989999999998,-0.000130359927425161,-0.00022602497483603656,-0.0002090784691972658,0.0,0.0,0.0,0.0,0.0020948355086147785,0.0036450920160859823,-3.921931056538597e-05,0.999112606048584,0.0,0.0,0.0,0.35481855273246765,4.326021194458008,4.422704696655273,-64.22286224365234,0
1823.4040000000005,-0.00015840024570934474,-0.00022192340111359954,-0.00024013753863982856,0.0,0.0,0.0,0.0,0.0007561350357718766,0.003009822918102145,-0.00010033833677880466,0.9986507296562195,0.0,0.0,0.0,0.35465162992477417,4.319266319274902,4.415500164031982,-64.1926498413086,0
1833.3179999999993,-0.00013536724145524204,-0.0002855878556147218,-0.00019840385357383639,0.0,0.0,0.0,0.0,0.0029283270705491304,0.005555478390306234,0.0028685040306299925,0.9992687106132507,0.0,0.0,0.0,0.3544553816318512,4.313263416290283,4.407780647277832,-64.1571273803711,0
1843.2219999999998,-0.00015963093028403819,-0.00029112532502040267,-0.00023854219762142748,0.0,0.0,0.0,0.0,0.0008410502341575921,0.00040274442289955914,-0.00040178585913963616,1.000961422920227,0.0,0.0,0.0,0.3544994294643402,4.304216384887695,4.392219066619873,-64.16510772705078,0
1853.1440000000002,-0.00016207440057769418,-0.00030302288359962404,-0.00017466694407630712,0.0,0.0,0.0,0.0,-0.0003505944332573563,-0.001160132116638124,0.0007273577502928674,0.9990835189819336,0.0,0.0,0.0,0.35404476523399353,4.29620885848999,4.386298656463623,-64.08280944824219,0
1863.0499999999993,-0.0002018410013988614,-0.0003216310287825763,-0.00018782973347697407,0.0,0.0,0.0,0.0,0.0002553188824094832,0.0009788376046344638,-0.0008183274767361581,0.9990547895431519,0.0,0.0,0.0,0.3536663055419922,4.290454387664795,4.387792587280273,-64.0143051147461,0
1872.9650000000001,-0.0001771073293639347,-0.00034592856536619365,-0.00011353114678058773,0.0,0.0,0.0,0.0,0.0020727375522255898,0.0005965692107565701,0.0015885798493400216,0.9992374777793884,0.0,0.0,0.0,0.3536054193973541,4.282837867736816,4.3769330978393555,-64.00328826904297,0
1882.8590000000004,-0.00020497651712503284,-0.00034087669337168336,-0.0001262775040231645,0.0,0.0,0.0,0.0,-0.001299313735216856,0.00020428255083970726,0.00037012354005128145,0.9988359212875366,0.0,0.0,0.0,0.35424602031707764,4.275501728057861,4.372642993927002,-64.11923217773438,0
1892.7790000000005,-0.0001805176434572786,-0.00036628585075959563,-5.024816346121952e-05,0.0,0.0,0.0,0.0,0.0010747835040092468,-0.0009369109175167978,0.0029945841524749994,0.9991604089736938,0.0,0.0,0.0,0.35430005192756653,4.28118371963501,4.371032238006592,-64.12901306152344,0
1902.687,-0.00018849322805181146,-0.00033131393138319254,-7.564462430309504e-05,0.0,0.0,0.0,0.0,0.00191806151997298,-0.0007973209721967578,-0.0022603594698011875,0.997977077960968,0.0,0.0,0.0,0.35495874285697937,4.273097038269043,4.372203826904297,-64.24823760986328,0
1912.6010000000006,-0.00016763710300438106,-0.0003704344271682203,-7.925940735731274e-06,0.0,0.0,0.0,0.0,-0.0003266511484980583,-0.0014137238031253219,-0.0007806420908309519,0.998633623123169,0.0,0.0,0.0,0.35367685556411743,4.266427040100098,4.366579055786133,-64.01622009277344,0
1922.4969999999994,-0.00013815243437420577,-0.00030306290136650205,-8.374934986932203e-05,0.0,0.0,0.0,0.0,-0.0013823275221511722,0.0012731384485960007,-0.0022185221314430237,0.9984754920005798,0.0,0.0,0.0,0.3528752326965332,4.262044429779053,4.361447334289551,-63.87112045288086,0
1932.414999999999,-0.00020137260435149074,-0.0003320087562315166,-4.842268754146062e-05,0.0,0.0,0.0,0.0,-0.0029538737144321203,-0.0005468028830364347,0.0021214461885392666,0.9962856769561768,0.0,0.0,0.0,0.3519665002822876,4.254141807556152,4.353249549865723,-63.70663833618164,0
1942.3160000000007,-0.00013258113176561892,-0.0002064736618194729,-0.000166925965459086,0.0,0.0,0.0,0.0,0.0005534430383704603,0.001084842486307025,0.00013770769874099642,0.9975860714912415,0.0,0.0,0.0,0.3594724237918854,4.291172981262207,4.37070894241333,-65.06522369384766,0
1952.2389999999996,-0.00013098123599775136,-0.00021011772332713008,-0.00010180950630456209,0.0,0.0,0.0,0.0,2.2055515728425235e-05,-0.0027819143142551184,0.0013171926839277148,1.0003575086593628,0.0,0.0,0.0,0.35899612307548523,4.285932540893555,4.363667964935303,-64.97901153564453,0
1962.1370000000006,-0.00010521188232814893,-0.00014736931188963354,-0.0001910589635372162,0.0,0.0,0.0,0.0,2.8413553081918508e-05,0.0025831100065261126,-0.002685940358787775,1.0007747411727905,0.0,0.0,0.0,0.36524727940559387,4.3069682121276855,4.383712291717529,-66.11048889160156,0
1972.0560000000005,-0.00017569468764122576,-0.00016373881953768432,-0.00016350363148376346,0.0,0.0,0.0,0.0,-0.0009500400628894567,-0.0007759896689094603,0.0005835956544615328,1.0013012886047363,0.0,0.0,0.0,0.3583883047103882,4.315030097961426,4.3769073486328125,-64.8689956665039,0
1981.9580000000005,-0.00018801182159222662,-0.000172521045897156,-0.0002382259553996846,0.0,0.0,0.0,0.0,0.002044869353994727,-0.0008625402115285397,-0.0007080792565830052,1.0018229484558105,0.0,0.0,0.0,0.36654889583587646,4.317077159881592,4.3800787925720215,-66.34608459472656,0
1991.878999999999,-0.00020686227071564645,-0.0001912359584821388,-0.000189976766705513,0.0,0.0,0.0,0.0,-0.0006556675652973354,-0.0015673215966671705,0.00022928811085876077,0.9988652467727661,0.0,0.0,0.0,0.36612120270729065,4.306259632110596,4.378971576690674,-66.26866149902344,0
2001.7880000000005,-0.00023405425599776208,-0.00019553021411411464,-0.00023323818459175527,0.0,0.0,0.0,0.0,-0.00028319258126430213,0.002853650599718094,-0.0018027049954980612,0.9987865090370178,0.0,0.0,0.0,0.3661626875400543,4.301093578338623,4.388583660125732,-66.27616882324219,0
2011.6900000000005,-0.0002651775430422276,-0.00018184045620728284,-0.00016519355995114893,0.0,0.0,0.0,0.0,-0.0003628034901339561,0.0017275942955166101,-0.001178730744868517,0.99958735704422,0.0,0.0,0.0,0.35983625054359436,4.309423923492432,4.384379863739014,-65.13107299804688,0
2021.6039999999994,-0.0002895203942898661,-0.00018780934624373913,-0.0002225532371085137,0.0,0.0,0.0,0.0,-0.0018646495882421732,0.005241354461759329,-0.0016453488497063518,1.0006568431854248,0.0,0.0,0.0,0.3606395721435547,4.302618026733398,4.379530906677246,-65.27648162841797,0
2031.518,-0.0002507554891053587,-0.00022194362827576697,-0.00015799904940649867,0.0,0.0,0.0,0.0,0.005814725067466497,0.0023748341482132673,-0.000329693837556988,1.0008049011230469,0.0,0.0,0.0,0.3600481152534485,4.307907581329346,4.364975452423096,-65.16941833496094,0
2041.42,-0.0002699170436244458,-0.0002152110100723803,-0.00020775201846845448,0.0,0.0,0.0,0.0,-0.0009540112223476171,-0.001899236929602921,0.0001308257778873667,0.9989189505577087,0.0,0.0,0.0,0.3592124581336975,4.29123592376709,4.349158763885498,-65.0181655883789,0
2051.33,-0.00020391582802403718,-0.0002715706068556756,-0.00013731008220929652,0.0,0.0,0.0,0.0,-0.0014965432928875089,-0.00296701374463737,0.000553748628590256,0.9983638525009155,0.0,0.0,0.0,0.3599182069301605,4.287225723266602,4.34791898727417,-65.14590454101562,0
2061.2430000000004,-0.00020170658535789698,-0.000217161956243217,-0.0001879038754850626,0.0,0.0,0.0,0.0,0.0009818649850785732,0.001920583425089717,-0.0031661484390497208,0.9976322054862976,0.0,0.0,0.0,0.3662971556186676,4.305573463439941,4.363547325134277,-66.3005142211914,0
2071.1569999999992,-0.00022132117010187358,-0.00023289641831070185,-0.00013253824727144092,0.0,0.0,0.0,0.0,0.0005804628017358482,-0.0007726607145741582,-0.0006827494944445789,0.9987836480140686,0.0,0.0,0.0,0.3648420572280884,4.297592639923096,4.360505104064941,-66.03713989257812,0
2081.0609999999997,-0.00023841948132030666,-0.00021869946795050055,-0.00018392718629911542,0.0,0.0,0.0,0.0,-0.0030160376336425543,-0.0026293392293155193,0.003272888483479619,0.9993166923522949,0.0,0.0,0.0,0.3640064001083374,4.290743827819824,4.350546836853027,-65.88587951660156,0
2090.9809999999998,-0.00019373942632228136,-0.00024282457889057696,-0.00010864363866858184,0.0,0.0,0.0,0.0,-0.00040151018765755,-0.0007162106339819729,-0.00023076662910170853,0.9999951124191284,0.0,0.0,0.0,0.36528313159942627,4.2930216789245605,4.347973346710205,-66.11697387695312,0
2100.888999999999,-0.00021846407616976649,-0.00024483632296323776,-0.00015436072135344148,0.0,0.0,0.0,0.0,-0.0009300523088313639,-0.005772767588496208,-0.0010026218369603157,0.9989688992500305,0.0,0.0,0.0,0.3658791184425354,4.289366722106934,4.349937915802002,-66.22484588623047,0
2110.7919999999995,-0.00022259243996813893,-0.0002605028566904366,-9.115078864851967e-05,0.0,0.0,0.0,0.0,-0.0013750697253271937,0.0027687731198966503,-0.0025623345281928778,1.000317931175232,0.0,0.0,0.0,0.36501237750053406,4.282497406005859,4.358565330505371,-66.0679702758789,0
