timestamp,stateEstimate.x,stateEstimate.y,stateEstimate.z,controller.cmd_thrust,controller.cmd_roll,controller.cmd_pitch,controller.cmd_yaw,controller.r_roll,controller.r_pitch,controller.r_yaw,controller.accelz,controller.actuatorThrust,controller.roll,controller.pitch,controller.yaw,controller.rollRate,controller.pitchRate,controller.yawRate,controller.ctr_yaw
0.0,-4.6039574954193085e-05,-0.00012642711226362735,-3.0320890800794587e-05,0.0,0.0,0.0,0.0,-0.0012099938467144966,0.0012417001416906714,0.0011609522625803947,1.0015904903411865,0.0,0.0,0.0,0.465361624956131,6.454727649688721,4.520155429840088,-84.23137664794922,0
9.90899999999965,-8.198939212888945e-06,-8.680405153427273e-05,-8.608304051449522e-05,0.0,0.0,0.0,0.0,0.0014532890636473894,0.0008637704886496067,0.0009540991741232574,1.0021028518676758,0.0,0.0,0.0,0.46488356590270996,6.454476833343506,4.515279769897461,-84.14485168457031,0
19.829999999999927,-1.7206077245646156e-05,-0.00012719884398393333,-6.313899939414114e-05,0.0,0.0,0.0,0.0,0.002717824885621667,-0.0028010543901473284,0.001004346297122538,0.9988256692886353,0.0,0.0,0.0,0.4588319659233093,6.445493698120117,4.518492698669434,-83.04949188232422,0
29.72900000000118,2.6634485038812272e-05,-8.273086859844625e-05,-0.00012166678061475977,0.0,0.0,0.0,0.0,-0.00040287303272634745,-0.003206576220691204,0.000408381485613063,1.0002312660217285,0.0,0.0,0.0,0.46531638503074646,6.448411464691162,4.524460315704346,-84.22319793701172,0
39.64099999999962,2.7782549295807257e-05,-0.0001054240419762209,-8.660662570036948e-05,0.0,0.0,0.0,0.0,-0.0008447964210063219,-0.0010877838358283043,-0.003647753968834877,1.0018991231918335,0.0,0.0,0.0,0.4593175947666168,6.445719242095947,4.517459869384766,-83.13739013671875,0
49.54399999999987,-9.539109669276513e-06,-0.00015256382175721228,-7.150844612624496e-05,0.0,0.0,0.0,0.0,-0.0016535772010684013,-0.0018831671914085746,0.002518685767427087,1.000022053718567,0.0,0.0,0.0,0.4658071994781494,6.433817386627197,4.521388053894043,-84.3120346069336,0
59.46299999999974,-4.192400228930637e-05,-0.00016235996736213565,-3.533492053975351e-05,0.0,0.0,0.0,0.0,-0.00014649081276729703,-0.0013821424217894673,-0.002274717204272747,0.9995536208152771,0.0,0.0,0.0,0.454253613948822,6.435830116271973,4.511350631713867,-82.22080993652344,0
69.3630000000012,-4.875459853792563e-05,-0.0001697162224445492,-4.6007440687390044e-05,0.0,0.0,0.0,0.0,-0.0031957393512129784,-0.004368169698864222,-0.0009685874101705849,0.9993288516998291,0.0,0.0,0.0,0.4605354070663452,6.443337917327881,4.51121711730957,-83.35783386230469,0
79.28499999999985,-5.523264917428605e-05,-0.00018757868383545429,-1.7549347148815286e-06,0.0,0.0,0.0,0.0,-0.0006847143522463739,-0.004467602353543043,0.00189994927495718,0.9996589422225952,0.0,0.0,0.0,0.4482523798942566,6.443119049072266,4.524571895599365,-81.13457489013672,0
89.1859999999997,-5.904605131945573e-05,-0.00019758730195462704,-1.8200273188995197e-05,0.0,0.0,0.0,0.0,-0.000705203041434288,0.002527721459046006,0.0016298569971695542,1.000516414642334,0.0,0.0,0.0,0.4481438994407654,6.437941074371338,4.530664443969727,-81.11493682861328,0
99.10400000000118,-8.040011016419157e-05,-0.0001982400572160259,2.6480485757929273e-05,0.0,0.0,0.0,0.0,0.003623180091381073,0.0018171387491747737,0.0011839461512863636,1.0004912614822388,0.0,0.0,0.0,0.44789204001426697,6.4314117431640625,4.526191234588623,-81.06935119628906,0
109.00300000000061,-8.701746264705434e-05,-0.00022762689332012087,-4.304300546209561e-06,0.0,0.0,0.0,0.0,0.002142455894500017,-0.0017847559647634625,-0.002949301851913333,1.0001311302185059,0.0,0.0,0.0,0.4558504819869995,6.425473213195801,4.527157783508301,-82.50983428955078,0
118.92799999999988,-0.00011765321687562391,-0.00020570852211676538,5.265180880087428e-05,0.0,0.0,0.0,0.0,0.0031445492058992386,-0.0018055918626487255,0.001909367274492979,1.0009021759033203,0.0,0.0,0.0,0.44820135831832886,6.4256696701049805,4.516179084777832,-81.12533569335938,0
128.82500000000073,-9.96284288703464e-05,-0.0001934660685947165,1.170906125480542e-05,0.0,0.0,0.0,0.0,0.0026776930317282677,-0.00010008177923737094,-0.0020426965784281492,1.0011827945709229,0.0,0.0,0.0,0.4468590319156647,6.411513328552246,4.508679389953613,-80.88236999511719,0
138.7440000000006,-7.819009624654427e-05,-0.00023916065401863307,5.107496690470725e-05,0.0,0.0,0.0,0.0,0.0006241636583581567,-0.0010996306082233787,-0.00030387280276045203,1.0008602142333984,0.0,0.0,0.0,0.4392758309841156,6.407473564147949,4.523910045623779,-79.50980377197266,0
148.64700000000084,-5.3711126383859664e-05,-0.00021562460460700095,1.3529152056435123e-05,0.0,0.0,0.0,0.0,0.0013556029880419374,0.0022000058088451624,-0.0030810125172138214,1.0006099939346313,0.0,0.0,0.0,0.44830647110939026,6.417757987976074,4.538013935089111,-81.14437103271484,0
158.5619999999999,-0.0001591371838003397,-0.0001710740034468472,4.9004062020685524e-05,0.0,0.0,0.0,0.0,0.0005832759779877961,-0.0017743764910846949,0.0026906465645879507,0.999090850353241,0.0,0.0,0.0,0.4483795464038849,6.408420085906982,4.533045291900635,-81.1575927734375,0
168.46500000000015,-0.00019521602371241897,-0.00020887494611088187,6.650145951425657e-05,0.0,0.0,0.0,0.0,0.0011274877469986677,0.0005350552382878959,0.0032419057097285986,0.9992774128913879,0.0,0.0,0.0,0.44772884249687195,6.4040327072143555,4.536600112915039,-81.03980255126953,0
178.38600000000042,-0.00013073971786070615,-0.0002591550291981548,9.675489127403125e-05,0.0,0.0,0.0,0.0,-0.002192421816289425,0.005113741848617792,-0.0021179334726184607,1.0000898838043213,0.0,0.0,0.0,0.44928795099258423,6.402892112731934,4.535854816436768,-81.32201385498047,0
188.28900000000067,-3.613911030697636e-05,-0.00014797835319768637,-3.0455677915597335e-05,0.0,0.0,0.0,0.0,0.0013213192578405142,-0.0017184809548780322,0.0006132720736786723,1.0009723901748657,0.0,0.0,0.0,0.45448267459869385,6.438424587249756,4.543960094451904,-82.26226806640625,0
198.20900000000074,-0.0001047687474056147,-0.00018473685486242175,3.2058997021522373e-06,0.0,0.0,0.0,0.0,0.001112482394091785,0.00596163235604763,-0.0002641107712406665,1.000362515449524,0.0,0.0,0.0,0.4478481709957123,6.435199737548828,4.527573108673096,-81.0614013671875,0
208.1140000000014,-1.533248541818466e-05,-7.858509343350306e-05,-9.329045133199543e-05,0.0,0.0,0.0,0.0,-0.0012901683803647757,0.0002599971485324204,0.003323031822219491,1.000294804573059,0.0,0.0,0.0,0.45552051067352295,6.458558082580566,4.544191360473633,-82.45011138916016,0
218.01800000000003,-2.7456209863885306e-05,-0.0001513152092229575,-7.160785025916994e-05,0.0,0.0,0.0,0.0,-0.0049635302275419235,0.0030238309409469366,0.0017421749653294683,1.0000697374343872,0.0,0.0,0.0,0.44801104068756104,6.449438095092773,4.528507709503174,-81.09088134765625,0
227.9290000000001,2.0693885744549334e-05,-9.492573008174077e-05,-0.00011991881183348596,0.0,0.0,0.0,0.0,-0.0031443301122635603,-0.003970538731664419,0.0010408859234303236,0.9978660345077515,0.0,0.0,0.0,0.4538511633872986,6.461437702178955,4.537689208984375,-82.14796447753906,0
237.84000000000015,-4.189557148492895e-05,-0.00015143428754527122,-0.0001146139984484762,0.0,0.0,0.0,0.0,-0.000874674937222153,-0.00198694528080523,-0.00011076928058173507,0.9998347759246826,0.0,0.0,0.0,0.44624775648117065,6.460461139678955,4.530633926391602,-80.77173614501953,0
247.7470000000012,8.028571755858138e-06,-9.382490679854527e-05,-0.00016308334306813776,0.0,0.0,0.0,0.0,0.00018176960293203592,-0.004833839368075132,0.0017991116037592292,1.0001170635223389,0.0,0.0,0.0,0.44624775648117065,6.460461139678955,4.530633926391602,-80.77173614501953,0
257.66100000000006,-4.064148379256949e-05,-0.00015301257371902466,-0.0001627351448405534,0.0,0.0,0.0,0.0,-0.0004647337773349136,0.0054056984372437,-0.001984691247344017,0.9978397488594055,0.0,0.0,0.0,0.4446769654750824,6.448371887207031,4.524331569671631,-80.48741912841797,0
267.5670000000009,6.938336809980683e-06,-9.58328673732467e-05,-0.00020561620476655662,0.0,0.0,0.0,0.0,-0.0011546718887984753,0.00018928399367723614,-0.00565022137016058,1.0000250339508057,0.0,0.0,0.0,0.4446769654750824,6.448371887207031,4.524331569671631,-80.48741912841797,0
277.47700000000077,-5.353599044610746e-05,-7.585241837659851e-05,-0.0001928879355546087,0.0,0.0,0.0,0.0,-0.0020765415392816067,-0.0029393271543085575,0.0007209330215118825,1.0005782842636108,0.0,0.0,0.0,0.443649560213089,6.439453125,4.517677307128906,-80.30144500732422,0
287.3909999999996,-7.458760228473693e-05,-8.89861912583001e-05,-0.0001909672428155318,0.0,0.0,0.0,0.0,0.00035128401941619813,-0.004888192750513554,0.0016427721129730344,1.001410722732544,0.0,0.0,0.0,0.44250741600990295,6.435792922973633,4.507746696472168,-80.09471893310547,0
297.3040000000001,-4.9107009544968605e-05,-0.00010857589222723618,-0.0001567721483297646,0.0,0.0,0.0,0.0,-0.0006607521208934486,-0.0006317219231277704,-0.002481873380020261,0.9994152784347534,0.0,0.0,0.0,0.43286845088005066,6.43968391418457,4.5253424644470215,-78.35005187988281,0
307.21299999999974,-2.670361391210463e-05,-8.225888450397179e-05,-0.00020236585987731814,0.0,0.0,0.0,0.0,0.0009467456839047372,0.0014435340417549014,-0.0013602894032374024,1.0007493495941162,0.0,0.0,0.0,0.43172332644462585,6.439157962799072,4.534150123596191,-78.14277648925781,0
317.125,-4.5868389861425385e-05,-7.1071190177463e-05,-0.00017104778089560568,0.0,0.0,0.0,0.0,-0.0027616843581199646,-0.00039356970228254795,0.0006515458808280528,1.0017428398132324,0.0,0.0,0.0,0.43108266592025757,6.430078029632568,4.529763698577881,-78.02681732177734,0
327.02599999999984,-2.7395595679990947e-05,-4.507381163421087e-05,-0.00021440249111037701,0.0,0.0,0.0,0.0,-0.0023863266687840223,0.002894951496273279,-0.0019459587056189775,1.0004956722259521,0.0,0.0,0.0,0.43853071331977844,6.441160202026367,4.535034656524658,-79.37493896484375,0
336.95200000000114,-0.00011092714703409001,-1.0255307643092237e-06,-0.0001906427787616849,0.0,0.0,0.0,0.0,0.0012745654676109552,-0.004590021446347237,0.0009300356614403427,1.000661015510559,0.0,0.0,0.0,0.43822792172431946,6.438632488250732,4.535802364349365,-79.32012176513672,0
346.84900000000016,-0.0001433138531865552,-2.1373034542193636e-05,-0.00018484985048417002,0.0,0.0,0.0,0.0,-0.0020945293363183737,0.0011511421762406826,0.0011288963723927736,1.0018354654312134,0.0,0.0,0.0,0.4470943510532379,6.440604209899902,4.543857097625732,-80.92496490478516,0
356.76900000000023,-6.800911796744913e-05,-8.275824075099081e-05,-0.00014587091573048383,0.0,0.0,0.0,0.0,-0.0022959455382078886,0.0003569546970538795,0.0016857419395819306,1.002005696296692,0.0,0.0,0.0,0.4402386248111725,6.425637722015381,4.556976318359375,-79.68406677246094,0
366.6670000000013,-0.00013491678691934794,-0.00015951514069456607,-0.00011226328933844343,0.0,0.0,0.0,0.0,-0.003988802433013916,-0.0021675287280231714,-0.0018274623434990644,0.9987279176712036,0.0,0.0,0.0,0.4384605288505554,6.427940845489502,4.548757553100586,-79.36222839355469,0
376.58600000000115,-0.00010276383545715362,-0.00019232023623771966,-6.527145160362124e-05,0.0,0.0,0.0,0.0,0.0011411849409341812,0.004243329167366028,-0.0006875107064843178,1.0015677213668823,0.0,0.0,0.0,0.43082195520401,6.4258270263671875,4.559324264526367,-77.97962951660156,0
386.4880000000012,-4.773787077283487e-05,-0.00011961670679738745,-0.000127151986816898,0.0,0.0,0.0,0.0,-0.0018387429881840944,-0.000700836128089577,0.0009245018009096384,1.0000547170639038,0.0,0.0,0.0,0.4299894869327545,6.41794490814209,4.561938285827637,-77.8289566040039,0
396.40400000000045,7.536165867350064e-06,-0.00015250434807967395,-7.34974310034886e-05,0.0,0.0,0.0,0.0,0.0001682320435065776,0.0007680464186705649,0.0014771955320611596,1.0007461309432983,0.0,0.0,0.0,0.42352011799812317,6.4180498123168945,4.570823669433594,-76.65798950195312,0
406.3119999999999,3.973599450546317e-05,-0.00011715337313944474,-0.00011502417328301817,0.0,0.0,0.0,0.0,0.00023919173690956086,-0.0008349887793883681,-0.001855961512774229,0.9997156262397766,0.0,0.0,0.0,0.42206525802612305,6.412391662597656,4.566511154174805,-76.39466094970703,0
416.21800000000076,-1.0074744750454556e-05,-0.00013016669254284352,-0.00010149847366847098,0.0,0.0,0.0,0.0,0.0012609733967110515,-0.00214818911626935,-9.64653299888596e-05,1.0008940696716309,0.0,0.0,0.0,0.4225105345249176,6.407301902770996,4.56252908706665,-76.47525024414062,0
426.1280000000006,-4.216431989334524e-05,-0.00016497161414008588,-8.983953739516437e-05,0.0,0.0,0.0,0.0,0.003165054600685835,-0.004465377889573574,0.0006394281517714262,1.0014915466308594,0.0,0.0,0.0,0.4221222400665283,6.402182579040527,4.562185764312744,-76.40496826171875,0
436.0460000000003,-7.783081673551351e-05,-0.00019031793635804206,-7.084336539264768e-05,0.0,0.0,0.0,0.0,-0.0014218142023310065,4.722528319689445e-05,-0.0024482423905283213,1.0002057552337646,0.0,0.0,0.0,0.422063946723938,6.387785911560059,4.566437721252441,-76.39442443847656,0
445.9500000000007,1.8474850094207795e-06,-9.24026026041247e-05,-0.00018784966960083693,0.0,0.0,0.0,0.0,4.942366649629548e-05,0.0004133108595851809,4.7628545871702954e-05,0.9986028671264648,0.0,0.0,0.0,0.4321077764034271,6.4146552085876465,4.588624954223633,-78.21236419677734,0
455.866,-3.070085949730128e-05,-9.639306517783552e-05,-0.00016215477080550045,0.0,0.0,0.0,0.0,-0.000951899797655642,0.00012889668869320303,0.004046930931508541,0.9997117519378662,0.0,0.0,0.0,0.4236268997192383,6.419765472412109,4.587687015533447,-76.67731475830078,0
465.77200000000084,-1.930456710397266e-05,-6.689511792501435e-05,-0.00018709716096054763,0.0,0.0,0.0,0.0,0.0007097873603925109,0.0010765024926513433,-0.0010192441986873746,1.0007585287094116,0.0,0.0,0.0,0.4306372404098511,6.424933910369873,4.588838577270508,-77.94619750976562,0
475.70100000000093,-5.589925785898231e-05,-4.3828120396938175e-05,-0.0001489718270022422,0.0,0.0,0.0,0.0,-0.0013323511229828,-0.0010401856852695346,-0.0024477883707731962,0.9998950958251953,0.0,0.0,0.0,0.42431336641311646,6.429727077484131,4.577079772949219,-76.80156707763672,0
485.59900000000016,-9.085421334020793e-05,-8.86156121850945e-05,-0.00014642285532318056,0.0,0.0,0.0,0.0,0.0027459689881652594,0.0029113234486430883,8.014570630621165e-05,0.9985706806182861,0.0,0.0,0.0,0.4330332279205322,6.418395042419434,4.569823265075684,-78.37987518310547,0
495.51500000000124,-0.00011942931450903416,-9.83561112661846e-05,-0.00012443785089999437,0.0,0.0,0.0,0.0,-0.001631671329960227,-0.0019084787927567959,-0.0008404365507885814,0.9974005818367004,0.0,0.0,0.0,0.43117424845695496,6.416079521179199,4.562997341156006,-78.04339599609375,0
505.41400000000067,-0.00012105744826840237,-8.276274456875399e-05,-0.00013012168346904218,0.0,0.0,0.0,0.0,0.002680788282305002,0.0003731845354195684,-0.0014809921849519014,1.0000554323196411,0.0,0.0,0.0,0.4381997287273407,6.415708541870117,4.561753749847412,-79.31501770019531,0
515.3270000000011,-5.9867947129532695e-05,-0.00013377518916968256,-9.100882743950933e-05,0.0,0.0,0.0,0.0,0.0009062967146746814,0.0022246558219194412,-0.0005156941479071975,1.0006392002105713,0.0,0.0,0.0,0.4364120364189148,6.406508445739746,4.553413391113281,-78.99143981933594,0
525.2380000000012,-7.534649921581149e-05,-0.0001646403397899121,-0.00010119413491338491,0.0,0.0,0.0,0.0,-0.002490196144208312,-0.0021127108484506607,-0.0011869256850332022,1.0020312070846558,0.0,0.0,0.0,0.442510187625885,6.400933742523193,4.556482315063477,-80.09522247314453,0
535.1499999999996,-8.1679318100214e-05,-0.0001915846805786714,-7.662823190912604e-05,0.0,0.0,0.0,0.0,-9.047989442478865e-05,-0.005951262544840574,0.0007371772662736475,1.0010432004928589,0.0,0.0,0.0,0.4353727400302887,6.3958845138549805,4.543043613433838,-78.80332946777344,0
545.0540000000001,-0.00010963089880533516,-0.0002336886100238189,-6.623548688367009e-05,0.0,0.0,0.0,0.0,-0.0010863131610676646,-0.0033136745914816856,-0.001221485435962677,1.0000401735305786,0.0,0.0,0.0,0.43458735942840576,6.388157844543457,4.546266555786133,-78.66117095947266,0
554.9680000000008,-9.051202505361289e-05,-0.00023166931350715458,-1.5259734936989844e-05,0.0,0.0,0.0,0.0,0.0006117025623098016,0.0014402857050299644,7.355264824582264e-05,1.0013004541397095,0.0,0.0,0.0,0.4233728349208832,6.39725923538208,4.561359882354736,-76.6313247680664,0
564.8850000000002,-1.742600397847127e-05,-0.00014805344108026475,-0.00010988051508320495,0.0,0.0,0.0,0.0,0.0009291349560953677,0.000968051259405911,0.0004102938692085445,0.999794065952301,0.0,0.0,0.0,0.4231971800327301,6.390699863433838,4.559823513031006,-76.59953308105469,0
574.7929999999997,-8.674661512486637e-05,-0.0001659581030253321,-5.401756789069623e-05,0.0,0.0,0.0,0.0,0.0018401207635179162,0.004099547863006592,-0.0028526540845632553,1.0002238750457764,0.0,0.0,0.0,0.4147387444972992,6.390139579772949,4.5352678298950195,-75.06854248046875,0
584.6990000000005,-2.739143747021444e-05,-8.76144549692981e-05,-0.00010902663052547723,0.0,0.0,0.0,0.0,-8.099941624095663e-05,0.0007430223049595952,0.0003447636845521629,1.0011595487594604,0.0,0.0,0.0,0.42485806345939636,6.407129764556885,4.54658842086792,-76.900146484375,0
594.6050000000014,-0.00010237353853881359,-9.788850002223626e-05,-0.00010411928815301508,0.0,0.0,0.0,0.0,0.0016789824003353715,-0.0008580307476222515,-0.0005768950213678181,1.0026582479476929,0.0,0.0,0.0,0.4240017533302307,6.392553806304932,4.533075332641602,-76.74516296386719,0
604.5159999999996,-0.00012799147225450724,-0.00014855936751700938,-0.00010693306103348732,0.0,0.0,0.0,0.0,-0.0015270159346982837,0.003633970394730568,0.001163695938885212,1.0021429061889648,0.0,0.0,0.0,0.433989942073822,6.384432792663574,4.521213054656982,-78.55304718017578,0
614.4380000000001,-0.00010063499212265015,-0.0001817847223719582,-6.545545329572633e-05,0.0,0.0,0.0,0.0,0.0015322300605475903,0.0008715671137906611,-0.0034610056318342686,1.001872181892395,0.0,0.0,0.0,0.43347638845443726,6.381145000457764,4.511527061462402,-78.46009826660156,0
624.3389999999999,-5.2162245992803946e-05,-0.00012747274013236165,-0.00010558644135016948,0.0,0.0,0.0,0.0,-0.0014920671237632632,0.002445799298584461,0.004155070520937443,0.9990875720977783,0.0,0.0,0.0,0.4433554410934448,6.382831573486328,4.519672870635986,-80.24821472167969,0
634.2479999999996,-6.588306132471189e-05,-0.00016779321595095098,-7.9839832324069e-05,0.0,0.0,0.0,0.0,-0.0012666283873841166,0.00047012732829898596,-0.0023016189225018024,1.002304196357727,0.0,0.0,0.0,0.4358365833759308,6.382593154907227,4.510203838348389,-78.88728332519531,0
644.1570000000011,-8.268398232758045e-05,-0.00021566901705227792,-7.829297101125121e-05,0.0,0.0,0.0,0.0,-0.0018669174751266837,0.0019796451088041067,-0.0006494660628959537,1.0022304058074951,0.0,0.0,0.0,0.444755494594574,6.384695053100586,4.51484489440918,-80.50163269042969,0
654.0699999999997,-8.801968942862004e-05,-0.000240892986766994,-3.7899651943007484e-05,0.0,0.0,0.0,0.0,-0.0026567077729851007,0.00024252795265056193,-0.0005304708029143512,1.0004628896713257,0.0,0.0,0.0,0.43626517057418823,6.38506555557251,4.497201919555664,-78.96485900878906,0
663.982,-4.62172829429619e-05,-0.0002001200628001243,-6.601118366234004e-05,0.0,0.0,0.0,0.0,-0.0007098258356563747,0.0005188895738683641,0.007286800537258387,0.998329222202301,0.0,0.0,0.0,0.434935599565506,6.382472991943359,4.487245559692383,-78.72420501708984,0
673.893,-5.076813977211714e-05,-0.0002237255685031414,-2.8047492378391325e-05,0.0,0.0,0.0,0.0,0.0033659590408205986,-0.0007893117144703865,-0.000488579215016216,0.9999637007713318,0.0,0.0,0.0,0.43001219630241394,6.38206672668457,4.484308242797852,-77.83306121826172,0
683.8019999999997,-2.1947140339761972e-05,-0.00022254828945733607,-6.978659803280607e-05,0.0,0.0,0.0,0.0,-0.0013375029666349292,-0.0011522419517859817,0.0006011201185174286,1.0005664825439453,0.0,0.0,0.0,0.42858126759529114,6.371636867523193,4.486019611358643,-77.57405853271484,0
693.710000000001,-6.899669097037986e-05,-0.0002241525216959417,-3.4034077543765306e-05,0.0,0.0,0.0,0.0,0.0007232631323859096,-0.0017342094797641039,-0.0016538703348487616,0.9998395442962646,0.0,0.0,0.0,0.41840988397598267,6.380277156829834,4.485947132110596,-75.73302459716797,0
703.6200000000008,-4.9515190767124295e-05,-0.00019286897440906614,-2.8183916583657265e-05,0.0,0.0,0.0,0.0,-0.0021754130721092224,-0.004088868387043476,-0.002253373386338353,1.002272129058838,0.0,0.0,0.0,0.4253391921520233,6.388665676116943,4.4916510581970215,-76.98724365234375,0
713.5330000000013,-0.00012842373689636588,-0.00018908712081611156,-6.97759969625622e-06,0.0,0.0,0.0,0.0,0.0022697036620229483,-0.00038906384725123644,-0.004750103689730167,0.9999721646308899,0.0,0.0,0.0,0.42350393533706665,6.384765625,4.499842643737793,-76.6550521850586,0
723.4420000000009,-0.00011046425788663328,-0.00017069134628400207,-1.51195636135526e-05,0.0,0.0,0.0,0.0,-0.000718778173904866,0.0012073669349774718,-0.003262633690610528,0.9991106986999512,0.0,0.0,0.0,0.42858460545539856,6.391835689544678,4.501939296722412,-77.57466888427734,0
733.3490000000002,-0.00010328445205232129,-0.00019244231225457042,2.9475249903043732e-05,0.0,0.0,0.0,0.0,-0.002452540909871459,0.00025681249098852277,0.0009390126215294003,1.0030078887939453,0.0,0.0,0.0,0.4279814660549164,6.385490417480469,4.486544609069824,-77.46549224853516,0
743.2669999999998,-7.87422904977575e-05,-0.00016092220903374255,2.44868151639821e-05,0.0,0.0,0.0,0.0,0.0020947125740349293,0.000895876029971987,-0.00016548490384593606,1.0012415647506714,0.0,0.0,0.0,0.43373093008995056,6.400916576385498,4.4886980056762695,-78.50616455078125,0
753.1750000000011,-0.00011872795585077256,-0.0001826304360292852,5.026334838476032e-05,0.0,0.0,0.0,0.0,-0.0028238410595804453,0.0008565206080675125,0.0012477993732318282,0.9994858503341675,0.0,0.0,0.0,0.43293556571006775,6.388463973999023,4.475086688995361,-78.36219024658203,0
763.0879999999997,-5.111083737574518e-05,-0.0001301321608480066,-2.520911584724672e-05,0.0,0.0,0.0,0.0,0.002225441625341773,-0.0011276333825662732,0.0006466558552347124,0.9983984231948853,0.0,0.0,0.0,0.43299371004104614,6.384950160980225,4.4688920974731445,-78.37272644042969,0
772.9880000000012,-8.384632383240387e-05,-0.0001311654195887968,1.4438137441175058e-05,0.0,0.0,0.0,0.0,0.0012524439953267574,0.0019450036343187094,-0.0008916042861528695,0.9993483424186707,0.0,0.0,0.0,0.4322526156902313,6.3751068115234375,4.4620513916015625,-78.23857879638672,0
782.8990000000013,-3.629368438851088e-05,-8.989420894067734e-05,-3.471990567049943e-05,0.0,0.0,0.0,0.0,0.00012160577171016484,-0.0004997169598937035,-0.0016675656661391258,0.9998759031295776,0.0,0.0,0.0,0.4412441849708557,6.383938312530518,4.4627766609191895,-79.86608123779297,0
792.8100000000013,-5.017386865802109e-05,-0.00012230209540575743,-1.3826636859448627e-05,0.0,0.0,0.0,0.0,-2.7861460694111884e-05,-0.006521419622004032,-0.0015463210875168443,0.9991016983985901,0.0,0.0,0.0,0.4405420124530792,6.375871658325195,4.4530930519104,-79.73897552490234,0
802.7260000000006,2.647335350047797e-06,-7.081213698256761e-05,-6.686110282316804e-05,0.0,0.0,0.0,0.0,0.001873335218988359,0.0008944332366809249,-0.0018362957052886486,0.9994015693664551,0.0,0.0,0.0,0.4463587701320648,6.387238502502441,4.476097106933594,-80.79182434082031,0
812.6319999999996,-3.7941943446639925e-05,-9.190032142214477e-05,-5.658506415784359e-05,0.0,0.0,0.0,0.0,-0.00271734781563282,-7.4793892963498365e-06,-0.0006672017625533044,1.0016391277313232,0.0,0.0,0.0,0.44505465030670166,6.380014419555664,4.467350959777832,-80.55577850341797,0
822.5420000000013,-2.4655400920892134e-05,-9.658962517278269e-05,-8.49315692903474e-05,0.0,0.0,0.0,0.0,-0.0012609693221747875,0.0032452617306262255,0.0002682565536815673,1.0003597736358643,0.0,0.0,0.0,0.45399239659309387,6.384964466094971,4.467492580413818,-82.17352294921875,0
832.4560000000001,-8.185806655092165e-05,-0.00010729418863775209,-7.568265573354438e-05,0.0,0.0,0.0,0.0,0.003323667449876666,0.0013207332231104374,-0.0017483481205999851,0.9995779991149902,0.0,0.0,0.0,0.4533862769603729,6.378022193908691,4.449084281921387,-82.0638198852539,0
842.362000000001,-0.00010647317685652524,-0.00016245174629148096,-8.500387048115954e-05,0.0,0.0,0.0,0.0,-0.003509483765810728,-0.003193469950929284,0.001287285704165697,0.9988728761672974,0.0,0.0,0.0,0.45223528146743774,6.366189956665039,4.43454647064209,-81.85548400878906,0
852.2710000000006,-0.00011731436097761616,-0.0001952929305844009,-6.317266525002196e-05,0.0,0.0,0.0,0.0,-0.0028749455232173204,-0.003967840690165758,0.003996031358838081,0.9993773698806763,0.0,0.0,0.0,0.45206335186958313,6.367733478546143,4.430137634277344,-81.82437133789062,0
862.1890000000003,-0.00012193838483653963,-0.00022092557628639042,-9.266410779673606e-05,0.0,0.0,0.0,0.0,0.003427597228437662,-0.0017915958305820823,0.0023398944176733494,1.0017132759094238,0.0,0.0,0.0,0.4593234658241272,6.373440742492676,4.441446781158447,-83.13846588134766,0
872.085000000001,-0.00016464173677377403,-0.00021643958461936563,-5.7058387028519064e-05,0.0,0.0,0.0,0.0,0.0005758855841122568,0.004364092834293842,-7.540289516327903e-05,1.0022566318511963,0.0,0.0,0.0,0.45140087604522705,6.372634410858154,4.435003280639648,-81.70445251464844,0
882.005000000001,-0.00014361839566845447,-0.00017594183736946434,-7.955453475005925e-05,0.0,0.0,0.0,0.0,-0.003267341060563922,1.6996336853480898e-05,0.003745327703654766,1.000342607498169,0.0,0.0,0.0,0.4585200846195221,6.38124418258667,4.43397855758667,-82.9930419921875,0
891.9140000000007,-0.00017201609443873167,-0.0001932096784003079,-4.753389293910004e-05,0.0,0.0,0.0,0.0,-0.0008412694442085922,-0.001937595196068287,-0.0005100056296214461,0.998325526714325,0.0,0.0,0.0,0.4586893320083618,6.380147933959961,4.431162357330322,-83.023681640625,0
901.8289999999997,-0.00016681698616594076,-0.00020002796372864395,-8.360537322005257e-05,0.0,0.0,0.0,0.0,-0.001564134145155549,0.0039924150332808495,-0.0001028997139655985,0.9975376129150391,0.0,0.0,0.0,0.45839399099349976,6.374654769897461,4.423800945281982,-82.97023010253906,0
911.7290000000012,-0.00011068758612964302,-0.0002579404099378735,-3.453245881246403e-05,0.0,0.0,0.0,0.0,-0.00010597077925922349,-0.004311921074986458,0.004310550168156624,0.9994780421257019,0.0,0.0,0.0,0.4509716033935547,6.371233940124512,4.4262189865112305,-81.62675476074219,0
921.6450000000004,-6.011319055687636e-05,-0.00019541592337191105,-9.20109378057532e-05,0.0,0.0,0.0,0.0,0.0003110272518824786,-0.003945793956518173,0.0018008252372965217,1.0001418590545654,0.0,0.0,0.0,0.46097445487976074,6.391993522644043,4.445173740386963,-83.43729400634766,0
931.5470000000005,-7.544287655036896e-05,-0.00021857839601580054,-5.779117054771632e-05,0.0,0.0,0.0,0.0,-0.001315103261731565,0.0022504793014377356,0.0011900810059159994,1.0021084547042847,0.0,0.0,0.0,0.4489503800868988,6.394172191619873,4.44840145111084,-81.26091003417969,0
941.4650000000001,-0.000108497311885003,-0.00027120509184896946,-5.064594733994454e-05,0.0,0.0,0.0,0.0,-0.0017440520459786057,-0.004190086852759123,-0.003363089170306921,0.9995679259300232,0.0,0.0,0.0,0.4492919445037842,6.389323711395264,4.440183639526367,-81.32273864746094,0
951.3649999999998,-0.000128369007143192,-0.0002601459564175457,3.709296834131237e-06,0.0,0.0,0.0,0.0,-0.0005885672871954739,-0.004345412366092205,0.00039434494101442397,1.0008037090301514,0.0,0.0,0.0,0.4475807845592499,6.388645648956299,4.4409074783325195,-81.01300811767578,0
961.2870000000003,-6.74503535265103e-05,-0.00018591992557048798,-9.109095117310062e-05,0.0,0.0,0.0,0.0,0.001094443374313414,0.0021197504829615355,0.0015396456001326442,1.001415729522705,0.0,0.0,0.0,0.4568522274494171,6.416236877441406,4.459229469299316,-82.691162109375,0
971.1890000000003,-0.00010468722757650539,-0.00017753861902747303,-4.6206096158130094e-05,0.0,0.0,0.0,0.0,-0.0022439353633672,-0.0027497049886733294,3.57058561348822e-05,1.0017094612121582,0.0,0.0,0.0,0.4481765627861023,6.423644542694092,4.449230670928955,-81.12084197998047,0
981.107,-0.00010379849118180573,-0.000166078403708525,-6.393952935468405e-05,0.0,0.0,0.0,0.0,-0.0004539645742624998,-0.002173603745177388,-8.959704427979887e-05,1.0001983642578125,0.0,0.0,0.0,0.45615121722221375,6.435285568237305,4.462969779968262,-82.56427764892578,0
991.009,-0.00011626534978859127,-0.00018496658594813198,-2.264978684252128e-05,0.0,0.0,0.0,0.0,0.0007978180656209588,-0.004866762552410364,0.0018665783572942019,1.0001224279403687,0.0,0.0,0.0,0.45583122968673706,6.430910110473633,4.4657440185546875,-82.50635528564453,0
1000.9279999999999,-8.849719597492367e-05,-0.00014419644139707088,-7.175867358455434e-05,0.0,0.0,0.0,0.0,-0.0027408411260694265,-0.0011473988415673375,0.004528839606791735,1.0001474618911743,0.0,0.0,0.0,0.46425727009773254,6.442842483520508,4.482223987579346,-84.031494140625,0
1010.8270000000011,-7.621750410180539e-05,-0.00019245996372774243,-3.523267150740139e-05,0.0,0.0,0.0,0.0,-0.002099015284329653,0.002316736150532961,0.0006497218855656683,0.9999752640724182,0.0,0.0,0.0,0.4538939595222473,6.444762706756592,4.4863104820251465,-82.15571594238281,0
1020.7530000000006,-3.441244916757569e-05,-0.0001468220871174708,-0.00010824549099197611,0.0,0.0,0.0,0.0,0.0011724489741027355,-0.004126157611608505,-0.004444418475031853,0.9992554783821106,0.0,0.0,0.0,0.4539867341518402,6.438965797424316,4.487667083740234,-82.1725082397461,0
1030.6460000000006,-6.801814015489072e-05,-0.00017653552640695125,-8.624408656032756e-05,0.0,0.0,0.0,0.0,0.00021165519137866795,0.0006894523394294083,0.0016456071753054857,0.9959717392921448,0.0,0.0,0.0,0.4440137445926666,6.433968544006348,4.490213871002197,-80.36737060546875,0
1040.5660000000007,-4.893267760053277e-05,-0.0001461271895095706,-0.0001270879147341475,0.0,0.0,0.0,0.0,0.002702602418139577,-0.00218223431147635,-0.0008968165493570268,0.9986959099769592,0.0,0.0,0.0,0.4525054097175598,6.441280841827393,4.496738910675049,-81.90438842773438,0
1050.4680000000008,-6.650919385720044e-05,-0.0001707735937088728,-9.934641275322065e-05,0.0,0.0,0.0,0.0,0.00044783606426790357,0.0018280565273016691,0.0029087464790791273,0.9999603033065796,0.0,0.0,0.0,0.4425574541091919,6.442516803741455,4.501725196838379,-80.10377502441406,0
1060.3870000000006,-0.00010413024574518204,-0.0002166164922527969,-9.720000525703654e-05,0.0,0.0,0.0,0.0,0.0007665340672247112,0.0009468654170632362,-0.0022503274958580732,1.0013850927352905,0.0,0.0,0.0,0.44296401739120483,6.432666301727295,4.4913411140441895,-80.1773681640625,0
1070.286,-0.00011663167970255017,-0.00023005480761639774,-6.474194378824905e-05,0.0,0.0,0.0,0.0,-0.0017156775575131178,-0.0006987428059801459,0.0003131564590148628,1.00208580493927,0.0,0.0,0.0,0.4312494397163391,6.435937881469727,4.486361980438232,-78.0570068359375,0
1080.2120000000014,-7.295974501175806e-05,-0.00016591159510426223,-0.000145225552842021,0.0,0.0,0.0,0.0,-0.00021878820552956313,-0.005288200918585062,-0.003094671992585063,0.9998190999031067,0.0,0.0,0.0,0.43801599740982056,6.456015586853027,4.502405643463135,-79.28176879882812,0
1090.1080000000002,-8.844851981848478e-05,-0.00019546833937056363,-0.00011836150952149183,0.0,0.0,0.0,0.0,0.0025714989751577377,0.0021130016539245844,-0.00037075308500789106,1.001251220703125,0.0,0.0,0.0,0.428066223859787,6.455063819885254,4.51751184463501,-77.4808349609375,0
1100.0220000000008,-8.845372940413654e-05,-0.00017489318270236254,-0.00012950632662978023,0.0,0.0,0.0,0.0,0.0032379976473748684,0.000333028263412416,-0.0008160197758115828,1.0007742643356323,0.0,0.0,0.0,0.4274222254753113,6.438551425933838,4.507308483123779,-77.36427307128906,0
1109.9320000000007,-0.00011556343088159338,-0.00015287616406567395,-7.025181548669934e-05,0.0,0.0,0.0,0.0,-0.00124879099894315,-0.012112128548324108,0.0003458930004853755,1.001677393913269,0.0,0.0,0.0,0.41981765627861023,6.443876266479492,4.502986907958984,-75.98783111572266,0
1119.8460000000014,-0.00010208399908151478,-0.00013406107609625906,-0.00011306956730550155,0.0,0.0,0.0,0.0,0.0012589277466759086,0.0010355365229770541,0.0030516451224684715,0.999773383140564,0.0,0.0,0.0,0.4266383647918701,6.452463150024414,4.5260233879089355,-77.2223892211914,0
1129.746000000001,-3.674383697216399e-05,-0.0001784407504601404,-5.317249451763928e-05,0.0,0.0,0.0,0.0,0.0046471054665744305,-0.0009880006546154618,-0.0016997759230434895,1.0003050565719604,0.0,0.0,0.0,0.4188079535961151,6.444222927093506,4.535731315612793,-75.80506896972656,0
1139.666000000001,1.5913745301077142e-05,-0.00011741909111151472,-0.0001318804861512035,0.0,0.0,0.0,0.0,9.332143235951662e-05,-0.0004522500676102936,0.0034105179365724325,0.9996165633201599,0.0,0.0,0.0,0.42645472288131714,6.4572343826293945,4.556400775909424,-77.18915557861328,0
1149.5720000000001,2.0587660401361063e-05,-0.00013841928739566356,-9.362418495584279e-05,0.0,0.0,0.0,0.0,-0.0004041454812977463,-0.0012453551171347499,-0.0003484211047179997,1.0004370212554932,0.0,0.0,0.0,0.4252530634403229,6.454409599304199,4.548268795013428,-76.97164916992188,0
1159.4940000000006,1.566106584505178e-05,-0.00013956875773146749,-0.00010500563075765967,0.0,0.0,0.0,0.0,0.0012023013550788164,0.0026842504739761353,0.0005570198409259319,1.0002660751342773,0.0,0.0,0.0,0.43675723671913147,6.453104019165039,4.555588245391846,-79.05392456054688,0
1169.3919999999998,-5.267445885692723e-05,-0.0001626170997042209,-0.00010027648386312649,0.0,0.0,0.0,0.0,0.0012737498618662357,-0.004720826167613268,-0.003727370873093605,1.0006678104400635,0.0,0.0,0.0,0.430404394865036,6.444789886474609,4.541292667388916,-77.90406036376953,0
1179.3100000000013,-2.6057474315166473e-05,-0.00012926306226290762,-0.00015227289986796677,0.0,0.0,0.0,0.0,-0.0015915491385385394,0.0026337183080613613,-0.0013656837400048971,0.9999052286148071,0.0,0.0,0.0,0.43774673342704773,6.447592735290527,4.551537036895752,-79.2330322265625,0
1189.2070000000003,-1.2436556062311865e-05,-0.00015450752107426524,-0.00010979385842802003,0.0,0.0,0.0,0.0,-0.0017956699011847377,0.0053232102654874325,-0.00033394384081475437,1.0000512599945068,0.0,0.0,0.0,0.4363873302936554,6.444605827331543,4.545689105987549,-78.98696899414062,0
1199.125,-1.5553057892248034e-05,-0.0001593954802956432,-0.00013154720363672823,0.0,0.0,0.0,0.0,-0.0005683642229996622,0.0060366177931427956,0.0010438102763146162,0.9987319111824036,0.0,0.0,0.0,0.4470617473125458,6.451704978942871,4.536917209625244,-80.9190673828125,0
1209.0310000000009,-3.69632471119985e-05,-0.00017333924188278615,-9.950451203621924e-05,0.0,0.0,0.0,0.0,0.0016865525394678116,0.006755704991519451,-0.0004876291495747864,1.0006823539733887,0.0,0.0,0.0,0.4365251958370209,6.454551696777344,4.52354097366333,-79.01192474365234,0
1218.9590000000007,-0.00010586525604594499,-0.00025124632520601153,-5.588547355728224e-05,0.0,0.0,0.0,0.0,0.000598453392740339,-0.0004626889422070235,-0.0014454181073233485,1.0001283884048462,0.0,0.0,0.0,0.4358530640602112,6.445489883422852,4.50028133392334,-78.89027404785156,0
1228.848,-0.00010914640733972192,-0.00024521799059584737,7.940575414977502e-06,0.0,0.0,0.0,0.0,-0.0008482210687361658,-0.001758550526574254,-0.002156105823814869,1.0011630058288574,0.0,0.0,0.0,0.4355050325393677,6.4330525398254395,4.490377902984619,-78.8272705078125,0
1238.7669999999998,-0.00015483736933674663,-0.000315735989715904,2.0574057998601347e-05,0.0,0.0,0.0,0.0,0.001180191058665514,0.0032352532725781202,-0.005766328424215317,1.0020697116851807,0.0,0.0,0.0,0.4442063271999359,6.425879001617432,4.4905853271484375,-80.4022216796875,0
1248.6779999999999,-0.00016805445193313062,-0.00031312485225498676,8.630783850094303e-05,0.0,0.0,0.0,0.0,0.0007476952159777284,0.0067823161371052265,-0.0009760161628946662,1.0000146627426147,0.0,0.0,0.0,0.4431818127632141,6.424350261688232,4.482434272766113,-80.21678924560547,0
1258.594000000001,-0.00016726144531276077,-0.0003084149502683431,7.745427137706429e-05,0.0,0.0,0.0,0.0,-0.0017476021312177181,-0.0005175590631552041,-0.0032379906624555588,0.999637246131897,0.0,0.0,0.0,0.44234782457351685,6.4141764640808105,4.467034816741943,-80.06584167480469,0
1268.4920000000002,-0.00018536800052970648,-0.00030093651730567217,0.00014966950402595103,0.0,0.0,0.0,0.0,-0.0001872633001767099,0.00014360155910253525,0.001607857528142631,0.9999207854270935,0.0,0.0,0.0,0.44118520617485046,6.409548282623291,4.4561448097229,-79.85540008544922,0
1278.4050000000007,-0.00018354298663325608,-0.00030341697856783867,0.0001319923612754792,0.0,0.0,0.0,0.0,0.0002609147923067212,0.003948020748794079,0.00030740167130716145,1.000643014907837,0.0,0.0,0.0,0.4410463273525238,6.400053977966309,4.454331874847412,-79.83026123046875,0
1288.3150000000005,-0.00013793911784887314,-0.0002447257284075022,0.00014584700693376362,0.0,0.0,0.0,0.0,0.0008957274258136749,-0.006008036434650421,-0.004771237261593342,1.0009946823120117,0.0,0.0,0.0,0.4407227039337158,6.39009952545166,4.4435529708862305,-79.77169036865234,0
1298.2270000000008,-0.0001757233403623104,-0.00029184503364376724,0.00016940708155743778,0.0,0.0,0.0,0.0,-0.004319039173424244,0.00027703066007234156,-0.0012325320858508348,1.0003312826156616,0.0,0.0,0.0,0.4392860233783722,6.385457992553711,4.451961040496826,-79.51165008544922,0
1308.134,-6.782781838410301e-06,-0.0002325671521248296,0.00013924950326327235,0.0,0.0,0.0,0.0,-0.0027035295497626066,-0.0008540597627870739,-0.003423393238335848,0.9980353713035583,0.0,0.0,0.0,0.4430215358734131,6.405684947967529,4.481163024902344,-80.18777465820312,0
1318.0480000000007,-4.075107426615432e-05,-0.000277410086710006,0.0001594582136021927,0.0,0.0,0.0,0.0,-0.0010743329767137766,-0.0010481046047061682,0.004043729044497013,0.9994773268699646,0.0,0.0,0.0,0.44153106212615967,6.399930953979492,4.479803085327148,-79.91799926757812,0
1327.951000000001,-1.6049390978878364e-05,-0.00018911500228568912,7.974656182341278e-05,0.0,0.0,0.0,0.0,-0.00027867715107277036,-0.004190295003354549,0.0006840890273451805,0.9993011951446533,0.0,0.0,0.0,0.4432828724384308,6.422250270843506,4.491779804229736,-80.23507690429688,0
1337.8760000000002,-4.93759689561557e-05,-0.00022982884547673166,9.084228076972067e-05,0.0,0.0,0.0,0.0,0.0015847902977839112,0.0007836910663172603,0.0028710218612104654,1.000267744064331,0.0,0.0,0.0,0.4426008462905884,6.422000885009766,4.490988254547119,-80.11163330078125,0
1347.7790000000005,-3.495368946460076e-05,-9.4898248789832e-05,-5.549249522118771e-07,0.0,0.0,0.0,0.0,-0.0010303204180672765,-0.005897345952689648,-0.00226029846817255,1.0018922090530396,0.0,0.0,0.0,0.4367174208164215,6.425097942352295,4.473583698272705,-79.04672241210938,0
1357.701000000001,-6.768722960259765e-05,-0.0001309314975515008,3.230610218452057e-06,0.0,0.0,0.0,0.0,-0.001393345301039517,-0.001835668575949967,0.003755612066015601,1.0008529424667358,0.0,0.0,0.0,0.43519943952560425,6.420771598815918,4.475025177001953,-78.77196502685547,0
1367.5950000000012,-6.408188255591085e-07,-3.182275759172626e-05,-6.496156856883317e-05,0.0,0.0,0.0,0.0,0.0006276603671722114,0.0012799070682376623,-0.0008747869287617505,1.0014839172363281,0.0,0.0,0.0,0.4412511885166168,6.4449591636657715,4.487886428833008,-79.86734008789062,0
1377.5159999999996,-3.16252262564376e-05,-6.442306039389223e-05,-6.373862561304122e-05,0.0,0.0,0.0,0.0,-0.0011905152350664139,0.0001386490766890347,0.001639644498936832,0.998716413974762,0.0,0.0,0.0,0.43979260325431824,6.441840171813965,4.476418972015381,-79.60333251953125,0
1387.4179999999997,-4.518463811109541e-06,-3.5332341212779284e-05,-0.00011618070857366547,0.0,0.0,0.0,0.0,0.0013777721906080842,0.001319428556598723,0.0023294370621442795,0.9998257160186768,0.0,0.0,0.0,0.4382828176021576,6.43108606338501,4.466777324676514,-79.33007049560547,0
1397.3360000000011,-3.4377077099634334e-05,-6.994356954237446e-05,-0.00011908090527867898,0.0,0.0,0.0,0.0,-0.0005626172642223537,-0.00469352537766099,-0.001665865769609809,1.0002796649932861,0.0,0.0,0.0,0.43795645236968994,6.420320987701416,4.455314636230469,-79.27098846435547,0
1407.2360000000008,-5.004892955184914e-05,-0.00010192589252255857,-0.00010890526755247265,0.0,0.0,0.0,0.0,0.0007515529869124293,0.005165233742445707,0.0004205874865874648,0.9986582398414612,0.0,0.0,0.0,0.42834457755088806,6.414696216583252,4.454986572265625,-77.53121948242188,0
1417.1490000000013,-8.197488205041736e-05,-0.00013964864774607122,-0.000110618319013156,0.0,0.0,0.0,0.0,-0.0012567975791171193,0.003341867122799158,0.0009148430544883013,1.0004881620407104,0.0,0.0,0.0,0.42658624053001404,6.404137134552002,4.4413323402404785,-77.21295928955078,0
1427.0529999999999,-0.00011481184628792107,-0.0001792346010915935,-0.0001127473806263879,0.0,0.0,0.0,0.0,-0.00038040545769035816,-0.0021907698828727007,0.001603558543138206,0.9998061656951904,0.0,0.0,0.0,0.42595434188842773,6.398798942565918,4.426535606384277,-77.09858703613281,0
1436.973,-0.00014803845260757953,-0.00022123019152786583,-0.0001147485600085929,0.0,0.0,0.0,0.0,-0.0023522148840129375,0.0011284418869763613,0.0008441747631877661,0.9990008473396301,0.0,0.0,0.0,0.4256620705127716,6.387513637542725,4.427107810974121,-77.04568481445312,0
1446.875,-8.725275984033942e-05,-0.00013500257045961916,-0.00018351871403865516,0.0,0.0,0.0,0.0,0.00034097928437404335,0.004028320778161287,-0.0018835784867405891,0.9992322325706482,0.0,0.0,0.0,0.43475428223609924,6.427800178527832,4.447549819946289,-78.69139099121094,0
1456.7970000000005,-0.00011443514085840434,-0.00017520417168270797,-0.00019016358419321477,0.0,0.0,0.0,0.0,0.0014606049517169595,-5.0667284085648134e-05,-0.003990144934505224,1.0007009506225586,0.0,0.0,0.0,0.4336351454257965,6.421870231628418,4.428950786590576,-78.48883056640625,0
1466.6930000000011,-8.129471825668588e-05,-0.00012283114483579993,-0.0002274119615321979,0.0,0.0,0.0,0.0,-0.0002969852648675442,0.003697546198964119,-0.0019509460544213653,1.0003718137741089,0.0,0.0,0.0,0.43948009610176086,6.446664810180664,4.447790622711182,-79.54676818847656,0
1476.6110000000008,-0.0001058417183230631,-0.00016194998170249164,-0.0002349646674701944,0.0,0.0,0.0,0.0,-0.00028686944278888404,-0.004380470607429743,0.0003568159881979227,0.9986521601676941,0.0,0.0,0.0,0.43887293338775635,6.436704158782959,4.436744213104248,-79.43687438964844,0
1486.5169999999998,-0.0001320179580943659,-0.00020269215747248381,-0.00024212840071413666,0.0,0.0,0.0,0.0,0.001202461076900363,0.004808252677321434,0.001056525157764554,1.0000979900360107,0.0,0.0,0.0,0.43945881724357605,6.434564113616943,4.443358898162842,-79.54291534423828,0
1496.4320000000007,-0.00015912771050352603,-0.00024514857796020806,-0.00024982792092487216,0.0,0.0,0.0,0.0,-0.00046293195919133723,0.000943495484534651,0.0007588174194097519,1.0014761686325073,0.0,0.0,0.0,0.43907779455184937,6.421476364135742,4.432727336883545,-79.47395324707031,0
1506.3379999999997,-0.00015690071450080723,-0.00022506684763357043,-0.00024839918478392065,0.0,0.0,0.0,0.0,0.0027392362244427204,0.0027493927627801895,-0.0014385454123839736,1.0012688636779785,0.0,0.0,0.0,0.44780880212783813,6.436254501342773,4.432394981384277,-81.05427551269531,0
1516.2520000000004,-0.0001830958790378645,-0.00026601619902066886,-0.0002535089442972094,0.0,0.0,0.0,0.0,0.0003816825046669692,0.00029383297078311443,-0.0011589396744966507,0.9997820854187012,0.0,0.0,0.0,0.4464118778705597,6.431239128112793,4.426263809204102,-80.80144500732422,0
1526.161,-0.00018245665705762804,-0.0002501419803593308,-0.00024581351317465305,0.0,0.0,0.0,0.0,0.00029241395532153547,0.0010451661655679345,0.004865768365561962,1.001725196838379,0.0,0.0,0.0,0.44607874751091003,6.427477836608887,4.421945571899414,-80.74114227294922,0
1536.0740000000005,-0.0002081681159324944,-0.0002906620502471924,-0.0002480933617334813,0.0,0.0,0.0,0.0,0.0019943194929510355,0.0020936348009854555,0.003969690762460232,1.0010188817977905,0.0,0.0,0.0,0.44805851578712463,6.420553684234619,4.418971538543701,-81.0994873046875,0
1545.9750000000004,-0.0002085333107970655,-0.00026317144511267543,-0.0002264049689983949,0.0,0.0,0.0,0.0,-0.0005906878504902124,-0.002700535114854574,-0.004582106601446867,1.0006049871444702,0.0,0.0,0.0,0.44864654541015625,6.408392906188965,4.417269706726074,-81.20591735839844,0
1555.8900000000012,-0.00023649736249353737,-0.000302937492961064,-0.0002248204982606694,0.0,0.0,0.0,0.0,-0.0036542743910104036,-0.005364816635847092,-0.0008442000835202634,0.9989630579948425,0.0,0.0,0.0,0.4467166066169739,6.410611629486084,4.421963691711426,-80.8565902709961,0
1565.800000000001,-0.00026625744067132473,-0.0003448095521889627,-0.00022288945910986513,0.0,0.0,0.0,0.0,0.0027715847827494144,0.002972104586660862,0.0003976310836151242,0.9998904466629028,0.0,0.0,0.0,0.44673213362693787,6.407495021820068,4.427684307098389,-80.8593978881836,0
1575.7200000000012,-0.00029788867686875165,-0.0003880637523252517,-0.00022141791123431176,0.0,0.0,0.0,0.0,-0.0020184514578431845,-0.0014105160953477025,0.004850941244512796,1.0011451244354248,0.0,0.0,0.0,0.4457184374332428,6.398373126983643,4.428276538848877,-80.6759262084961,0
1585.6149999999998,-0.00019970307766925544,-0.00029679754516109824,-0.00023541974951513112,0.0,0.0,0.0,0.0,0.0008569509373046458,-0.00046715213102288544,0.002402352401986718,1.0014958381652832,0.0,0.0,0.0,0.45189526677131653,6.44001579284668,4.481290340423584,-81.79393768310547,0
1595.5330000000013,-0.00016818003496155143,-0.0002542562724556774,-0.00022661710681859404,0.0,0.0,0.0,0.0,0.0020930967293679714,0.00018477083358448,-0.0015466833719983697,1.001146674156189,0.0,0.0,0.0,0.4523538053035736,6.42926025390625,4.4813151359558105,-81.87694549560547,0
1605.433000000001,-0.00018828737665899098,-0.0002840051893144846,-0.00022383512987289578,0.0,0.0,0.0,0.0,-0.0011339449556544423,-6.510569801321253e-05,0.004617005120962858,0.9990448355674744,0.0,0.0,0.0,0.45165956020355225,6.421267509460449,4.467554569244385,-81.75128173828125,0
1615.357,-0.00021032027143519372,-0.0003152139252051711,-0.00022015704598743469,0.0,0.0,0.0,0.0,4.130673914914951e-05,0.0013020382029935718,0.00010222417040495202,0.9995429515838623,0.0,0.0,0.0,0.4511028528213501,6.412034034729004,4.461928844451904,-81.6505126953125,0
1625.259,-0.00023402224178425968,-0.00034844930632971227,-0.00021662098879460245,0.0,0.0,0.0,0.0,0.0009533527190797031,-0.0008207208593375981,-0.004044390749186277,0.9978954195976257,0.0,0.0,0.0,0.45016732811927795,6.410243034362793,4.458730697631836,-81.4811782836914,0
1635.175000000001,-0.00025920485495589674,-0.00038316549034789205,-0.00021367370209190995,0.0,0.0,0.0,0.0,0.0012761015677824616,-0.0006760801770724356,-0.0009442967129871249,0.9991270303726196,0.0,0.0,0.0,0.4493412673473358,6.39781379699707,4.454757213592529,-81.3316650390625,0
1645.0780000000013,-0.0002859872183762491,-0.0004190453328192234,-0.00021187753009144217,0.0,0.0,0.0,0.0,0.0004973053000867367,0.0018523921025916934,-0.0006403353763744235,1.003555178642273,0.0,0.0,0.0,0.44837120175361633,6.389951229095459,4.458666801452637,-81.15608215332031,0
1655.0,-0.00031386438058689237,-0.000457796617411077,-0.0002096067910315469,0.0,0.0,0.0,0.0,0.0010040757479146123,-0.0006918444996699691,-0.002240309724584222,1.0028403997421265,0.0,0.0,0.0,0.4480236768722534,6.3879780769348145,4.45623779296875,-81.09317016601562,0
1664.8960000000006,-0.00017842999659478664,-0.00041796622099354863,0.00014053290942683816,0.0,0.0,0.0,0.0,0.002261465648189187,7.323282625293359e-05,0.0014724371721968055,1.0015572309494019,0.0,0.0,0.0,0.4460636079311371,6.4267683029174805,4.475918292999268,-80.7384033203125,0
1674.8199999999997,-9.428685007151216e-05,-0.00043101690243929625,0.0002846208226401359,0.0,0.0,0.0,0.0,0.001133621553890407,0.003945572767406702,0.0010788898216560483,0.9998103976249695,0.0,0.0,0.0,0.44640547037124634,6.418219089508057,4.47227668762207,-80.80028533935547,0
1684.714,-0.00011559748963918537,-0.0004674424126278609,0.00031714249053038657,0.0,0.0,0.0,0.0,0.0007744678296148777,-0.0016951133729889989,-0.0026904873084276915,0.9995080232620239,0.0,0.0,0.0,0.4458531439304352,6.409262180328369,4.455755233764648,-80.70030212402344,0
1694.6350000000002,-0.00013830386160407215,-0.0005059335380792618,0.00034979332122020423,0.0,0.0,0.0,0.0,-0.0015423075528815389,-0.0007747895433567464,0.0012550379615277052,0.998980700969696,0.0,0.0,0.0,0.44533032178878784,6.400200366973877,4.447105884552002,-80.60567474365234,0
1704.5420000000013,-0.0001583185512572527,-0.0005179352592676878,0.0004266728647053242,0.0,0.0,0.0,0.0,-0.00213478016667068,-0.004176508169621229,-0.0011038732482120395,0.9994514584541321,0.0,0.0,0.0,0.434532105922699,6.405447006225586,4.443424224853516,-78.65117645263672,0
1714.4680000000008,-0.00018734479090198874,-0.0005201167659834027,0.0005156356492079794,0.0,0.0,0.0,0.0,0.0016642131377011538,0.004644629545509815,0.0012169962283223867,0.9989677667617798,0.0,0.0,0.0,0.4351574778556824,6.403196811676025,4.436690807342529,-78.76437377929688,0
1724.3610000000008,-0.00021497604029718786,-0.0005579631542786956,0.0005540209822356701,0.0,0.0,0.0,0.0,-0.002688081469386816,0.002851146273314953,-0.0020011768210679293,0.9998863339424133,0.0,0.0,0.0,0.43427130579948425,6.3984055519104,4.443838119506836,-78.60397338867188,0
1734.2810000000009,-0.0002294734149472788,-0.0005699382163584232,0.0006314997444860637,0.0,0.0,0.0,0.0,0.000882167078088969,0.00040798253030516207,0.001250770757906139,1.0011290311813354,0.0,0.0,0.0,0.43264004588127136,6.393446445465088,4.42060661315918,-78.30870056152344,0
1744.1760000000013,-0.0002607620263006538,-0.000609596143476665,0.0006730089662596583,0.0,0.0,0.0,0.0,-0.000753990258090198,-0.002056652447208762,-0.00039828720036894083,1.0022740364074707,0.0,0.0,0.0,0.43220254778862,6.392429828643799,4.404456615447998,-78.2295150756836,0
1754.098,-0.0002714810543693602,-0.0006237906054593623,0.0007540813530795276,0.0,0.0,0.0,0.0,-0.0009179693297483027,-0.007469413802027702,-0.0020756274461746216,1.0035500526428223,0.0,0.0,0.0,0.4320495128631592,6.386282920837402,4.41569709777832,-78.20182037353516,0
1763.9970000000012,-0.0003057843423448503,-0.0006655112374573946,0.0008026143186725676,0.0,0.0,0.0,0.0,0.0008869459852576256,0.004641585983335972,-0.0007921206415630877,1.0019091367721558,0.0,0.0,0.0,0.43143191933631897,6.384634017944336,4.4134840965271,-78.09003448486328,0
1773.9150000000009,-0.000342196726705879,-0.0007085160468704998,0.0008543123258277774,0.0,0.0,0.0,0.0,-0.0018621108029037714,-0.0027554708067327738,-0.001881239702925086,1.0020685195922852,0.0,0.0,0.0,0.4305776357650757,6.381502151489258,4.412284851074219,-77.93540954589844,0
1783.817000000001,-0.00037992498255334795,-0.0007530094007961452,0.0009086058707907796,0.0,0.0,0.0,0.0,0.0012082746252417564,0.0033355082850903273,-0.00045443876297213137,1.0008023977279663,0.0,0.0,0.0,0.4308679401874542,6.373122692108154,4.4099955558776855,-77.98795318603516,0
1793.7350000000006,-0.000418485957197845,-0.0007997254724614322,0.0009647018741816282,0.0,0.0,0.0,0.0,0.001390964724123478,0.002402083482593298,0.0013432372361421585,1.000416874885559,0.0,0.0,0.0,0.4296109676361084,6.364002704620361,4.4072489738464355,-77.76044464111328,0
1803.6409999999996,-0.0004582525580190122,-0.0008482883567921817,0.001021992415189743,0.0,0.0,0.0,0.0,-0.0018133192788809538,-0.0014181786682456732,-0.003404289484024048,0.9979718923568726,0.0,0.0,0.0,0.4282059669494629,6.354263782501221,4.387356281280518,-77.5061264038086,0
1813.5560000000005,-0.00043871221714653075,-0.0008358925115317106,0.001148307928815484,0.0,0.0,0.0,0.0,0.002028408460319042,0.0007687814068049192,0.00024855497758835554,0.9998233318328857,0.0,0.0,0.0,0.42714324593544006,6.348137855529785,4.389481067657471,-77.31377410888672,0
1823.4610000000011,-0.0004778295988216996,-0.0008825415279716253,0.0012111070100218058,0.0,0.0,0.0,0.0,0.0033470536582171917,0.0011810462456196547,-0.0026217589620500803,0.9992803931236267,0.0,0.0,0.0,0.4264069199562073,6.338160991668701,4.3828229904174805,-77.18050384521484,0
1833.3690000000006,-0.00046727590961381793,-0.000926669395994395,0.0012903646565973759,0.0,0.0,0.0,0.0,-3.709167140186764e-05,-0.00014097904204390943,0.001645536394789815,1.0002449750900269,0.0,0.0,0.0,0.42566439509391785,6.327850341796875,4.365843296051025,-77.04610443115234,0
1843.2780000000002,-0.00044850216363556683,-0.0009715263731777668,0.0013758238637819886,0.0,0.0,0.0,0.0,0.002280842512845993,0.0022676498629152775,-0.001747807371430099,0.9993239641189575,0.0,0.0,0.0,0.4190771281719208,6.322016716003418,4.387725353240967,-75.85379791259766,0
1853.1930000000011,-0.00010794151603477076,-0.0001058952184394002,1.4919601198926102e-05,0.0,0.0,0.0,0.0,-0.003370281308889389,-0.000573331955820322,0.0015619549667462707,1.0005407333374023,0.0,0.0,0.0,0.4273107945919037,6.48386287689209,4.443201065063477,-77.34410095214844,0
1863.0969999999998,-0.00012763965060003102,-0.00012438029807526618,2.9162842110963538e-05,0.0,0.0,0.0,0.0,0.0020002087112516165,0.0015792998019605875,-0.000988972606137395,1.001934289932251,0.0,0.0,0.0,0.4267098009586334,6.481113910675049,4.433913230895996,-77.23532104492188,0
1873.014000000001,-0.0001503961393609643,-0.00014455679047387093,4.4231874198885635e-05,0.0,0.0,0.0,0.0,0.0014756240416318178,-0.0010389271192252636,-0.0007068136474117637,0.9980965852737427,0.0,0.0,0.0,0.4272794723510742,6.472659587860107,4.4359540939331055,-77.33843231201172,0
1882.9279999999999,-0.00017641313024796546,-0.00016512497677467763,6.065312845748849e-05,0.0,0.0,0.0,0.0,-5.8090277889277786e-05,0.0012564739445224404,-0.0012410435592755675,0.999650239944458,0.0,0.0,0.0,0.42497825622558594,6.4669623374938965,4.426732063293457,-76.92191314697266,0
1892.8330000000005,-0.0002045062865363434,-0.00018599933537188917,7.649515464436263e-05,0.0,0.0,0.0,0.0,-7.655605440959334e-05,0.000907963200006634,-0.0018349342280998826,1.0027519464492798,0.0,0.0,0.0,0.4231373071670532,6.462085723876953,4.420865535736084,-76.58869934082031,0
1902.737000000001,-0.00023346485977526754,-0.0002075294905807823,9.254027099814266e-05,0.0,0.0,0.0,0.0,-0.0004598968953359872,-0.003308069659397006,-0.00037090855767019093,1.002625584602356,0.0,0.0,0.0,0.4216116964817047,6.458137035369873,4.4121479988098145,-76.31256103515625,0
1912.6589999999997,-0.00019996172341052443,-0.00013360424782149494,-7.977111090440303e-05,0.0,0.0,0.0,0.0,0.0016262044664472342,0.0022643045522272587,0.0018252599984407425,1.000085711479187,0.0,0.0,0.0,0.4315285086631775,6.468613624572754,4.432041645050049,-78.1075210571289,0
1922.563,-0.00022719662229064852,-0.00015291263116523623,-6.766938895452768e-05,0.0,0.0,0.0,0.0,-0.001196970697492361,0.001142899040132761,0.00040212710155174136,0.9992125630378723,0.0,0.0,0.0,0.43022769689559937,6.469979763031006,4.426249027252197,-77.87207794189453,0
1932.4700000000012,-0.0001937197957886383,-7.25401405361481e-05,-0.0001719066931400448,0.0,0.0,0.0,0.0,0.0012557501904666424,-0.000962322810664773,-0.0001391192781738937,0.9984019994735718,0.0,0.0,0.0,0.4409455955028534,6.492147922515869,4.443822860717773,-79.8120346069336,0
1942.3790000000008,-0.00021692755399271846,-9.145239891950041e-05,-0.00016482648788951337,0.0,0.0,0.0,0.0,-0.0011662556789815426,-0.001471202471293509,-0.0015481882728636265,1.0018268823623657,0.0,0.0,0.0,0.4412064850330353,6.489047527313232,4.442397594451904,-79.8592529296875,0
1952.2939999999999,-0.00020078176748938859,-5.197977588977665e-05,-0.00020870899606961757,0.0,0.0,0.0,0.0,0.0012780089164152741,0.001696688705123961,0.0013075233437120914,1.001116394996643,0.0,0.0,0.0,0.445853054523468,6.511636734008789,4.460799694061279,-80.70028686523438,0
1962.2039999999997,-0.00022108563280198723,-7.28162849554792e-05,-0.00020331529958639294,0.0,0.0,0.0,0.0,0.0021600178442895412,0.0015240981010720134,0.001200507627800107,0.9989851117134094,0.0,0.0,0.0,0.44479042291641235,6.497961044311523,4.460453510284424,-80.50794982910156,0
1972.1100000000006,-0.00023115902149584144,-8.983667066786438e-05,-0.00022698850079905242,0.0,0.0,0.0,0.0,0.0018599826144054532,0.0014107398455962539,-0.005703814327716827,1.0000059604644775,0.0,0.0,0.0,0.45292726159095764,6.493813991546631,4.456497669219971,-81.9807357788086,0
1982.0210000000006,-0.0002539476554375142,-0.0001149141025962308,-0.00022255511430557817,0.0,0.0,0.0,0.0,-0.001421111635863781,-0.0007751003140583634,-0.0001406330120516941,1.0001024007797241,0.0,0.0,0.0,0.45221757888793945,6.488422393798828,4.4497880935668945,-81.85227966308594,0
1991.937,-0.00027909703203476965,-0.00014211758389137685,-0.0002178959985030815,0.0,0.0,0.0,0.0,-0.00028872297843918204,0.0029522450640797615,-0.003336989786475897,0.9991348385810852,0.0,0.0,0.0,0.4523357152938843,6.4806389808654785,4.451296806335449,-81.87366485595703,0
2001.8430000000008,-0.00030661976779811084,-0.00017150663188658655,-0.00021310527517925948,0.0,0.0,0.0,0.0,-0.002175206784158945,-0.0010597776854410768,-0.0024910506326705217,0.9989436268806458,0.0,0.0,0.0,0.451416939496994,6.475333213806152,4.453783988952637,-81.70736694335938,0
2011.75,-0.0003360857081133872,-0.00020303655765019357,-0.00020891048188786954,0.0,0.0,0.0,0.0,0.0031810393556952477,0.005177782382816076,-0.002528700977563858,1.0008262395858765,0.0,0.0,0.0,0.44967448711395264,6.46856164932251,4.4420976638793945,-81.39197540283203,0
2021.6620000000003,-0.00036765230470336974,-0.00023708725348114967,-0.00020475695782806724,0.0,0.0,0.0,0.0,0.003005961887538433,-0.0011575695825740695,-0.00026321562472730875,0.9994089603424072,0.0,0.0,0.0,0.44853320717811584,6.466294765472412,4.443675994873047,-81.1854019165039,0
2031.5780000000013,-0.0004013393772765994,-0.00027414687792770565,-0.00019986303232144564,0.0,0.0,0.0,0.0,-0.003303022123873234,0.00563404243439436,-0.004326827824115753,1.0003458261489868,0.0,0.0,0.0,0.4478592276573181,6.456028938293457,4.424928665161133,-81.06340789794922,0
2041.4790000000012,-0.00043614476453512907,-0.000314047938445583,-0.00019426170911174268,0.0,0.0,0.0,0.0,-0.0014530600747093558,0.0029868215788155794,-0.0012235279427841306,0.9999002814292908,0.0,0.0,0.0,0.4466669261455536,6.451561450958252,4.420770645141602,-80.84760284423828,0
2051.393,-0.00030322623206302524,-0.00016661445260979235,-0.00022358063142746687,0.0,0.0,0.0,0.0,-0.0012398093240335584,0.004739988129585981,0.0004486902034841478,0.9998852610588074,0.0,0.0,0.0,0.4565149247646332,6.526889801025391,4.472455978393555,-82.63011169433594,0
2061.304,-0.00032771853148005903,-0.00019607726426329464,-0.00022131745936349034,0.0,0.0,0.0,0.0,-0.0010710282949730754,-0.0010616916697472334,-0.004303861875087023,1.0004204511642456,0.0,0.0,0.0,0.4571746289730072,6.517557621002197,4.453437805175781,-82.74951934814453,0
2071.214,-0.00035355458385311067,-0.00022626094869337976,-0.00021865934832021594,0.0,0.0,0.0,0.0,-0.0036992947570979595,-0.0009729447192512453,-0.0019490786362439394,1.000961422920227,0.0,0.0,0.0,0.4570622444152832,6.508243083953857,4.43791389465332,-82.72917175292969,0
2081.121000000001,-0.0003806932072620839,-0.00025750306667760015,-0.0002151227672584355,0.0,0.0,0.0,0.0,0.0011555590899661183,-0.0001796733122318983,0.0012858349364250898,1.000580906867981,0.0,0.0,0.0,0.4564134478569031,6.50610876083374,4.436642169952393,-82.61174011230469,0
2091.0300000000007,-0.0004086040717083961,-0.00029010558500885963,-0.00021060352446511388,0.0,0.0,0.0,0.0,-0.0035978045780211687,-0.00045789306750521064,0.0006162315257824957,1.0007785558700562,0.0,0.0,0.0,0.45600464940071106,6.497732639312744,4.435585021972656,-82.53775787353516,0
2100.947,-0.0001813398121157661,-0.0003183692751917988,0.00017954733630176634,0.0,0.0,0.0,0.0,-0.0022699052933603525,-0.0005076310480944812,-0.0005919014220125973,1.0002175569534302,0.0,0.0,0.0,0.4476117789745331,6.510223865509033,4.473049640655518,-81.01861572265625,0
2110.854000000001,-0.00019901823543477803,-0.0003495313576422632,0.000202453913516365,0.0,0.0,0.0,0.0,0.0011820117942988873,-0.0015850268537178636,-0.0023225315380841494,1.0002832412719727,0.0,0.0,0.0,0.44731512665748596,6.505056381225586,4.4616265296936035,-80.96492767333984,0
2120.7610000000004,-0.00014183871098794043,-0.000384712329832837,0.00028329985798336565,0.0,0.0,0.0,0.0,0.004358880687505007,-0.0009964443743228912,-0.002540786284953356,1.0003117322921753,0.0,0.0,0.0,0.43378493189811707,6.502536296844482,4.4691290855407715,-78.51593780517578,0
