timestamp,stateEstimate.x,stateEstimate.y,stateEstimate.z,controller.cmd_thrust,controller.cmd_roll,controller.cmd_pitch,controller.cmd_yaw,controller.r_roll,controller.r_pitch,controller.r_yaw,controller.accelz,controller.actuatorThrust,controller.roll,controller.pitch,controller.yaw,controller.rollRate,controller.pitchRate,controller.yawRate,controller.ctr_yaw
0.0,0.006395210511982441,0.0050778258591890335,-0.00020847251289524138,0.0,0.0,0.0,0.0,-0.0021942213643342257,0.005415535997599363,6.547628436237574e-05,0.9987457394599915,0.0,0.0,0.0,13.54702377319336,-3.68682861328125,6.823480606079102,-2452.038330078125,0
9.90899999999965,0.006353741977363825,0.005133127328008413,-0.00018756548524834216,0.0,0.0,0.0,0.0,0.0004719327262137085,-0.0014175426913425326,-0.00542043661698699,0.9999991059303284,0.0,0.0,0.0,13.544827461242676,-3.675251007080078,6.802783966064453,-2451.640869140625,0
19.829999999999927,0.006276292260736227,0.005101383198052645,-0.0001703080051811412,0.0,0.0,0.0,0.0,-0.0007645344594493508,-0.004013560246676207,-0.0026693299878388643,0.9987248778343201,0.0,0.0,0.0,13.548178672790527,-3.6780452728271484,6.783297061920166,-2452.247314453125,0
29.733000000000175,0.006401881109923124,0.005045587196946144,-0.0001255576207768172,0.0,0.0,0.0,0.0,-0.004150529392063618,-0.00040986246312968433,-0.0015844345325604081,0.9964995980262756,0.0,0.0,0.0,13.549459457397461,-3.696122884750366,6.809547424316406,-2452.479248046875,0
39.64599999999882,0.006390888709574938,0.00506571913138032,-0.00015583884669467807,0.0,0.0,0.0,0.0,-0.00031211896566674113,0.0008248775266110897,0.003817642806097865,0.997945249080658,0.0,0.0,0.0,13.551825523376465,-3.6895010471343994,6.810354232788086,-2452.907470703125,0
49.5630000000001,0.006367407273501158,0.005058548878878355,-0.00015534373233094811,0.0,0.0,0.0,0.0,-0.001865603495389223,0.0011090043699368834,0.003911203239113092,0.9961758852005005,0.0,0.0,0.0,13.54924488067627,-3.6935572624206543,6.819238185882568,-2452.440185546875,0
59.461999999999534,0.006369203329086304,0.005114968400448561,-0.00019481124763842672,0.0,0.0,0.0,0.0,8.938147948356345e-05,0.0019090673886239529,-0.00011405941768316552,1.0003396272659302,0.0,0.0,0.0,13.551386833190918,-3.6792566776275635,6.823700428009033,-2452.827880859375,0
69.3819999999996,0.006435569375753403,0.005098211113363504,-0.00016734258679207414,0.0,0.0,0.0,0.0,0.0010464797960594296,-0.0036604369524866343,0.004009214695543051,1.002336025238037,0.0,0.0,0.0,13.54656982421875,-3.6775999069213867,6.831365585327148,-2451.956298828125,0
79.28700000000026,0.006437848787754774,0.005114679224789143,-0.00022182347311172634,0.0,0.0,0.0,0.0,0.0015648241387680173,0.0011403677053749561,0.0031439880840480328,0.9996628165245056,0.0,0.0,0.0,13.550515174865723,-3.674473762512207,6.829015254974365,-2452.670166015625,0
89.21099999999933,0.006378836464136839,0.005158728454262018,-0.00022360555885825306,0.0,0.0,0.0,0.0,0.0011704231146723032,-0.000292635231744498,-0.0009626829414628446,0.9974808692932129,0.0,0.0,0.0,13.549192428588867,-3.6668813228607178,6.822507858276367,-2452.4306640625,0
99.10800000000017,0.006333451252430677,0.005159005057066679,-0.000230759076657705,0.0,0.0,0.0,0.0,-0.0002830958692356944,0.0024552890099585056,0.0023337628226727247,0.9994248151779175,0.0,0.0,0.0,13.535621643066406,-3.665496587753296,6.819880485534668,-2449.974365234375,0
109.02700000000004,0.006291153375059366,0.0051306807436048985,-0.00026479188818484545,0.0,0.0,0.0,0.0,-7.400053436867893e-05,-0.0026695854030549526,-0.00252899550832808,1.0000444650650024,0.0,0.0,0.0,13.535662651062012,-3.665113687515259,6.801701545715332,-2449.981689453125,0
118.93999999999869,0.0062432368285954,0.005129773169755936,-0.00027587456861510873,0.0,0.0,0.0,0.0,0.0010392818367108703,-0.0013261586427688599,-0.0017799752531573176,1.0000836849212646,0.0,0.0,0.0,13.521369934082031,-3.6630961894989014,6.813085556030273,-2447.394775390625,0
128.85199999999895,0.006232914049178362,0.00516808545216918,-0.0003212647861801088,0.0,0.0,0.0,0.0,-0.001851515145972371,0.00014926046424079686,0.0011926328297704458,0.9972641468048096,0.0,0.0,0.0,13.52623462677002,-3.647578716278076,6.819474697113037,-2448.275634765625,0
138.7519999999986,0.006185786332935095,0.005170132499188185,-0.0003355696389917284,0.0,0.0,0.0,0.0,0.0005660498864017427,0.004031744319945574,-0.001428980496712029,0.9983208179473877,0.0,0.0,0.0,13.512749671936035,-3.6417014598846436,6.816821575164795,-2445.83447265625,0
148.67499999999927,0.006164051126688719,0.005178447812795639,-0.0003845588071271777,0.0,0.0,0.0,0.0,-0.0003904862387571484,-0.000473502732347697,-0.002362679922953248,0.9992201328277588,0.0,0.0,0.0,13.514528274536133,-3.6479074954986572,6.817915439605713,-2446.156494140625,0
158.5749999999989,0.006115914788097143,0.0051818531937897205,-0.0004046818648930639,0.0,0.0,0.0,0.0,1.6419686289737e-05,-0.0019465177319943905,-0.0003292117908131331,0.9984961152076721,0.0,0.0,0.0,13.500625610351562,-3.634167194366455,6.81837797164917,-2443.64013671875,0
168.49499999999898,0.006097357254475355,0.005209785886108875,-0.0004518716596066952,0.0,0.0,0.0,0.0,0.001764776767231524,-0.00311591406352818,-0.00037168021663092077,0.9985016584396362,0.0,0.0,0.0,13.505729675292969,-3.6195919513702393,6.838885307312012,-2444.564208984375,0
178.40099999999984,0.006049525458365679,0.0052154650911688805,-0.0004760027804877609,0.0,0.0,0.0,0.0,0.00266520818695426,-0.0035286666825413704,-0.0024269286077469587,0.9981164932250977,0.0,0.0,0.0,13.492192268371582,-3.6179754734039307,6.8354997634887695,-2442.11376953125,0
188.3209999999999,0.006026502698659897,0.005211972631514072,-0.0005312197026796639,0.0,0.0,0.0,0.0,-0.0007436751038767397,-0.00010040180495707318,0.0025920493062585592,1.0015102624893188,0.0,0.0,0.0,13.497858047485352,-3.6285109519958496,6.843050479888916,-2443.13916015625,0
198.22699999999895,0.005980688147246838,0.005220452323555946,-0.0005598214920610189,0.0,0.0,0.0,0.0,-0.001968197990208864,-0.0016325411852449179,0.0014347061514854431,1.000501036643982,0.0,0.0,0.0,13.484844207763672,-3.626598834991455,6.833032608032227,-2440.78369140625,0
208.14400000000023,0.005964134354144335,0.005214670207351446,-0.0006192997680045664,0.0,0.0,0.0,0.0,0.00259101833216846,0.0010858241003006697,-0.0014333549188449979,0.9988608360290527,0.0,0.0,0.0,13.484566688537598,-3.6228280067443848,6.8472466468811035,-2440.7333984375,0
218.04199999999946,0.005919414106756449,0.0052254218608140945,-0.000649002380669117,0.0,0.0,0.0,0.0,0.0010242530843243003,-0.002498734975233674,-0.0012905544135719538,1.0004600286483765,0.0,0.0,0.0,13.47053337097168,-3.6191294193267822,6.836771488189697,-2438.193359375,0
227.95499999999993,0.0059423549100756645,0.005295041482895613,-0.0007079935166984797,0.0,0.0,0.0,0.0,-0.0018099239096045494,-0.0005459923413582146,-0.0006594786536879838,1.0013409852981567,0.0,0.0,0.0,13.47758960723877,-3.5978128910064697,6.874658107757568,-2439.470458984375,0
237.8670000000002,0.005902347154915333,0.005315055605024099,-0.0007405686192214489,0.0,0.0,0.0,0.0,-0.00028833284159190953,-0.004060776904225349,0.000171417195815593,1.001041054725647,0.0,0.0,0.0,13.464852333068848,-3.5910112857818604,6.871550559997559,-2437.164794921875,0
247.78199999999924,0.005857392679899931,0.005307230167090893,-0.0007796776480972767,0.0,0.0,0.0,0.0,0.0034474239218980074,0.003214342286810279,0.0020670245867222548,0.9993754029273987,0.0,0.0,0.0,13.469371795654297,-3.59545636177063,6.861782073974609,-2437.98291015625,0
257.6869999999999,0.005814115982502699,0.005324401892721653,-0.0008109265472739935,0.0,0.0,0.0,0.0,-0.0026495822239667177,0.001509764464572072,0.0032089094165712595,0.9997088313102722,0.0,0.0,0.0,13.456701278686523,-3.5910892486572266,6.854181289672852,-2435.689697265625,0
267.60399999999936,0.005781430751085281,0.005326299462467432,-0.0008576238178648055,0.0,0.0,0.0,0.0,0.002079823287203908,0.0030351649038493633,-0.0009244662942364812,1.000923991203308,0.0,0.0,0.0,13.464530944824219,-3.592665910720825,6.848198413848877,-2437.106689453125,0
277.5149999999994,0.005735230166465044,0.005345196928828955,-0.0008898975793272257,0.0,0.0,0.0,0.0,0.0004886437673121691,-0.007116170134395361,0.0065627736039459705,1.0016998052597046,0.0,0.0,0.0,13.450485229492188,-3.5953633785247803,6.836292266845703,-2434.564453125,0
287.4259999999995,0.005693610291928053,0.005385961849242449,-0.0009154665749520063,0.0,0.0,0.0,0.0,-7.957900379551575e-05,0.003886015620082617,-0.0013420976465567946,0.9992921352386475,0.0,0.0,0.0,13.458236694335938,-3.580704689025879,6.834866523742676,-2435.9677734375,0
297.3329999999987,0.005644412245601416,0.005407731514424086,-0.0009455840918235481,0.0,0.0,0.0,0.0,-0.00117150554433465,0.0015170401893556118,0.0003826713655143976,0.9996124505996704,0.0,0.0,0.0,13.44566535949707,-3.5766947269439697,6.826016902923584,-2433.6923828125,0
307.2529999999988,0.00559284957125783,0.005429112818092108,-0.0009757826337590814,0.0,0.0,0.0,0.0,-2.0803583538508974e-05,0.00186712306458503,-0.0018695940962061286,1.0004228353500366,0.0,0.0,0.0,13.431473731994629,-3.566136121749878,6.8089518547058105,-2431.123291015625,0
317.15399999999863,0.00553858932107687,0.00545069994404912,-0.001005939207971096,0.0,0.0,0.0,0.0,-0.0018350539030507207,-0.0009932357352226973,-0.00018086681666318327,1.0012787580490112,0.0,0.0,0.0,13.418543815612793,-3.5623419284820557,6.802577972412109,-2428.782958984375,0
327.0789999999997,0.005482166539877653,0.005473601631820202,-0.0010354106780141592,0.0,0.0,0.0,0.0,-0.001851800479926169,-0.006792298052459955,-0.0030343099497258663,1.000302791595459,0.0,0.0,0.0,13.404865264892578,-3.551084280014038,6.792999744415283,-2426.307373046875,0
336.97799999999916,0.005424290429800749,0.005498778540641069,-0.0010636908700689673,0.0,0.0,0.0,0.0,0.00019673873612191528,0.004729340318590403,0.0011234619887545705,0.9993481040000916,0.0,0.0,0.0,13.390945434570312,-3.5453789234161377,6.803248882293701,-2423.787841796875,0
346.89400000000023,0.006323771085590124,0.005166226997971535,-0.00023630201758351177,0.0,0.0,0.0,0.0,0.004959932528436184,0.0006121115875430405,-0.0002848548465408385,0.9981657862663269,0.0,0.0,0.0,13.39980411529541,-3.632822036743164,6.927813529968262,-2425.391357421875,0
356.8040000000001,0.006301270332187414,0.005182082764804363,-0.00023245338525157422,0.0,0.0,0.0,0.0,0.001986549235880375,0.0014692668337374926,-0.0023757996968925,0.9982107877731323,0.0,0.0,0.0,13.386265754699707,-3.6385245323181152,6.922438144683838,-2422.940673828125,0
366.72799999999916,0.006377526093274355,0.005186100024729967,-0.00018128070223610848,0.0,0.0,0.0,0.0,0.0010331321973353624,-0.002025171648710966,-0.0018397175008431077,0.9981509447097778,0.0,0.0,0.0,13.406975746154785,-3.643270969390869,6.919902801513672,-2426.689453125,0
376.625,0.006355838850140572,0.005201054736971855,-0.00017868906434159726,0.0,0.0,0.0,0.0,0.0009772330522537231,-0.002145161386579275,0.0015309888403862715,1.000092625617981,0.0,0.0,0.0,13.393198013305664,-3.6404848098754883,6.904993057250977,-2424.195556640625,0
386.54199999999946,0.006434501614421606,0.00521437544375658,-0.00015059033466968685,0.0,0.0,0.0,0.0,-3.0881721613695845e-05,0.005379891954362392,-0.0010895786108449101,1.0014327764511108,0.0,0.0,0.0,13.412575721740723,-3.641646146774292,6.915326118469238,-2427.702880859375,0
396.4539999999997,0.006411782465875149,0.005229763220995665,-0.00014643384201917797,0.0,0.0,0.0,0.0,-0.00021229390404187143,0.0006201615906320512,0.00023428554413840175,1.0005735158920288,0.0,0.0,0.0,13.400242805480957,-3.6387922763824463,6.901700973510742,-2425.470458984375,0
406.366,0.006416695192456245,0.005209305323660374,-0.0001708580821286887,0.0,0.0,0.0,0.0,-0.0021263915114104748,-2.4792061594780535e-05,0.004374613519757986,0.9998403191566467,0.0,0.0,0.0,13.407599449157715,-3.6533570289611816,6.891820907592773,-2426.80224609375,0
416.2669999999998,0.006393205374479294,0.005223239306360483,-0.00016693162615410984,0.0,0.0,0.0,0.0,0.0007021389901638031,0.0010940050706267357,0.0008128375047817826,0.9998542070388794,0.0,0.0,0.0,13.395864486694336,-3.647101402282715,6.890100955963135,-2424.67822265625,0
426.1880000000001,0.006409530062228441,0.005225011147558689,-0.00016895594308152795,0.0,0.0,0.0,0.0,0.0018131191609427333,0.004263449460268021,-0.0018999401945620775,0.9982715845108032,0.0,0.0,0.0,13.414093971252441,-3.6497130393981934,6.894487380981445,-2427.977783203125,0
436.09499999999935,0.006385429762303829,0.005239429883658886,-0.00016547203995287418,0.0,0.0,0.0,0.0,0.0009762900299392641,-0.001192903728224337,0.006491020321846008,0.9979846477508545,0.0,0.0,0.0,13.399654388427734,-3.6462862491607666,6.876012325286865,-2425.364013671875,0
446.0109999999986,0.006415338721126318,0.005246006418019533,-0.00016332500672433525,0.0,0.0,0.0,0.0,0.002208802616223693,0.0017336205346509814,-0.002060051541775465,0.998424768447876,0.0,0.0,0.0,13.409242630004883,-3.6483497619628906,6.883803367614746,-2427.099853515625,0
455.91200000000026,0.006390125956386328,0.005259880796074867,-0.0001625217410037294,0.0,0.0,0.0,0.0,-0.0024475380778312683,0.0015117415459826589,-0.0016660104738548398,0.9993420839309692,0.0,0.0,0.0,13.395492553710938,-3.6487810611724854,6.874022960662842,-2424.611083984375,0
465.83599999999933,0.00639483705163002,0.0052473582327365875,-0.00017836951883509755,0.0,0.0,0.0,0.0,-0.0025925813242793083,-0.000545389368198812,-0.001745383022353053,1.0026829242706299,0.0,0.0,0.0,13.41199016571045,-3.66255784034729,6.862767219543457,-2427.596923828125,0
475.73699999999917,0.006367746740579605,0.005258986726403236,-0.000179636524990201,0.0,0.0,0.0,0.0,-0.002767600119113922,-0.002343404572457075,0.0004753928806167096,1.0010286569595337,0.0,0.0,0.0,13.397727012634277,-3.653484582901001,6.849493980407715,-2425.015380859375,0
485.65200000000004,0.0064087482169270515,0.005255760625004768,-0.0001739983563311398,0.0,0.0,0.0,0.0,0.0009680630173534155,0.00018371549958828837,-2.7184418286196887e-05,1.001139521598816,0.0,0.0,0.0,13.416815757751465,-3.662572145462036,6.871284008026123,-2428.470458984375,0
495.5579999999991,0.006383385509252548,0.0052686105482280254,-0.00017095793737098575,0.0,0.0,0.0,0.0,0.00031494555878452957,-0.0011573467636480927,0.0005109785706736147,1.0005357265472412,0.0,0.0,0.0,13.402653694152832,-3.6542201042175293,6.868235111236572,-2425.9072265625,0
505.47999999999956,0.006382317282259464,0.005232042632997036,-0.00019264675211161375,0.0,0.0,0.0,0.0,0.0022896449081599712,-0.0011405053082853556,-0.0011352472938597202,1.0005592107772827,0.0,0.0,0.0,13.410794258117676,-3.682828187942505,6.873565196990967,-2427.380615234375,0
515.3869999999988,0.006357190199196339,0.005234845913946629,-0.00019243838323745877,0.0,0.0,0.0,0.0,0.0012558501912280917,-0.0018875454552471638,-0.0029159465339034796,0.9991395473480225,0.0,0.0,0.0,13.417869567871094,-3.6836631298065186,6.871901035308838,-2428.6611328125,0
525.2979999999989,0.006362579297274351,0.005283936858177185,-0.0003173106524627656,0.0,0.0,0.0,0.0,-0.0023046054411679506,0.002654935698956251,0.0010038787731900811,1.0002686977386475,0.0,0.0,0.0,13.424968719482422,-3.685640573501587,6.881771087646484,-2429.946044921875,0
535.2089999999989,0.006407768465578556,0.005276053212583065,-0.00029764758073724806,0.0,0.0,0.0,0.0,0.0009880755096673965,-0.0018974869744852185,-0.0012811373453587294,0.9982916116714478,0.0,0.0,0.0,13.438193321228027,-3.685275077819824,6.872317314147949,-2432.339599609375,0
545.1239999999998,0.006385060492902994,0.005257399287074804,-0.00033412984339520335,0.0,0.0,0.0,0.0,-0.0030854062642902136,0.0018798771779984236,0.0029032977763563395,0.9977173209190369,0.0,0.0,0.0,13.444561958312988,-3.693592071533203,6.87434196472168,-2433.49267578125,0
555.0299999999988,0.00638797739520669,0.005280755925923586,-0.0003295469796285033,0.0,0.0,0.0,0.0,-0.001534200506284833,0.0019443003693595529,0.0021444950252771378,0.9979435205459595,0.0,0.0,0.0,13.448722839355469,-3.684450149536133,6.8736090660095215,-2434.24560546875,0
564.9449999999997,0.006349957548081875,0.0052649592980742455,-0.0003575545269995928,0.0,0.0,0.0,0.0,0.001710222684778273,-0.00022749570780433714,0.0004621531697921455,0.9995837211608887,0.0,0.0,0.0,13.452996253967285,-3.6846659183502197,6.8661723136901855,-2435.01904296875,0
574.851999999999,0.006320022512227297,0.005280995741486549,-0.00036842041299678385,0.0,0.0,0.0,0.0,0.00036374194314703345,0.0006464292528107762,0.00013628196029458195,0.9987403750419617,0.0,0.0,0.0,13.440387725830078,-3.6857452392578125,6.866419792175293,-2432.73681640625,0
584.7690000000002,0.006295362953096628,0.005272487178444862,-0.0004034602316096425,0.0,0.0,0.0,0.0,0.00047442654613405466,0.0018811493646353483,0.0012421759311109781,0.9980591535568237,0.0,0.0,0.0,13.447176933288574,-3.686868906021118,6.854910850524902,-2433.9658203125,0
594.6700000000001,0.006262907758355141,0.005288342479616404,-0.00041800824692472816,0.0,0.0,0.0,0.0,-0.0007741512963548303,0.0002919631660915911,-0.00022863315825816244,0.9972096085548401,0.0,0.0,0.0,13.433717727661133,-3.68310284614563,6.849678039550781,-2431.529541015625,0
604.5949999999993,0.00621295440942049,0.005249716341495514,-0.0004340187879279256,0.0,0.0,0.0,0.0,-0.005117766559123993,-0.0014395854668691754,0.0018535616109147668,0.9986629486083984,0.0,0.0,0.0,13.43753433227539,-3.6928160190582275,6.832372665405273,-2432.220458984375,0
614.5010000000002,0.006174857262521982,0.005265386309474707,-0.0004520526563283056,0.0,0.0,0.0,0.0,-0.00012767523003276438,-0.0014103539288043976,0.000668628083076328,0.9987630844116211,0.0,0.0,0.0,13.424184799194336,-3.6790781021118164,6.831404209136963,-2429.80419921875,0
624.4110000000001,0.006127652712166309,0.005271526053547859,-0.00046455205301754177,0.0,0.0,0.0,0.0,-8.124146552290767e-05,0.0020803518127650023,0.002154393820092082,0.9999139904975891,0.0,0.0,0.0,13.429017066955566,-3.674804210662842,6.821708679199219,-2430.678955078125,0
634.3149999999987,0.006083350162953138,0.005286846775561571,-0.00048317157779820263,0.0,0.0,0.0,0.0,0.0013209644239395857,-0.00011235604324610904,-0.002200193703174591,0.9991753101348877,0.0,0.0,0.0,13.415872573852539,-3.673431634902954,6.812067985534668,-2428.2998046875,0
644.241,0.006061725318431854,0.005277900956571102,-0.0005628743674606085,0.0,0.0,0.0,0.0,0.0013672158820554614,-0.001355853397399187,-0.001969000091776252,0.9999464154243469,0.0,0.0,0.0,13.427181243896484,-3.6758923530578613,6.8180413246154785,-2430.346435546875,0
654.1369999999988,0.006015076767653227,0.0052930498495697975,-0.0005864782724529505,0.0,0.0,0.0,0.0,-0.0012715421617031097,-0.0010521631920710206,-3.303838093415834e-05,1.0002281665802002,0.0,0.0,0.0,13.413476943969727,-3.6704447269439697,6.8185248374938965,-2427.8662109375,0
664.0589999999993,0.005962170660495758,0.005255966912955046,-0.0006324318237602711,0.0,0.0,0.0,0.0,0.0020070283208042383,-0.0015135465655475855,0.0004849870747420937,0.9971482157707214,0.0,0.0,0.0,13.42408275604248,-3.680957317352295,6.811077117919922,-2429.78564453125,0
673.9599999999991,0.005912184715270996,0.005267033353447914,-0.0006581214838661253,0.0,0.0,0.0,0.0,-0.0006486338097602129,-0.0024994472041726112,-0.0023712788242846727,0.9995558857917786,0.0,0.0,0.0,13.41183853149414,-3.6817758083343506,6.813301086425781,-2427.5693359375,0
683.8779999999988,0.005900219082832336,0.005302004050463438,-0.000728264101780951,0.0,0.0,0.0,0.0,0.001547355786897242,0.00040803742012940347,-0.003508583642542362,1.0016229152679443,0.0,0.0,0.0,13.422593116760254,-3.6724886894226074,6.834614276885986,-2429.51611328125,0
693.7879999999986,0.005851848050951958,0.005314649548381567,-0.0007578037912026048,0.0,0.0,0.0,0.0,-9.522583422949538e-05,0.0036042651627212763,-0.0012622448848560452,1.0008546113967896,0.0,0.0,0.0,13.408129692077637,-3.6741693019866943,6.829347610473633,-2426.898193359375,0
703.7039999999997,0.005833267234265804,0.005313266534358263,-0.0008404961554333568,0.0,0.0,0.0,0.0,0.0006080442690290511,0.0018573817797005177,0.003278877818956971,1.0000560283660889,0.0,0.0,0.0,13.424234390258789,-3.676940679550171,6.824504852294922,-2429.81298828125,0
713.610999999999,0.005786506459116936,0.00532947713509202,-0.0008723469218239188,0.0,0.0,0.0,0.0,0.004457021597772837,0.002050328068435192,-0.00039068947080522776,1.0008286237716675,0.0,0.0,0.0,13.412002563476562,-3.6695899963378906,6.809624671936035,-2427.59912109375,0
723.5259999999998,0.005768682342022657,0.005332285538315773,-0.0009535321732982993,0.0,0.0,0.0,0.0,-0.0012450492940843105,0.0028349757194519043,-0.002823698101565242,0.999239981174469,0.0,0.0,0.0,13.423632621765137,-3.6810431480407715,6.804759979248047,-2429.7041015625,0
733.4269999999997,0.005722057074308395,0.005349826067686081,-0.0009885468753054738,0.0,0.0,0.0,0.0,0.0032066935673356056,0.0011179057182744145,-0.0019373454852029681,1.0001155138015747,0.0,0.0,0.0,13.409124374389648,-3.670354127883911,6.788519859313965,-2427.078369140625,0
743.3529999999992,0.0056745316833257675,0.005390535574406385,-0.0010059052146971226,0.0,0.0,0.0,0.0,-0.0026361430063843727,-0.004389473237097263,-0.0016755725955590606,0.9978529810905457,0.0,0.0,0.0,13.415372848510742,-3.660654306411743,6.7828898429870605,-2428.209228515625,0
753.253999999999,0.005625201389193535,0.005414005368947983,-0.0010404466884210706,0.0,0.0,0.0,0.0,-0.002400191267952323,-0.0022427509538829327,-0.0011847903952002525,0.9979860186576843,0.0,0.0,0.0,13.401851654052734,-3.647724151611328,6.7825775146484375,-2425.76171875,0
763.1759999999995,0.005570957437157631,0.005437537562102079,-0.0010706183966249228,0.0,0.0,0.0,0.0,0.0007163750706240535,-0.0009694360778667033,9.149846391665051e-07,0.9985249638557434,0.0,0.0,0.0,13.412325859069824,-3.6448934078216553,6.776423454284668,-2427.65771484375,0
773.0749999999989,0.005518829450011253,0.005460480693727732,-0.0011076026130467653,0.0,0.0,0.0,0.0,0.00027754451730288565,-0.0025949878618121147,-0.00044940068619325757,0.999584972858429,0.0,0.0,0.0,13.399460792541504,-3.644711494445801,6.773021697998047,-2425.3291015625,0
782.9959999999992,0.005466006696224213,0.005482777953147888,-0.0011454438790678978,0.0,0.0,0.0,0.0,0.0029003459494560957,-0.003075751243159175,0.004957005847245455,1.0005435943603516,0.0,0.0,0.0,13.385698318481445,-3.6430585384368896,6.768120765686035,-2422.838134765625,0
792.8959999999988,0.005413162522017956,0.005504049360752106,-0.0011830724542960525,0.0,0.0,0.0,0.0,0.002649736823514104,-0.0012060757726430893,-0.001998009392991662,0.9980859756469727,0.0,0.0,0.0,13.374131202697754,-3.6445987224578857,6.770172119140625,-2420.74462890625,0
802.8229999999985,0.005359800066798925,0.005524975713342428,-0.0012210599379613996,0.0,0.0,0.0,0.0,0.000154436711454764,0.0040358370169997215,0.001826931955292821,0.9967888593673706,0.0,0.0,0.0,13.359725952148438,-3.6445248126983643,6.763588905334473,-2418.136962890625,0
812.7179999999989,0.006328590679913759,0.00519419414922595,-0.00031883339397609234,0.0,0.0,0.0,0.0,-0.001015738002024591,-0.0014752132119610906,-0.00111037224996835,0.9988418817520142,0.0,0.0,0.0,13.378031730651855,-3.7452821731567383,6.9121222496032715,-2421.45068359375,0
822.6399999999994,0.00631697615608573,0.00520172668620944,-0.0003264225088059902,0.0,0.0,0.0,0.0,-0.0012155495351180434,7.113009633030742e-05,-0.0056342375464737415,1.0002803802490234,0.0,0.0,0.0,13.364757537841797,-3.7400119304656982,6.911484718322754,-2419.047607421875,0
832.539999999999,0.00633985223248601,0.005220524501055479,-0.0003054050321225077,0.0,0.0,0.0,0.0,0.0007343911565840244,0.002216329565271735,0.0021870057098567486,0.9985738396644592,0.0,0.0,0.0,13.37109088897705,-3.7335805892944336,6.907215595245361,-2420.194091796875,0
842.4599999999991,0.006328635849058628,0.005230030510574579,-0.00031240968382917345,0.0,0.0,0.0,0.0,-0.0002941341372206807,-2.3548938770545647e-05,0.0029879985377192497,0.9984332919120789,0.0,0.0,0.0,13.359509468078613,-3.7371366024017334,6.894937992095947,-2418.09765625,0
852.3619999999992,0.006358371116220951,0.005247725173830986,-0.000302045198623091,0.0,0.0,0.0,0.0,0.0004698245320469141,0.002025578636676073,-0.0014979388797655702,0.9999104738235474,0.0,0.0,0.0,13.369526863098145,-3.7371819019317627,6.881763458251953,-2419.9111328125,0
862.2839999999997,0.006345014553517103,0.005258841440081596,-0.00030987366335466504,0.0,0.0,0.0,0.0,0.0003844749880954623,-0.0003296783834230155,0.00046523287892341614,0.9993059635162354,0.0,0.0,0.0,13.355818748474121,-3.733747720718384,6.866897106170654,-2417.4296875,0
872.1899999999987,0.006384898908436298,0.0052717337384819984,-0.0003078891895711422,0.0,0.0,0.0,0.0,-9.905255137709901e-05,0.0027234128210693598,-0.0012551962863653898,0.999364972114563,0.0,0.0,0.0,13.364800453186035,-3.733919620513916,6.868532180786133,-2419.05517578125,0
882.1080000000002,0.006370836868882179,0.005284102633595467,-0.000315538898576051,0.0,0.0,0.0,0.0,-0.0019372270908206701,0.0004314512189012021,4.523737879935652e-05,0.9985387325286865,0.0,0.0,0.0,13.35086441040039,-3.730858325958252,6.855185508728027,-2416.532958984375,0
892.009,0.006379499100148678,0.005293082911521196,-0.0003228909627068788,0.0,0.0,0.0,0.0,0.0009123778436332941,0.0028355170506983995,-0.002465189667418599,0.9986083507537842,0.0,0.0,0.0,13.36331844329834,-3.7285144329071045,6.848624229431152,-2418.787109375,0
901.9279999999999,0.006364337168633938,0.005306537728756666,-0.00033231687848456204,0.0,0.0,0.0,0.0,-0.00036962830927222967,0.0007047408726066351,-0.0002537594409659505,0.9995031952857971,0.0,0.0,0.0,13.348800659179688,-3.7252676486968994,6.833214282989502,-2416.159423828125,0
911.8349999999991,0.006446697749197483,0.0053153433836996555,-0.0003305907011963427,0.0,0.0,0.0,0.0,-0.0007556772325187922,-0.0030032701324671507,0.002959701232612133,1.00089693069458,0.0,0.0,0.0,13.367257118225098,-3.7332398891448975,6.840075492858887,-2419.50048828125,0
921.7489999999998,0.006431465968489647,0.005330732092261314,-0.00033930683275684714,0.0,0.0,0.0,0.0,0.001858214265666902,-0.00011882759281434119,0.0017992982175201178,0.9988231062889099,0.0,0.0,0.0,13.35571575164795,-3.725497245788574,6.836284160614014,-2417.410888671875,0
931.655999999999,0.006468359846621752,0.005326237063854933,-0.00035195573582313955,0.0,0.0,0.0,0.0,-0.001737514161504805,0.00028666784055531025,0.0006847697077319026,0.9988862872123718,0.0,0.0,0.0,13.370702743530273,-3.7399239540100098,6.836822986602783,-2420.123779296875,0
941.5699999999997,0.006455200258642435,0.005340533796697855,-0.00036167106009088457,0.0,0.0,0.0,0.0,0.0005965586751699448,0.002466591540724039,0.003436048049479723,0.9983050227165222,0.0,0.0,0.0,13.357641220092773,-3.7307167053222656,6.833488941192627,-2417.759521484375,0
951.4759999999987,0.006485621444880962,0.005336359608918428,-0.0003728373849298805,0.0,0.0,0.0,0.0,0.0009323731064796448,-0.00017480732640251517,-0.0006163280340842903,0.9987914562225342,0.0,0.0,0.0,13.376709938049316,-3.745152711868286,6.832989692687988,-2421.211181640625,0
961.3979999999992,0.006472968962043524,0.005350977648049593,-0.00038476812187582254,0.0,0.0,0.0,0.0,0.003125046379864216,-0.0010566309792920947,-0.0011305016232654452,0.9980270862579346,0.0,0.0,0.0,13.363521575927734,-3.7395293712615967,6.834197044372559,-2418.82373046875,0
971.3059999999987,0.006443163845688105,0.005350365769118071,-0.0004116191703360528,0.0,0.0,0.0,0.0,0.0016619557281956077,0.004447517450898886,-0.0035980117972940207,0.9994964003562927,0.0,0.0,0.0,13.373016357421875,-3.7382798194885254,6.82916784286499,-2420.54248046875,0
981.2079999999987,0.006425440777093172,0.0053655109368264675,-0.0004274145176168531,0.0,0.0,0.0,0.0,0.0017218801658600569,0.001246261177584529,0.0016969777643680573,0.9996731877326965,0.0,0.0,0.0,13.358686447143555,-3.7364883422851562,6.808497428894043,-2417.94873046875,0
991.1239999999998,0.006429746747016907,0.005335853435099125,-0.0004597574006766081,0.0,0.0,0.0,0.0,0.0025443867780268192,0.001170256407931447,-0.002474991837516427,0.999635636806488,0.0,0.0,0.0,13.36905574798584,-3.7648353576660156,6.803603172302246,-2419.82568359375,0
1001.0370000000003,0.00640899920836091,0.005348910111933947,-0.0004776650748681277,0.0,0.0,0.0,0.0,0.0002658370940480381,0.004688612651079893,-0.00100051355548203,1.000042200088501,0.0,0.0,0.0,13.35458755493164,-3.767681837081909,6.792972564697266,-2417.206787109375,0
1010.9579999999987,0.006441324483603239,0.00535763381049037,-0.00046117466990835965,0.0,0.0,0.0,0.0,-0.0010868413373827934,-0.0006662450032308698,0.0016369419172406197,1.0001051425933838,0.0,0.0,0.0,13.361031532287598,-3.7750940322875977,6.8049397468566895,-2418.373291015625,0
1020.851999999999,0.006425529718399048,0.005358363967388868,-0.0005040859105065465,0.0,0.0,0.0,0.0,0.0008508366881869733,-0.00614201370626688,-0.0032769497483968735,0.9986633658409119,0.0,0.0,0.0,13.37205696105957,-3.776580810546875,6.793544292449951,-2420.369140625,0
1030.771999999999,0.006462079472839832,0.005355477333068848,-0.0005002592806704342,0.0,0.0,0.0,0.0,0.0007117331842891872,-0.0020925956778228283,0.0014464008854702115,0.9974255561828613,0.0,0.0,0.0,13.387229919433594,-3.778742551803589,6.802242755889893,-2423.115478515625,0
1040.679,0.006401597987860441,0.005314849782735109,-0.00045977323316037655,0.0,0.0,0.0,0.0,0.0025957466568797827,-0.0029615380335599184,-0.0012786127626895905,0.9987699389457703,0.0,0.0,0.0,13.39992904663086,-3.781825065612793,6.786800861358643,-2425.4140625,0
1050.5969999999998,0.00640488974750042,0.005328083410859108,-0.00046970980474725366,0.0,0.0,0.0,0.0,0.001307885511778295,0.005814698990434408,0.0006150697008706629,1.0009334087371826,0.0,0.0,0.0,13.407928466796875,-3.7792680263519287,6.7801194190979,-2426.861572265625,0
1060.4979999999996,0.006338607985526323,0.005256348289549351,-0.00045999325811862946,0.0,0.0,0.0,0.0,0.002838160376995802,0.0012116713915020227,0.0018416141392663121,1.0002244710922241,0.0,0.0,0.0,13.423781394958496,-3.78013014793396,6.753697872161865,-2429.731201171875,0
1070.4219999999987,0.006362097803503275,0.005288140382617712,-0.0004464699886739254,0.0,0.0,0.0,0.0,0.0006485074991360307,-6.419371493393555e-05,0.0008464814745821059,0.9970696568489075,0.0,0.0,0.0,13.428719520568848,-3.778733730316162,6.740379810333252,-2430.624755859375,0
1080.3239999999987,0.006266694515943527,0.005185894202440977,-0.00041807687375694513,0.0,0.0,0.0,0.0,0.002578398212790489,0.0016384490299969912,-0.002764436649158597,0.9961376190185547,0.0,0.0,0.0,13.437106132507324,-3.7854530811309814,6.721194744110107,-2432.142822265625,0
1090.2420000000002,0.006313850171864033,0.005213228054344654,-0.00039172489778138697,0.0,0.0,0.0,0.0,-0.001106120878830552,0.0038866400718688965,0.00020277107250876725,0.9982175827026367,0.0,0.0,0.0,13.435678482055664,-3.7887961864471436,6.710605144500732,-2431.884521484375,0
1100.1419999999998,0.0062051438726484776,0.005124339833855629,-0.0003488645306788385,0.0,0.0,0.0,0.0,0.0004927818081341684,0.0016606840072199702,0.0007964762044139206,0.9978785514831543,0.0,0.0,0.0,13.444981575012207,-3.7889366149902344,6.679938793182373,-2433.568359375,0
1110.066999999999,0.006268670316785574,0.005161767825484276,-0.0003041372401639819,0.0,0.0,0.0,0.0,-0.0015768929151818156,0.0042123873718082905,1.844443795562256e-05,1.0003321170806885,0.0,0.0,0.0,13.44604206085205,-3.785956621170044,6.681312561035156,-2433.76025390625,0
1119.9650000000001,0.00615607388317585,0.005088387057185173,-0.00024885384482331574,0.0,0.0,0.0,0.0,-0.0017113146604970098,0.0017689334927126765,-0.0022224988788366318,0.9987620115280151,0.0,0.0,0.0,13.45252799987793,-3.7898435592651367,6.656807899475098,-2434.93408203125,0
1129.8859999999986,0.006250340957194567,0.005111124832183123,-0.00019221121328882873,0.0,0.0,0.0,0.0,-0.0002134844835381955,-0.005143669433891773,-0.0011738147586584091,0.9992843866348267,0.0,0.0,0.0,13.454468727111816,-3.786496639251709,6.658359527587891,-2435.285400390625,0
1139.7879999999986,0.006198052782565355,0.005076406989246607,-0.0001927242410602048,0.0,0.0,0.0,0.0,-0.003384060924872756,-0.0026742492336779833,0.0012270461302250624,1.0008039474487305,0.0,0.0,0.0,13.455888748168945,-3.7888855934143066,6.658851146697998,-2435.54248046875,0
1149.7109999999993,0.006265771575272083,0.005105425138026476,-0.0001350439852103591,0.0,0.0,0.0,0.0,-0.0017944154096767306,-0.00010716583346948028,0.004575171507894993,0.9995269179344177,0.0,0.0,0.0,13.454008102416992,-3.7796730995178223,6.664656162261963,-2435.202392578125,0
1159.6099999999988,0.006274236366152763,0.005138648673892021,-0.00017914398631546646,0.0,0.0,0.0,0.0,-0.0011370946886017919,-0.0018796927761286497,-0.004288571421056986,0.9986746907234192,0.0,0.0,0.0,13.461246490478516,-3.7727253437042236,6.659036159515381,-2436.512451171875,0
1169.5280000000002,0.006322119385004044,0.005104620475322008,-0.00016551435692235827,0.0,0.0,0.0,0.0,-0.0011677868897095323,-0.002626469824463129,-0.002068963600322604,0.9980804920196533,0.0,0.0,0.0,13.460094451904297,-3.7738430500030518,6.660872936248779,-2436.3037109375,0
1179.438,0.006350517738610506,0.005160228814929724,-0.00023362967476714402,0.0,0.0,0.0,0.0,-0.0005469471798278391,-2.9084891139063984e-05,-0.0028892257250845432,0.9991440176963806,0.0,0.0,0.0,13.464715957641602,-3.7651963233947754,6.67292594909668,-2437.14013671875,0
1189.3549999999996,0.006403250154107809,0.005148423835635185,-0.0002121193683706224,0.0,0.0,0.0,0.0,-0.0004868073156103492,-0.002828346798196435,0.0007243435247801244,0.9990060329437256,0.0,0.0,0.0,13.460704803466797,-3.765817880630493,6.679029941558838,-2436.414306640625,0
1199.253999999999,0.0063937390223145485,0.005148646887391806,-0.0002652081602718681,0.0,0.0,0.0,0.0,-0.0016062002396211028,-0.0010781848104670644,0.0006206733523868024,0.9996269941329956,0.0,0.0,0.0,13.467259407043457,-3.762131690979004,6.67777156829834,-2437.6005859375,0
1209.1809999999987,0.006350582931190729,0.005193008575588465,-0.0002660908503457904,0.0,0.0,0.0,0.0,0.001978995045647025,0.00147444277536124,0.0014245525235310197,1.0016478300094604,0.0,0.0,0.0,13.466224670410156,-3.752009153366089,6.672046184539795,-2437.413330078125,0
1219.0779999999995,0.006400842685252428,0.005272242706269026,-0.00036570383235812187,0.0,0.0,0.0,0.0,-0.0007201514672487974,-0.002261254470795393,-0.00042702039354480803,0.9994639754295349,0.0,0.0,0.0,13.469015121459961,-3.7488749027252197,6.6753926277160645,-2437.91845703125,0
1229.0059999999994,0.006374171935021877,0.0052896905690431595,-0.0003766991721931845,0.0,0.0,0.0,0.0,0.0010590393794700503,0.0018377257511019707,-0.0016335846157744527,0.9977994561195374,0.0,0.0,0.0,13.468953132629395,-3.7438876628875732,6.669360160827637,-2437.9072265625,0
1238.905999999999,0.0064765759743750095,0.005333026871085167,-0.000471300445497036,0.0,0.0,0.0,0.0,0.00029064874979667366,-0.001198834739625454,0.0017106825252994895,0.9986117482185364,0.0,0.0,0.0,13.489984512329102,-3.74295973777771,6.678946018218994,-2441.714111328125,0
1248.83,0.006432524416595697,0.005339417140930891,-0.0004937098710797727,0.0,0.0,0.0,0.0,-0.001581096788868308,-0.001755407894961536,0.0041241892613470554,0.9968492984771729,0.0,0.0,0.0,13.476324081420898,-3.7352325916290283,6.675736427307129,-2439.2412109375,0
1258.7339999999986,0.00641443207859993,0.005309368949383497,-0.000520912348292768,0.0,0.0,0.0,0.0,-0.004341124091297388,0.003945476841181517,0.00402773916721344,0.9988389611244202,0.0,0.0,0.0,13.492713928222656,-3.7342255115509033,6.677487850189209,-2442.2080078125,0
1268.6440000000002,0.006366824731230736,0.005312081426382065,-0.0005474098143167794,0.0,0.0,0.0,0.0,-0.0016323867021128535,-0.00544338533654809,-0.0006540410104207695,1.0012478828430176,0.0,0.0,0.0,13.480124473571777,-3.716089963912964,6.658895015716553,-2439.929443359375,0
1278.5460000000003,0.00640261173248291,0.005256315227597952,-0.000499403104186058,0.0,0.0,0.0,0.0,-0.0007573002949357033,-0.0023712385445833206,0.0014521488919854164,1.0003432035446167,0.0,0.0,0.0,13.501100540161133,-3.7198498249053955,6.660717010498047,-2443.72607421875,0
1288.4759999999987,0.0063536399975419044,0.005259862169623375,-0.0005186684429645538,0.0,0.0,0.0,0.0,0.00022975474712438881,-0.0001308474747929722,0.0007606722065247595,0.9996005892753601,0.0,0.0,0.0,13.487900733947754,-3.716940402984619,6.657917499542236,-2441.3369140625,0
1298.3689999999988,0.006449629552662373,0.005174300167709589,-0.0004714089154731482,0.0,0.0,0.0,0.0,-0.002068321220576763,0.00034307720488868654,-0.00030540573061443865,0.9997290372848511,0.0,0.0,0.0,13.510109901428223,-3.733992576599121,6.665999412536621,-2445.356689453125,0
1308.2929999999997,0.006398691330105066,0.005177488550543785,-0.00048437670920975506,0.0,0.0,0.0,0.0,0.0026157950051128864,0.0032278012949973345,0.0002575187536422163,1.0005486011505127,0.0,0.0,0.0,13.497088432312012,-3.722949504852295,6.655942916870117,-2442.999755859375,0
1318.191999999999,0.006450988817960024,0.005138506647199392,-0.000400351855205372,0.0,0.0,0.0,0.0,-0.001636436558328569,-0.0048375315964221954,0.0027857194654643536,0.9973718523979187,0.0,0.0,0.0,13.517271995544434,-3.743204116821289,6.657698154449463,-2446.653076171875,0
1328.1129999999994,0.006400235928595066,0.005139456130564213,-0.00040519412141293287,0.0,0.0,0.0,0.0,0.003418795997276902,9.964194032363594e-05,0.0004986166604794562,0.9997695684432983,0.0,0.0,0.0,13.504546165466309,-3.732661724090576,6.658021926879883,-2444.349853515625,0
1338.0139999999992,0.006338806357234716,0.005084129981696606,-0.0003066876088269055,0.0,0.0,0.0,0.0,-0.0021521947346627712,-0.00015297054778784513,-0.004645075183361769,1.0005319118499756,0.0,0.0,0.0,13.523091316223145,-3.742800712585449,6.645761489868164,-2447.706298828125,0
1347.9300000000003,0.006283830851316452,0.0050815073773264885,-0.00030360964592546225,0.0,0.0,0.0,0.0,0.0006239850190468132,0.0008451550966128707,0.002909756498411298,0.9994263052940369,0.0,0.0,0.0,13.508953094482422,-3.7340545654296875,6.633080959320068,-2445.1474609375,0
1357.8400000000001,0.00630994001403451,0.0050836363807320595,-0.0002078705292660743,0.0,0.0,0.0,0.0,-0.0005992107326164842,-0.008180603384971619,0.000357844983227551,0.9997831583023071,0.0,0.0,0.0,13.533731460571289,-3.738555669784546,6.633803367614746,-2449.63232421875,0
1367.7559999999994,0.00625434098765254,0.005078206304460764,-0.0001969554868992418,0.0,0.0,0.0,0.0,0.0007411156548187137,0.00233967206440866,0.000966294901445508,1.002109408378601,0.0,0.0,0.0,13.520537376403809,-3.730980157852173,6.642740249633789,-2447.244384765625,0
1377.6679999999997,0.006345476023852825,0.005075832363218069,-0.00011742705100914463,0.0,0.0,0.0,0.0,0.001719950814731419,0.005188790615648031,-0.00047755250125192106,0.9988532662391663,0.0,0.0,0.0,13.5412015914917,-3.740400552749634,6.650193691253662,-2450.984619140625,0
1387.58,0.006291323807090521,0.00507399532943964,-9.916992712533101e-05,0.0,0.0,0.0,0.0,-0.001154423807747662,-0.0007490820717066526,0.001610670005902648,0.9975195527076721,0.0,0.0,0.0,13.526501655578613,-3.736046314239502,6.6395039558410645,-2448.32373046875,0
1397.485999999999,0.006324996706098318,0.005113035906106234,-0.00011087566963396966,0.0,0.0,0.0,0.0,0.0018305153353139758,0.0010308719938620925,-0.0005600917502306402,0.9965574145317078,0.0,0.0,0.0,13.536646842956543,-3.726978302001953,6.643064498901367,-2450.16015625,0
1407.3999999999996,0.006268195807933807,0.00511119794100523,-9.859699639491737e-05,0.0,0.0,0.0,0.0,0.0033929510973393917,0.0015808353200554848,0.00014879487571306527,0.9967408180236816,0.0,0.0,0.0,13.523256301879883,-3.724362850189209,6.634219646453857,-2447.736572265625,0
1417.3029999999999,0.00630631810054183,0.005138103850185871,-0.0001243763545062393,0.0,0.0,0.0,0.0,0.002095916075631976,-0.0008980429847724736,0.00014643538452219218,0.9983331561088562,0.0,0.0,0.0,13.534440994262695,-3.7278361320495605,6.646394729614258,-2449.7607421875,0
1427.2299999999996,0.006247286219149828,0.005135176237672567,-0.00011999378330074251,0.0,0.0,0.0,0.0,0.002438585739582777,0.0014998108381405473,-0.003407649230211973,1.0016685724258423,0.0,0.0,0.0,13.521925926208496,-3.7286155223846436,6.648636341094971,-2447.49560546875,0
1437.125,0.006428022403270006,0.005179289262741804,-0.00015538341540377587,0.0,0.0,0.0,0.0,-0.00205380842089653,2.502363349776715e-05,-0.00032355418079532683,1.0000085830688477,0.0,0.0,0.0,13.538784980773926,-3.735985279083252,6.679581165313721,-2450.546875,0
1447.048999999999,0.006373124197125435,0.005178516265004873,-0.000152853419422172,0.0,0.0,0.0,0.0,-0.00023072416661307216,-0.0022332945372909307,0.0023033686447888613,0.9997659921646118,0.0,0.0,0.0,13.526469230651855,-3.724443197250366,6.674245357513428,-2448.318115234375,0
1456.950999999999,0.006384279578924179,0.0052062044851481915,-0.00019597861682996154,0.0,0.0,0.0,0.0,0.0028814435936510563,0.002832247642800212,-0.0016468779649585485,0.9979543089866638,0.0,0.0,0.0,13.537369728088379,-3.7211403846740723,6.676925182342529,-2450.290771484375,0
1466.8709999999992,0.0063238367438316345,0.005207155831158161,-0.00019711960339918733,0.0,0.0,0.0,0.0,-0.0024155625142157078,-0.002612643176689744,-0.001012897351756692,0.997809886932373,0.0,0.0,0.0,13.523263931274414,-3.722996950149536,6.663344383239746,-2447.73779296875,0
1476.7780000000002,0.006448628846555948,0.0052011446096003056,-0.00021577178267762065,0.0,0.0,0.0,0.0,-0.0015711748274043202,0.005461866967380047,0.0012668869458138943,0.9994631409645081,0.0,0.0,0.0,13.5377836227417,-3.7284739017486572,6.684381484985352,-2450.365966796875,0
1486.688,0.006388964597135782,0.005202427972108126,-0.00022102377261035144,0.0,0.0,0.0,0.0,0.0035036937333643436,-0.0007135845953598619,0.003976216074079275,0.9981522560119629,0.0,0.0,0.0,13.524749755859375,-3.7223596572875977,6.663719654083252,-2448.006591796875,0
1496.5939999999991,0.006471400614827871,0.005143880844116211,-0.00024771367316134274,0.0,0.0,0.0,0.0,-0.0006772478227503598,0.0011515227379277349,2.8526414098450914e-05,0.9993891716003418,0.0,0.0,0.0,13.54286003112793,-3.7459287643432617,6.673779487609863,-2451.284423828125,0
1506.512999999999,0.006413822062313557,0.005143771413713694,-0.000256528815953061,0.0,0.0,0.0,0.0,0.0006949582020752132,-0.00346366292797029,-0.000987397157587111,1.0013452768325806,0.0,0.0,0.0,13.529557228088379,-3.7394986152648926,6.663262367248535,-2448.876708984375,0
1516.4189999999999,0.0065086777321994305,0.0052127530798316,-0.0003265850536990911,0.0,0.0,0.0,0.0,0.0030394638888537884,0.003583345329388976,0.0009720312664285302,1.0008649826049805,0.0,0.0,0.0,13.53586196899414,-3.7351315021514893,6.684346675872803,-2450.017822265625,0
1526.3329999999987,0.006453592795878649,0.005216554738581181,-0.0003388661425560713,0.0,0.0,0.0,0.0,-0.0019626303110271692,0.0019722357392311096,-0.0018342138500884175,0.9984740018844604,0.0,0.0,0.0,13.52319049835205,-3.738222122192383,6.667076110839844,-2447.724365234375,0
1536.2389999999996,0.006482800934463739,0.00512201152741909,-0.0003405752941034734,0.0,0.0,0.0,0.0,0.00030501128640025854,0.0012575567234307528,-0.002741436008363962,0.9973347187042236,0.0,0.0,0.0,13.542608261108398,-3.75512957572937,6.66226863861084,-2451.239013671875,0
1546.1579999999994,0.006427280139178038,0.005123945884406567,-0.000353671406628564,0.0,0.0,0.0,0.0,-0.001050580875016749,-0.003354850225150585,-0.004084058105945587,0.9975573420524597,0.0,0.0,0.0,13.528534889221191,-3.7477242946624756,6.661328315734863,-2448.691650390625,0
1556.065999999999,0.00646767346188426,0.005154577549546957,-0.00034020241582766175,0.0,0.0,0.0,0.0,0.0019082133658230305,-2.0318639144534245e-05,0.0008799198549240828,0.9988186359405518,0.0,0.0,0.0,13.536526679992676,-3.7412519454956055,6.674269199371338,-2450.138427734375,0
1565.9830000000002,0.00640984158962965,0.005159704014658928,-0.000354476913344115,0.0,0.0,0.0,0.0,1.875462658063043e-05,0.0005205612978897989,-0.0008462913683615625,0.9988067746162415,0.0,0.0,0.0,13.5231294631958,-3.7417163848876953,6.666492938995361,-2447.71337890625,0
1575.8909999999996,0.006382845342159271,0.005181570537388325,-0.0003089784877374768,0.0,0.0,0.0,0.0,-0.0006632872391492128,-0.002226453274488449,-0.0005887898150831461,0.9996752142906189,0.0,0.0,0.0,13.538285255432129,-3.7391364574432373,6.658660888671875,-2450.45654296875,0
1585.804,0.006322858389467001,0.005186939612030983,-0.00031981366919353604,0.0,0.0,0.0,0.0,0.0018261037766933441,-0.004983557388186455,0.00324845383875072,1.0000898838043213,0.0,0.0,0.0,13.524054527282715,-3.7335288524627686,6.6503753662109375,-2447.880859375,0
1595.7099999999991,0.006430630572140217,0.0052008372731506824,-0.00027381200925447047,0.0,0.0,0.0,0.0,-0.0012998114107176661,-0.0030924477614462376,0.001778195146471262,1.0004582405090332,0.0,0.0,0.0,13.543048858642578,-3.743340492248535,6.679992198944092,-2451.31884765625,0
1605.628999999999,0.006372023839503527,0.005207844078540802,-0.00027908236370421946,0.0,0.0,0.0,0.0,-0.0009952486725524068,-0.004946400411427021,0.0028138153720647097,1.000752568244934,0.0,0.0,0.0,13.530280113220215,-3.7421092987060547,6.6711931228637695,-2449.007568359375,0
1615.530999999999,0.006322409026324749,0.00522302370518446,-0.00023920368403196335,0.0,0.0,0.0,0.0,0.0022982084192335606,0.0011461714748293161,-0.0013995796907693148,0.9987418055534363,0.0,0.0,0.0,13.539587020874023,-3.7402491569519043,6.667716026306152,-2450.692138671875,0
1625.4449999999997,0.006261895876377821,0.005229450296610594,-0.0002397295320406556,0.0,0.0,0.0,0.0,-0.00012906099436804652,-0.00016273194341920316,0.0026348710525780916,0.9984121918678284,0.0,0.0,0.0,13.524904251098633,-3.7391226291656494,6.655824661254883,-2448.03466796875,0
1635.3539999999994,0.006309170741587877,0.005230617709457874,-0.0002199394366471097,0.0,0.0,0.0,0.0,0.003154574893414974,0.0015585875371471047,-0.001390998950228095,0.9970245957374573,0.0,0.0,0.0,13.534967422485352,-3.745573043823242,6.66628360748291,-2449.85595703125,0
1645.2780000000002,0.006250940263271332,0.005236925091594458,-0.0002216199500253424,0.0,0.0,0.0,0.0,-0.004343453329056501,0.0012112343683838844,0.002747980412095785,0.999757707118988,0.0,0.0,0.0,13.521407127380371,-3.743208646774292,6.651170253753662,-2447.401611328125,0
1655.1729999999989,0.006365900859236717,0.005181504879146814,-0.0002027174923568964,0.0,0.0,0.0,0.0,-0.00015123309276532382,0.0029560700058937073,0.0011733288411051035,0.9968149662017822,0.0,0.0,0.0,13.539782524108887,-3.755579948425293,6.667617321014404,-2450.727783203125,0
1665.0939999999991,0.0063574062660336494,0.005204780027270317,-0.00025872213882394135,0.0,0.0,0.0,0.0,0.0015425969613716006,-0.0026799500919878483,0.002827196381986141,0.9992448687553406,0.0,0.0,0.0,13.539637565612793,-3.7537496089935303,6.659493923187256,-2450.701171875,0
1675.0010000000002,0.006367746274918318,0.0052139596082270145,-0.0002449363237246871,0.0,0.0,0.0,0.0,0.0023897283244878054,-0.001036800560541451,0.004669840447604656,1.0008519887924194,0.0,0.0,0.0,13.537826538085938,-3.7597737312316895,6.669958114624023,-2450.373779296875,0
1684.914999999999,0.00631136167794466,0.005214722827076912,-0.00025881658075377345,0.0,0.0,0.0,0.0,-0.0031319321133196354,-0.0014905757270753384,-0.0009399157133884728,1.001623511314392,0.0,0.0,0.0,13.541419982910156,-3.766244649887085,6.668087005615234,-2451.02392578125,0
1694.8189999999995,0.006341188680380583,0.005211117677390575,-0.0002389311557635665,0.0,0.0,0.0,0.0,0.0001522816310171038,0.0013123642420396209,0.0006501898751594126,1.0022773742675781,0.0,0.0,0.0,13.537247657775879,-3.7618813514709473,6.6741108894348145,-2450.268798828125,0
1704.7489999999998,0.006283605936914682,0.0051988158375024796,-0.00025643856497481465,0.0,0.0,0.0,0.0,0.0009796011727303267,0.0010780756128951907,-3.038541581190657e-05,1.0008805990219116,0.0,0.0,0.0,13.537532806396484,-3.7625808715820312,6.66189432144165,-2450.3203125,0
1714.6419999999998,0.006368599366396666,0.005180762615054846,-0.00021421369456220418,0.0,0.0,0.0,0.0,-0.0004732634115498513,0.0004856846353504807,-0.0002277052408317104,0.9996296763420105,0.0,0.0,0.0,13.542333602905273,-3.7706544399261475,6.666988372802734,-2451.189208984375,0
1724.5679999999993,0.006300713401287794,0.005119023844599724,-0.0002381105732638389,0.0,0.0,0.0,0.0,0.00013777753338217735,-0.0027285360265523195,0.0007033341680653393,0.9989203810691833,0.0,0.0,0.0,13.54221248626709,-3.780363082885742,6.650134086608887,-2451.167236328125,0
1734.4650000000001,0.0063123032450675964,0.005148755386471748,-0.000199371570488438,0.0,0.0,0.0,0.0,0.0029150627087801695,0.0049633244052529335,0.004201351199299097,0.9995385408401489,0.0,0.0,0.0,13.539629936218262,-3.7718539237976074,6.662056922912598,-2450.699951171875,0
1744.3940000000002,0.006273950915783644,0.00515609048306942,-0.00022790793445892632,0.0,0.0,0.0,0.0,0.00018263810488861054,-0.0010614225175231695,0.002407940337434411,0.9970294237136841,0.0,0.0,0.0,13.53750228881836,-3.77734112739563,6.649057865142822,-2450.31494140625,0
1754.2849999999999,0.006322020664811134,0.005154023878276348,-0.00018805466243065894,0.0,0.0,0.0,0.0,0.004062341526150703,0.0013143294490873814,0.001396537059918046,0.9972646236419678,0.0,0.0,0.0,13.534242630004883,-3.775352954864502,6.661291122436523,-2449.72509765625,0
1764.2189999999991,0.00632739532738924,0.005183924920856953,-0.00026143703144043684,0.0,0.0,0.0,0.0,-0.000427493971074,0.0030043013393878937,-0.003010344924405217,0.9983406662940979,0.0,0.0,0.0,13.537712097167969,-3.7763102054595947,6.667060852050781,-2450.35302734375,0
1774.1080000000002,0.006379964295774698,0.005183828063309193,-0.00023049897572491318,0.0,0.0,0.0,0.0,0.002966085448861122,0.0002724379883147776,0.0006751163746230304,0.9998104572296143,0.0,0.0,0.0,13.542797088623047,-3.777188777923584,6.673187732696533,-2451.2734375,0
1784.0229999999992,0.006351580377668142,0.005173276644200087,-0.00028351525543257594,0.0,0.0,0.0,0.0,-0.0037639823276549578,-0.0012971606338396668,0.0021386167500168085,1.0001202821731567,0.0,0.0,0.0,13.539746284484863,-3.7791898250579834,6.6727094650268555,-2450.72119140625,0
1793.9300000000003,0.006355909630656242,0.005194897763431072,-0.00026517087826505303,0.0,0.0,0.0,0.0,-0.0012671053409576416,0.0024241667706519365,0.000384780258173123,0.9994018077850342,0.0,0.0,0.0,13.539139747619629,-3.7703089714050293,6.679100513458252,-2450.611083984375,0
1803.848,0.006334296427667141,0.005194391589611769,-0.00032122968696057796,0.0,0.0,0.0,0.0,-0.002002262044698,-0.0006394751253537834,-0.0011332475114613771,0.9996135234832764,0.0,0.0,0.0,13.540542602539062,-3.7687466144561768,6.672304630279541,-2450.864990234375,0
1813.753999999999,0.006392607931047678,0.00519944541156292,-0.00029256974812597036,0.0,0.0,0.0,0.0,0.0028772675432264805,0.000563537236303091,0.0034729328472167253,0.9989507794380188,0.0,0.0,0.0,13.54449462890625,-3.7621026039123535,6.686210632324219,-2451.580322265625,0
1823.664999999999,0.006322644185274839,0.005164715927094221,-0.0003018706338480115,0.0,0.0,0.0,0.0,0.0020524945575743914,-0.00026132664061151445,0.0020257330033928156,0.99858158826828,0.0,0.0,0.0,13.541783332824707,-3.770322799682617,6.685386657714844,-2451.089599609375,0
1833.5789999999997,0.006351146847009659,0.005183084402233362,-0.00027549106744118035,0.0,0.0,0.0,0.0,0.00146601686719805,-0.00044332831748761237,-0.0007617153460159898,1.0000847578048706,0.0,0.0,0.0,13.538909912109375,-3.772817850112915,6.690701007843018,-2450.569580078125,0
1843.4929999999986,0.006297104526311159,0.005165811162441969,-0.0002900539548136294,0.0,0.0,0.0,0.0,-0.0019188913283869624,0.0011542439460754395,-0.0024366583675146103,0.9998654127120972,0.0,0.0,0.0,13.539650917053223,-3.775294542312622,6.683917045593262,-2450.70361328125,0
1853.402,0.006363819818943739,0.0051641641184687614,-0.0002556879189796746,0.0,0.0,0.0,0.0,0.0025455509312450886,-0.002218777546659112,0.0014863869873806834,1.0004537105560303,0.0,0.0,0.0,13.543932914733887,-3.777789354324341,6.692268371582031,-2451.47900390625,0
1863.3149999999987,0.006353721488267183,0.005167153663933277,-0.0003071428509429097,0.0,0.0,0.0,0.0,-0.00218616658821702,0.0017224025214090943,-0.00025337236002087593,1.001547932624817,0.0,0.0,0.0,13.54560661315918,-3.7805049419403076,6.696063041687012,-2451.781982421875,0
1873.223,0.006370214279741049,0.005148562602698803,-0.0003000764991156757,0.0,0.0,0.0,0.0,-0.0008455299539491534,-0.0019703120924532413,-0.0011599279241636395,0.9999228119850159,0.0,0.0,0.0,13.542705535888672,-3.7802817821502686,6.698606491088867,-2451.2568359375,0
1883.1359999999986,0.006384868174791336,0.005216446705162525,-0.00035292297252453864,0.0,0.0,0.0,0.0,0.0008888854063116014,0.0030551673844456673,0.0017099868273362517,1.0013501644134521,0.0,0.0,0.0,13.54293155670166,-3.7683324813842773,6.707584381103516,-2451.297607421875,0
1893.0499999999993,0.006411122623831034,0.0051911515183746815,-0.00034597597550600767,0.0,0.0,0.0,0.0,-0.0006483972538262606,-0.001487143337726593,0.001304726698435843,0.9985669851303101,0.0,0.0,0.0,13.54003620147705,-3.774057149887085,6.709225654602051,-2450.7734375,0
1902.964,0.006380262318998575,0.0051880329847335815,-0.00037536979652941227,0.0,0.0,0.0,0.0,-0.0003797730023507029,0.0004617617232725024,0.0001266169419977814,0.9982650876045227,0.0,0.0,0.0,13.541107177734375,-3.769052743911743,6.711032867431641,-2450.96728515625,0
1912.8689999999988,0.00646559614688158,0.0051253377459943295,-0.00036112903035245836,0.0,0.0,0.0,0.0,-0.0013599208323284984,-0.003564103739336133,0.0011897996300831437,0.9986962080001831,0.0,0.0,0.0,13.53933048248291,-3.778653860092163,6.719374179840088,-2450.64599609375,0
1922.777,0.006492302753031254,0.00519048236310482,-0.00042834714986383915,0.0,0.0,0.0,0.0,0.0008274584542959929,0.0048540509305894375,0.0003930593957193196,1.0008716583251953,0.0,0.0,0.0,13.535297393798828,-3.764573097229004,6.73433256149292,-2449.915771484375,0
1932.6970000000001,0.006419156678020954,0.0052429018542170525,-0.00043514498975127935,0.0,0.0,0.0,0.0,0.00044804418575949967,-0.0005757909384556115,-0.0005175714613869786,0.9996716976165771,0.0,0.0,0.0,13.533173561096191,-3.753659248352051,6.722551345825195,-2449.53125,0
1942.607,0.00634464668110013,0.005183972883969545,-0.00044636629172600806,0.0,0.0,0.0,0.0,-0.00025433299015276134,-0.001059123664163053,0.0010516062611714005,1.0003199577331543,0.0,0.0,0.0,13.534069061279297,-3.7624356746673584,6.703617095947266,-2449.693359375,0
1952.5109999999986,0.006375645287334919,0.005220423452556133,-0.0004115233605261892,0.0,0.0,0.0,0.0,-0.0046618347987532616,-0.002246416173875332,0.0028750216588377953,0.9989474415779114,0.0,0.0,0.0,13.532353401184082,-3.7550182342529297,6.711050033569336,-2449.3828125,0
1962.4210000000003,0.006329610478132963,0.005200985819101334,-0.0004372709954623133,0.0,0.0,0.0,0.0,0.0003637816698756069,0.0025398193392902613,0.0012421754654496908,0.996721088886261,0.0,0.0,0.0,13.536330223083496,-3.7515451908111572,6.707696437835693,-2450.102783203125,0
1972.3319999999985,0.006378237158060074,0.005173241253942251,-0.0004228332545608282,0.0,0.0,0.0,0.0,-0.0010442667407914996,-0.0018362776609137654,-0.00118184182792902,0.9982730150222778,0.0,0.0,0.0,13.533658027648926,-3.7560248374938965,6.71171236038208,-2449.618896484375,0
1982.2469999999994,0.00634181359782815,0.005176257807761431,-0.0004488003032747656,0.0,0.0,0.0,0.0,-0.0010250515770167112,-0.0052121588960289955,-0.0016089542768895626,1.0003644227981567,0.0,0.0,0.0,13.536003112792969,-3.7520666122436523,6.699917316436768,-2450.043701171875,0
1992.1599999999999,0.00636634137481451,0.005215617828071117,-0.0004169606836512685,0.0,0.0,0.0,0.0,1.876926762633957e-05,0.0013565287226811051,-0.0024833602365106344,0.9984943866729736,0.0,0.0,0.0,13.533517837524414,-3.7447874546051025,6.714937210083008,-2449.59375,0
2002.0679999999993,0.006325033027678728,0.005190359428524971,-0.00044659205013886094,0.0,0.0,0.0,0.0,-0.0026770716067403555,-0.0030039972625672817,-0.0002860557287931442,0.9983270764350891,0.0,0.0,0.0,13.535567283630371,-3.7513692378997803,6.717621803283691,-2449.964599609375,0
2011.976999999999,0.00637421477586031,0.005218409933149815,-0.00041074122418649495,0.0,0.0,0.0,0.0,-0.001331777311861515,0.00467729615047574,-0.003058436093851924,0.9989054203033447,0.0,0.0,0.0,13.533581733703613,-3.740675687789917,6.727949142456055,-2449.605224609375,0
2021.8999999999996,0.006324104033410549,0.00518174609169364,-0.0004343564505688846,0.0,0.0,0.0,0.0,-0.0014081356348469853,0.0014094725484028459,0.0019533797167241573,1.000383734703064,0.0,0.0,0.0,13.535723686218262,-3.742327928543091,6.71429967880249,-2449.992919921875,0
2031.8019999999997,0.00632904889062047,0.005252600647509098,-0.0003952610131818801,0.0,0.0,0.0,0.0,0.002518946072086692,0.004274522885680199,-0.0013909349218010902,0.9979320764541626,0.0,0.0,0.0,13.531476974487305,-3.726659059524536,6.72500467300415,-2449.224365234375,0
2041.7189999999991,0.00628769351169467,0.0052254898473620415,-0.0004259237612131983,0.0,0.0,0.0,0.0,0.0004095642070751637,0.00422828271985054,0.0005261223996058106,0.9976645708084106,0.0,0.0,0.0,13.532357215881348,-3.7371275424957275,6.709624767303467,-2449.383544921875,0
2051.629999999999,0.00632319413125515,0.005280892830342054,-0.0003801317070610821,0.0,0.0,0.0,0.0,0.0011123614385724068,0.0021728796418756247,0.0022037543822079897,0.9974716305732727,0.0,0.0,0.0,13.528009414672852,-3.7314975261688232,6.699031352996826,-2448.5966796875,0
2061.547999999999,0.006283314898610115,0.005244437605142593,-0.0004181123513262719,0.0,0.0,0.0,0.0,6.909309013281018e-05,-0.0010203574784100056,-0.0011234648991376162,0.9995632171630859,0.0,0.0,0.0,13.531896591186523,-3.740422487258911,6.689703464508057,-2449.30029296875,0
2071.4479999999985,0.006346385460346937,0.0052406578324735165,-0.00039066627505235374,0.0,0.0,0.0,0.0,0.0025489081162959337,0.003341334406286478,0.0008732413989491761,0.9991822838783264,0.0,0.0,0.0,13.526276588439941,-3.7352793216705322,6.697491645812988,-2448.283203125,0
2081.376,0.006317264400422573,0.005240041296929121,-0.0004225894808769226,0.0,0.0,0.0,0.0,0.0008129974012263119,0.004206070676445961,-0.005121882539242506,0.9991323351860046,0.0,0.0,0.0,13.524651527404785,-3.7374823093414307,6.684106826782227,-2447.989013671875,0
2091.271999999999,0.006362749729305506,0.005253661889582872,-0.00039700980414636433,0.0,0.0,0.0,0.0,0.0024258338380604982,0.002099165227264166,0.00044464238453656435,1.0024088621139526,0.0,0.0,0.0,13.521257400512695,-3.731787919998169,6.69052267074585,-2447.37451171875,0
2101.188,0.006314760539680719,0.005212135147303343,-0.0004205988661851734,0.0,0.0,0.0,0.0,-0.0011834509205073118,-0.002692432375624776,-0.0006759465322829783,0.9989801645278931,0.0,0.0,0.0,13.524815559387207,-3.7433454990386963,6.663604259490967,-2448.0185546875,0
2111.09,0.006363957654684782,0.005230747628957033,-0.0003872722154483199,0.0,0.0,0.0,0.0,-0.00012344965944066644,0.0030997004359960556,-0.0007641545380465686,0.9995170831680298,0.0,0.0,0.0,13.524739265441895,-3.732697010040283,6.683557510375977,-2448.004638671875,0
2121.011999999999,0.006281013134866953,0.005173044744879007,-0.0003706971474457532,0.0,0.0,0.0,0.0,0.0022180902305990458,0.002502063987776637,-0.0025434826966375113,0.9999662041664124,0.0,0.0,0.0,13.528606414794922,-3.7362122535705566,6.6563591957092285,-2448.70458984375,0
2130.914999999999,0.00633613346144557,0.005192633718252182,-0.0003274576156400144,0.0,0.0,0.0,0.0,5.57712628506124e-05,0.004954598844051361,-0.0009351721382699907,0.9971205592155457,0.0,0.0,0.0,13.526429176330566,-3.7339630126953125,6.653869152069092,-2448.310791015625,0
2140.8369999999995,0.006291507743299007,0.005172568839043379,-0.00033726615947671235,0.0,0.0,0.0,0.0,0.001132395351305604,0.0007755335536785424,0.0030948391649872065,0.9974125623703003,0.0,0.0,0.0,13.52672290802002,-3.7354350090026855,6.6309814453125,-2448.364013671875,0
2150.7349999999988,0.006337361875921488,0.0051820180378854275,-0.00030070950742810965,0.0,0.0,0.0,0.0,-0.0007955477922223508,-0.003429296426475048,-0.001586260972544551,0.9989485740661621,0.0,0.0,0.0,13.523212432861328,-3.735982894897461,6.631232738494873,-2447.728271484375,0
