timestamp,stateEstimate.x,stateEstimate.y,stateEstimate.z,controller.cmd_thrust,controller.cmd_roll,controller.cmd_pitch,controller.cmd_yaw,controller.r_roll,controller.r_pitch,controller.r_yaw,controller.accelz,controller.actuatorThrust,controller.roll,controller.pitch,controller.yaw,controller.rollRate,controller.pitchRate,controller.yawRate,controller.ctr_yaw
0.0,-6.389628833858296e-05,1.974029146367684e-05,-0.0002458259114064276,0.0,0.0,0.0,0.0,-0.0005821353988721967,-0.00020393088925629854,2.2513821022585034e-05,0.998552680015564,0.0,0.0,0.0,0.27566251158714294,-3.354051351547241,4.218184947967529,-49.89546585083008,0
9.920000000000073,-8.467446605209261e-05,7.998141518328339e-05,-0.0002540017885621637,0.0,0.0,0.0,0.0,-0.001122705521993339,0.000744016608223319,0.0005894632777199149,0.9980750679969788,0.0,0.0,0.0,0.2871815860271454,-3.3462142944335938,4.2101664543151855,-51.98044204711914,0
19.825999999999112,-7.06542341504246e-05,4.289101707399823e-05,-0.0002925824956037104,0.0,0.0,0.0,0.0,-0.0005561953294090927,-0.0002200521412305534,0.003052630927413702,0.9992141723632812,0.0,0.0,0.0,0.27993178367614746,-3.3508100509643555,4.214361190795898,-50.668209075927734,0
29.730999999999767,-7.937650661915541e-05,0.00011095893569290638,-0.00030061512370593846,0.0,0.0,0.0,0.0,-0.00320931663736701,-0.001881411881186068,0.0017488198354840279,1.0004162788391113,0.0,0.0,0.0,0.29034414887428284,-3.3430838584899902,4.21415901184082,-52.55287170410156,0
39.65399999999863,-8.223532495321706e-05,5.656026041833684e-05,-0.00032622370054014027,0.0,0.0,0.0,0.0,-0.004111479502171278,-0.0015963787445798516,-0.0017918084049597383,0.9997045993804932,0.0,0.0,0.0,0.27849280834198,-3.3500561714172363,4.215973377227783,-50.407752990722656,0
49.55199999999968,-1.2076307939423714e-05,7.847064262023196e-05,-0.0003240377700421959,0.0,0.0,0.0,0.0,-0.0014486487489193678,-0.001018935232423246,0.001106801675632596,0.9975857138633728,0.0,0.0,0.0,0.2875431180000305,-3.3382434844970703,4.21890926361084,-52.045875549316406,0
59.472999999999956,-8.002654067240655e-05,-3.1113475415622815e-05,-0.0002954632800538093,0.0,0.0,0.0,0.0,0.002509413519874215,0.0032883533276617527,0.0006312788464128971,0.997739315032959,0.0,0.0,0.0,0.2875431180000305,-3.3382434844970703,4.21890926361084,-52.045875549316406,0
69.3760000000002,-2.3748973035253584e-05,1.334730040980503e-05,-0.00028247424052096903,0.0,0.0,0.0,0.0,0.0035942757967859507,0.0021451404318213463,-0.004039816092699766,0.9987375140190125,0.0,0.0,0.0,0.2989284098148346,-3.333340883255005,4.214004993438721,-54.10663986206055,0
79.28999999999905,-5.9560639783740044e-05,-3.9827351429266855e-05,-0.0002664465573616326,0.0,0.0,0.0,0.0,-0.0014812356093898416,0.0026201624423265457,0.0007439650944434106,0.998004138469696,0.0,0.0,0.0,0.2888258993625641,-3.3400626182556152,4.209995269775391,-52.2780647277832,0
89.20399999999972,4.111958332941867e-06,-2.4274359020637348e-05,-0.0002496555680409074,0.0,0.0,0.0,0.0,0.003107719821855426,-0.0028536817990243435,-0.001111367018893361,0.9981063008308411,0.0,0.0,0.0,0.30035749077796936,-3.3441786766052246,4.217648506164551,-54.365299224853516,0
99.1239999999998,-5.578845593845472e-05,-8.203438483178616e-05,-0.00024779807426966727,0.0,0.0,0.0,0.0,0.004147079307585955,-0.0011498699896037579,0.0018889139173552394,1.0001280307769775,0.0,0.0,0.0,0.2993339002132416,-3.3476905822753906,4.209242820739746,-54.18003463745117,0
109.02499999999964,-6.481075979536399e-05,-4.665623418986797e-05,-0.0002511883503757417,0.0,0.0,0.0,0.0,-0.0008487674640491605,0.0019891527481377125,-0.0014385295799002051,1.001182198524475,0.0,0.0,0.0,0.309861958026886,-3.348421573638916,4.213380813598633,-56.085628509521484,0
118.9479999999985,-8.473583147861063e-05,-3.5334716812940314e-05,-0.00026768309180624783,0.0,0.0,0.0,0.0,-0.0006595145678147674,-0.001245268969796598,0.003307023784145713,0.9999146461486816,0.0,0.0,0.0,0.30100709199905396,-3.3485028743743896,4.214046001434326,-54.48288345336914,0
128.84599999999955,-8.809124665276613e-06,-6.413999471988063e-06,-0.00024109537480399013,0.0,0.0,0.0,0.0,0.0012129420647397637,0.001003586919978261,-0.0019145611440762877,1.0003259181976318,0.0,0.0,0.0,0.3130885064601898,-3.347759962081909,4.213683128356934,-56.66964340209961,0
138.762999999999,-9.760818647919223e-05,-7.292076043086126e-05,-0.00020160657004453242,0.0,0.0,0.0,0.0,-0.0021941575687378645,-0.004655894823372364,0.002132890745997429,1.0003080368041992,0.0,0.0,0.0,0.3048584461212158,-3.353785753250122,4.2036871910095215,-55.17998504638672,0
148.66299999999865,-8.336944301845506e-05,-5.7633926189737394e-05,-0.00019479566253721714,0.0,0.0,0.0,0.0,0.0013017996679991484,0.005858532153069973,-0.0008364088134840131,0.9989041686058044,0.0,0.0,0.0,0.31639721989631653,-3.3518118858337402,4.202905178070068,-57.26852798461914,0
158.58299999999872,-8.505876758135855e-05,-3.206200199201703e-05,-0.00021730823209509254,0.0,0.0,0.0,0.0,-0.00042551298975013196,-0.00021842564456164837,0.0023411766160279512,0.9998689889907837,0.0,0.0,0.0,0.3091675639152527,-3.3448874950408936,4.202498435974121,-55.95994567871094,0
168.48799999999937,-2.4653010768815875e-05,-1.7746277080732398e-05,-0.00019405160855967551,0.0,0.0,0.0,0.0,0.0008442079997621477,0.0020359051413834095,-0.0037467838265001774,0.9997038841247559,0.0,0.0,0.0,0.3185507357120514,-3.3416929244995117,4.1995391845703125,-57.65831756591797,0
178.40499999999884,-0.0001047780315275304,-9.422303264727816e-05,-0.00016592085012234747,0.0,0.0,0.0,0.0,-0.002128668362274766,0.0015358100645244122,-0.0003792859788518399,0.9994911551475525,0.0,0.0,0.0,0.319534033536911,-3.339144706726074,4.188395023345947,-57.836299896240234,0
188.3130000000001,-4.799972884939052e-05,-6.505804049083963e-05,-0.00013172619219403714,0.0,0.0,0.0,0.0,-0.001502994797192514,0.0001279454882023856,0.003005059203132987,0.9984370470046997,0.0,0.0,0.0,0.3298093378543854,-3.33766770362854,4.184329986572266,-59.69614791870117,0
198.23599999999897,-9.731558384373784e-05,-9.974883869290352e-05,-0.00012022128066746518,0.0,0.0,0.0,0.0,-0.0029179381672292948,-0.004284984432160854,0.00036206861841492355,1.0004156827926636,0.0,0.0,0.0,0.3218863308429718,-3.3317861557006836,4.176634311676025,-58.26206588745117,0
208.137999999999,-2.658334415173158e-05,-7.297483534784988e-05,-8.121111750369892e-05,0.0,0.0,0.0,0.0,0.001249769702553749,-0.0014346473617479205,0.0007071408908814192,1.0004507303237915,0.0,0.0,0.0,0.33126184344291687,-3.317406177520752,4.187990665435791,-59.95905685424805,0
218.0599999999995,-7.237504905788228e-05,-0.00011762978101614863,-7.774934056214988e-05,0.0,0.0,0.0,0.0,0.0023291492834687233,0.0015459805727005005,-0.0022335692774504423,0.9980050921440125,0.0,0.0,0.0,0.3236915171146393,-3.3219614028930664,4.188192844390869,-58.588809967041016,0
227.95600000000013,-0.00011265327339060605,-6.054527693777345e-05,-6.813497020630166e-05,0.0,0.0,0.0,0.0,0.00026569751207716763,0.005855404771864414,0.0020023861434310675,0.9987562298774719,0.0,0.0,0.0,0.3335992395877838,-3.3125977516174316,4.172093391418457,-60.38212203979492,0
237.8829999999998,-0.0001392528210999444,-7.725115574430674e-05,-7.814063428668305e-05,0.0,0.0,0.0,0.0,-0.0007656671805307269,0.0014953489881008863,-0.002257320797070861,0.999049723148346,0.0,0.0,0.0,0.325587660074234,-3.3153600692749023,4.164405822753906,-58.93201446533203,0
247.78600000000006,-0.00012987265654373914,-5.0790560635505244e-05,-6.319859676295891e-05,0.0,0.0,0.0,0.0,0.00039105216274037957,0.0005767475813627243,-0.0014952364144846797,0.9986212253570557,0.0,0.0,0.0,0.335058331489563,-3.31060791015625,4.156332015991211,-60.64622497558594,0
257.7019999999993,-0.0001272607914870605,-6.044566907803528e-05,-0.00010981626837747172,0.0,0.0,0.0,0.0,0.002000693930312991,-0.0024363603442907333,-0.0005115082603879273,0.9996693134307861,0.0,0.0,0.0,0.3268214464187622,-3.310795307159424,4.153352737426758,-59.15533447265625,0
267.60699999999997,-4.93053303216584e-05,-5.921489719185047e-05,-8.191553934011608e-05,0.0,0.0,0.0,0.0,0.0007397757144644856,-0.004194624722003937,0.0011482854606583714,0.9995498061180115,0.0,0.0,0.0,0.3335545063018799,-3.307755947113037,4.167428493499756,-60.37403106689453,0
277.52700000000004,-6.453465175582096e-05,-9.459978900849819e-05,-0.00011798377090599388,0.0,0.0,0.0,0.0,-4.6102293708827347e-05,-0.00012685463298112154,0.003103664144873619,1.0000847578048706,0.0,0.0,0.0,0.32599300146102905,-3.305098295211792,4.173645973205566,-59.0053825378418,0
287.4249999999993,-0.00010352119716117159,-3.6680085031548515e-05,-0.00011550536873983219,0.0,0.0,0.0,0.0,-0.002131430432200432,-0.0018676554318517447,-0.0010388016235083342,0.9994839429855347,0.0,0.0,0.0,0.33491986989974976,-3.296461582183838,4.167581081390381,-60.62116241455078,0
297.34900000000016,-0.0001508385903434828,-7.84229559940286e-05,-0.0001224948646267876,0.0,0.0,0.0,0.0,-0.0005754498997703195,0.0006917442660778761,0.0007228528265841305,0.9997873902320862,0.0,0.0,0.0,0.3273938000202179,-3.299283981323242,4.165650844573975,-59.258934020996094,0
307.25,-0.00011933385394513607,-4.199515387881547e-05,-9.86226077657193e-05,0.0,0.0,0.0,0.0,-0.0003965155628975481,-0.0006300844252109528,0.005535904783755541,0.9996917247772217,0.0,0.0,0.0,0.33626964688301086,-3.2934179306030273,4.174749851226807,-60.86547088623047,0
317.16799999999967,-0.00010576359636615962,-8.681427061674185e-06,-0.00014379377535078675,0.0,0.0,0.0,0.0,-0.0019380280282348394,-0.002756804693490267,-0.0010772013338282704,0.9977417588233948,0.0,0.0,0.0,0.32629820704460144,-3.288170337677002,4.169873237609863,-59.06062316894531,0
327.0679999999993,-8.86038105818443e-05,-4.2745701648527756e-05,-0.00015277146303560585,0.0,0.0,0.0,0.0,-0.0012757519725710154,0.0036170289386063814,0.0007446748204529285,0.9985933303833008,0.0,0.0,0.0,0.32014331221580505,-3.2951910495758057,4.181088924407959,-57.94657897949219,0
336.991,-6.70410881866701e-05,-1.1866791282955091e-05,-0.00021477341942954808,0.0,0.0,0.0,0.0,-0.004846618045121431,-0.00024860177654772997,-0.0008108968031592667,0.9996735453605652,0.0,0.0,0.0,0.313370943069458,-3.2830140590667725,4.191967964172363,-56.72076416015625,0
346.8859999999986,-2.5645815185271204e-05,-7.1847343861008994e-06,-0.0002048527094302699,0.0,0.0,0.0,0.0,-0.000907710928004235,0.0004641496343538165,-0.0023143887519836426,0.9987861514091492,0.0,0.0,0.0,0.30401289463043213,-3.2768497467041016,4.1942667961120605,-55.02693557739258,0
356.8099999999995,-2.7763453545048833e-05,3.4967308693012455e-06,-0.00025252936757169664,0.0,0.0,0.0,0.0,-0.0001571987522765994,0.0009498920990154147,0.0002583046443760395,0.9997122883796692,0.0,0.0,0.0,0.29698580503463745,-3.2679779529571533,4.201122283935547,-53.75502014160156,0
366.7089999999989,4.236640961607918e-06,2.2474017896456644e-05,-0.00026705858181230724,0.0,0.0,0.0,0.0,0.001974979415535927,-0.0022591990418732166,0.001861096010543406,0.9995817542076111,0.0,0.0,0.0,0.3102807402610779,-3.2670950889587402,4.18857479095459,-56.16143035888672,0
376.6319999999996,-5.184538531466387e-05,-7.210061448859051e-05,-0.00024624314391985536,0.0,0.0,0.0,0.0,-0.0013283551670610905,-0.004116478376090527,0.002184739336371422,1.000257968902588,0.0,0.0,0.0,0.3102807402610779,-3.2670950889587402,4.18857479095459,-56.16143035888672,0
386.52999999999884,-4.5414461055770516e-05,-9.813746146392077e-06,-0.00024195376317948103,0.0,0.0,0.0,0.0,0.00037499290192499757,-0.0008803600212559104,0.0038161673583090305,0.9998447299003601,0.0,0.0,0.0,0.32125788927078247,-3.257762908935547,4.207955360412598,-58.1483154296875,0
396.4489999999987,-2.5384981199749745e-05,-9.07512367120944e-06,-0.00027107499772682786,0.0,0.0,0.0,0.0,-0.0015770982718095183,-0.004974024370312691,-0.0005893002380616963,1.000936508178711,0.0,0.0,0.0,0.32125788927078247,-3.257762908935547,4.207955360412598,-58.1483154296875,0
406.35599999999977,-1.757209793140646e-05,2.7199848773307167e-05,-0.00027134414995089173,0.0,0.0,0.0,0.0,0.003388738725334406,-0.0007862317143008113,-0.0007872973219491541,1.002237319946289,0.0,0.0,0.0,0.3133051097393036,-3.258601665496826,4.220564365386963,-56.70884323120117,0
416.27800000000025,-4.0947234083432704e-05,2.137844785465859e-05,-0.00030373086337931454,0.0,0.0,0.0,0.0,-0.0005382484523579478,0.0004564715491142124,-0.00028442032635211945,1.0012449026107788,0.0,0.0,0.0,0.3011724650859833,-3.2692151069641113,4.223133087158203,-54.512813568115234,0
426.1779999999999,-6.848135672044009e-05,4.463464210857637e-05,-0.00031356263207271695,0.0,0.0,0.0,0.0,-0.0011258162558078766,-0.0011279002064839005,0.0010093108285218477,1.0009304285049438,0.0,0.0,0.0,0.29112905263900757,-3.269883155822754,4.213191986083984,-52.6949348449707,0
436.09900000000016,-0.00018447688489686698,-3.998189276899211e-05,-0.0002676307631190866,0.0,0.0,0.0,0.0,0.0021667361725121737,0.0021554206032305956,-0.0011607807828113437,0.9992204904556274,0.0,0.0,0.0,0.28476792573928833,-3.2835638523101807,4.200371265411377,-51.54356002807617,0
446.009,-8.997502300189808e-05,-3.43716201314237e-05,-0.00022716939565725625,0.0,0.0,0.0,0.0,8.38517735246569e-06,0.0013915755553171039,-0.00089849071810022,0.9977591037750244,0.0,0.0,0.0,0.28479430079460144,-3.282891273498535,4.193214416503906,-51.54833221435547,0
455.91299999999865,-0.0001627217570785433,-7.010530680418015e-05,-0.00020602713630069047,0.0,0.0,0.0,0.0,0.0016845193458721042,0.00044093397445976734,-0.0020742956548929214,0.9991385340690613,0.0,0.0,0.0,0.2771812379360199,-3.283139944076538,4.1813273429870605,-50.17034912109375,0
465.8289999999997,-0.00014345788804348558,-4.586323484545574e-06,-0.00017623972962610424,0.0,0.0,0.0,0.0,0.0011145815951749682,-0.0003537722514010966,-0.0016650342149659991,0.999707818031311,0.0,0.0,0.0,0.28852856159210205,-3.2762084007263184,4.18228816986084,-52.224239349365234,0
475.73399999999856,-0.00017745458171702921,-4.108139546588063e-05,-0.0002085360320052132,0.0,0.0,0.0,0.0,0.0010714295785874128,0.000687559018842876,-0.0013736868277192116,0.998692512512207,0.0,0.0,0.0,0.2810998260974884,-3.287142276763916,4.180192470550537,-50.8796272277832,0
485.64400000000023,-0.00018297150381840765,1.8772954717860557e-05,-0.00018311830353923142,0.0,0.0,0.0,0.0,-0.00015480340516660362,0.0012674791505560279,-0.001518017379567027,1.000605583190918,0.0,0.0,0.0,0.27378132939338684,-3.271904945373535,4.183382987976074,-49.55496597290039,0
495.5529999999999,-0.0001577143557369709,6.25412940280512e-05,-0.00025806002668105066,0.0,0.0,0.0,0.0,-0.00023024121765047312,0.001965557923540473,-0.0018959714798256755,1.0019229650497437,0.0,0.0,0.0,0.2639329731464386,-3.266913414001465,4.178895473480225,-47.77239227294922,0
505.46299999999974,-0.0001122489120461978,8.74461984494701e-05,-0.000239752815105021,0.0,0.0,0.0,0.0,0.0011890470050275326,-0.0022725011222064495,-0.00208964548073709,0.9998436570167542,0.0,0.0,0.0,0.2755735516548157,-3.266752243041992,4.187521457672119,-49.87936019897461,0
515.384,-0.00012604601215571165,9.551926632411778e-05,-0.00028187636053189635,0.0,0.0,0.0,0.0,-0.0007082340307533741,0.0001365902862744406,-0.0027389544993638992,0.9984513521194458,0.0,0.0,0.0,0.2760809361934662,-3.259868860244751,4.201000213623047,-49.9712028503418,0
525.289999999999,-8.927856106311083e-05,0.0001050838254741393,-0.00027728197164833546,0.0,0.0,0.0,0.0,-0.00030733118182979524,-0.0026473202742636204,0.002824248746037483,0.9981572031974792,0.0,0.0,0.0,0.2868909239768982,-3.261164426803589,4.200177192687988,-51.92782211303711,0
535.2009999999991,-0.00011780234490288422,8.544434967916459e-05,-0.00031635555205866694,0.0,0.0,0.0,0.0,0.000642151921056211,0.0004161076503805816,-0.0013237186940386891,0.9999614953994751,0.0,0.0,0.0,0.27954378724098206,-3.2675654888153076,4.204378128051758,-50.59798049926758,0
545.1139999999996,-6.863188900751993e-06,7.391852705040947e-05,-0.00029320374596863985,0.0,0.0,0.0,0.0,-0.003548894077539444,0.00489051453769207,-0.0015708784339949489,0.9989547729492188,0.0,0.0,0.0,0.29367077350616455,-3.2770416736602783,4.214677333831787,-53.154991149902344,0
555.021999999999,-4.609893949236721e-05,4.6478817239403725e-05,-0.0003203610540367663,0.0,0.0,0.0,0.0,0.003374334890395403,3.969598401454277e-05,0.0017036313656717539,1.0007027387619019,0.0,0.0,0.0,0.28217583894729614,-3.279097557067871,4.205248832702637,-51.07438659667969,0
564.9319999999989,-4.253543011145666e-06,1.1929250831599347e-05,-0.0003244850959163159,0.0,0.0,0.0,0.0,0.0018809566972777247,0.003316407324746251,-0.0015128307277336717,1.0008811950683594,0.0,0.0,0.0,0.2751515209674835,-3.2893776893615723,4.204522609710693,-49.802974700927734,0
574.8400000000001,-4.553393955575302e-05,1.3443112038658e-05,-0.0003366192686371505,0.0,0.0,0.0,0.0,-0.002293513622134924,0.003121269168332219,0.0041045332327485085,0.9986545443534851,0.0,0.0,0.0,0.2749633491039276,-3.2887330055236816,4.1926984786987305,-49.76891326904297,0
584.7619999999988,2.3027807401376776e-05,1.0943160305032507e-05,-0.00032553068012930453,0.0,0.0,0.0,0.0,0.0018735344056040049,0.0031306426972150803,0.0012402934953570366,0.9989604949951172,0.0,0.0,0.0,0.2898191511631012,-3.295783519744873,4.185533046722412,-52.45783996582031,0
594.6719999999987,-8.01606583991088e-05,-7.418999302899465e-05,-0.00029922323301434517,0.0,0.0,0.0,0.0,0.002076028613373637,-0.0005974438972771168,0.0016805684426799417,0.9986603856086731,0.0,0.0,0.0,0.29028448462486267,-3.2936179637908936,4.179311275482178,-52.54207229614258,0
604.5729999999985,-2.676609074114822e-05,-8.335151505889371e-06,-0.00025939830811694264,0.0,0.0,0.0,0.0,-0.001683069160208106,-0.002025583293288946,-0.0027700401842594147,1.001089334487915,0.0,0.0,0.0,0.304533451795578,-3.288546323776245,4.1869659423828125,-55.12116622924805,0
614.4899999999998,-4.5007771404925734e-05,8.184311809600331e-06,-0.00028582473169080913,0.0,0.0,0.0,0.0,-0.00029247879865579307,0.004268694203346968,-0.000578868028242141,1.0013136863708496,0.0,0.0,0.0,0.3034583628177643,-3.2802584171295166,4.181293964385986,-54.92656707763672,0
624.3979999999992,-1.8871756765292957e-05,-1.6308262274833396e-05,-0.00028596058837138116,0.0,0.0,0.0,0.0,-0.0014908642042428255,0.0015060147270560265,-0.0051385448314249516,0.9978487491607666,0.0,0.0,0.0,0.29217660427093506,-3.282740592956543,4.179014682769775,-52.88454818725586,0
634.3139999999985,-7.282255683094263e-05,-1.2858996342401952e-05,-0.0002783790114335716,0.0,0.0,0.0,0.0,-0.0027849730104207993,0.0013658602256327868,-0.00022358112619258463,0.9970442652702332,0.0,0.0,0.0,0.2845846116542816,-3.276611089706421,4.179152488708496,-51.510379791259766,0
644.2249999999985,-2.291726013936568e-05,-2.837132524291519e-05,-0.00026531226467341185,0.0,0.0,0.0,0.0,0.001436583697795868,0.003148335264995694,-0.0021187164820730686,0.9997687339782715,0.0,0.0,0.0,0.27679190039634705,-3.2770485877990723,4.1894330978393555,-50.09988784790039,0
654.134,-0.00012977601727470756,-9.440297435503453e-05,-0.0002222690382041037,0.0,0.0,0.0,0.0,0.0016005350043997169,-0.002978646196424961,0.0031161413062363863,0.9984541535377502,0.0,0.0,0.0,0.27630919218063354,-3.2743520736694336,4.189355373382568,-50.01251220703125,0
664.0409999999993,-0.00010816568101290613,-0.0001153078701463528,-0.00022137595806270838,0.0,0.0,0.0,0.0,-0.0010924898087978363,0.003633146407082677,-0.002018025843426585,0.9979981780052185,0.0,0.0,0.0,0.2756281793117523,-3.2770297527313232,4.186415672302246,-49.889251708984375,0
673.9560000000001,-0.00022437336156144738,-0.0001993169862544164,-0.00017394573660567403,0.0,0.0,0.0,0.0,-0.0016308036865666509,-0.0035639540292322636,-0.0002110721979988739,0.9995666146278381,0.0,0.0,0.0,0.27457988262176514,-3.264753818511963,4.179258346557617,-49.69950485229492,0
683.8709999999992,-0.00010784408368635923,-0.00019542890368029475,-0.00012301711831241846,0.0,0.0,0.0,0.0,0.003249304834753275,-0.005412320606410503,-1.0257755320708384e-06,1.0019367933273315,0.0,0.0,0.0,0.2906598150730133,-3.2585439682006836,4.209335803985596,-52.61000061035156,0
693.7799999999988,-0.0001021265416056849,-0.00017289779498241842,-0.00016853466513566673,0.0,0.0,0.0,0.0,0.0029427562840282917,0.006762643810361624,-0.0013072985457256436,0.9999291300773621,0.0,0.0,0.0,0.28540465235710144,-3.2590537071228027,4.22117280960083,-51.658809661865234,0
703.6949999999997,-9.434579988010228e-05,-0.00010698261758079752,-0.0001262078294530511,0.0,0.0,0.0,0.0,3.720383028849028e-05,0.004377475939691067,-0.0026308607775717974,0.9998354911804199,0.0,0.0,0.0,0.27801820635795593,-3.250373125076294,4.212708473205566,-50.32184982299805,0
713.6009999999987,-0.00011706493387464434,-0.00015159232134465128,-0.00012294441694393754,0.0,0.0,0.0,0.0,0.0012811711058020592,0.004658419638872147,-0.002678611082956195,0.9997490644454956,0.0,0.0,0.0,0.27801820635795593,-3.250373125076294,4.212708473205566,-50.32184982299805,0
723.5149999999994,-0.0001151454052887857,-9.365969162900001e-05,-6.999291508691385e-05,0.0,0.0,0.0,0.0,0.001882733660750091,-0.0022814935073256493,0.00033982907189056277,0.9985958933830261,0.0,0.0,0.0,0.2682588994503021,-3.24650502204895,4.197564125061035,-48.555397033691406,0
733.4229999999989,-0.0001224343868670985,-0.00013296902761794627,-8.421530219493434e-05,0.0,0.0,0.0,0.0,0.0011528932955116034,0.000941287784371525,0.0010433944407850504,0.9996294975280762,0.0,0.0,0.0,0.2682588994503021,-3.24650502204895,4.197564125061035,-48.555397033691406,0
743.3289999999997,-0.00016869301907718182,-5.604751640930772e-05,-5.027096995036118e-05,0.0,0.0,0.0,0.0,-0.00024007952015381306,0.002931751310825348,-0.0027251492720097303,1.0001181364059448,0.0,0.0,0.0,0.28230375051498413,-3.2369110584259033,4.184686183929443,-51.097537994384766,0
753.2439999999988,-0.00011120994167868048,-2.0589815903804265e-05,-0.00011018353688996285,0.0,0.0,0.0,0.0,-0.0011454243212938309,0.002042002510279417,-0.0006397559773176908,0.9999924302101135,0.0,0.0,0.0,0.27629318833351135,-3.2295825481414795,4.195525646209717,-50.009620666503906,0
763.1499999999996,-9.380747360410169e-05,-4.151289613218978e-05,-0.0001128367439378053,0.0,0.0,0.0,0.0,0.0021657058969140053,0.0030596007127314806,-0.003506276523694396,0.9992719292640686,0.0,0.0,0.0,0.2854395806789398,-3.2419891357421875,4.190048694610596,-51.66513442993164,0
773.0729999999985,-0.00011896048818016425,-6.587358802789822e-05,-0.00015563439228571951,0.0,0.0,0.0,0.0,-0.000612509495113045,0.0023451230954378843,-0.00357147422619164,0.9996188879013062,0.0,0.0,0.0,0.2767617106437683,-3.2434909343719482,4.185892105102539,-50.09442138671875,0
782.976999999999,-0.00010437329910928383,-2.7173407943337224e-05,-0.00013862299965694547,0.0,0.0,0.0,0.0,-0.0008248655358329415,0.004655172117054462,-0.0017086485167965293,0.999107301235199,0.0,0.0,0.0,0.2892204225063324,-3.2419443130493164,4.191046714782715,-52.34946823120117,0
792.9049999999988,-8.274557330878451e-05,1.560104101372417e-05,-0.00021353585179895163,0.0,0.0,0.0,0.0,-0.0011719290632754564,0.000645273074042052,-0.0015299597289413214,0.9993602633476257,0.0,0.0,0.0,0.2772788107395172,-3.230644941329956,4.185346603393555,-50.188018798828125,0
802.7989999999991,-7.283542799996212e-05,4.8638547013979405e-05,-0.00020916563516948372,0.0,0.0,0.0,0.0,0.0006628141854889691,-4.4710955990012735e-05,-0.0006255324115045369,0.9967365860939026,0.0,0.0,0.0,0.28854408860206604,-3.226365089416504,4.183741569519043,-52.227054595947266,0
812.723,-0.00010886156815104187,5.267382221063599e-05,-0.00023662735475227237,0.0,0.0,0.0,0.0,-0.0038805431686341763,0.0023023136891424656,-5.201356179895811e-05,0.9990259408950806,0.0,0.0,0.0,0.27978578209877014,-3.2294795513153076,4.171802520751953,-50.64178466796875,0
822.619999999999,-9.62831181823276e-05,2.5317562176496722e-05,-0.00025106524117290974,0.0,0.0,0.0,0.0,0.00017137367103714496,0.0015304177068173885,-0.0006668372661806643,0.9999685883522034,0.0,0.0,0.0,0.27209120988845825,-3.2339799404144287,4.169559001922607,-49.249046325683594,0
832.5379999999986,-0.00015510730736423284,-1.8880949937738478e-05,-0.00027931155636906624,0.0,0.0,0.0,0.0,-0.0011693673441186547,-0.0010734418174251914,0.00029031699523329735,0.9999922513961792,0.0,0.0,0.0,0.2732052206993103,-3.2285213470458984,4.16966438293457,-49.450687408447266,0
842.4389999999985,-0.00010684888547984883,-3.239257785025984e-05,-0.0002724153455346823,0.0,0.0,0.0,0.0,0.0005207492504268885,0.0018770468886941671,0.002062259241938591,0.9996543526649475,0.0,0.0,0.0,0.2670638859272003,-3.2280988693237305,4.1744818687438965,-48.33909225463867,0
852.3679999999986,-0.00016151512681972235,-7.252458453876898e-05,-0.00030069908825680614,0.0,0.0,0.0,0.0,0.002094622002914548,-0.004311981610953808,0.002987056504935026,0.998386800289154,0.0,0.0,0.0,0.2599325478076935,-3.2275009155273438,4.175240993499756,-47.04830551147461,0
862.2829999999994,-0.00012172287097200751,-1.0984146683767904e-05,-0.00027184520149603486,0.0,0.0,0.0,0.0,0.0006676970515400171,0.0038518121000379324,-0.0038772323168814182,0.9986036419868469,0.0,0.0,0.0,0.27190518379211426,-3.2240712642669678,4.178277015686035,-49.21538162231445,0
872.1799999999985,-0.00014423752145376056,-3.1482315534958616e-05,-0.00032877453486435115,0.0,0.0,0.0,0.0,0.00041535976924933493,0.0010815269779413939,-0.002926630200818181,0.9978850483894348,0.0,0.0,0.0,0.27108657360076904,-3.2211992740631104,4.172774314880371,-49.067203521728516,0
882.0900000000001,-0.00010478333570063114,-3.04700752167264e-05,-0.00032436090987175703,0.0,0.0,0.0,0.0,-0.0024126730859279633,-0.00021463308075908571,9.989450336433947e-05,0.9985353350639343,0.0,0.0,0.0,0.27101173996925354,-3.2222135066986084,4.172667503356934,-49.05366516113281,0
892.0079999999998,-0.00010682331048883498,6.335501893772744e-06,-0.0003821492427960038,0.0,0.0,0.0,0.0,0.0002397962671238929,0.0024306662380695343,-0.001078687491826713,0.9997789263725281,0.0,0.0,0.0,0.2628152370452881,-3.2098231315612793,4.169140338897705,-47.5700798034668,0
901.9169999999995,-6.293263140833005e-05,2.5766341423150152e-05,-0.0003819357370957732,0.0,0.0,0.0,0.0,-0.0013642035191878676,-0.0008050373871810734,0.0022728326730430126,0.9993724226951599,0.0,0.0,0.0,0.2739098370075226,-3.213120937347412,4.175766944885254,-49.57822799682617,0
911.8249999999989,-0.00010051729623228312,2.0394742023199797e-05,-0.00041842967038974166,0.0,0.0,0.0,0.0,4.637280653696507e-05,0.000807602540589869,-0.003254806390032172,0.9971802234649658,0.0,0.0,0.0,0.2672320008277893,-3.2115232944488525,4.16594123840332,-48.36952590942383,0
921.7369999999992,-1.5603714928147383e-05,2.623632644827012e-05,-0.00040027740760706365,0.0,0.0,0.0,0.0,-0.0009999665198847651,0.0018524962943047285,0.000782838964369148,0.9974491000175476,0.0,0.0,0.0,0.26735711097717285,-3.204765558242798,4.156613349914551,-48.39216613769531,0
931.6409999999996,-0.00011805443500634283,-5.338775008567609e-05,-0.0003895005793310702,0.0,0.0,0.0,0.0,0.0027250428684055805,0.0005513728829100728,0.00122610735706985,1.0012532472610474,0.0,0.0,0.0,0.2676182687282562,-3.1990807056427,4.152015686035156,-48.43943786621094,0
941.5579999999991,6.778004262741888e-06,-6.675770418951288e-05,-0.0003665690019261092,0.0,0.0,0.0,0.0,-0.00030013988725841045,-0.003780945437029004,0.0015118801966309547,0.99818354845047,0.0,0.0,0.0,0.28477364778518677,-3.2073886394500732,4.16556978225708,-51.544593811035156,0
951.4779999999992,-6.114192365203053e-05,-6.851053331047297e-05,-0.00035321322502568364,0.0,0.0,0.0,0.0,-0.0012087916256859899,-0.003371157916262746,-0.003078810404986143,0.998589277267456,0.0,0.0,0.0,0.28512895107269287,-3.205353021621704,4.162655353546143,-51.60890579223633,0
961.3869999999988,-1.3713211956201121e-05,-1.4435378943744581e-05,-0.0003196050238329917,0.0,0.0,0.0,0.0,0.000983920181170106,-0.0010555590270087123,0.0005960381822660565,1.000353217124939,0.0,0.0,0.0,0.27828478813171387,-3.1954965591430664,4.180068492889404,-50.37010192871094,0
971.2889999999989,-4.3403277231846005e-05,-1.6357802451238967e-05,-0.0003506784560158849,0.0,0.0,0.0,0.0,-0.004050963092595339,-0.0006918794824741781,0.003870302112773061,0.999573290348053,0.0,0.0,0.0,0.2782195508480072,-3.184389114379883,4.1831159591674805,-50.35829162597656,0
981.2039999999997,1.248694388777949e-05,2.8814207325922325e-05,-0.00032745665521360934,0.0,0.0,0.0,0.0,-0.003833266207948327,0.0036655424628406763,-0.0018194870790466666,0.997850239276886,0.0,0.0,0.0,0.2905118763446808,-3.175051212310791,4.190852165222168,-52.583229064941406,0
991.1129999999994,-8.1024227256421e-05,-4.54981200164184e-05,-0.000313604308757931,0.0,0.0,0.0,0.0,-6.065571142244153e-05,-0.0018504392355680466,-0.0007545662228949368,0.9979948997497559,0.0,0.0,0.0,0.2842593789100647,-3.1897358894348145,4.188128471374512,-51.45151138305664,0
1001.030999999999,-2.3885586415417492e-05,-2.379737634328194e-05,-0.0002880696556530893,0.0,0.0,0.0,0.0,0.0030783582478761673,0.0028615216724574566,0.0005359873757697642,0.999203085899353,0.0,0.0,0.0,0.2779619097709656,-3.1791269779205322,4.189404487609863,-50.3116569519043,0
1010.9299999999985,-3.9415968785760924e-05,-2.7946562113356777e-06,-0.00032629177439957857,0.0,0.0,0.0,0.0,-0.0011351625435054302,0.001307843835093081,-0.0003798375546466559,0.9985878467559814,0.0,0.0,0.0,0.27751848101615906,-3.184206962585449,4.186201572418213,-50.23139572143555,0
1020.8469999999998,-4.710640132543631e-05,3.541757905622944e-05,-0.0003337233792990446,0.0,0.0,0.0,0.0,0.0022939082700759172,0.0035139229148626328,0.0007657647947780788,0.9998139142990112,0.0,0.0,0.0,0.28953173756599426,-3.171703338623047,4.177692890167236,-52.40582275390625,0
1030.7609999999986,-0.00013520856737159193,-3.1033079721964896e-05,-0.00032881638617254794,0.0,0.0,0.0,0.0,0.0031855960842221975,0.00039566599298268557,-0.0008048484451137483,0.9989954829216003,0.0,0.0,0.0,0.28940922021865845,-3.1704325675964355,4.169463157653809,-52.383644104003906,0
1040.6729999999989,-7.019606709945947e-05,1.469096514483681e-05,-0.00030634133145213127,0.0,0.0,0.0,0.0,0.00041439160122536123,0.0006791538326069713,-0.00110375985968858,0.9990622401237488,0.0,0.0,0.0,0.3015100359916687,-3.1755475997924805,4.1760454177856445,-54.57391357421875,0
1050.5779999999995,-9.565300570102409e-05,-1.4493974049401004e-05,-0.0002923485008068383,0.0,0.0,0.0,0.0,0.001812593312934041,-0.001796961179934442,-0.0039545027539134026,1.000392198562622,0.0,0.0,0.0,0.29344847798347473,-3.1787145137786865,4.173208713531494,-53.1147575378418,0
1060.491,4.187897047813749e-06,3.5123784414281545e-07,-0.0002601922897156328,0.0,0.0,0.0,0.0,0.0034930468536913395,0.005437738727778196,-0.002718076342716813,0.9997998476028442,0.0,0.0,0.0,0.3115431070327759,-3.1804513931274414,4.186532020568848,-56.38991928100586,0
1070.402,-6.189323903527111e-05,1.4358738553710282e-07,-0.00024960251175798476,0.0,0.0,0.0,0.0,0.0029214785899966955,0.00431953277438879,9.048431820701808e-05,0.999467134475708,0.0,0.0,0.0,0.3097176253795624,-3.185800313949585,4.172934055328369,-56.05950927734375,0
1080.315999999999,-9.328450687462464e-05,2.1222234863671474e-05,-0.00025632229517214,0.0,0.0,0.0,0.0,-0.0014229766093194485,0.0007700378191657364,-0.0016170982271432877,1.0009286403656006,0.0,0.0,0.0,0.3011317551136017,-3.1888809204101562,4.163043975830078,-54.50544738769531,0
1090.2240000000002,-0.00019365415209904313,-3.617054608184844e-05,-0.00022041033662389964,0.0,0.0,0.0,0.0,-0.001284068450331688,0.0061966851353645325,-0.0010140445083379745,1.0003827810287476,0.0,0.0,0.0,0.2924206554889679,-3.1978485584259033,4.145761966705322,-52.9287223815918,0
1100.1459999999988,-0.00014759668556507677,-3.819824632955715e-05,-0.00019986124243587255,0.0,0.0,0.0,0.0,-0.002011105651035905,0.002767392434179783,0.00047919221105985343,0.999355137348175,0.0,0.0,0.0,0.2918857932090759,-3.1890339851379395,4.142938137054443,-52.8319091796875,0
1110.0519999999997,-0.00018540554447099566,-5.6674834922887385e-05,-0.00022703186550643295,0.0,0.0,0.0,0.0,-0.001663744100369513,-0.0004853780847042799,-0.0012726617278531194,0.9990225434303284,0.0,0.0,0.0,0.2926538288593292,-3.1835973262786865,4.138268947601318,-52.970924377441406,0
1119.958999999999,-0.0001606322475709021,-3.958930028602481e-05,-0.00020897338981740177,0.0,0.0,0.0,0.0,-0.0005208943621255457,-0.0019489163532853127,-0.00016345038602594286,1.0005416870117188,0.0,0.0,0.0,0.29224199056625366,-3.1807422637939453,4.128936767578125,-52.89638137817383,0
1129.8769999999986,-0.00019086858083028346,-5.202490137889981e-05,-0.00024017768737394363,0.0,0.0,0.0,0.0,-0.001175998244434595,-0.0002880013780668378,-0.001974709564819932,1.0019696950912476,0.0,0.0,0.0,0.2917827069759369,-3.180741310119629,4.129424571990967,-52.81325149536133,0
1139.7870000000003,-0.000158277980517596,1.782189792720601e-05,-0.00020318137831054628,0.0,0.0,0.0,0.0,0.0007535831537097692,-0.0013986951671540737,0.0012074237456545234,0.9994920492172241,0.0,0.0,0.0,0.30260416865348816,-3.1719727516174316,4.124013423919678,-54.77195739746094,0
1149.7029999999995,-0.00019949118723161519,-1.179418177343905e-05,-0.0002253708225907758,0.0,0.0,0.0,0.0,-0.000760415568947792,0.0036975382827222347,0.0006045945337973535,0.9963048100471497,0.0,0.0,0.0,0.29480305314064026,-3.177701950073242,4.120441913604736,-53.35993957519531,0
1159.5999999999985,-0.00013283913722261786,-9.91821798379533e-06,-0.0002040587569354102,0.0,0.0,0.0,0.0,-0.0007398047600872815,0.005826419219374657,0.0007186844013631344,0.9997876882553101,0.0,0.0,0.0,0.30453523993492126,-3.177769184112549,4.124727725982666,-55.121482849121094,0
1169.5209999999988,-0.00017606152687221766,-4.21608128817752e-05,-0.00022590432490687817,0.0,0.0,0.0,0.0,0.002481267787516117,-0.0016593864420428872,0.0003914609260391444,0.9992636442184448,0.0,0.0,0.0,0.30452385544776917,-3.174351930618286,4.11122465133667,-55.11942672729492,0
1179.4319999999989,-8.418223296757787e-05,-5.730356861022301e-06,-0.00017765634402167052,0.0,0.0,0.0,0.0,0.0009660700452513993,0.0018936662236228585,-0.0015315975761041045,1.0002872943878174,0.0,0.0,0.0,0.31063950061798096,-3.169869899749756,4.125871658325195,-56.22637176513672,0
1189.3469999999998,-0.00016276177484542131,-5.292417336022481e-05,-0.00015929059009067714,0.0,0.0,0.0,0.0,0.0009054027032107115,0.0038831140846014023,-0.0006520116585306823,1.0015724897384644,0.0,0.0,0.0,0.3106652796268463,-3.1672351360321045,4.114678382873535,-56.23102951049805,0
1199.2469999999994,-0.00012839176633860916,-5.321407297742553e-05,-0.0001484446256654337,0.0,0.0,0.0,0.0,-0.0007714633829891682,-0.0006690282607451081,-0.0020696325227618217,0.9985194802284241,0.0,0.0,0.0,0.32170313596725464,-3.176197052001953,4.107973098754883,-58.22890853881836,0
1209.1589999999997,-0.00018966291099786758,-8.104809967335314e-05,-0.00014297217421699315,0.0,0.0,0.0,0.0,0.0001551921886857599,0.0014879672089591622,-0.0032009168062359095,1.0000468492507935,0.0,0.0,0.0,0.3141673803329468,-3.178138017654419,4.099287986755371,-56.86492156982422,0
1219.0699999999997,-9.515153215033934e-05,-6.387682515196502e-05,-8.634028927190229e-05,0.0,0.0,0.0,0.0,0.0012963720364496112,0.0007963739917613566,-0.0026583895087242126,0.9994576573371887,0.0,0.0,0.0,0.30201026797294617,-3.1793899536132812,4.1131720542907715,-54.664459228515625,0
1228.9830000000002,-0.00010909315460594371,-6.788743485230953e-05,-0.00012380402768030763,0.0,0.0,0.0,0.0,0.001593229710124433,0.0026935036294162273,0.0003181473002769053,1.0005580186843872,0.0,0.0,0.0,0.2952849566936493,-3.1880390644073486,4.114107608795166,-53.447166442871094,0
1238.8889999999992,-6.286280404310673e-05,-3.911527892341837e-05,-9.582669008523226e-05,0.0,0.0,0.0,0.0,-0.00038316092104651034,0.005836775526404381,0.0009922538883984089,0.9994029402732849,0.0,0.0,0.0,0.30773794651031494,-3.190178155899048,4.11004114151001,-55.7011833190918,0
1248.798999999999,-7.504654058720917e-05,-2.7636961021926254e-06,-0.00011706374789355323,0.0,0.0,0.0,0.0,-0.0009735578205436468,0.0014277910813689232,-0.003235124284401536,0.9995173811912537,0.0,0.0,0.0,0.3072449862957001,-3.185520648956299,4.099690914154053,-55.61195373535156,0
1258.7079999999987,-0.00010754611867014319,-7.110564183676615e-06,-0.00013396955910138786,0.0,0.0,0.0,0.0,0.0002802051603794098,-0.00027647370006889105,0.00309155136346817,1.0005885362625122,0.0,0.0,0.0,0.29932087659835815,-3.1863629817962646,4.088871002197266,-54.17767333984375,0
1268.6239999999998,-9.677852358436212e-05,1.1173575330758467e-05,-0.0002024157001869753,0.0,0.0,0.0,0.0,-0.0031249094754457474,-0.0026290614623576403,-0.002960110316053033,1.0019593238830566,0.0,0.0,0.0,0.2997548580169678,-3.1832408905029297,4.0839152336120605,-54.256229400634766,0
1278.5339999999997,-0.00010284838208463043,7.268310582730919e-05,-0.00019054127915296704,0.0,0.0,0.0,0.0,0.0014159451238811016,0.0003142830391880125,0.0007704608142375946,1.0019301176071167,0.0,0.0,0.0,0.3076671361923218,-3.1712403297424316,4.084511756896973,-55.68836212158203,0
1288.4429999999993,-0.00011257544974796474,8.872803300619125e-05,-0.00023741369659546763,0.0,0.0,0.0,0.0,-0.001738927559927106,0.00019641818653326482,-0.0006536415894515812,1.001295804977417,0.0,0.0,0.0,0.3076748847961426,-3.170225143432617,4.075967788696289,-55.68976593017578,0
1298.3490000000002,-0.00010875408770516515,5.836310447193682e-05,-0.0002531679638195783,0.0,0.0,0.0,0.0,0.0026462858077138662,-0.00168960215523839,0.0003921288880519569,0.998207688331604,0.0,0.0,0.0,0.2999407947063446,-3.178854465484619,4.082638740539551,-54.28987503051758,0
1308.2699999999986,-0.00012278328358661383,8.169547072611749e-05,-0.0002912054187618196,0.0,0.0,0.0,0.0,-0.0031127003021538258,-0.004243003204464912,-0.001307781902141869,0.9986056685447693,0.0,0.0,0.0,0.29863202571868896,-3.181307315826416,4.081091403961182,-54.05299377441406,0
1318.1709999999985,-0.00010402782936580479,0.00010846731311175972,-0.0002874108904507011,0.0,0.0,0.0,0.0,-0.002154403133317828,-0.0035724472254514694,0.001377277891151607,0.9979811906814575,0.0,0.0,0.0,0.309770792722702,-3.173352003097534,4.0923051834106445,-56.06912612915039,0
1328.0879999999997,-0.00011890006135217845,0.00010217105591436848,-0.0003410634526517242,0.0,0.0,0.0,0.0,0.0030678657349199057,-0.00358401658013463,0.0014178699348121881,0.9986690878868103,0.0,0.0,0.0,0.29761016368865967,-3.1740059852600098,4.099924087524414,-53.86802673339844,0
1337.9929999999986,-3.097563239862211e-05,8.918577077565715e-05,-0.0003226381086278707,0.0,0.0,0.0,0.0,-0.0008688801317475736,0.0036827782168984413,0.0023950294125825167,1.0011587142944336,0.0,0.0,0.0,0.28620243072509766,-3.1821482181549072,4.1199049949646,-51.80320739746094,0
1347.9129999999986,-0.00016392813995480537,-1.5179262845776975e-05,-0.00026941855321638286,0.0,0.0,0.0,0.0,-0.0020950064063072205,-0.0013854014687240124,-0.0018128870287910104,1.0009634494781494,0.0,0.0,0.0,0.2854325473308563,-3.1783835887908936,4.106958866119385,-51.66386032104492,0
1357.815999999999,-3.620077404775657e-05,-5.162719025975093e-05,-0.0002445499412715435,0.0,0.0,0.0,0.0,0.0001813915150705725,0.003485725726932287,-0.0007511348812840879,1.000792145729065,0.0,0.0,0.0,0.3001411557197571,-3.1865158081054688,4.126826763153076,-54.32614517211914,0
1367.7349999999988,-0.0001286312472075224,-0.00010060639033326879,-0.0002074675721814856,0.0,0.0,0.0,0.0,0.0019251721678301692,0.00033965680631808937,0.0038797962479293346,0.9982053637504578,0.0,0.0,0.0,0.2992849349975586,-3.185694932937622,4.117528438568115,-54.17116928100586,0
1377.6449999999986,-7.910231943242252e-05,-4.3803403968922794e-05,-0.00016348155622836202,0.0,0.0,0.0,0.0,0.004567715805023909,0.005189745221287012,0.00023170601343736053,0.9985170364379883,0.0,0.0,0.0,0.3099646270275116,-3.1820247173309326,4.117374420166016,-56.10421371459961,0
1387.5569999999989,-0.00014368137635756284,-6.784497963963076e-05,-0.00014661322347819805,0.0,0.0,0.0,0.0,0.00017557517276145518,0.003109896555542946,0.0009707511053420603,0.9980307221412659,0.0,0.0,0.0,0.3017106056213379,-3.195833444595337,4.097598552703857,-54.61022186279297,0
1397.464,-0.0001515873591415584,-1.45071044244105e-05,-0.00012737250654026866,0.0,0.0,0.0,0.0,0.0020572005305439234,-0.001046118326485157,0.001285481732338667,0.9982703924179077,0.0,0.0,0.0,0.31379783153533936,-3.1900954246520996,4.085827827453613,-56.79803466796875,0
1407.378999999999,-0.00017284505884163082,-2.8859441954409704e-05,-0.000165632096468471,0.0,0.0,0.0,0.0,-0.0034487610682845116,-0.0019690205808728933,-0.0007035295711830258,0.9981356263160706,0.0,0.0,0.0,0.3138236999511719,-3.192253589630127,4.085017204284668,-56.80271911621094,0
1417.2909999999993,-0.00014103343710303307,8.693807103554718e-06,-0.00014153978554531932,0.0,0.0,0.0,0.0,0.004334291443228722,-0.0009364787838421762,-0.00047308322973549366,0.9997008442878723,0.0,0.0,0.0,0.3215142786502838,-3.1826422214508057,4.089585304260254,-58.19472122192383,0
1427.2029999999995,-0.00017928362649399787,-3.166891110595316e-05,-0.00017510747420601547,0.0,0.0,0.0,0.0,0.0019241147674620152,0.004661058075726032,0.00011729404650395736,1.0000152587890625,0.0,0.0,0.0,0.3144739270210266,-3.1959736347198486,4.085818290710449,-56.920406341552734,0
1437.1029999999992,-0.0001690473291091621,-3.113265847787261e-05,-0.00017219125584233552,0.0,0.0,0.0,0.0,0.0017689521191641688,0.0015550696989521384,0.0005283905775286257,0.9991940855979919,0.0,0.0,0.0,0.30410251021385193,-3.199349880218506,4.083276271820068,-55.04315948486328,0
1447.0289999999986,-0.00017683666374068707,2.6814708689926192e-05,-0.00020988039614167064,0.0,0.0,0.0,0.0,-0.0052150399424135685,-0.005907021928578615,0.0013280335115268826,0.9992994070053101,0.0,0.0,0.0,0.3025107979774475,-3.196465492248535,4.070759296417236,-54.75505447387695,0
1456.9299999999985,-0.00013322448648978025,5.7630273659015074e-05,-0.00018937011191155761,0.0,0.0,0.0,0.0,0.0012190454872325063,0.003959159832447767,0.0020376965403556824,0.9982103705406189,0.0,0.0,0.0,0.31239211559295654,-3.1836659908294678,4.081755638122559,-56.5435905456543,0
1466.8509999999987,-0.0001322883617831394,8.536185487173498e-05,-0.00025174557231366634,0.0,0.0,0.0,0.0,-0.0033195416908711195,0.0008578181150369346,-0.0013390904059633613,0.9997161626815796,0.0,0.0,0.0,0.31200501322746277,-3.180208444595337,4.065450191497803,-56.47352981567383,0
1476.75,-0.0001057851332006976,5.343260272638872e-05,-0.00026533094933256507,0.0,0.0,0.0,0.0,0.00027423491701483727,-0.0023783096112310886,0.0009589199908077717,0.9999166131019592,0.0,0.0,0.0,0.3030768930912018,-3.1837735176086426,4.067568778991699,-54.857521057128906,0
1486.67,-8.82655440364033e-05,8.053287456277758e-05,-0.0003543660568539053,0.0,0.0,0.0,0.0,0.0002658243465702981,-7.881192868808284e-05,-0.0005898574599996209,0.9997960329055786,0.0,0.0,0.0,0.2929733991622925,-3.1807613372802734,4.078124523162842,-53.028770446777344,0
1496.5699999999997,-2.3797307221684605e-05,9.147930541075766e-05,-0.00033949833596125245,0.0,0.0,0.0,0.0,-0.0005509632756002247,-0.001861918019130826,0.0016420932952314615,0.9974472522735596,0.0,0.0,0.0,0.28380486369132996,-3.1811070442199707,4.089813709259033,-51.36924362182617,0
1506.491,-4.648995309253223e-05,8.95689518074505e-05,-0.0003880596486851573,0.0,0.0,0.0,0.0,0.0009177312604151666,0.0004045892274007201,0.0040679085068404675,0.9979459047317505,0.0,0.0,0.0,0.2773694396018982,-3.179795742034912,4.090074062347412,-50.20441436767578,0
1516.3999999999996,-9.636254981160164e-05,-7.495942099922104e-06,-0.00040903521585278213,0.0,0.0,0.0,0.0,-0.0005125394673086703,-0.0036436589434742928,0.0005179254803806543,0.9993407130241394,0.0,0.0,0.0,0.2908409833908081,-3.1843345165252686,4.087311744689941,-52.64279556274414,0
1526.312,-0.00012975666322745383,2.1545803974731825e-05,-0.00043193978490307927,0.0,0.0,0.0,0.0,-0.0005811969167552888,-0.001120767556130886,0.0032431730069220066,0.9997135400772095,0.0,0.0,0.0,0.2909523844718933,-3.178952217102051,4.093148231506348,-52.6629638671875,0
1536.214,-3.9629660022910684e-05,6.36276527075097e-05,-0.00040295050712302327,0.0,0.0,0.0,0.0,0.0013149555306881666,-0.0014306044904515147,-0.0029727844521403313,0.9999565482139587,0.0,0.0,0.0,0.30275219678878784,-3.1768441200256348,4.107365131378174,-54.79875183105469,0
1546.1350000000002,-0.00013068599218968302,2.9040995286777616e-05,-0.00038764302735216916,0.0,0.0,0.0,0.0,-0.0001516483462182805,-6.928949005668983e-05,-0.0005759043269790709,0.9994488954544067,0.0,0.0,0.0,0.29325130581855774,-3.1882359981536865,4.09958028793335,-53.07906723022461,0
1556.0409999999993,-0.00017809976998250932,-4.732509478344582e-05,-0.0003329136816319078,0.0,0.0,0.0,0.0,0.0011556377867236733,-0.001917974790558219,0.0017069501336663961,0.9997336268424988,0.0,0.0,0.0,0.3017754852771759,-3.1885623931884766,4.104716777801514,-54.62196350097656,0
1565.9519999999993,-0.00022135161270853132,-1.8091050151269883e-05,-0.0003442770102992654,0.0,0.0,0.0,0.0,0.0031049244571477175,0.0025466231163591146,0.004896392114460468,0.9989683032035828,0.0,0.0,0.0,0.301835834980011,-3.1907896995544434,4.108696937561035,-54.63288497924805,0
1575.8599999999988,-0.00012282308307476342,-8.128792251227424e-05,-0.0002837255597114563,0.0,0.0,0.0,0.0,-0.0015124490018934011,-0.0018235733732581139,0.0020149110350757837,0.9985064268112183,0.0,0.0,0.0,0.30655333399772644,-3.2082393169403076,4.1230926513671875,-55.48676300048828,0
1585.7709999999988,-0.00016220271936617792,-5.240678365225904e-05,-0.0002914319629780948,0.0,0.0,0.0,0.0,0.00025704471045173705,0.00176902930252254,-0.0053844936192035675,1.0000317096710205,0.0,0.0,0.0,0.3064778447151184,-3.201061487197876,4.123454570770264,-55.47310256958008,0
1595.682999999999,-9.224115638062358e-05,-1.9890063413186e-05,-0.00025240963441319764,0.0,0.0,0.0,0.0,0.0033651876728981733,-0.003355929395183921,-0.0032811921555548906,0.9985266923904419,0.0,0.0,0.0,0.296813040971756,-3.193593740463257,4.145758628845215,-53.723751068115234,0
1605.5919999999987,-0.00013092710287310183,1.3561624655267224e-05,-0.00025764357997104526,0.0,0.0,0.0,0.0,0.0035782065242528915,-0.002481719944626093,-0.0012008777121081948,0.9980069398880005,0.0,0.0,0.0,0.2966567873954773,-3.1952176094055176,4.147662162780762,-53.69546890258789,0
1615.5100000000002,-7.33957058400847e-05,8.832307685224805e-06,-0.00022538397752214223,0.0,0.0,0.0,0.0,-0.003881808603182435,-0.0014518174575641751,0.0026852774899452925,0.9980341196060181,0.0,0.0,0.0,0.28654953837394714,-3.1966135501861572,4.167694568634033,-51.86603546142578,0
1625.4189999999999,-0.00011210646334802732,4.314058242016472e-05,-0.000231183526921086,0.0,0.0,0.0,0.0,-0.0013412119587883353,-0.0008907057926990092,-0.00168432982172817,0.9967410564422607,0.0,0.0,0.0,0.286999374628067,-3.184204578399658,4.167456150054932,-51.94745635986328,0
1635.333999999999,-0.00013892303104512393,-4.299706779420376e-05,-0.0002526364696677774,0.0,0.0,0.0,0.0,-8.622788300272077e-05,-0.0039833621121943,0.005779273808002472,0.9985918402671814,0.0,0.0,0.0,0.27828842401504517,-3.1844818592071533,4.166897773742676,-50.37076187133789,0
1645.2399999999998,-0.00018121495668310672,-1.1317293683532625e-05,-0.0002643811167217791,0.0,0.0,0.0,0.0,0.005237205419689417,-0.0004175233480054885,0.003758316859602928,0.9991083741188049,0.0,0.0,0.0,0.27879804372787476,-3.18395733833313,4.168810844421387,-50.46299743652344,0
1655.152,-0.0001148664450738579,-0.000114622205728665,-0.00020282618061173707,0.0,0.0,0.0,0.0,0.0010832854313775897,0.00018291008018422872,0.0004267853801138699,0.998923122882843,0.0,0.0,0.0,0.26433852314949036,-3.2112481594085693,4.188610553741455,-47.84579849243164,0
1665.062,-0.00015586962399538606,-8.510646148351952e-05,-0.00021059678692836314,0.0,0.0,0.0,0.0,-0.00040755950612947345,0.0012907400960102677,-0.0004372485855128616,1.0014208555221558,0.0,0.0,0.0,0.26394206285476685,-3.2126872539520264,4.177961349487305,-47.7740364074707,0
1674.9809999999998,-0.00010435824515298009,-0.00015359076496679336,-0.00016350444639101624,0.0,0.0,0.0,0.0,-0.0015817054081708193,-0.001280168304219842,-0.001157552469521761,1.0001949071884155,0.0,0.0,0.0,0.2569881081581116,-3.2235870361328125,4.194884777069092,-46.515357971191406,0
1684.8819999999996,-0.00014317501336336136,-0.0001262891455553472,-0.00016627489821985364,0.0,0.0,0.0,0.0,-0.0003677580098155886,0.004037969280034304,9.585311636328697e-05,1.00090491771698,0.0,0.0,0.0,0.25653156638145447,-3.218548059463501,4.19949197769165,-46.43272018432617,0
1694.798999999999,-6.061479507479817e-05,-0.0001625770382815972,-0.0001612133055459708,0.0,0.0,0.0,0.0,0.0006790956831537187,0.004190072882920504,0.0021831057965755463,1.0019866228103638,0.0,0.0,0.0,0.26543480157852173,-3.2263686656951904,4.2104620933532715,-48.044227600097656,0
1704.705,-9.551356924930587e-05,-0.00013448558456730098,-0.00016164410044439137,0.0,0.0,0.0,0.0,-0.0008235237328335643,0.001841297373175621,0.002327490830793977,0.9997822046279907,0.0,0.0,0.0,0.2648361623287201,-3.2242136001586914,4.191727161407471,-47.93587112426758,0
1714.619999999999,-0.000140847492730245,-7.964041287777945e-05,-0.00017426430713385344,0.0,0.0,0.0,0.0,-0.001331463921815157,-0.007125754840672016,-0.0003371661005076021,0.9993456602096558,0.0,0.0,0.0,0.27673691511154175,-3.2102184295654297,4.176544666290283,-50.089935302734375,0
1724.5289999999986,-0.000179860187927261,-4.804149648407474e-05,-0.00017473200568929315,0.0,0.0,0.0,0.0,0.0010688969632610679,-0.0032148028258234262,0.0011617281707003713,1.0013824701309204,0.0,0.0,0.0,0.2767229378223419,-3.2054994106292725,4.186492919921875,-50.087406158447266,0
1734.4359999999997,-0.0001292687957175076,3.3624448406044394e-05,-0.0002213011757703498,0.0,0.0,0.0,0.0,0.0006635285099036992,0.007113975938409567,2.7763562684413046e-05,1.0011688470840454,0.0,0.0,0.0,0.2697983682155609,-3.1990063190460205,4.187317371368408,-48.834041595458984,0
1744.3469999999998,-0.00016746841720305383,7.177689985837787e-05,-0.0002241165639134124,0.0,0.0,0.0,0.0,0.0019206899451091886,-0.0050843991339206696,0.0025793625973165035,0.9997646808624268,0.0,0.0,0.0,0.2694767713546753,-3.195256233215332,4.17525577545166,-48.77582550048828,0
1754.2609999999986,-0.00018487541819922626,-2.1833180653629825e-05,-0.00018619283218868077,0.0,0.0,0.0,0.0,0.0012147771194577217,-0.002324565313756466,-0.0019466367084532976,0.9980165958404541,0.0,0.0,0.0,0.2812015414237976,-3.2013120651245117,4.189783573150635,-50.898040771484375,0
1764.1689999999999,-0.00022444353089667857,1.4408062270376831e-05,-0.00018552536494098604,0.0,0.0,0.0,0.0,0.00020685656636487693,0.0021309866569936275,-0.0019065046217292547,0.998464822769165,0.0,0.0,0.0,0.2802160084247589,-3.195143699645996,4.192294597625732,-50.71965789794922,0
1774.08,-0.00015008648915681988,4.14430360251572e-06,-0.0002045583096332848,0.0,0.0,0.0,0.0,-0.0010123485699295998,0.0008956185192801058,-0.0015538791194558144,0.9981741905212402,0.0,0.0,0.0,0.27108630537986755,-3.2022042274475098,4.191310882568359,-49.067161560058594,0
1783.991,-0.00018382255802862346,4.0219885704573244e-05,-0.000208443176234141,0.0,0.0,0.0,0.0,0.0007900827913545072,0.005077756941318512,-0.00427276873961091,0.9986363649368286,0.0,0.0,0.0,0.27079805731773376,-3.1998252868652344,4.182348251342773,-49.014984130859375,0
1793.9129999999986,-0.00010587106226012111,2.145754115190357e-05,-0.0002709603577386588,0.0,0.0,0.0,0.0,-0.0018376975785940886,0.006281123496592045,0.00021645092056132853,0.9977471828460693,0.0,0.0,0.0,0.25423702597618103,-3.203113079071045,4.188229560852051,-46.01740646362305,0
1803.8149999999987,-0.00013754997053183615,5.7499277318129316e-05,-0.00028319709235802293,0.0,0.0,0.0,0.0,0.00025425595231354237,0.0006536475848406553,0.0029612593352794647,0.999623715877533,0.0,0.0,0.0,0.2549416124820709,-3.1928701400756836,4.168883323669434,-46.14494323730469,0
1813.7330000000002,-0.0001270293432753533,6.469635263783857e-05,-0.0002715684240683913,0.0,0.0,0.0,0.0,0.0005356976180337369,0.005019770935177803,-0.000764019729103893,1.000836730003357,0.0,0.0,0.0,0.267607182264328,-3.188676357269287,4.170806884765625,-48.437435150146484,0
1823.6369999999988,-0.0001608996099093929,0.0001019598712446168,-0.0002830155426636338,0.0,0.0,0.0,0.0,-0.0016146658454090357,-0.002442414639517665,-0.0008091976051218808,0.9989480376243591,0.0,0.0,0.0,0.2666521370410919,-3.1837158203125,4.147477149963379,-48.26457214355469,0
1833.5589999999993,-0.0001788643276086077,-3.0065211831242777e-05,-0.00025638617807999253,0.0,0.0,0.0,0.0,-0.0008510735351592302,0.00531418714672327,0.0014324318617582321,1.0008084774017334,0.0,0.0,0.0,0.26581519842147827,-3.176356077194214,4.151172161102295,-48.11307907104492,0
1843.4579999999987,-0.00021464424207806587,3.595790985855274e-06,-0.0002647247747518122,0.0,0.0,0.0,0.0,0.003371001686900854,-0.0010384226916357875,-0.0010358064901083708,1.0015459060668945,0.0,0.0,0.0,0.2648622393608093,-3.167656898498535,4.13550329208374,-47.940589904785156,0
1853.3769999999986,-0.00012423013686202466,-9.849782509263605e-05,-0.00019668074673973024,0.0,0.0,0.0,0.0,-0.0015532668912783265,0.0008824956603348255,-0.00044609064934775233,0.9990841746330261,0.0,0.0,0.0,0.24770237505435944,-3.1870810985565186,4.1523213386535645,-44.83462142944336,0
1863.280999999999,-0.00015725770208518952,-6.585838127648458e-05,-0.0001973613689187914,0.0,0.0,0.0,0.0,-0.001375366235151887,0.003619319060817361,-0.0013786047929897904,0.9967122673988342,0.0,0.0,0.0,0.24830599129199982,-3.1881439685821533,4.146722793579102,-44.94388198852539,0
1873.1970000000001,-0.00015639116463717073,-1.9672783309943043e-05,-0.00023550297191832215,0.0,0.0,0.0,0.0,0.0009300712845288217,-0.0048294998705387115,-0.0004455739399418235,0.9999216198921204,0.0,0.0,0.0,0.23997892439365387,-3.1773288249969482,4.147334575653076,-43.43666076660156,0
1883.1039999999994,-0.0001886193931568414,1.7684224076219834e-05,-0.00024220238265115768,0.0,0.0,0.0,0.0,0.00030309215071611106,0.0018810945330187678,-0.0030799538362771273,0.9995519518852234,0.0,0.0,0.0,0.24007613956928253,-3.1744234561920166,4.1498188972473145,-43.45425796508789,0
1893.021999999999,-0.00017201463924720883,4.588631782098673e-05,-0.0003163254586979747,0.0,0.0,0.0,0.0,0.002573695732280612,-0.0009127030498348176,-0.00025367786292918026,0.9998859763145447,0.0,0.0,0.0,0.23781241476535797,-3.175295114517212,4.146676540374756,-43.044525146484375,0
1902.9299999999985,-0.00020123831927776337,8.616081322543323e-05,-0.0003294592024758458,0.0,0.0,0.0,0.0,0.0003254274488426745,0.002227890770882368,-0.002313507255166769,1.0003286600112915,0.0,0.0,0.0,0.23699049651622772,-3.1751747131347656,4.142119884490967,-42.895748138427734,0
1912.8449999999993,-0.0002256968291476369,9.307465370511636e-05,-0.00036188148078508675,0.0,0.0,0.0,0.0,-5.428814984043129e-05,0.0004523125244304538,-0.002681617857888341,0.9970133304595947,0.0,0.0,0.0,0.2368628829717636,-3.1695730686187744,4.138648509979248,-42.872650146484375,0
1922.7489999999998,-0.0002564371388871223,0.00013429754471872002,-0.0003773001371882856,0.0,0.0,0.0,0.0,0.001816404634155333,0.0002978380653075874,2.6623954909155145e-05,0.9983751773834229,0.0,0.0,0.0,0.2364167422056198,-3.1696550846099854,4.132168292999268,-42.791900634765625,0
1932.67,-0.00029799723415635526,8.569932833779603e-05,-0.0004203899879939854,0.0,0.0,0.0,0.0,0.0007889000116847456,-0.0005985253374092281,0.001914570457302034,0.9997718930244446,0.0,0.0,0.0,0.23614507913589478,-3.2027080059051514,4.12331485748291,-42.74272918701172,0
1942.5689999999995,-0.0003345119475852698,0.00011897955846507102,-0.00044045745744369924,0.0,0.0,0.0,0.0,0.0037936721928417683,0.0011419171933084726,0.0035953777842223644,0.999008059501648,0.0,0.0,0.0,0.23634107410907745,-3.1985111236572266,4.118122100830078,-42.778202056884766,0
1952.485999999999,-0.0003711298340931535,7.160882523749024e-05,-0.000494240375701338,0.0,0.0,0.0,0.0,-0.0022287319879978895,-0.004274942446500063,0.00033469885238446295,0.9983029365539551,0.0,0.0,0.0,0.23697620630264282,-3.2061076164245605,4.110514163970947,-42.89316177368164,0
1962.3979999999992,-0.0004093083553016186,9.783600398804992e-05,-0.0005182228051126003,0.0,0.0,0.0,0.0,0.0006410923087969422,-0.00047849875409156084,-0.0007297472329810262,0.9982783794403076,0.0,0.0,0.0,0.23624180257320404,-3.199202537536621,4.108921051025391,-42.76023483276367,0
1972.3099999999995,-0.0003967225784435868,0.00010611371544655412,-0.0005935939261689782,0.0,0.0,0.0,0.0,0.003339896909892559,0.00047408704995177686,-0.0005795311299152672,0.9991934299468994,0.0,0.0,0.0,0.2261611372232437,-3.192152261734009,4.122698783874512,-40.93561935424805,0
1982.217999999999,-0.00043226618436165154,0.000134944828459993,-0.0006244066171348095,0.0,0.0,0.0,0.0,0.00044771807733923197,0.001239571487531066,-0.0025964307133108377,0.9987223148345947,0.0,0.0,0.0,0.22575217485427856,-3.1875314712524414,4.119521617889404,-40.86159133911133,0
1992.1279999999988,-0.0004778252332471311,0.00010619351814966649,-0.0006756972288712859,0.0,0.0,0.0,0.0,-0.001264011487364769,-0.0019641320686787367,-0.00321812997572124,0.9971058964729309,0.0,0.0,0.0,0.22415222227573395,-3.1834332942962646,4.1163787841796875,-40.571998596191406,0
2002.0349999999999,-0.0005174155230633914,0.00013494772429112345,-0.0007098997011780739,0.0,0.0,0.0,0.0,-0.00113881123252213,0.0013209228636696935,-0.0025394607800990343,0.9993776082992554,0.0,0.0,0.0,0.22293832898139954,-3.18512225151062,4.101602554321289,-40.3522834777832,0
2011.9519999999993,-0.0005646284553222358,0.00011968963372055441,-0.000761782459449023,0.0,0.0,0.0,0.0,-0.002558437641710043,-0.0020210787188261747,0.0013785226037725806,1.0001764297485352,0.0,0.0,0.0,0.22320662438869476,-3.187124252319336,4.107461452484131,-40.40084457397461,0
2021.8670000000002,-0.0006067249341867864,0.0001487018307670951,-0.0007991504389792681,0.0,0.0,0.0,0.0,0.00044189326581545174,5.679902096744627e-05,0.00247591151855886,0.9990279078483582,0.0,0.0,0.0,0.22183646261692047,-3.1769866943359375,4.10161828994751,-40.1528434753418,0
2031.7879999999986,-0.0006882367888465524,0.00014837128401268274,-0.000827800715342164,0.0,0.0,0.0,0.0,0.0008078895043581724,-0.0023693551775068045,0.0012748128501698375,0.9980396628379822,0.0,0.0,0.0,0.22147169709205627,-3.180584192276001,4.08889627456665,-40.086814880371094,0
2041.687,-0.0007365153287537396,0.00017901792307384312,-0.0008647039067000151,0.0,0.0,0.0,0.0,-0.0029582094866782427,-0.0040109665133059025,-0.0015671304427087307,0.9980353713035583,0.0,0.0,0.0,0.22140339016914368,-3.1828296184539795,4.085659027099609,-40.0744514465332,0
2051.598,-0.0007731210789643228,0.0002188040380133316,-0.0009146131342276931,0.0,0.0,0.0,0.0,0.0009327764273621142,0.0023621702566742897,-0.003767524380236864,0.9985947608947754,0.0,0.0,0.0,0.22086665034294128,-3.180025339126587,4.084949016571045,-39.97730255126953,0
2061.503999999999,-0.000825299764983356,0.0002544774324633181,-0.0009559348691254854,0.0,0.0,0.0,0.0,-0.000433828157838434,0.00043300792458467185,-0.0011630181688815355,0.9990983009338379,0.0,0.0,0.0,0.21928265690803528,-3.1814916133880615,4.082529067993164,-39.69059753417969,0
2071.4219999999987,-0.0008777267066761851,0.0002936354430858046,-0.0009981696493923664,0.0,0.0,0.0,0.0,0.001084148301742971,0.0012558531016111374,0.0025323093868792057,1.000109076499939,0.0,0.0,0.0,0.21979764103889465,-3.1739718914031982,4.0748491287231445,-39.783809661865234,0
2081.3279999999995,-0.0009294558549299836,0.00033465534215793014,-0.0010405407520011067,0.0,0.0,0.0,0.0,-0.0032162012066692114,0.0005064312135800719,0.0004052218282595277,1.0001168251037598,0.0,0.0,0.0,0.21967878937721252,-3.1718153953552246,4.072721004486084,-39.76229476928711,0
2091.244999999999,-0.0009811959462240338,0.0003768242022488266,-0.001082762610167265,0.0,0.0,0.0,0.0,0.0033073010854423046,0.005179272498935461,-0.001771806855686009,0.9981666207313538,0.0,0.0,0.0,0.22028115391731262,-3.1639654636383057,4.074402332305908,-39.87132263183594,0
2101.155999999999,-9.321895959146786e-06,2.9333511974982684e-06,-0.00023418583441525698,0.0,0.0,0.0,0.0,0.0014566839672625065,0.0017390011344105005,-0.0029605666641145945,0.9989840388298035,0.0,0.0,0.0,0.2413630485534668,-3.2463529109954834,4.229608058929443,-43.687191009521484,0
