timestamp,stateEstimate.x,stateEstimate.y,stateEstimate.z,controller.cmd_thrust,controller.cmd_roll,controller.cmd_pitch,controller.cmd_yaw,controller.r_roll,controller.r_pitch,controller.r_yaw,controller.accelz,controller.actuatorThrust,controller.roll,controller.pitch,controller.yaw,controller.rollRate,controller.pitchRate,controller.yawRate,controller.ctr_yaw
0.0,-0.008416255936026573,-0.006001145113259554,6.555340951308608e-05,0.0,0.0,0.0,0.0,0.0014930677134543657,0.002336281118914485,0.001069313264451921,1.0021246671676636,0.0,0.0,0.0,-15.651437759399414,-1.7300490140914917,5.027364253997803,2832.94140625,0
9.895999999998821,-0.008415192365646362,-0.006084021646529436,9.501955901214387e-06,0.0,0.0,0.0,0.0,0.00029826833633705974,-0.006170511245727539,-0.001079448265954852,1.0021212100982666,0.0,0.0,0.0,-15.647547721862793,-1.744923710823059,5.021705150604248,2832.237060546875,0
19.815999999998894,-0.008481691591441631,-0.006037167273461819,8.52639914228348e-06,0.0,0.0,0.0,0.0,0.0011359225027263165,0.0002732908760663122,-0.0016349245561286807,0.9993948340415955,0.0,0.0,0.0,-15.657363891601562,-1.7398412227630615,5.017179012298584,2834.013916015625,0
29.721999999999753,-0.008469116874039173,-0.006045561283826828,-3.2597570680081844e-05,0.0,0.0,0.0,0.0,-0.0027801471296697855,0.0006609962438233197,0.0041196695528924465,0.9993175864219666,0.0,0.0,0.0,-15.654770851135254,-1.74258291721344,5.018135070800781,2833.544677734375,0
39.63799999999901,-0.008494446985423565,-0.00602040346711874,-3.011156150023453e-05,0.0,0.0,0.0,0.0,-0.0018026172183454037,-0.003029692219570279,0.0043768505565822124,1.0007823705673218,0.0,0.0,0.0,-15.662854194641113,-1.7354388236999512,5.007559299468994,2835.007568359375,0
49.53799999999865,-0.008481425233185291,-0.00607344601303339,-9.727201540954411e-05,0.0,0.0,0.0,0.0,-0.00042424749699421227,-0.002907106652855873,0.003690810175612569,1.0012867450714111,0.0,0.0,0.0,-15.657936096191406,-1.7405061721801758,5.026656627655029,2834.117431640625,0
59.45399999999972,-0.008409935981035233,-0.006044242065399885,-6.0811638832092285e-05,0.0,0.0,0.0,0.0,-0.001085843425244093,0.0014741688501089811,-0.0027456164825707674,1.0004651546478271,0.0,0.0,0.0,-15.652955055236816,-1.7381179332733154,5.041193962097168,2833.2158203125,0
69.36700000000019,-0.00841769389808178,-0.006059946957975626,-8.042437548283488e-05,0.0,0.0,0.0,0.0,-0.0022320160642266273,0.0009130264515988529,-0.0015727105783298612,1.000112533569336,0.0,0.0,0.0,-15.651326179504395,-1.7429203987121582,5.034961223602295,2832.921142578125,0
79.26999999999862,-0.008473812602460384,-0.006003089249134064,-8.163825987139717e-05,0.0,0.0,0.0,0.0,0.000166669167811051,0.0005367578123696148,0.0036878089886158705,1.000805139541626,0.0,0.0,0.0,-15.662068367004395,-1.7332472801208496,5.02168607711792,2834.865478515625,0
89.17999999999847,-0.008479245938360691,-0.0060197655111551285,-0.00011170536163263023,0.0,0.0,0.0,0.0,0.0008540207054466009,-0.002249901182949543,-0.0021613091230392456,0.9992498755455017,0.0,0.0,0.0,-15.656739234924316,-1.7371104955673218,5.017459392547607,2833.90087890625,0
99.09599999999955,-0.00840963888913393,-0.006013514939695597,-8.788477862253785e-05,0.0,0.0,0.0,0.0,-0.0006097254808992147,0.0013363402104005218,0.00024606857914477587,0.9987152218818665,0.0,0.0,0.0,-15.652786254882812,-1.7364087104797363,5.025850772857666,2833.185302734375,0
109.00199999999859,-0.008371937088668346,-0.005972703918814659,-0.00014547041791956872,0.0,0.0,0.0,0.0,0.0033253475558012724,0.002860190812498331,-0.004618922248482704,1.0001754760742188,0.0,0.0,0.0,-15.653112411499023,-1.7255964279174805,5.02748441696167,2833.244384765625,0
118.92099999999846,-0.008292538113892078,-0.005975475534796715,-0.00012719973165076226,0.0,0.0,0.0,0.0,-0.0013352001551538706,-0.0016697680111974478,0.0011037136428058147,1.0009175539016724,0.0,0.0,0.0,-15.65156364440918,-1.733206868171692,5.034038066864014,2832.964111328125,0
128.8249999999989,-0.008291737176477909,-0.006036202888935804,-0.00018102939066011459,0.0,0.0,0.0,0.0,0.0014033974148333073,0.0036085371393710375,-0.0039166961796581745,0.9993034601211548,0.0,0.0,0.0,-15.647480964660645,-1.7404192686080933,5.040233612060547,2832.22509765625,0
138.73899999999958,-0.008412685245275497,-0.006006838288158178,-0.00022969278506934643,0.0,0.0,0.0,0.0,0.0012138833990320563,-0.001999418018385768,-0.001091259066015482,0.9991711974143982,0.0,0.0,0.0,-15.658352851867676,-1.7407197952270508,5.011170387268066,2834.193115234375,0
148.64799999999923,-0.008436045609414577,-0.006051289848983288,-0.00025655003264546394,0.0,0.0,0.0,0.0,-0.0034386455081403255,0.0004635592922568321,-0.003965546377003193,0.9985809326171875,0.0,0.0,0.0,-15.655317306518555,-1.7498514652252197,5.013019561767578,2833.6435546875,0
158.55799999999908,-0.008396541699767113,-0.005999413784593344,-0.0002364819374633953,0.0,0.0,0.0,0.0,0.0001911268336698413,-0.004177669994533062,0.0028704681899398565,1.000182032585144,0.0,0.0,0.0,-15.64990234375,-1.73396897315979,5.016173839569092,2832.663330078125,0
168.46799999999894,-0.008482790552079678,-0.0060637835413217545,-0.00019476933812256902,0.0,0.0,0.0,0.0,0.0020120993722230196,-0.0008290326222777367,0.00025744401500560343,1.0003308057785034,0.0,0.0,0.0,-15.64486312866211,-1.7443392276763916,5.011166572570801,2831.751220703125,0
178.3809999999994,-0.008486906066536903,-0.0060104732401669025,-0.0001774048141669482,0.0,0.0,0.0,0.0,-0.001966580981388688,0.0004450982960406691,0.0005569415516220033,0.9996768832206726,0.0,0.0,0.0,-15.652900695800781,-1.7361849546432495,5.007282733917236,2833.206298828125,0
188.29099999999926,-0.00854814238846302,-0.006057836581021547,-0.00015734171029180288,0.0,0.0,0.0,0.0,-0.0013831035466864705,-0.0031097913160920143,-0.0031972730066627264,0.9975629448890686,0.0,0.0,0.0,-15.65134048461914,-1.7436087131500244,4.998804569244385,2832.923583984375,0
198.20199999999932,-0.008514944463968277,-0.005979739595204592,-0.00011769547563744709,0.0,0.0,0.0,0.0,-0.0014431795570999384,0.0013413092819973826,0.00046777568059042096,0.9975957274436951,0.0,0.0,0.0,-15.647340774536133,-1.7301127910614014,5.0048651695251465,2832.19970703125,0
208.11499999999978,-0.008563843555748463,-0.006021119188517332,-0.00011193237878615037,0.0,0.0,0.0,0.0,0.0011410771403461695,0.0017884292174130678,0.001727379742078483,1.0024142265319824,0.0,0.0,0.0,-15.64565372467041,-1.7365365028381348,4.9964776039123535,2831.89453125,0
218.02499999999964,-0.008502010256052017,-0.005981946364045143,-7.37561349524185e-05,0.0,0.0,0.0,0.0,-0.0011166817275807261,0.0022731502540409565,-0.0013133237371221185,1.0007230043411255,0.0,0.0,0.0,-15.63963794708252,-1.7339657545089722,4.997032642364502,2830.805419921875,0
227.9369999999999,-0.008533061482012272,-0.006039746105670929,-3.5793673305306584e-05,0.0,0.0,0.0,0.0,-0.0025188543368130922,0.003430567216128111,0.0010631774784997106,0.9976587295532227,0.0,0.0,0.0,-15.658276557922363,-1.7416685819625854,4.991610527038574,2834.17919921875,0
237.85699999999997,-0.00854081567376852,-0.006006901152431965,-2.981708530569449e-05,0.0,0.0,0.0,0.0,0.0020754607394337654,-0.00191395147703588,0.0028916425071656704,0.9978439807891846,0.0,0.0,0.0,-15.64344596862793,-1.738716721534729,4.981564521789551,2831.49462890625,0
247.76800000000003,-0.008499396033585072,-0.005987492855638266,-8.252187399193645e-05,0.0,0.0,0.0,0.0,-0.00015106522187124938,0.004409084562212229,-0.00041499960934743285,0.9997788667678833,0.0,0.0,0.0,-15.664437294006348,-1.73648202419281,4.988945007324219,2835.294189453125,0
257.6700000000001,-0.00850473903119564,-0.005951955448836088,-8.39199055917561e-05,0.0,0.0,0.0,0.0,-0.0012070703087374568,-0.0010161683894693851,0.00014185282634571195,1.000293493270874,0.0,0.0,0.0,-15.648070335388184,-1.7327896356582642,4.977640151977539,2832.331787109375,0
267.60199999999895,-0.008417303673923016,-0.006128330715000629,-7.66248776926659e-05,0.0,0.0,0.0,0.0,0.0010809242958202958,0.001951569109223783,0.0005796437035314739,1.001530408859253,0.0,0.0,0.0,-15.660296440124512,-1.7566709518432617,5.00453519821167,2834.544677734375,0
277.5,-0.008418298326432705,-0.00609637051820755,-7.628360617673025e-05,0.0,0.0,0.0,0.0,-0.0012868748744949698,0.0017751655541360378,0.0004269212076906115,0.9999247789382935,0.0,0.0,0.0,-15.645401000976562,-1.7600618600845337,4.993274688720703,2831.8486328125,0
287.40999999999985,-0.00849534384906292,-0.006092518102377653,-0.00012699190119747072,0.0,0.0,0.0,0.0,-0.000717226997949183,-0.001380803994834423,-0.000593480421230197,1.0005006790161133,0.0,0.0,0.0,-15.668757438659668,-1.7564723491668701,4.975712776184082,2836.076171875,0
297.3220000000001,-0.008499743416905403,-0.006058819591999054,-0.0001296293776249513,0.0,0.0,0.0,0.0,-0.00043127458775416017,-0.0018010399071499705,-0.0002037403464782983,0.9993186593055725,0.0,0.0,0.0,-15.652856826782227,-1.7522903680801392,4.972999095916748,2833.1982421875,0
307.23499999999876,-0.008432172238826752,-0.006086000707000494,-0.00017836701590567827,0.0,0.0,0.0,0.0,-0.0016165364068001509,-0.00034179227077402174,-0.00013765758194494992,0.9975550174713135,0.0,0.0,0.0,-15.673674583435059,-1.7460922002792358,4.985548496246338,2836.966064453125,0
317.1359999999986,-0.008435538038611412,-0.006052699405699968,-0.00018618683679960668,0.0,0.0,0.0,0.0,-0.0008638551807962358,-0.0005430803284980357,-0.001214224612340331,1.0000520944595337,0.0,0.0,0.0,-15.658015251159668,-1.7426000833511353,4.9798665046691895,2834.1318359375,0
327.04899999999907,-0.008432918228209019,-0.006103203631937504,-0.0001415980514138937,0.0,0.0,0.0,0.0,0.0010519396746531129,-0.0015478131826967,0.0006981571204960346,0.9998052716255188,0.0,0.0,0.0,-15.6646146774292,-1.7478796243667603,4.989569664001465,2835.326416015625,0
336.97099999999955,-0.008479359559714794,-0.006180833093822002,-0.00014900961832609028,0.0,0.0,0.0,0.0,-0.0007743898313492537,-0.004950987175107002,-0.0024278894998133183,0.9991177916526794,0.0,0.0,0.0,-15.657991409301758,-1.7595101594924927,4.992973804473877,2834.12744140625,0
346.8769999999986,-0.00843210332095623,-0.006143524777144194,-0.00011941817501792684,0.0,0.0,0.0,0.0,-0.003888996783643961,0.0021889912895858288,0.0010110869770869613,0.9983323812484741,0.0,0.0,0.0,-15.670302391052246,-1.7496368885040283,5.010586738586426,2836.355712890625,0
356.78099999999904,-0.008480779826641083,-0.006199655123054981,-0.00011246088979532942,0.0,0.0,0.0,0.0,-0.002311763120815158,-0.0016521411016583443,-0.0015152952400967479,0.9998000860214233,0.0,0.0,0.0,-15.665647506713867,-1.7582517862319946,4.995433807373047,2835.51318359375,0
366.6989999999987,-0.008506384678184986,-0.006163622718304396,-0.00011252091644564644,0.0,0.0,0.0,0.0,0.0008031456964090466,-0.00016995622718241066,-0.003828194923698902,0.9998254776000977,0.0,0.0,0.0,-15.678293228149414,-1.754103660583496,4.987916946411133,2837.80224609375,0
376.61199999999917,-0.008526567369699478,-0.006203696131706238,-0.00013474808656610548,0.0,0.0,0.0,0.0,0.0012321935500949621,-0.0044044810347259045,0.00029608968179672956,0.9986526370048523,0.0,0.0,0.0,-15.67431354522705,-1.7663249969482422,4.981098651885986,2837.081787109375,0
386.5199999999986,-0.008504270575940609,-0.006127551663666964,-0.00010679235128918663,0.0,0.0,0.0,0.0,0.002761207753792405,-0.0035944380797445774,-0.002130884910002351,0.998246431350708,0.0,0.0,0.0,-15.670127868652344,-1.757118821144104,4.984662055969238,2836.32421875,0
396.4329999999991,-0.00852733850479126,-0.006179346237331629,-0.0001295043039135635,0.0,0.0,0.0,0.0,-0.0003947303630411625,0.004134995397180319,-0.0029229004867374897,0.9991241693496704,0.0,0.0,0.0,-15.665992736816406,-1.7717905044555664,4.984510898590088,2835.57568359375,0
406.34999999999854,-0.008528873324394226,-0.006113516166806221,-0.0001129931042669341,0.0,0.0,0.0,0.0,-0.001707610790617764,-0.0015859800623729825,0.0008277930901385844,0.999985933303833,0.0,0.0,0.0,-15.673177719116211,-1.764729619026184,4.966411113739014,2836.876220703125,0
416.253999999999,-0.008546185679733753,-0.006115930154919624,-0.00012372528726700693,0.0,0.0,0.0,0.0,-0.00011653164983727038,0.0009233395103365183,0.0013035531155765057,1.0009310245513916,0.0,0.0,0.0,-15.670616149902344,-1.7674376964569092,4.963020324707031,2836.41259765625,0
426.16199999999844,-0.008450151421129704,-0.006087783258408308,-8.617099229013547e-05,0.0,0.0,0.0,0.0,-0.003160057822242379,0.0003742474364116788,-0.002047790214419365,0.9995852708816528,0.0,0.0,0.0,-15.664201736450195,-1.7575894594192505,4.974201679229736,2835.25146484375,0
436.0699999999997,-0.008486103266477585,-0.006167854648083448,-0.0001044065720634535,0.0,0.0,0.0,0.0,0.0007942335796542466,0.002303698565810919,-0.0008856994681991637,0.9978725910186768,0.0,0.0,0.0,-15.660646438598633,-1.7670574188232422,4.976840972900391,2834.608154296875,0
445.9929999999986,-0.008528073318302631,-0.006048339419066906,-7.583746628370136e-05,0.0,0.0,0.0,0.0,0.0002329492854187265,0.0011294317664578557,0.0014233730034902692,0.9999110698699951,0.0,0.0,0.0,-15.668850898742676,-1.7489094734191895,4.961249351501465,2836.09326171875,0
455.89300000000003,-0.008551359176635742,-0.006109897047281265,-0.00010381644824519753,0.0,0.0,0.0,0.0,0.0008246772340498865,0.0026507365982979536,-0.0009289741865359247,0.9991414546966553,0.0,0.0,0.0,-15.666060447692871,-1.7618623971939087,4.957901477813721,2835.587890625,0
465.8109999999997,-0.008439191617071629,-0.006085062865167856,-6.0318234318401664e-05,0.0,0.0,0.0,0.0,-0.0015482127200812101,0.0008147531771101058,0.0015198050532490015,0.9985640645027161,0.0,0.0,0.0,-15.662579536437988,-1.7579889297485352,4.962671279907227,2834.958251953125,0
475.71999999999935,-0.00843882467597723,-0.006156358867883682,-0.00011109466868219897,0.0,0.0,0.0,0.0,-0.001130986027419567,-0.00025095243472605944,0.007632882334291935,1.0000300407409668,0.0,0.0,0.0,-15.656700134277344,-1.7627044916152954,4.95891809463501,2833.893798828125,0
485.6319999999996,-0.00851162988692522,-0.006087023764848709,-0.00012204684026073664,0.0,0.0,0.0,0.0,-0.0008016661740839481,-0.0032593486830592155,-0.006114488001912832,1.0001397132873535,0.0,0.0,0.0,-15.659261703491211,-1.7471765279769897,4.947486400604248,2834.357421875,0
495.53899999999885,-0.008503735065460205,-0.006087669171392918,-0.00016088441770989448,0.0,0.0,0.0,0.0,-0.004258071072399616,0.0009518926963210106,0.0025498871691524982,0.9997270107269287,0.0,0.0,0.0,-15.658194541931152,-1.7431421279907227,4.957017421722412,2834.164306640625,0
505.4479999999985,-0.008506852202117443,-0.006053818389773369,-0.000161249830853194,0.0,0.0,0.0,0.0,0.00038428971311077476,-0.00041657366091385484,0.002352730603888631,0.9977784156799316,0.0,0.0,0.0,-15.663118362426758,-1.7295136451721191,4.952580451965332,2835.055419921875,0
515.3679999999986,-0.008512137457728386,-0.006122972350567579,-0.00021764275152236223,0.0,0.0,0.0,0.0,-0.002162073738873005,-0.0018570109969004989,0.00023504307318944484,0.9991726279258728,0.0,0.0,0.0,-15.658089637756348,-1.7446736097335815,4.956974506378174,2834.145263671875,0
525.271999999999,-0.008408395573496819,-0.006065088789910078,-0.00017264476628042758,0.0,0.0,0.0,0.0,-0.0027909050695598125,0.0007341715390793979,0.0007837401353754103,1.0015312433242798,0.0,0.0,0.0,-15.655719757080078,-1.7283143997192383,4.9691033363342285,2833.71630859375,0
535.1809999999987,-0.008406734094023705,-0.006089288741350174,-0.00021191957057453692,0.0,0.0,0.0,0.0,-0.0012604412622749805,-0.0024127813521772623,0.002682160586118698,0.9989832043647766,0.0,0.0,0.0,-15.650740623474121,-1.7254940271377563,4.967508316040039,2832.815185546875,0
545.098,-0.008457949385046959,-0.00602150522172451,-0.00022209853341337293,0.0,0.0,0.0,0.0,-0.0030887173488736153,-0.00449397461488843,-0.002847399329766631,0.9993571639060974,0.0,0.0,0.0,-15.65810489654541,-1.7159658670425415,4.957285404205322,2834.148193359375,0
555.0029999999988,-0.008468039333820343,-0.006058539729565382,-0.00026321090990677476,0.0,0.0,0.0,0.0,0.0011921323603019118,0.00014972816279623657,-0.0007812878466211259,1.0012953281402588,0.0,0.0,0.0,-15.656516075134277,-1.7169619798660278,4.966439723968506,2833.860595703125,0
564.9159999999993,-0.008406298235058784,-0.006048713345080614,-0.0002544304879847914,0.0,0.0,0.0,0.0,-0.0014519082615152001,-0.0025019063614308834,-0.0012044577160850167,1.0034394264221191,0.0,0.0,0.0,-15.664942741394043,-1.7170206308364868,4.978506088256836,2835.385986328125,0
574.8269999999993,-0.008428328670561314,-0.006087358109652996,-0.0002783561940304935,0.0,0.0,0.0,0.0,0.0006823341245763004,-0.0018827924504876137,0.0032947068102657795,1.0014756917953491,0.0,0.0,0.0,-15.660670280456543,-1.7211300134658813,4.979517936706543,2834.612548828125,0
584.7439999999988,-0.008399722166359425,-0.00605887221172452,-0.0002702890778891742,0.0,0.0,0.0,0.0,0.0004016983730252832,0.005315225105732679,-0.0007858260069042444,0.9985473155975342,0.0,0.0,0.0,-15.669187545776367,-1.7185161113739014,4.98821496963501,2836.154052734375,0
594.6479999999992,-0.008441662415862083,-0.0061018699780106544,-0.0002698850876186043,0.0,0.0,0.0,0.0,-0.0029448557179421186,0.0009300610399805009,0.002563114743679762,0.9973148107528687,0.0,0.0,0.0,-15.668693542480469,-1.7296637296676636,4.9750213623046875,2836.064697265625,0
604.5599999999995,-0.008394548669457436,-0.006065849680453539,-0.000250511133344844,0.0,0.0,0.0,0.0,-0.004521594848483801,-0.0016862639458850026,0.0027430043555796146,0.9992102980613708,0.0,0.0,0.0,-15.681061744689941,-1.715842843055725,4.982794761657715,2838.30322265625,0
614.4709999999995,-0.008412005379796028,-0.006089549046009779,-0.0002710672270040959,0.0,0.0,0.0,0.0,0.0011303125647827983,0.002285066759213805,0.0005252010305412114,0.9976608753204346,0.0,0.0,0.0,-15.676695823669434,-1.7163596153259277,4.985484600067139,2837.512939453125,0
624.3859999999986,-0.00844408106058836,-0.006005451548844576,-0.00026818536571227014,0.0,0.0,0.0,0.0,-0.0014264961937442422,0.0005965788732282817,0.0005909258616156876,0.9995427131652832,0.0,0.0,0.0,-15.683479309082031,-1.7058866024017334,4.976120948791504,2838.74072265625,0
634.2929999999997,-0.008468873798847198,-0.006048125680536032,-0.00029118303791619837,0.0,0.0,0.0,0.0,-0.0019510873826220632,0.0036349836736917496,7.659359835088253e-05,0.9988169074058533,0.0,0.0,0.0,-15.679320335388184,-1.7142491340637207,4.97285270690918,2837.988037109375,0
644.2039999999997,-0.008476607501506805,-0.0059381392784416676,-0.0002687139785848558,0.0,0.0,0.0,0.0,0.0005355594330467284,-0.0017480429960414767,-0.0018849574262276292,0.99969482421875,0.0,0.0,0.0,-15.688277244567871,-1.6928296089172363,4.961087226867676,2839.609375,0
654.119999999999,-0.00850381888449192,-0.005999427288770676,-0.00029768593958579004,0.0,0.0,0.0,0.0,0.0013196259969845414,-0.004901875741779804,-0.0002921156701631844,1.000511646270752,0.0,0.0,0.0,-15.68564510345459,-1.703144907951355,4.960007190704346,2839.1328125,0
664.027,-0.008467094041407108,-0.005965724587440491,-0.0002903415006585419,0.0,0.0,0.0,0.0,0.0009537710575386882,0.0017637235578149557,0.0025251416955143213,0.9996429681777954,0.0,0.0,0.0,-15.692449569702148,-1.696319341659546,4.9793009757995605,2840.36474609375,0
673.9419999999991,-0.008492844179272652,-0.006017407402396202,-0.00031526590464636683,0.0,0.0,0.0,0.0,0.0006195204332470894,0.0019906647503376007,-0.0030184616334736347,1.000935435295105,0.0,0.0,0.0,-15.686250686645508,-1.706587314605713,4.975719451904297,2839.24267578125,0
683.848,-0.008488643914461136,-0.005970118101686239,-0.0003147684910800308,0.0,0.0,0.0,0.0,-0.0005032718763686717,0.002020759042352438,0.0001586240396136418,0.9992108941078186,0.0,0.0,0.0,-15.696028709411621,-1.695652961730957,4.963400840759277,2841.0126953125,0
693.759,-0.00851681362837553,-0.0060182237066328526,-0.00033815758069977164,0.0,0.0,0.0,0.0,0.0003120152687188238,-0.0006879196153022349,0.001910183229483664,0.9997841119766235,0.0,0.0,0.0,-15.689252853393555,-1.7071701288223267,4.955193042755127,2839.7861328125,0
703.6729999999989,-0.008426734246313572,-0.005976851563900709,-0.0003020605072379112,0.0,0.0,0.0,0.0,-0.00042005209252238274,0.0025715548545122147,-0.005311852786689997,1.0003880262374878,0.0,0.0,0.0,-15.697399139404297,-1.695571780204773,4.974031925201416,2841.260498046875,0
713.5810000000001,-0.008530535735189915,-0.006110218353569508,-0.0002688898239284754,0.0,0.0,0.0,0.0,0.003182130167260766,0.0003964653005823493,-0.0016439971514046192,0.9997738599777222,0.0,0.0,0.0,-15.693893432617188,-1.7238190174102783,4.963001728057861,2840.6259765625,0
723.494999999999,-0.008513988927006721,-0.0060460614040493965,-0.00024218906764872372,0.0,0.0,0.0,0.0,-0.0015227394178509712,0.002042301930487156,0.0027886175084859133,0.9998007416725159,0.0,0.0,0.0,-15.703577041625977,-1.7239195108413696,4.958168983459473,2842.378662109375,0
733.4200000000001,-0.008582286536693573,-0.0061425380408763885,-0.00023227387282531708,0.0,0.0,0.0,0.0,-0.0033797186333686113,-0.004513790365308523,0.0012924508191645145,0.9992149472236633,0.0,0.0,0.0,-15.696813583374023,-1.7438819408416748,4.9455060958862305,2841.154541015625,0
743.3189999999995,-0.008548088371753693,-0.006073391530662775,-0.00019333686213940382,0.0,0.0,0.0,0.0,-0.0030683455988764763,0.0037703709676861763,-0.0004379392194095999,1.0016992092132568,0.0,0.0,0.0,-15.707473754882812,-1.7261483669281006,4.959132194519043,2843.083984375,0
753.2330000000002,-0.008588305674493313,-0.006145964842289686,-0.00020406217663548887,0.0,0.0,0.0,0.0,0.003535571973770857,-0.0010553225874900818,0.0006146028754301369,1.0021185874938965,0.0,0.0,0.0,-15.701434135437012,-1.7368839979171753,4.949845314025879,2841.99072265625,0
763.1409999999996,-0.008470137603580952,-0.006127480883151293,-0.00014807972183916718,0.0,0.0,0.0,0.0,-0.0004583091358654201,0.0033366072457283735,0.0047134398482739925,1.0007797479629517,0.0,0.0,0.0,-15.713504791259766,-1.7370049953460693,4.975009441375732,2844.175537109375,0
773.0659999999989,-0.008510913699865341,-0.006188887171447277,-0.000140723554068245,0.0,0.0,0.0,0.0,0.0024319954682141542,0.003097026376053691,-0.0022417439613491297,0.9978631734848022,0.0,0.0,0.0,-15.70203685760498,-1.753163456916809,4.96564245223999,2842.099853515625,0
782.9639999999999,-0.008452012203633785,-0.006144027691334486,-9.282471728511155e-05,0.0,0.0,0.0,0.0,0.0038074911572039127,0.000637988792732358,-0.0013848585076630116,0.9993619918823242,0.0,0.0,0.0,-15.711968421936035,-1.7481123208999634,4.967715263366699,2843.8974609375,0
792.8829999999998,-0.008477243594825268,-0.006196246016770601,-9.883881284622476e-05,0.0,0.0,0.0,0.0,-0.003968045115470886,-0.004047029186040163,0.0028942925855517387,0.9984299540519714,0.0,0.0,0.0,-15.704349517822266,-1.7673052549362183,4.962063789367676,2842.5185546875,0
802.7849999999999,-0.008509970270097256,-0.006122662220150232,-7.596184150315821e-05,0.0,0.0,0.0,0.0,0.003430579788982868,-0.0019223736599087715,-0.0023129875771701336,0.998376727104187,0.0,0.0,0.0,-15.708430290222168,-1.749979853630066,4.957493782043457,2843.257080078125,0
812.7019999999993,-0.008486511185765266,-0.00615651486441493,-0.0001390253019053489,0.0,0.0,0.0,0.0,-0.004673391114920378,0.0005128162447363138,-7.394439307972789e-05,0.9993008971214294,0.0,0.0,0.0,-15.706095695495605,-1.7627267837524414,4.965673923492432,2842.834716796875,0
822.6049999999996,-0.00850604847073555,-0.006097545847296715,-0.00012483092723414302,0.0,0.0,0.0,0.0,0.001217507291585207,-0.0005094143562018871,-0.0015225750394165516,1.0006016492843628,0.0,0.0,0.0,-15.70922565460205,-1.745937466621399,4.955728530883789,2843.401123046875,0
832.5360000000001,-0.00846332497894764,-0.006080645136535168,-0.0001946491829585284,0.0,0.0,0.0,0.0,0.00027655326994135976,0.005769688170403242,-0.008300858549773693,0.9990178346633911,0.0,0.0,0.0,-15.705078125,-1.7462443113327026,4.963634014129639,2842.650390625,0
842.4259999999995,-0.008479248732328415,-0.006031796336174011,-0.0001906021498143673,0.0,0.0,0.0,0.0,0.0002898777602240443,9.454950486542657e-06,-0.002173005137592554,0.997945249080658,0.0,0.0,0.0,-15.710836410522461,-1.7436058521270752,4.94463586807251,2843.692626953125,0
852.357,-0.0084821917116642,-0.006054616067558527,-0.00023035578487906605,0.0,0.0,0.0,0.0,-0.00019262712157797068,0.0005278423195704818,-0.0006591809797100723,0.9998539686203003,0.0,0.0,0.0,-15.70676326751709,-1.7514103651046753,4.941162586212158,2842.955322265625,0
862.25,-0.008494473062455654,-0.005956138018518686,-0.00020885934645775706,0.0,0.0,0.0,0.0,0.001219006720930338,0.002305230125784874,-0.0032498931977897882,0.9986085295677185,0.0,0.0,0.0,-15.713046073913574,-1.7360612154006958,4.930179119110107,2844.092529296875,0
872.1719999999987,-0.008477084338665009,-0.0059296987019479275,-0.000254742888500914,0.0,0.0,0.0,0.0,0.000597762584220618,0.004518494941294193,-4.4626209273701534e-05,1.000369668006897,0.0,0.0,0.0,-15.712141990661621,-1.7357068061828613,4.922115325927734,2843.92919921875,0
882.0779999999995,-0.0084327207878232,-0.005902362521737814,-0.00025106934481300414,0.0,0.0,0.0,0.0,-0.00010033669241238385,-0.0025363080203533173,-0.0014016922796145082,0.9997579455375671,0.0,0.0,0.0,-15.70173168182373,-1.7357031106948853,4.914759159088135,2842.044677734375,0
891.9899999999998,-0.008488507941365242,-0.00596876023337245,-0.0002527176693547517,0.0,0.0,0.0,0.0,0.0009843817679211497,0.0019149432191625237,0.0017341120401397347,1.0003994703292847,0.0,0.0,0.0,-15.699975967407227,-1.743064045906067,4.908222198486328,2841.72705078125,0
901.9039999999986,-0.00841875746846199,-0.005916685331612825,-0.00022046965023037046,0.0,0.0,0.0,0.0,-0.0019368866924196482,-0.0006983929197303951,-0.004516260232776403,1.0014671087265015,0.0,0.0,0.0,-15.707045555114746,-1.7393863201141357,4.908492565155029,2843.006591796875,0
911.8159999999989,-0.008516947738826275,-0.006061651278287172,-0.00019420517492108047,0.0,0.0,0.0,0.0,0.0003335450601298362,0.0037002807948738337,0.0037907820660620928,1.000381588935852,0.0,0.0,0.0,-15.701399803161621,-1.7616440057754517,4.895569324493408,2841.98486328125,0
921.7169999999987,-0.0084768608212471,-0.006058794911950827,-0.00018273589375894517,0.0,0.0,0.0,0.0,0.00022364163305610418,-0.00031072835554368794,0.0025893745478242636,0.9986124634742737,0.0,0.0,0.0,-15.7108736038208,-1.7618309259414673,4.897089004516602,2843.699462890625,0
931.6369999999988,-0.008526839315891266,-0.006090058945119381,-0.0001615275687072426,0.0,0.0,0.0,0.0,0.0003170516574755311,-0.0013427799567580223,0.0022292044013738632,0.9980677366256714,0.0,0.0,0.0,-15.706380844116211,-1.7724757194519043,4.891407489776611,2842.88623046875,0
941.5389999999989,-0.008419619873166084,-0.006048829294741154,-0.00011012803588528186,0.0,0.0,0.0,0.0,-0.0008527928148396313,0.0011507641756907105,0.0019592910539358854,0.9971861243247986,0.0,0.0,0.0,-15.702180862426758,-1.7596935033798218,4.91255521774292,2842.1259765625,0
951.4579999999987,-0.00842727068811655,-0.006064582150429487,-0.00013067509280517697,0.0,0.0,0.0,0.0,-0.0031813797540962696,-0.0029609983321279287,0.0016146606067195535,1.0003752708435059,0.0,0.0,0.0,-15.697074890136719,-1.764636754989624,4.90571928024292,2841.201904296875,0
961.360999999999,-0.008400392718613148,-0.006053820718079805,-0.0001245711900992319,0.0,0.0,0.0,0.0,-0.0026414035819470882,-0.004719861783087254,0.002532023238018155,0.999614953994751,0.0,0.0,0.0,-15.70642375946045,-1.754848837852478,4.915706634521484,2842.89404296875,0
971.2829999999994,-0.00846087746322155,-0.006146955769509077,-0.00011405200348235667,0.0,0.0,0.0,0.0,0.0008649629889987409,-0.0035577102098613977,-0.0011863422114402056,0.9967836737632751,0.0,0.0,0.0,-15.697487831115723,-1.7711119651794434,4.91964054107666,2841.276611328125,0
981.1869999999999,-0.008359902538359165,-0.0061129373498260975,-7.060846837703139e-05,0.0,0.0,0.0,0.0,0.0017201438313350081,-0.0022046947851777077,0.002928906586021185,0.9994281530380249,0.0,0.0,0.0,-15.693013191223145,-1.7679252624511719,4.9357171058654785,2840.466552734375,0
991.1049999999996,-0.008341316133737564,-0.006109672132879496,-0.00011490780161693692,0.0,0.0,0.0,0.0,0.0012766405707225204,-0.002933340845629573,-0.0011449784506112337,0.9993066787719727,0.0,0.0,0.0,-15.688021659851074,-1.7730613946914673,4.938263893127441,2839.563232421875,0
1001.0049999999992,-0.008395068347454071,-0.006050945725291967,-0.0001261298602912575,0.0,0.0,0.0,0.0,-0.0023811482824385166,-0.0003150721313431859,-0.0010946538532152772,0.9998471736907959,0.0,0.0,0.0,-15.696096420288086,-1.7672901153564453,4.924637794494629,2841.024658203125,0
1010.9329999999991,-0.008450054563581944,-0.006129322573542595,-0.00012451299699023366,0.0,0.0,0.0,0.0,-0.0001261787983821705,0.0067354291677474976,0.0005092512001283467,0.9999619722366333,0.0,0.0,0.0,-15.68902587890625,-1.7807637453079224,4.9097208976745605,2839.744873046875,0
1020.8279999999995,-0.008462479338049889,-0.006049187388271093,-0.00010677401587599888,0.0,0.0,0.0,0.0,-0.0022356726694852114,-0.00041655468521639705,-0.0003574197762645781,0.9993458390235901,0.0,0.0,0.0,-15.689123153686523,-1.771561861038208,4.8892693519592285,2839.7626953125,0
1030.744999999999,-0.008505681529641151,-0.0061219362542033195,-0.00012092731049051508,0.0,0.0,0.0,0.0,0.0008745097438804805,0.0037411379162222147,-4.2023195419460535e-05,1.0010178089141846,0.0,0.0,0.0,-15.682241439819336,-1.786486268043518,4.884603023529053,2838.516845703125,0
1040.6499999999996,-0.008500336669385433,-0.006026958581060171,-8.932306081987917e-05,0.0,0.0,0.0,0.0,0.0034053907729685307,0.0020508544985204935,0.0008223148179240525,0.9995371103286743,0.0,0.0,0.0,-15.675899505615234,-1.7756035327911377,4.876234531402588,2837.368896484375,0
1050.5699999999997,-0.00853724405169487,-0.006100916303694248,-0.00011395505862310529,0.0,0.0,0.0,0.0,0.0024206452071666718,-0.003386307507753372,0.002426563762128353,0.9983416199684143,0.0,0.0,0.0,-15.671753883361816,-1.7995189428329468,4.872558116912842,2836.618408203125,0
1060.4749999999985,-0.008543531410396099,-0.00599684240296483,-7.5368101533968e-05,0.0,0.0,0.0,0.0,-0.004066854249686003,-0.0025858425069600344,-0.0005900805699639022,0.999489963054657,0.0,0.0,0.0,-15.679883003234863,-1.782991647720337,4.872051239013672,2838.08984375,0
1070.3919999999998,-0.00851669441908598,-0.005993845406919718,-0.0001506680273450911,0.0,0.0,0.0,0.0,0.0038378725294023752,0.0017518276581540704,0.0027496679686009884,0.9995821714401245,0.0,0.0,0.0,-15.674224853515625,-1.7752068042755127,4.875219345092773,2837.065673828125,0
1080.2969999999987,-0.008507409133017063,-0.005954841151833534,-0.00014502866542898118,0.0,0.0,0.0,0.0,0.002663455670699477,0.0027887921314686537,-0.003759932005777955,1.0000730752944946,0.0,0.0,0.0,-15.685885429382324,-1.7724554538726807,4.864330768585205,2839.17626953125,0
1090.223,-0.00855888519436121,-0.0059818606823682785,-0.00013466003292705864,0.0,0.0,0.0,0.0,0.00026133740902878344,0.0008763212244957685,0.004390733782202005,1.0012229681015015,0.0,0.0,0.0,-15.68402099609375,-1.7845672369003296,4.84697151184082,2838.8388671875,0
1100.1219999999994,-0.008514742366969585,-0.005964499898254871,-0.00011919793178094551,0.0,0.0,0.0,0.0,-0.0024081531446427107,-0.0019125903490930796,0.0030881986021995544,0.9979302883148193,0.0,0.0,0.0,-15.693642616271973,-1.7782342433929443,4.8512187004089355,2840.58056640625,0
1110.0339999999997,-0.00856508407741785,-0.006052144803106785,-0.00013681316340807825,0.0,0.0,0.0,0.0,-0.0007582699181511998,0.002252141945064068,-0.002218602690845728,0.9971436858177185,0.0,0.0,0.0,-15.687138557434082,-1.7952990531921387,4.848870277404785,2839.4033203125,0
1119.9470000000001,-0.008521916344761848,-0.006024472415447235,-0.00011493056081235409,0.0,0.0,0.0,0.0,0.0015255699399858713,0.0010956409387290478,-0.0009030404035001993,0.9988492727279663,0.0,0.0,0.0,-15.699296951293945,-1.7880303859710693,4.849699974060059,2841.60400390625,0
1129.8509999999987,-0.008552981540560722,-0.0060239690355956554,-0.00011830725270556286,0.0,0.0,0.0,0.0,-0.0019165732664987445,-0.005446266382932663,-0.0042325640097260475,0.9992638230323792,0.0,0.0,0.0,-15.697005271911621,-1.7938979864120483,4.834408283233643,2841.189453125,0
1139.7609999999986,-0.008455347269773483,-0.006044034846127033,-9.841359860729426e-05,0.0,0.0,0.0,0.0,-0.0007120535592548549,-0.002588295843452215,0.0033364417031407356,0.9973493218421936,0.0,0.0,0.0,-15.706077575683594,-1.7926231622695923,4.855138778686523,2842.83154296875,0
1149.6809999999987,-0.008460010401904583,-0.006048895418643951,-0.00014093538629822433,0.0,0.0,0.0,0.0,-0.0012497762218117714,-0.00436442531645298,0.004009266383945942,1.0006226301193237,0.0,0.0,0.0,-15.702322006225586,-1.789898157119751,4.84949254989624,2842.151611328125,0
1159.5879999999997,-0.008481535129249096,-0.005992205813527107,-0.0001397403539158404,0.0,0.0,0.0,0.0,0.00014455869677476585,0.002079777652397752,0.0009409899939782917,0.9976917505264282,0.0,0.0,0.0,-15.70741081237793,-1.7790480852127075,4.849550247192383,2843.072509765625,0
1169.4969999999994,-0.008503350429236889,-0.006064558867365122,-0.00019966589752584696,0.0,0.0,0.0,0.0,-0.0004987638676539063,-0.0033464254811406136,0.0026193123776465654,0.9984724521636963,0.0,0.0,0.0,-15.704291343688965,-1.7910510301589966,4.847447872161865,2842.50830078125,0
1179.4219999999987,-0.008524017408490181,-0.005957418121397495,-0.00018046553304884583,0.0,0.0,0.0,0.0,-0.001669649500399828,-0.002568243769928813,0.0012352766934782267,1.0006376504898071,0.0,0.0,0.0,-15.708199501037598,-1.7752496004104614,4.8453497886657715,2843.215576171875,0
1189.3239999999987,-0.008550229482352734,-0.006032451055943966,-0.00024180817126762122,0.0,0.0,0.0,0.0,-0.0013574706390500069,0.0017847430426627398,0.0003750162723008543,0.998995304107666,0.0,0.0,0.0,-15.703304290771484,-1.7885524034500122,4.856176853179932,2842.329345703125,0
1199.2459999999992,-0.008531816303730011,-0.005944341886788607,-0.0002160905860364437,0.0,0.0,0.0,0.0,-0.0009358901297673583,-0.0049325451254844666,0.0002406162820989266,1.0003632307052612,0.0,0.0,0.0,-15.70840835571289,-1.7722119092941284,4.858643054962158,2843.253173828125,0
1209.1440000000002,-0.00856049358844757,-0.005969808902591467,-0.0002528280019760132,0.0,0.0,0.0,0.0,-0.0022426662035286427,0.001774730277247727,4.7868179535726085e-05,0.9998966455459595,0.0,0.0,0.0,-15.706985473632812,-1.7824488878250122,4.867344856262207,2842.99560546875,0
1219.0569999999989,-0.008492821827530861,-0.005911861080676317,-0.00022568469285033643,0.0,0.0,0.0,0.0,0.0009222919470630586,3.7152733511902625e-06,-0.0009143813513219357,0.9981549978256226,0.0,0.0,0.0,-15.702535629272461,-1.7753080129623413,4.865616798400879,2842.190185546875,0
1228.9609999999993,-0.008542662486433983,-0.006015780847519636,-0.0002669251407496631,0.0,0.0,0.0,0.0,-0.0012778686359524727,-0.002219945192337036,0.005394591949880123,0.9998362064361572,0.0,0.0,0.0,-15.697807312011719,-1.8014864921569824,4.862740993499756,2841.33447265625,0
1238.8869999999988,-0.008489529602229595,-0.005937662441283464,-0.00023797719040885568,0.0,0.0,0.0,0.0,-0.0035279502626508474,0.002065232489258051,4.46882622782141e-05,0.999722957611084,0.0,0.0,0.0,-15.6886568069458,-1.7896969318389893,4.877076148986816,2839.67822265625,0
1248.7839999999997,-0.00857248343527317,-0.00604701042175293,-0.00024176013539545238,0.0,0.0,0.0,0.0,-0.00032935276976786554,-0.00255257124081254,-0.0015527643263339996,1.0000271797180176,0.0,0.0,0.0,-15.684613227844238,-1.8057142496109009,4.867289066314697,2838.946044921875,0
1258.699999999999,-0.008528288453817368,-0.005993715953081846,-0.0002160183503292501,0.0,0.0,0.0,0.0,0.004933386575430632,0.005529026035219431,0.002169631188735366,1.0003801584243774,0.0,0.0,0.0,-15.691366195678711,-1.7977248430252075,4.883888244628906,2840.16845703125,0
1268.6059999999998,-0.008588464930653572,-0.006009281612932682,-0.00020347084500826895,0.0,0.0,0.0,0.0,-0.004099130630493164,0.00037975714076310396,-0.003033895744010806,1.0018346309661865,0.0,0.0,0.0,-15.684591293334961,-1.8134044408798218,4.875100612640381,2838.9423828125,0
1278.5259999999998,-0.008538630791008472,-0.005986128002405167,-0.0001847959792939946,0.0,0.0,0.0,0.0,-0.0006863634916953743,0.003319857642054558,0.003406719770282507,0.9991921782493591,0.0,0.0,0.0,-15.693897247314453,-1.802491307258606,4.879701137542725,2840.626708984375,0
1288.429,-0.008595895953476429,-0.006066188216209412,-0.00019924291700590402,0.0,0.0,0.0,0.0,-0.0033735735341906548,-0.003498215926811099,0.004334293305873871,1.0013148784637451,0.0,0.0,0.0,-15.689126014709473,-1.821359634399414,4.868391513824463,2839.76318359375,0
1298.3469999999998,-0.008543403819203377,-0.006008020136505365,-0.00015872424410190433,0.0,0.0,0.0,0.0,0.004388919100165367,0.001497474848292768,0.0007659594994038343,0.9989008903503418,0.0,0.0,0.0,-15.697373390197754,-1.8067717552185059,4.883876323699951,2841.256103515625,0
1308.2559999999994,-0.008605068549513817,-0.006070087663829327,-0.00015642073412891477,0.0,0.0,0.0,0.0,0.0008331092540174723,-0.00021715649927500635,-0.001302220392972231,1.001177430152893,0.0,0.0,0.0,-15.694499969482422,-1.8264374732971191,4.8637590408325195,2840.73583984375,0
1318.1719999999987,-0.008466722443699837,-0.0060866218991577625,-0.00011470744357211515,0.0,0.0,0.0,0.0,-4.0373342926613986e-05,-9.100815077545121e-05,0.0010125375119969249,0.9991602897644043,0.0,0.0,0.0,-15.690019607543945,-1.8323662281036377,4.882201194763184,2839.9248046875,0
1328.0779999999995,-0.00846325047314167,-0.006069950759410858,-0.00015007270849309862,0.0,0.0,0.0,0.0,-0.002945783780887723,-0.0007924566743895411,-7.000906043685973e-05,0.9991195201873779,0.0,0.0,0.0,-15.686264991760254,-1.8334790468215942,4.881814956665039,2839.245361328125,0
1337.991,-0.008427886292338371,-0.006053944583982229,-0.0001345085329376161,0.0,0.0,0.0,0.0,0.001739448751322925,0.0041290512308478355,-0.0002470861072652042,0.999530553817749,0.0,0.0,0.0,-15.697208404541016,-1.8222559690475464,4.892649173736572,2841.226318359375,0
1347.8949999999986,-0.008440474048256874,-0.006055778358131647,-0.00016118932398967445,0.0,0.0,0.0,0.0,0.002948647364974022,0.005807974375784397,0.0002880348183680326,0.9985798597335815,0.0,0.0,0.0,-15.694171905517578,-1.824718713760376,4.8788933753967285,2840.676513671875,0
1357.815999999999,-0.008421160280704498,-0.006031890399754047,-0.0001504698011558503,0.0,0.0,0.0,0.0,-0.001124654314480722,0.006251670885831118,0.0027269625570625067,0.999603271484375,0.0,0.0,0.0,-15.70150089263916,-1.82974374294281,4.8742828369140625,2842.0029296875,0
1367.7199999999993,-0.008451125584542751,-0.006044594570994377,-0.00016290298663079739,0.0,0.0,0.0,0.0,-0.000854809710290283,-0.005606023129075766,-0.0025615866761654615,0.9980039596557617,0.0,0.0,0.0,-15.6973876953125,-1.830391526222229,4.871123790740967,2841.258544921875,0
1377.634,-0.008498487062752247,-0.005986222997307777,-0.00016426453657913953,0.0,0.0,0.0,0.0,-0.0010294069070369005,-0.0003483330365270376,0.003400037530809641,0.9994637966156006,0.0,0.0,0.0,-15.71043872833252,-1.8202307224273682,4.866392612457275,2843.62060546875,0
1387.5389999999989,-0.008495408110320568,-0.005991179496049881,-0.000224015093408525,0.0,0.0,0.0,0.0,-0.0013873298885300756,0.003422070760279894,-0.003056206973269582,0.9989514350891113,0.0,0.0,0.0,-15.704132080078125,-1.8199734687805176,4.8663506507873535,2842.479248046875,0
1397.4529999999995,-0.008489774540066719,-0.005960135720670223,-0.00022090654238127172,0.0,0.0,0.0,0.0,-0.0012177093885838985,-0.002984153339639306,0.00375295989215374,0.9999116659164429,0.0,0.0,0.0,-15.712671279907227,-1.8162007331848145,4.854747772216797,2844.02490234375,0
1407.3729999999996,-0.008499609306454659,-0.005988315679132938,-0.000280037522315979,0.0,0.0,0.0,0.0,0.0018801952246576548,0.0027640655171126127,0.0013551457086578012,0.9970921874046326,0.0,0.0,0.0,-15.708476066589355,-1.8203493356704712,4.862306118011475,2843.265380859375,0
1417.2839999999997,-0.008508982136845589,-0.0058992356061935425,-0.0002619784791022539,0.0,0.0,0.0,0.0,-0.0009538941085338593,0.0009926581988111138,-0.0007314944523386657,0.9989170432090759,0.0,0.0,0.0,-15.714556694030762,-1.816166877746582,4.8480424880981445,2844.365966796875,0
1427.187,-0.00853771436959505,-0.005944507196545601,-0.00030961507582105696,0.0,0.0,0.0,0.0,-0.00026897608768194914,-0.0005276107112877071,-0.0007029554690234363,1.0000767707824707,0.0,0.0,0.0,-15.713871955871582,-1.8311764001846313,4.843814849853516,2844.2421875,0
1437.0990000000002,-0.00851038470864296,-0.005875829141587019,-0.00028617368661798537,0.0,0.0,0.0,0.0,0.0019278337713330984,-0.0012562350602820516,-0.001884232391603291,1.0003608465194702,0.0,0.0,0.0,-15.719552993774414,-1.8172739744186401,4.847850322723389,2845.2705078125,0
1447.0079999999998,-0.008548172190785408,-0.005922241602092981,-0.00032470867154188454,0.0,0.0,0.0,0.0,0.0015188946854323149,0.00190964515786618,0.0013002414489164948,1.0004651546478271,0.0,0.0,0.0,-15.713332176208496,-1.8332816362380981,4.841970443725586,2844.14453125,0
1456.9219999999987,-0.008512645028531551,-0.00585585692897439,-0.0002981926954817027,0.0,0.0,0.0,0.0,-0.0003652429149951786,-0.0021263272501528263,0.0037775610107928514,0.9972489476203918,0.0,0.0,0.0,-15.71949291229248,-1.827629804611206,4.838576793670654,2845.259521484375,0
1466.833999999999,-0.008584658615291119,-0.005929370876401663,-0.0003067729703616351,0.0,0.0,0.0,0.0,0.0002835134800989181,0.006258388049900532,-0.0020381188951432705,0.9986862540245056,0.0,0.0,0.0,-15.717586517333984,-1.8499807119369507,4.834537029266357,2844.914306640625,0
1476.7510000000002,-0.008500782772898674,-0.005877854768186808,-0.00026956264628097415,0.0,0.0,0.0,0.0,0.0009863778250291944,-0.00027998292353004217,0.003909772261977196,0.9985580444335938,0.0,0.0,0.0,-15.711148262023926,-1.8436471223831177,4.8319501876831055,2843.7490234375,0
1486.6579999999994,-0.00860272254794836,-0.005951615981757641,-0.00023811553546693176,0.0,0.0,0.0,0.0,-0.002903969259932637,0.003864137688651681,0.001933329040184617,0.998591959476471,0.0,0.0,0.0,-15.707026481628418,-1.8649048805236816,4.823197841644287,2843.003173828125,0
1496.575999999999,-0.008543782867491245,-0.005903666373342276,-0.00020038076036144048,0.0,0.0,0.0,0.0,0.002318016020581126,-0.00398366991430521,-0.0015445704339072108,0.9985589981079102,0.0,0.0,0.0,-15.713054656982422,-1.851064682006836,4.825425148010254,2844.09423828125,0
1506.476999999999,-0.008683641441166401,-0.0060403249226510525,-0.00014548432955052704,0.0,0.0,0.0,0.0,-0.0021495502442121506,0.0024101000744849443,-0.0007741605513729155,0.9981651902198792,0.0,0.0,0.0,-15.70693302154541,-1.8858520984649658,4.818863868713379,2842.986328125,0
1516.3940000000002,-0.008592808619141579,-0.005984545685350895,-8.057773811742663e-05,0.0,0.0,0.0,0.0,0.0006994138238951564,-0.00044572848128154874,0.002789805643260479,1.0005314350128174,0.0,0.0,0.0,-15.715137481689453,-1.8676400184631348,4.824769020080566,2844.47119140625,0
1526.2969999999987,-0.008629502728581429,-0.00599525636062026,-9.564366337144747e-05,0.0,0.0,0.0,0.0,0.0011939265532419086,0.0003998108149971813,-0.0005295525188557804,1.001237154006958,0.0,0.0,0.0,-15.711115837097168,-1.87234365940094,4.819151401519775,2843.7431640625,0
1536.2150000000001,-0.008551147766411304,-0.006012447644025087,-6.600393680855632e-05,0.0,0.0,0.0,0.0,0.0012252749875187874,0.0020020646043121815,0.001630287733860314,1.000368595123291,0.0,0.0,0.0,-15.71924877166748,-1.878706932067871,4.832096099853516,2845.21533203125,0
1546.125,-0.008591646328568459,-0.006086025852710009,-9.751600737217814e-05,0.0,0.0,0.0,0.0,-0.002162728225812316,0.005511129274964333,-0.0024892939254641533,0.9989824891090393,0.0,0.0,0.0,-15.713255882263184,-1.8988112211227417,4.834345817565918,2844.130615234375,0
1556.0439999999999,-0.008471952751278877,-0.0060677663423120975,-3.889770960086025e-05,0.0,0.0,0.0,0.0,-0.0012473086826503277,0.002200809307396412,-0.0004620588442776352,0.9994015693664551,0.0,0.0,0.0,-15.706901550292969,-1.8885959386825562,4.847423076629639,2842.98046875,0
1565.940999999999,-0.00850923452526331,-0.00613947119563818,-6.504196062451228e-05,0.0,0.0,0.0,0.0,-0.0030893473885953426,0.0028281298000365496,0.00271211052313447,1.000038743019104,0.0,0.0,0.0,-15.700189590454102,-1.9005496501922607,4.837845802307129,2841.765625,0
1575.8629999999994,-0.00843168143182993,-0.006138560362160206,-2.948739711428061e-05,0.0,0.0,0.0,0.0,0.0037814253009855747,0.002317380392923951,-0.003032861975952983,0.9996181130409241,0.0,0.0,0.0,-15.695324897766113,-1.892931342124939,4.841097831726074,2840.885009765625,0
1585.7649999999994,-0.008399294689297676,-0.006111195310950279,-9.63152851909399e-05,0.0,0.0,0.0,0.0,0.0015169046819210052,-0.0005715899751521647,-0.002293726895004511,1.0011175870895386,0.0,0.0,0.0,-15.691771507263184,-1.8914426565170288,4.834424018859863,2840.241943359375,0
1595.687,-0.008330839686095715,-0.0060928636230528355,-6.404016312444583e-05,0.0,0.0,0.0,0.0,0.0015520141460001469,0.00029862989322282374,0.0005504356231540442,0.998994767665863,0.0,0.0,0.0,-15.688202857971191,-1.889954686164856,4.842075824737549,2839.595947265625,0
1605.5849999999991,-0.008359692059457302,-0.00616705697029829,-9.968705853680149e-05,0.0,0.0,0.0,0.0,-0.00127376988530159,-0.004993463400751352,0.0027547592762857676,0.9989908337593079,0.0,0.0,0.0,-15.68069076538086,-1.9079934358596802,4.837469577789307,2838.236328125,0
1615.5119999999988,-0.008379454724490643,-0.006125923246145248,-9.451035293750465e-05,0.0,0.0,0.0,0.0,0.0010895677842199802,-0.0033131097443401814,-0.0009289709269069135,0.9999247193336487,0.0,0.0,0.0,-15.675192832946777,-1.8972902297973633,4.8384881019592285,2837.2412109375,0
1625.4099999999999,-0.00843010377138853,-0.006145151797682047,-8.213047112803906e-05,0.0,0.0,0.0,0.0,-0.0013651893241330981,-0.0008406108827330172,0.0005496357916854322,0.9992450475692749,0.0,0.0,0.0,-15.674142837524414,-1.9018001556396484,4.835676193237305,2837.051025390625,0
1635.3269999999993,-0.008414065465331078,-0.006152752321213484,-8.232929394580424e-05,0.0,0.0,0.0,0.0,-0.0008080445695668459,-0.002057566773146391,0.0007682687137275934,0.9987152218818665,0.0,0.0,0.0,-15.66636848449707,-1.8991142511367798,4.843221187591553,2835.64404296875,0
1645.2289999999994,-0.008457341231405735,-0.006152355577796698,-7.357451977441087e-05,0.0,0.0,0.0,0.0,-0.001938686124049127,0.0021351405885070562,-0.001294484711252153,0.9979753494262695,0.0,0.0,0.0,-15.664332389831543,-1.8994008302688599,4.83674955368042,2835.275390625,0
1655.1539999999986,-0.00846659205853939,-0.006098772399127483,-5.5908345530042425e-05,0.0,0.0,0.0,0.0,0.0007127518765628338,0.00308181787841022,0.000636387849226594,0.997824490070343,0.0,0.0,0.0,-15.658182144165039,-1.891169786453247,4.823475360870361,2834.162109375,0
1665.057999999999,-0.008491456508636475,-0.0061112563125789165,-8.390263246838003e-05,0.0,0.0,0.0,0.0,0.0013455215375870466,-0.00040548451943323016,-0.0003539151221048087,0.9988206624984741,0.0,0.0,0.0,-15.656416893005371,-1.889194369316101,4.812725067138672,2833.842529296875,0
1674.9719999999998,-0.008471362292766571,-0.006106914021074772,-7.086747791618109e-05,0.0,0.0,0.0,0.0,0.002239132998511195,0.004657611716538668,0.0005521912826225162,1.001144289970398,0.0,0.0,0.0,-15.667900085449219,-1.8821905851364136,4.818996429443359,2835.9208984375,0
1684.884,-0.008494923822581768,-0.006110599264502525,-9.875154501060024e-05,0.0,0.0,0.0,0.0,0.0004389213863760233,-0.0005772332078777254,-0.0010879681212827563,1.0025385618209839,0.0,0.0,0.0,-15.662879943847656,-1.8910506963729858,4.8074493408203125,2835.01220703125,0
1694.7969999999987,-0.008529079146683216,-0.006063385400921106,-8.671135583426803e-05,0.0,0.0,0.0,0.0,-0.0032161292620003223,-0.0008262509945780039,0.0016716191312298179,1.0015671253204346,0.0,0.0,0.0,-15.672783851623535,-1.889686942100525,4.804347038269043,2836.804931640625,0
1704.6970000000001,-0.00852616224437952,-0.006054896395653486,-0.0001434637961210683,0.0,0.0,0.0,0.0,-0.001084109884686768,0.002294832607731223,-0.003907015081495047,1.0015679597854614,0.0,0.0,0.0,-15.66958999633789,-1.883396029472351,4.810413360595703,2836.226806640625,0
1714.6219999999994,-0.008523314259946346,-0.005997680593281984,-0.00011633347457973287,0.0,0.0,0.0,0.0,-0.0019694038201123476,-0.0027766618877649307,-0.0023708248045295477,1.0012959241867065,0.0,0.0,0.0,-15.662799835205078,-1.8732175827026367,4.805169582366943,2834.997802734375,0
1724.5199999999986,-0.00858103297650814,-0.006034136284142733,-0.00011533161887200549,0.0,0.0,0.0,0.0,-0.0003433182428125292,0.002631398383527994,0.0005030925967730582,0.9978488087654114,0.0,0.0,0.0,-15.660181999206543,-1.8770265579223633,4.806530952453613,2834.524169921875,0
1734.4519999999993,-0.008534127846360207,-0.005982308182865381,-6.550439138663933e-05,0.0,0.0,0.0,0.0,0.0019632643088698387,0.002311266725882888,-0.0017323197098448873,0.9973746538162231,0.0,0.0,0.0,-15.658773422241211,-1.8625116348266602,4.811124324798584,2834.26904296875,0
1744.3439999999991,-0.008527407422661781,-0.005998610984534025,-0.0001373688573949039,0.0,0.0,0.0,0.0,0.0012024258030578494,0.004104957450181246,-0.0007018945179879665,0.9987495541572571,0.0,0.0,0.0,-15.659603118896484,-1.8668997287750244,4.817409038543701,2834.419189453125,0
1754.2649999999994,-0.00851092953234911,-0.005948631092905998,-0.00011116028326796368,0.0,0.0,0.0,0.0,0.0006037334096617997,-0.003832247108221054,-0.001791820744983852,1.0015445947647095,0.0,0.0,0.0,-15.658305168151855,-1.860123872756958,4.8099684715271,2834.1845703125,0
1764.1669999999995,-0.008580864407122135,-0.006010150071233511,-0.00010838652815436944,0.0,0.0,0.0,0.0,0.0027577076107263565,0.001620186842046678,-0.0009244954562745988,1.0004297494888306,0.0,0.0,0.0,-15.658829689025879,-1.872302770614624,4.814199447631836,2834.279296875,0
1774.0869999999995,-0.008560466580092907,-0.005968226585537195,-7.30674946680665e-05,0.0,0.0,0.0,0.0,-0.0018058017594739795,0.0012707404093816876,0.00046110994298942387,0.9981170892715454,0.0,0.0,0.0,-15.666231155395508,-1.8648985624313354,4.816745281219482,2835.618896484375,0
1783.991,-0.008604692295193672,-0.005994286388158798,-8.454017370240763e-05,0.0,0.0,0.0,0.0,-0.0001721393782645464,-0.00010218237002845854,-0.0023260044399648905,0.9982631206512451,0.0,0.0,0.0,-15.663846015930176,-1.868085265159607,4.8129191398620605,2835.187255859375,0
1793.9119999999984,-0.008485251106321812,-0.006058729253709316,-5.5453856475651264e-05,0.0,0.0,0.0,0.0,-0.0035535229835659266,3.76047937606927e-05,0.0009075885755009949,1.0004726648330688,0.0,0.0,0.0,-15.676199913024902,-1.8705991506576538,4.836420059204102,2837.423095703125,0
1803.8099999999995,-0.008534966967999935,-0.0061371843330562115,-8.263262861873955e-05,0.0,0.0,0.0,0.0,0.0032869670540094376,-0.0006637689657509327,-0.0008694900316186249,1.002679467201233,0.0,0.0,0.0,-15.67134952545166,-1.8786782026290894,4.829430103302002,2836.54541015625,0
1813.7279999999992,-0.008497755974531174,-0.006133655551820993,-5.670651080436073e-05,0.0,0.0,0.0,0.0,0.0005844758707098663,-0.003578303148970008,0.0013840607134625316,1.001024603843689,0.0,0.0,0.0,-15.678454399108887,-1.878711223602295,4.8344011306762695,2837.83154296875,0
1823.6350000000002,-0.00852749589830637,-0.006185124162584543,-9.091604442801327e-05,0.0,0.0,0.0,0.0,0.001620766706764698,0.002375587821006775,-0.0011896118521690369,0.9998632073402405,0.0,0.0,0.0,-15.674508094787598,-1.8854376077651978,4.837858200073242,2837.1171875,0
1833.554,-0.008505629375576973,-0.006171119399368763,-6.512334948638454e-05,0.0,0.0,0.0,0.0,0.0005249388050287962,0.0005701530026271939,0.0004388274683151394,1.000016450881958,0.0,0.0,0.0,-15.679409980773926,-1.883804440498352,4.838659763336182,2838.004150390625,0
1843.4529999999995,-0.008551008068025112,-0.006202402990311384,-7.046397513477132e-05,0.0,0.0,0.0,0.0,-0.0006790183251723647,-0.001230817986652255,-0.0016416109865531325,0.9983962774276733,0.0,0.0,0.0,-15.67544937133789,-1.8925880193710327,4.8303375244140625,2837.287353515625,0
1853.3809999999994,-0.008508860133588314,-0.006172643508762121,-2.7140067686559632e-05,0.0,0.0,0.0,0.0,0.0003852666122838855,0.004625741858035326,-0.0025927084498107433,1.001189947128296,0.0,0.0,0.0,-15.685816764831543,-1.8832945823669434,4.837952613830566,2839.1640625,0
1863.2759999999998,-0.008518592454493046,-0.006196262314915657,-7.274847303051502e-05,0.0,0.0,0.0,0.0,0.0008664201013743877,-0.0014725220389664173,0.0039250110276043415,1.0005602836608887,0.0,0.0,0.0,-15.68093490600586,-1.8865066766738892,4.827171802520752,2838.280517578125,0
1873.1979999999985,-0.008555768057703972,-0.006162669509649277,-6.3820589275565e-05,0.0,0.0,0.0,0.0,-0.0006766695878468454,0.003006827784702182,-0.0012106786016374826,0.9991368651390076,0.0,0.0,0.0,-15.691594123840332,-1.8804125785827637,4.8230719566345215,2840.2099609375,0
1883.098,-0.008525393903255463,-0.006110759451985359,-0.00013071262219455093,0.0,0.0,0.0,0.0,-0.0014348255936056376,-0.0016770364018157125,-0.00022757060651201755,0.9990562796592712,0.0,0.0,0.0,-15.6868314743042,-1.8680932521820068,4.82226037979126,2839.347900390625,0
1893.018,-0.00844365544617176,-0.006116257514804602,-0.00010198313975706697,0.0,0.0,0.0,0.0,-0.002347151283174753,-0.003998103551566601,0.0008470626198686659,0.9995236396789551,0.0,0.0,0.0,-15.679515838623047,-1.8645416498184204,4.8381147384643555,2838.0234375,0
1902.92,-0.008417585864663124,-0.006106027867645025,-0.00018378048844169825,0.0,0.0,0.0,0.0,-0.002067822962999344,-0.0021326723508536816,-0.0008905699942260981,0.9999709129333496,0.0,0.0,0.0,-15.675503730773926,-1.855361819267273,4.852156162261963,2837.297119140625,0
1912.8459999999995,-0.00843612290918827,-0.006081245839595795,-0.00019363329920452088,0.0,0.0,0.0,0.0,-0.002263914793729782,0.006101459730416536,-0.0035124358255416155,0.9993120431900024,0.0,0.0,0.0,-15.659689903259277,-1.8475922346115112,4.8544135093688965,2834.43505859375,0
1922.7529999999988,-0.008436503820121288,-0.006103320978581905,-0.0002457769005559385,0.0,0.0,0.0,0.0,-0.0007784671615809202,-0.001909435959532857,0.002935719909146428,0.9978175163269043,0.0,0.0,0.0,-15.655888557434082,-1.8551033735275269,4.851217269897461,2833.746826171875,0
1932.6709999999985,-0.008455059491097927,-0.0060822488740086555,-0.0002605222980491817,0.0,0.0,0.0,0.0,-0.003249517409130931,0.0060622841119766235,-0.0018588179955258965,1.0011096000671387,0.0,0.0,0.0,-15.63911247253418,-1.8535362482070923,4.853382587432861,2830.71044921875,0
1942.5639999999985,-0.008462431840598583,-0.0061035617254674435,-0.0003126361407339573,0.0,0.0,0.0,0.0,0.0018745447741821408,0.0016065245727077127,-0.0036489246413111687,1.000262975692749,0.0,0.0,0.0,-15.638015747070312,-1.8558104038238525,4.838447093963623,2830.511962890625,0
1952.4899999999998,-0.008480038493871689,-0.006083921063691378,-0.00033012719359248877,0.0,0.0,0.0,0.0,-0.00291021098382771,0.0003778709506150335,-0.0022179146762937307,1.0002297163009644,0.0,0.0,0.0,-15.62285327911377,-1.8569869995117188,4.8293609619140625,2827.767578125,0
1962.3909999999996,-0.00850413367152214,-0.006099996622651815,-0.00035354754072614014,0.0,0.0,0.0,0.0,-0.0013256254605948925,-0.0033633674029260874,-0.000829443393740803,0.9990891218185425,0.0,0.0,0.0,-15.62353801727295,-1.8596547842025757,4.827869415283203,2827.891357421875,0
1972.3049999999985,-0.008522283285856247,-0.006081970874220133,-0.00037156790494918823,0.0,0.0,0.0,0.0,0.00041517423233017325,0.0014194374671205878,0.00040466757491230965,1.0006705522537231,0.0,0.0,0.0,-15.608549118041992,-1.8592604398727417,4.837238788604736,2825.1787109375,0
1982.2129999999997,-0.008582614362239838,-0.006079241633415222,-0.00035532788024283946,0.0,0.0,0.0,0.0,0.002369167748838663,-0.00041820923797786236,-0.0027385433204472065,1.0019118785858154,0.0,0.0,0.0,-15.613850593566895,-1.8747646808624268,4.809970378875732,2826.137939453125,0
1992.1309999999994,-0.00860521849244833,-0.006060739979147911,-0.0003687059215735644,0.0,0.0,0.0,0.0,-0.004632199183106422,-0.002651669317856431,0.0030649027321487665,0.9992018938064575,0.0,0.0,0.0,-15.599461555480957,-1.8781465291976929,4.803089618682861,2823.533447265625,0
2002.030999999999,-0.008642010390758514,-0.006122818682342768,-0.00040244797128252685,0.0,0.0,0.0,0.0,0.001086192554794252,-0.001136444159783423,-4.6713572373846546e-05,0.9985016584396362,0.0,0.0,0.0,-15.597658157348633,-1.898719072341919,4.807857036590576,2823.207275390625,0
2011.9579999999987,-0.008669471368193626,-0.006110542453825474,-0.0004175527428742498,0.0,0.0,0.0,0.0,-0.0014549073530361056,0.00013424230564851314,-0.0013845888897776604,0.9990524649620056,0.0,0.0,0.0,-15.582042694091797,-1.8957206010818481,4.800588607788086,2820.380859375,0
2021.8589999999986,-0.008669398725032806,-0.006101919803768396,-0.00045821344247087836,0.0,0.0,0.0,0.0,-0.0016067457618191838,0.0025028614327311516,-0.0024648781400173903,1.000482439994812,0.0,0.0,0.0,-15.585289001464844,-1.8856124877929688,4.808050155639648,2820.96826171875,0
2031.7739999999994,-0.00869672279804945,-0.006087995134294033,-0.00047615234507247806,0.0,0.0,0.0,0.0,-0.0005175892729312181,0.0011541256681084633,-0.003197098383679986,0.9979915022850037,0.0,0.0,0.0,-15.569548606872559,-1.8809658288955688,4.7914862632751465,2818.119384765625,0
2041.6799999999985,-0.008679654449224472,-0.006085892673581839,-0.0005333669250831008,0.0,0.0,0.0,0.0,-0.0016109570860862732,0.0057409233413636684,-0.0008865679264999926,0.9984820485115051,0.0,0.0,0.0,-15.573723793029785,-1.874989628791809,4.803612232208252,2818.875,0
2051.5949999999993,-0.008706513792276382,-0.006070506758987904,-0.0005569797940552235,0.0,0.0,0.0,0.0,0.00523764593526721,0.001169337541796267,-0.003590481588616967,0.9997597932815552,0.0,0.0,0.0,-15.558476448059082,-1.8744653463363647,4.784664154052734,2816.114990234375,0
2061.503999999999,-0.00870994757860899,-0.006072190590202808,-0.0006066213827580214,0.0,0.0,0.0,0.0,-0.002467523328959942,0.0025715986266732216,0.0048138732090592384,1.0002809762954712,0.0,0.0,0.0,-15.563833236694336,-1.8843896389007568,4.7798638343811035,2817.084716796875,0
2071.419,-0.008738210424780846,-0.006055486388504505,-0.0006330109899863601,0.0,0.0,0.0,0.0,0.0023178905248641968,-0.0018936137203127146,-0.00036698856274597347,0.9985969662666321,0.0,0.0,0.0,-15.547727584838867,-1.8770334720611572,4.765106678009033,2814.16943359375,0
2081.3229999999985,-0.008819496259093285,-0.006030240561813116,-0.0006290681194514036,0.0,0.0,0.0,0.0,-0.002677800366654992,0.0028925188817083836,-0.0004758366267196834,0.9991469979286194,0.0,0.0,0.0,-15.555631637573242,-1.8851311206817627,4.749140739440918,2815.60009765625,0
2091.242,-0.008855672553181648,-0.0060103521682322025,-0.0006537336739711463,0.0,0.0,0.0,0.0,-0.00033834995701909065,0.005670340731739998,0.00035676496918313205,1.0015116930007935,0.0,0.0,0.0,-15.540301322937012,-1.8772823810577393,4.739067554473877,2812.8251953125,0
2101.151,-0.008894020691514015,-0.005988589953631163,-0.0006779312388971448,0.0,0.0,0.0,0.0,0.0032736617140471935,-0.0029485218692570925,-0.0004760828160215169,1.0019901990890503,0.0,0.0,0.0,-15.524380683898926,-1.8761955499649048,4.716912746429443,2809.943603515625,0
2111.0689999999995,-0.00893538910895586,-0.005966593977063894,-0.0007006020750850439,0.0,0.0,0.0,0.0,-0.001114294514991343,-0.0011739077745005488,-0.001214749412611127,0.9996039867401123,0.0,0.0,0.0,-15.508523941040039,-1.8769241571426392,4.7179460525512695,2807.073486328125,0
2120.9659999999985,-0.008980181999504566,-0.00594589626416564,-0.0007225451990962029,0.0,0.0,0.0,0.0,0.0008179100113920867,0.0015440689167007804,-0.0014131437055766582,0.9995102882385254,0.0,0.0,0.0,-15.493379592895508,-1.8691959381103516,4.716313362121582,2804.33251953125,0
2130.886999999999,-0.00902717188000679,-0.005925161764025688,-0.0007448066025972366,0.0,0.0,0.0,0.0,-0.0016618551453575492,0.004836877807974815,0.0025799772702157497,0.9990746378898621,0.0,0.0,0.0,-15.478696823120117,-1.8711926937103271,4.708752632141113,2801.6748046875,0
