timestamp,stateEstimate.x,stateEstimate.y,stateEstimate.z,controller.cmd_thrust,controller.cmd_roll,controller.cmd_pitch,controller.cmd_yaw,controller.r_roll,controller.r_pitch,controller.r_yaw,controller.accelz,controller.actuatorThrust,controller.roll,controller.pitch,controller.yaw,controller.rollRate,controller.pitchRate,controller.yawRate,controller.ctr_yaw
0.0,-0.00035162645508535206,-0.0002204214542871341,-0.0003859546559397131,0.0,0.0,0.0,0.0,0.0005673454143106937,0.001972272526472807,0.00033697811886668205,1.000506043434143,0.0,0.0,0.0,0.27311599254608154,1.763501763343811,4.520866394042969,-49.434532165527344,0
9.920000000000073,-0.0003873306850437075,-0.00025226251455023885,-0.00040469650411978364,0.0,0.0,0.0,0.0,-0.0016253143548965454,0.0011068962048739195,0.001599105424247682,0.9998206496238708,0.0,0.0,0.0,0.2715795636177063,1.7578057050704956,4.51281213760376,-49.15644073486328,0
19.83100000000013,-0.000420940516050905,-0.000215983935049735,-0.0004044004890602082,0.0,0.0,0.0,0.0,-0.0006599769694730639,0.00045288499677553773,0.0012502676108852029,0.9991051554679871,0.0,0.0,0.0,0.27207595109939575,1.7604693174362183,4.507057189941406,-49.24628448486328,0
29.747999999999593,-0.00045927788596600294,-0.00024484016466885805,-0.00042230499093420804,0.0,0.0,0.0,0.0,0.0002687817031983286,-0.0002457571972627193,-4.0650505980011076e-05,1.000885248184204,0.0,0.0,0.0,0.2722991108894348,1.7586445808410645,4.49674654006958,-49.28668212890625,0
39.647000000000844,-0.0004908195114694536,-0.00019839921151287854,-0.00042194308480247855,0.0,0.0,0.0,0.0,-0.002777733374387026,0.004236473236232996,-0.004570935852825642,0.9990864992141724,0.0,0.0,0.0,0.28003260493278503,1.7859660387039185,4.497855186462402,-50.686458587646484,0
49.57600000000093,-0.0005315760499797761,-0.00022452900884673,-0.0004390903632156551,0.0,0.0,0.0,0.0,-0.005548947490751743,0.004499394446611404,0.0032671319786459208,0.9999549388885498,0.0,0.0,0.0,0.2792114019393921,1.790673017501831,4.491365432739258,-50.537818908691406,0
59.47099999999955,-0.0005557929980568588,-0.00017999394913204014,-0.0004575774655677378,0.0,0.0,0.0,0.0,0.00040683496627025306,0.0012930367374792695,-0.003356862347573042,0.9994747638702393,0.0,0.0,0.0,0.2895526885986328,1.8190853595733643,4.493216514587402,-52.40961456298828,0
69.39500000000044,-0.000601534266024828,-0.00020281868637539446,-0.00047631587949581444,0.0,0.0,0.0,0.0,0.0018327416619285941,0.001527544460259378,0.001025038305670023,0.9969741106033325,0.0,0.0,0.0,0.28862956166267395,1.8081055879592896,4.4828200340271,-52.242523193359375,0
79.29399999999987,-0.0005944347358308733,-0.00011830659786937758,-0.0005347678670659661,0.0,0.0,0.0,0.0,0.0007427862728945911,-0.0014351238496601582,-0.0008848057477734983,0.9981967210769653,0.0,0.0,0.0,0.2877143621444702,1.8520276546478271,4.504360198974609,-52.076873779296875,0
89.21900000000096,-0.000643368111923337,-0.00013475309242494404,-0.0005604734178632498,0.0,0.0,0.0,0.0,-0.001885692123323679,0.002869720570743084,0.0038884237874299288,1.0018236637115479,0.0,0.0,0.0,0.28708767890930176,1.8511147499084473,4.5067009925842285,-51.963443756103516,0
99.11700000000019,-0.0006231963052414358,-6.88766740495339e-05,-0.0006466567283496261,0.0,0.0,0.0,0.0,0.0010999906808137894,-0.004033281467854977,-0.0006927158101461828,1.0018236637115479,0.0,0.0,0.0,0.2902962565422058,1.884125828742981,4.5245280265808105,-52.5442008972168,0
109.04100000000108,-0.00014039274537935853,-0.00018519576406106353,-0.00017247766663786024,0.0,0.0,0.0,0.0,0.00016152225725818425,0.0030719905626028776,0.002857581013813615,0.9980736970901489,0.0,0.0,0.0,0.2895178496837616,1.8647507429122925,4.629452228546143,-52.40330505371094,0
118.94300000000112,-9.379523544339463e-05,-5.59842046641279e-05,-0.00025151026784442365,0.0,0.0,0.0,0.0,0.0011183536844328046,0.0018067497294396162,-0.00307569676078856,0.9963144063949585,0.0,0.0,0.0,0.2889643609523773,1.8650323152542114,4.618943691253662,-52.30312728881836,0
128.8670000000002,-3.3604068448767066e-05,-3.986883530160412e-05,-0.00020564380974974483,0.0,0.0,0.0,0.0,-0.0026954617351293564,-0.0006362045533023775,-6.767739250790328e-05,1.0003522634506226,0.0,0.0,0.0,0.2878565192222595,1.8609349727630615,4.614505767822266,-52.102603912353516,0
138.76499999999942,-3.349268081365153e-05,-3.9727168768877164e-05,-0.000257876148680225,0.0,0.0,0.0,0.0,0.0033124464098364115,-0.0015817130915820599,0.0033392549958080053,1.0003209114074707,0.0,0.0,0.0,0.2863776683807373,1.8615617752075195,4.6055684089660645,-51.83492660522461,0
148.6900000000005,-5.9324156609363854e-05,-5.0991155148949474e-05,-0.0002734624140430242,0.0,0.0,0.0,0.0,-0.0005092094070278108,0.0042637125588953495,0.00039684298099018633,0.9979082942008972,0.0,0.0,0.0,0.2881273925304413,1.853914737701416,4.6044769287109375,-52.15163040161133,0
158.58899999999994,-6.29341448075138e-05,9.497603969066404e-06,-0.00030893817893229425,0.0,0.0,0.0,0.0,0.0018661272479221225,-0.0037605606485158205,-0.0004358466831035912,0.998267650604248,0.0,0.0,0.0,0.28728270530700684,1.860526204109192,4.602959156036377,-51.998741149902344,0
168.5069999999996,-0.00010444354848004878,1.1348294719937257e-05,-0.00032932934118434787,0.0,0.0,0.0,0.0,0.001553695765323937,0.0006657103658653796,-0.0025408819783478975,0.9992631673812866,0.0,0.0,0.0,0.28714191913604736,1.8554426431655884,4.60651969909668,-51.97325897216797,0
178.41300000000047,-0.00015228564734570682,-1.265646733372705e-05,-0.00033502880251035094,0.0,0.0,0.0,0.0,0.0029238227289170027,0.0010552641469985247,0.004020966123789549,0.999478280544281,0.0,0.0,0.0,0.287899911403656,1.845799446105957,4.5963664054870605,-52.11045455932617,0
188.33699999999953,-0.0001882854849100113,-2.522501745261252e-05,-0.00035519219818525016,0.0,0.0,0.0,0.0,-0.0005052346969023347,0.003479661652818322,-0.003268610453233123,1.000324010848999,0.0,0.0,0.0,0.28868916630744934,1.8412363529205322,4.591606616973877,-52.25331115722656,0
198.2479999999996,-0.00022999860811978579,-2.8799428037018515e-05,-0.000361982878530398,0.0,0.0,0.0,0.0,0.0012145214714109898,0.00016236941155511886,0.00033403505221940577,0.9977192282676697,0.0,0.0,0.0,0.28663548827171326,1.8382337093353271,4.5641865730285645,-51.881591796875,0
208.15799999999945,-0.00026897687348537147,-4.2912550270557404e-05,-0.00038278382271528244,0.0,0.0,0.0,0.0,-0.0028246338479220867,0.0037941387854516506,-0.000998837174847722,0.9962399005889893,0.0,0.0,0.0,0.2866697907447815,1.8334583044052124,4.558385372161865,-51.88780212402344,0
218.06700000000092,-0.0003287408035248518,-9.462088928557932e-05,-0.0003760152612812817,0.0,0.0,0.0,0.0,-0.0007543765823356807,-0.0028755099046975374,0.0049810390919446945,0.9985260367393494,0.0,0.0,0.0,0.28589165210723877,1.835064172744751,4.545344352722168,-51.7469596862793,0
227.98500000000058,-0.0003744677815120667,-0.00011076412192778662,-0.0003987851378042251,0.0,0.0,0.0,0.0,0.001138023566454649,-0.00040979732875712216,-0.0011566025204956532,1.0014623403549194,0.0,0.0,0.0,0.28624778985977173,1.8344939947128296,4.551376819610596,-51.81142044067383,0
237.89099999999962,-0.00042272929567843676,-0.00012376342783682048,-0.0004184984427411109,0.0,0.0,0.0,0.0,-0.0007235417724587023,-0.0019182091346010566,-0.002286549424752593,1.0003646612167358,0.0,0.0,0.0,0.2857474088668823,1.8317348957061768,4.540798664093018,-51.72085189819336,0
247.80199999999968,-0.0004723915481008589,-0.0001439093757653609,-0.00043994825682602823,0.0,0.0,0.0,0.0,0.0012012693332508206,0.0005802750238217413,-0.0027207080274820328,1.0008949041366577,0.0,0.0,0.0,0.28507012128829956,1.8311641216278076,4.537036895751953,-51.59825897216797,0
257.72099999999955,-0.0005042753182351589,-0.00010803898476297036,-0.0005013315239921212,0.0,0.0,0.0,0.0,0.00021374701464083046,-0.0006413438823074102,0.0017192431259900331,0.9993624091148376,0.0,0.0,0.0,0.2903496325016022,1.8419432640075684,4.543437957763672,-52.553855895996094,0
267.64300000000003,-0.00021749833831563592,-0.0001558184449095279,-0.00022162792447488755,0.0,0.0,0.0,0.0,-0.0013766540214419365,0.001926969038322568,0.0020608811173588037,0.9972302913665771,0.0,0.0,0.0,0.2893436849117279,1.8377474546432495,4.611628532409668,-52.37178039550781,0
277.5400000000009,-0.00021264143288135529,-0.00010423435742268339,-0.000270107266260311,0.0,0.0,0.0,0.0,-0.0012548461090773344,0.003060788381844759,0.0012780627002939582,0.9997684359550476,0.0,0.0,0.0,0.2893558740615845,1.8388679027557373,4.600364685058594,-52.37398910522461,0
287.4549999999999,-0.00011734662257367745,-0.00013477177708409727,-0.00021860121341887861,0.0,0.0,0.0,0.0,-0.0005011225584894419,-0.001984714763239026,0.0005756356986239552,0.9987794160842896,0.0,0.0,0.0,0.2900315523147583,1.8375763893127441,4.586612224578857,-52.49628448486328,0
297.3680000000004,-0.0001334176486125216,-0.00011085643927799538,-0.00024426146410405636,0.0,0.0,0.0,0.0,-0.0014134180964902043,-0.0007139230729080737,0.0021485905162990093,0.9987769722938538,0.0,0.0,0.0,0.2893652319908142,1.8388888835906982,4.592168807983398,-52.37567901611328,0
307.28100000000086,-9.035276889335364e-05,-0.0001535121409688145,-0.00023147415777202696,0.0,0.0,0.0,0.0,-2.5747807740117423e-05,0.00026797002647072077,-0.003168304217979312,1.001190185546875,0.0,0.0,0.0,0.29051342606544495,1.8399711847305298,4.578076362609863,-52.58350372314453,0
317.1849999999995,-0.00011987790639977902,-0.0001834359864005819,-0.00026324240025132895,0.0,0.0,0.0,0.0,-0.0019528578268364072,0.0023723538033664227,-0.003173915669322014,0.9994522929191589,0.0,0.0,0.0,0.288962185382843,1.83592689037323,4.572807788848877,-52.30272674560547,0
327.10599999999977,-0.00016353420505765826,-0.00021054103854112327,-0.00027261642389930785,0.0,0.0,0.0,0.0,0.00041881573270075023,0.0018861358985304832,-3.118620588793419e-05,1.0004734992980957,0.0,0.0,0.0,0.28751060366630554,1.837852954864502,4.566890239715576,-52.03999328613281,0
337.02599999999984,-0.00018003926379606128,-0.00015295197954401374,-0.00030134653206914663,0.0,0.0,0.0,0.0,0.0018502740422263741,0.0026131763588637114,-0.004494256339967251,0.9996822476387024,0.0,0.0,0.0,0.2877501845359802,1.8362562656402588,4.565159797668457,-52.08335876464844,0
346.9269999999997,-0.00022778796846978366,-0.00017975598166231066,-0.0003118152089882642,0.0,0.0,0.0,0.0,0.00437995046377182,-0.003270966000854969,-0.0012803729623556137,0.999295175075531,0.0,0.0,0.0,0.28597232699394226,1.8307167291641235,4.5554962158203125,-51.76156234741211,0
356.83200000000033,-0.00023964213323779404,-0.00011734692816389725,-0.0003725848800968379,0.0,0.0,0.0,0.0,0.00047760410234332085,0.0031186635605990887,-0.0036226361989974976,0.9988749623298645,0.0,0.0,0.0,0.2856065034866333,1.824935793876648,4.548525333404541,-51.695343017578125,0
366.7510000000002,-0.000290251657133922,-0.00014352845028042793,-0.00038790280814282596,0.0,0.0,0.0,0.0,0.0008318251348100603,-0.0027395563665777445,0.002306433394551277,0.9989936947822571,0.0,0.0,0.0,0.2851741313934326,1.8216439485549927,4.545597553253174,-51.61708450317383,0
376.6660000000011,-0.0003091120452154428,-8.815382170723751e-05,-0.0004563627880997956,0.0,0.0,0.0,0.0,0.000896368408575654,-0.002408892149105668,0.0005721439956687391,1.0005460977554321,0.0,0.0,0.0,0.28542327880859375,1.8197873830795288,4.544920444488525,-51.66218566894531,0
386.5670000000009,-0.0003600476775318384,-0.00011434255429776385,-0.0004763298493344337,0.0,0.0,0.0,0.0,0.0031532272696495056,-0.001513604074716568,0.0017573870718479156,0.9993790984153748,0.0,0.0,0.0,0.2849707305431366,1.8227087259292603,4.546519756317139,-51.580265045166016,0
396.4840000000004,-0.0003968800010625273,-0.00011753420403692871,-0.0005229844246059656,0.0,0.0,0.0,0.0,0.001932968501932919,-0.0018760502571240067,-0.0005186466150917113,0.997636079788208,0.0,0.0,0.0,0.28576216101646423,1.8198511600494385,4.532665729522705,-51.72351837158203,0
406.3909999999996,-0.0004478343762457371,-0.00014482981350738555,-0.000546500610653311,0.0,0.0,0.0,0.0,0.0031999058555811644,0.0002614221884869039,0.0005981099675409496,0.9983457326889038,0.0,0.0,0.0,0.2852133810520172,1.8178455829620361,4.535155773162842,-51.62419509887695,0
416.3080000000009,-0.0005136194522492588,-0.00014075111539568752,-0.0005368742858991027,0.0,0.0,0.0,0.0,0.0025391685776412487,-0.006446820683777332,0.00012261330266483128,0.999744713306427,0.0,0.0,0.0,0.2854349911212921,1.8110500574111938,4.526576519012451,-51.66429901123047,0
426.21500000000015,-0.0005704762297682464,-0.00016712666547391564,-0.0005603093886747956,0.0,0.0,0.0,0.0,0.0007904016529209912,0.0008746198727749288,-0.0009953015251085162,1.001057744026184,0.0,0.0,0.0,0.2852456271648407,1.8057271242141724,4.534390926361084,-51.630027770996094,0
436.1309999999994,-0.0006256357301026583,-0.00012687494745478034,-0.0005743660731241107,0.0,0.0,0.0,0.0,-0.0031626711133867502,-0.0013273004442453384,0.00142338452860713,1.0004888772964478,0.0,0.0,0.0,0.28477242588996887,1.8031853437423706,4.528014183044434,-51.54437255859375,0
446.03399999999965,-0.0006879803841002285,-0.00014725695655215532,-0.000596174446400255,0.0,0.0,0.0,0.0,-0.00021843440481461585,0.0023347327951341867,-0.0006264856783673167,0.9987069368362427,0.0,0.0,0.0,0.2847723662853241,1.8050411939620972,4.5306596755981445,-51.54436111450195,0
455.95900000000074,-0.0007204952999018133,-5.708493699785322e-05,-0.0006570378318428993,0.0,0.0,0.0,0.0,-0.0017169542843475938,0.0014838774222880602,0.002832015510648489,0.9990144371986389,0.0,0.0,0.0,0.28221577405929565,1.8445713520050049,4.542412757873535,-51.08161544799805,0
465.8590000000004,-0.0007858589524403214,-7.116318738553673e-05,-0.0006832429207861423,0.0,0.0,0.0,0.0,-0.0010376586578786373,-0.0015343738486990333,-0.0018990092212334275,1.0004080533981323,0.0,0.0,0.0,0.28263357281684875,1.8439077138900757,4.538873195648193,-51.15723419189453,0
475.78399999999965,-0.0008101782877929509,5.264993887976743e-06,-0.0007522811647504568,0.0,0.0,0.0,0.0,0.000568781397305429,0.001904534175992012,0.001267803367227316,0.997902512550354,0.0,0.0,0.0,0.27658993005752563,1.876584768295288,4.548372745513916,-50.063323974609375,0
485.6820000000007,-0.0008782397489994764,-1.8448799892212264e-06,-0.0007827156223356724,0.0,0.0,0.0,0.0,0.0027135848067700863,0.006101238075643778,-0.0024111659731715918,1.0004643201828003,0.0,0.0,0.0,0.2776380181312561,1.8705182075500488,4.53677225112915,-50.25303649902344,0
495.6110000000008,-0.0009147545206360519,5.841503298142925e-05,-0.0008406394044868648,0.0,0.0,0.0,0.0,-0.002795902546495199,-0.004567908123135567,0.0003106693329755217,1.0014853477478027,0.0,0.0,0.0,0.2770823538303375,1.8626675605773926,4.530462265014648,-50.1524543762207,0
505.505000000001,-0.00019391860405448824,-0.00014908188313711435,-0.00018394675862509757,0.0,0.0,0.0,0.0,-0.0013668346218764782,-0.0008747943211346865,-0.0007873608847148716,1.0011097192764282,0.0,0.0,0.0,0.2765563130378723,1.836851716041565,4.692936420440674,-50.05724334716797,0
515.4310000000005,-0.00019462739874143153,-9.776603837963194e-05,-0.00022061461640987545,0.0,0.0,0.0,0.0,0.000895769742783159,-0.002961532911285758,0.0021033601369708776,0.9998311400413513,0.0,0.0,0.0,0.27534136176109314,1.8367173671722412,4.690392971038818,-49.83733367919922,0
525.3310000000001,-8.839039946906269e-05,-9.225749818142503e-05,-0.00013251999916974455,0.0,0.0,0.0,0.0,0.0005600552540272474,0.0016563563840463758,-0.004854664672166109,1.000971794128418,0.0,0.0,0.0,0.275407612323761,1.8421521186828613,4.692911148071289,-49.84932327270508,0
535.2510000000002,-0.00012865386088378727,-0.00014643494796473533,-0.0001471342984586954,0.0,0.0,0.0,0.0,-0.00039781603845767677,-0.0015847322065383196,-0.0015177065506577492,1.0018603801727295,0.0,0.0,0.0,0.27358245849609375,1.8369098901748657,4.683603286743164,-49.51897048950195,0
545.1540000000005,-0.00014423680840991437,-0.0001431331766070798,-0.00012623054499272257,0.0,0.0,0.0,0.0,0.0004986555431969464,-0.00033080653520300984,-0.003994787111878395,0.9987066984176636,0.0,0.0,0.0,0.2733354866504669,1.8328105211257935,4.680970668792725,-49.47426986694336,0
555.0770000000011,-0.0001945505355251953,-0.00016194592171814293,-0.00011176568659720942,0.0,0.0,0.0,0.0,0.0009882031008601189,-0.0013868652749806643,0.004660993814468384,1.0007820129394531,0.0,0.0,0.0,0.2719177305698395,1.8304568529129028,4.6792449951171875,-49.217655181884766,0
564.9760000000006,-0.00023903721012175083,-0.0001797627774067223,-0.00010623165144352242,0.0,0.0,0.0,0.0,0.002351036760956049,0.0032044220715761185,-0.0009648576378822327,1.0016928911209106,0.0,0.0,0.0,0.2717999815940857,1.825955867767334,4.671669006347656,-49.19633483886719,0
574.8989999999994,-0.00024760872474871576,-0.00016716030950192362,-0.00015159214672166854,0.0,0.0,0.0,0.0,-0.002173576271161437,0.0009471506928093731,-0.003483453067019582,1.0019564628601074,0.0,0.0,0.0,0.27778923511505127,1.823173999786377,4.667867183685303,-50.2804069519043,0
584.8009999999995,-0.0002932041825260967,-0.00018679589265957475,-0.00014644397015217692,0.0,0.0,0.0,0.0,-0.0010335997212678194,-0.0020968997851014137,0.0015005922177806497,0.9999215602874756,0.0,0.0,0.0,0.2772931158542633,1.823265552520752,4.663543701171875,-50.19060134887695,0
594.7200000000012,-0.0003026589401997626,-0.0001187962043331936,-0.0001929748395923525,0.0,0.0,0.0,0.0,0.0017201242735609412,-0.0006430926732718945,-0.003538907505571842,0.9992814660072327,0.0,0.0,0.0,0.27786800265312195,1.821772813796997,4.667723655700684,-50.29466247558594,0
604.6239999999998,-0.00034909998066723347,-0.00013920094352215528,-0.00019183845142833889,0.0,0.0,0.0,0.0,-0.0006992784910835326,-0.0028195686172693968,0.005283381789922714,0.9988716840744019,0.0,0.0,0.0,0.2761198580265045,1.8227273225784302,4.6641950607299805,-49.97824478149414,0
614.5460000000003,-0.0003520330064930022,-6.484568439191207e-05,-0.0002814051986206323,0.0,0.0,0.0,0.0,0.0005734258447773755,0.0015866085886955261,-8.216925198212266e-05,1.000657558441162,0.0,0.0,0.0,0.2777422070503235,1.8197276592254639,4.665992736816406,-50.27189254760742,0
624.4480000000003,-0.00039889290928840637,-8.55644466355443e-05,-0.00028765396564267576,0.0,0.0,0.0,0.0,0.004453663714230061,-0.0004688678600359708,0.0008790441788733006,1.000762701034546,0.0,0.0,0.0,0.2778208255767822,1.8163503408432007,4.656957626342773,-50.2861213684082,0
634.3780000000006,-0.0004066798137500882,-3.8974962080828846e-05,-0.00038905179826542735,0.0,0.0,0.0,0.0,0.0022190427407622337,0.0007680183043703437,-0.0029288253281265497,1.0012956857681274,0.0,0.0,0.0,0.2769691050052643,1.8066494464874268,4.648721218109131,-50.1319580078125,0
644.273000000001,-0.00016312541265506297,-0.00012254761531949043,-0.00017817801563069224,0.0,0.0,0.0,0.0,-0.0027357451617717743,-0.0023480404634028673,0.00140529521740973,1.0016891956329346,0.0,0.0,0.0,0.27663230895996094,1.7887256145477295,4.706939697265625,-50.07099914550781,0
654.1920000000009,-0.00016672004130668938,-9.063466859515756e-05,-0.000202151044504717,0.0,0.0,0.0,0.0,0.0016452063573524356,-0.0004907315596938133,-0.00017492494953330606,0.9995399117469788,0.0,0.0,0.0,0.27739638090133667,1.7907047271728516,4.707627773284912,-50.209293365478516,0
664.0969999999998,-0.00020165889873169363,-0.00011417325731599703,-0.00020075353677384555,0.0,0.0,0.0,0.0,0.002599686849862337,-0.0033089485950767994,-0.0030975807458162308,0.9996176958084106,0.0,0.0,0.0,0.27755433320999146,1.7910418510437012,4.703805446624756,-50.23788833618164,0
674.0130000000008,-0.00021689568529836833,-9.4210947281681e-05,-0.00022284894657786936,0.0,0.0,0.0,0.0,0.002863665111362934,0.0021302385721355677,0.000853633158840239,0.9988332390785217,0.0,0.0,0.0,0.27766767144203186,1.782518982887268,4.703533172607422,-50.258399963378906,0
683.9189999999999,-0.0001425337395630777,-0.00011423687101341784,-0.00014884279516991228,0.0,0.0,0.0,0.0,-0.0027562850154936314,0.0028135899920016527,0.0005563106387853622,1.0002371072769165,0.0,0.0,0.0,0.2782980501651764,1.7795296907424927,4.69856071472168,-50.372501373291016,0
693.8430000000008,-0.00019702031568158418,-0.0001612542400835082,-0.0001259545242646709,0.0,0.0,0.0,0.0,0.0016069053672254086,0.000777991721406579,0.0007214269717223942,1.0008916854858398,0.0,0.0,0.0,0.28478771448135376,1.7748639583587646,4.687259674072266,-51.54713821411133,0
703.7420000000002,-0.00023438491916749626,-0.0001872123684734106,-0.00012072753452230245,0.0,0.0,0.0,0.0,0.0018682953668758273,0.002352828625589609,0.00296416855417192,1.0002614259719849,0.0,0.0,0.0,0.28449878096580505,1.7681100368499756,4.6774163246154785,-51.49484634399414,0
713.6669999999995,-0.00025813214597292244,-0.00017775548622012138,-0.00012761128891725093,0.0,0.0,0.0,0.0,-0.0015226025134325027,-0.0013869362883269787,-0.005467549432069063,1.0007044076919556,0.0,0.0,0.0,0.29012346267700195,1.769002079963684,4.67753267288208,-52.51292419433594,0
723.5660000000007,-0.00029841484501957893,-0.00020416351617313921,-0.0001221843558596447,0.0,0.0,0.0,0.0,0.0017418900970369577,0.0008692926494404674,-0.006437684874981642,1.0003361701965332,0.0,0.0,0.0,0.28853902220726013,1.7717862129211426,4.669580936431885,-52.22613525390625,0
733.4889999999996,-0.0003207250265404582,-0.0001878128678072244,-0.00014206978084985167,0.0,0.0,0.0,0.0,-0.0001953691680682823,-0.0012992344563826919,3.8268954085651785e-05,0.9991612434387207,0.0,0.0,0.0,0.2868673503398895,1.7633800506591797,4.655962944030762,-51.92355728149414,0
743.3999999999996,-0.00014421792002394795,-0.00020700936147477478,2.887137270590756e-05,0.0,0.0,0.0,0.0,-0.001805556588806212,-0.0005276062292978168,-0.007973697036504745,0.9995052814483643,0.0,0.0,0.0,0.2883501946926117,1.7632583379745483,4.690426349639893,-52.191959381103516,0
753.3070000000007,-0.00010287475015502423,-0.00012944072659593076,-3.100016328971833e-05,0.0,0.0,0.0,0.0,-0.0009070911328308284,0.0013822766486555338,0.0023975297808647156,0.9979938864707947,0.0,0.0,0.0,0.2853258550167084,1.766566514968872,4.691917419433594,-51.64455032348633,0
763.2139999999999,-0.00013351273082662374,-0.00015780427202116698,-2.3535496438853443e-05,0.0,0.0,0.0,0.0,-0.0014236880233511329,0.002569652860984206,-0.003383081639185548,0.9995399713516235,0.0,0.0,0.0,0.2852630317211151,1.7651469707489014,4.686046123504639,-51.6331787109375,0
773.1370000000006,-0.00012199036427773535,-0.0001234158407896757,-7.295439718291163e-05,0.0,0.0,0.0,0.0,0.0009864303283393383,0.0009095410350710154,-0.0038463552482426167,0.9986730813980103,0.0,0.0,0.0,0.2838551104068756,1.7655185461044312,4.67804479598999,-51.37833786010742,0
783.0370000000003,-0.00015354875358752906,-0.00015259310021065176,-7.103401003405452e-05,0.0,0.0,0.0,0.0,-7.2753697168082e-05,-0.0029844234231859446,0.002827232936397195,0.9977518320083618,0.0,0.0,0.0,0.2836400866508484,1.7653067111968994,4.671631336212158,-51.339420318603516,0
792.9529999999995,-0.0001583796984050423,-0.00011432632163632661,-0.0001074868778232485,0.0,0.0,0.0,0.0,0.0006642919615842402,0.00019580214575398713,-0.0006870829965919256,0.9998027086257935,0.0,0.0,0.0,0.28432705998420715,1.763412594795227,4.673336982727051,-51.46376419067383,0
802.8610000000008,-0.00019099636119790375,-0.00014292940613813698,-0.00011052226182073355,0.0,0.0,0.0,0.0,-0.0002706361119635403,0.0019147770944982767,0.0012581944465637207,1.0005310773849487,0.0,0.0,0.0,0.28463369607925415,1.7589794397354126,4.662336826324463,-51.51926803588867,0
812.7860000000001,-0.00019362778402864933,-0.00012060376320732757,-0.0001643415162106976,0.0,0.0,0.0,0.0,-0.00014678861771244556,0.0001225411833729595,-0.00019690883345901966,1.0014666318893433,0.0,0.0,0.0,0.2847759425640106,1.7494325637817383,4.641353607177734,-51.545013427734375,0
822.6880000000001,-0.00014300018665380776,-0.00011278680176474154,-7.521758379880339e-05,0.0,0.0,0.0,0.0,-0.0012915788684040308,-0.0015083663165569305,0.0009514992125332355,1.0004862546920776,0.0,0.0,0.0,0.2855294942855835,1.7467787265777588,4.635329723358154,-51.6814079284668,0
832.6090000000004,-0.0001489095448050648,-0.00014783495862502605,-0.00011603495659073815,0.0,0.0,0.0,0.0,0.0032980807591229677,0.00335096288472414,0.003520797938108444,1.0002686977386475,0.0,0.0,0.0,0.28603142499923706,1.7442408800125122,4.624962329864502,-51.77225875854492,0
842.5079999999998,-0.0001762738247634843,-0.0001773776311893016,-0.00011744911171263084,0.0,0.0,0.0,0.0,0.0028804035391658545,-0.0017723831115290523,-0.003172138473019004,1.0004624128341675,0.0,0.0,0.0,0.2861679792404175,1.7350951433181763,4.612433433532715,-51.796974182128906,0
852.4320000000007,-0.00016780474106781185,-0.00013131876767147332,-0.00015909197099972516,0.0,0.0,0.0,0.0,0.0035628017503768206,-0.000869979674462229,0.004901315551251173,0.9992621541023254,0.0,0.0,0.0,0.28517603874206543,1.726393461227417,4.607912540435791,-51.617431640625,0
862.3369999999995,-0.0001009590778267011,-0.00012669101124629378,-8.107972826110199e-05,0.0,0.0,0.0,0.0,-0.0015854855300858617,-8.863730181474239e-05,-0.003452165750786662,0.9997360706329346,0.0,0.0,0.0,0.28479865193367004,1.7193301916122437,4.605851650238037,-51.54912567138672,0
872.255000000001,-9.607670654077083e-05,-0.00010892150748986751,-0.00011504130816319957,0.0,0.0,0.0,0.0,-9.812564530875534e-05,0.0002420265373075381,0.0009712919709272683,1.0002518892288208,0.0,0.0,0.0,0.28304460644721985,1.7178399562835693,4.602822780609131,-51.23163604736328,0
882.1589999999997,-0.00017920075333677232,-8.363876986550167e-05,-0.00010963172098854557,0.0,0.0,0.0,0.0,-0.0010699247941374779,0.0018815010553225875,0.004805453587323427,0.998212456703186,0.0,0.0,0.0,0.282618910074234,1.7185111045837402,4.5988054275512695,-51.15458297729492,0
892.0770000000011,-0.0001908876874949783,-0.00012900792353320867,-0.0001543136459076777,0.0,0.0,0.0,0.0,-0.0025266793090850115,-0.002497112611308694,-0.002436011331155896,1.0016547441482544,0.0,0.0,0.0,0.2827869951725006,1.7163596153259277,4.589819431304932,-51.18500518798828,0
901.9809999999998,-0.00022497266763821244,-0.00015842686116229743,-0.0001580825337441638,0.0,0.0,0.0,0.0,0.0001936302869580686,0.001340345130302012,-0.002034104196354747,1.0007753372192383,0.0,0.0,0.0,0.28190749883651733,1.718957543373108,4.582278251647949,-51.025814056396484,0
911.9009999999998,-0.0002268730167998001,-0.00016515463357791305,-0.00020592057262547314,0.0,0.0,0.0,0.0,-0.0015170754631981254,0.0011431364109739661,-0.001329062390141189,1.0020980834960938,0.0,0.0,0.0,0.2799312472343445,1.7151904106140137,4.584188461303711,-50.66811752319336,0
921.8040000000001,-0.00026063231052830815,-0.0001961560919880867,-0.00021032936638221145,0.0,0.0,0.0,0.0,-0.0030691230203956366,0.003988984972238541,-0.002507865196093917,0.999113142490387,0.0,0.0,0.0,0.27932316064834595,1.7183465957641602,4.576056003570557,-50.55804443359375,0
931.7219999999998,-0.0002644484047777951,-0.00013720922288484871,-0.0002486662706360221,0.0,0.0,0.0,0.0,-0.0020771007984876633,0.0017979650292545557,-0.0001804893254302442,0.9985678195953369,0.0,0.0,0.0,0.2785971462726593,1.721198558807373,4.570911407470703,-50.4266357421875,0
941.6319999999996,-0.00029807526152580976,-0.00016705863527022302,-0.0002567218034528196,0.0,0.0,0.0,0.0,0.00211756001226604,0.005578963086009026,0.002999552758410573,0.9988216161727905,0.0,0.0,0.0,0.2782801687717438,1.724422812461853,4.562828063964844,-50.3692626953125,0
951.5580000000009,-0.00030472700018435717,-0.0001169252791441977,-0.0003038834547623992,0.0,0.0,0.0,0.0,0.00012028130004182458,-0.004413947928696871,0.0006805793382227421,1.0010074377059937,0.0,0.0,0.0,0.2779839336872101,1.713719129562378,4.541168212890625,-50.31564712524414,0
961.4510000000009,-0.00010035066225100309,-0.00014565445599146187,-0.00011707175144692883,0.0,0.0,0.0,0.0,0.0009279787773266435,-0.0014187551569193602,-0.0011449408484622836,0.9991440176963806,0.0,0.0,0.0,0.2792544960975647,1.7066423892974854,4.60227632522583,-50.545616149902344,0
971.3739999999998,-0.00013484637020155787,-0.00019408969092182815,-0.00010981253581121564,0.0,0.0,0.0,0.0,-0.0011167239863425493,0.0036315505858510733,0.00015258042549248785,0.9983544945716858,0.0,0.0,0.0,0.2791920006275177,1.7046500444412231,4.597346305847168,-50.534305572509766,0
981.2749999999996,-0.00016256142407655716,-0.00022785640612710267,-0.00010992120951414108,0.0,0.0,0.0,0.0,-0.0011209836229681969,0.0016498923068866134,0.002059782389551401,0.9996742010116577,0.0,0.0,0.0,0.27846458554267883,1.702556848526001,4.585595607757568,-50.402645111083984,0
991.2039999999997,-0.00018499314319342375,-0.00024255416064988822,-0.00011280346370767802,0.0,0.0,0.0,0.0,0.0011328525142744184,-0.00046528541133739054,-0.0016020225593820214,0.9998270869255066,0.0,0.0,0.0,0.27846354246139526,1.7041996717453003,4.579054832458496,-50.4024543762207,0
1001.1090000000004,-0.00021710473811253905,-0.0002800658403430134,-0.00011369520507287234,0.0,0.0,0.0,0.0,-0.001351806684397161,-0.0009276019991375506,0.0013099302304908633,1.0012110471725464,0.0,0.0,0.0,0.27829235792160034,1.7004148960113525,4.5841064453125,-50.3714714050293,0
1011.023000000001,-0.0002158873830921948,-0.00020219763973727822,-0.00015106979117263108,0.0,0.0,0.0,0.0,-0.0027211527340114117,-0.0005259623285382986,0.0004562266112770885,0.9990238547325134,0.0,0.0,0.0,0.277777761220932,1.6996605396270752,4.57796049118042,-50.27832794189453,0
1020.9230000000007,-0.00014766620006412268,-0.00019529819837771356,-4.2266045056749135e-05,0.0,0.0,0.0,0.0,-0.002309117466211319,-9.937876893673092e-05,-0.0002850111050065607,0.997881293296814,0.0,0.0,0.0,0.2786666750907898,1.699655532836914,4.57717752456665,-50.4392204284668,0
1030.8459999999995,-0.00012553413398563862,-0.00015356835501734167,-9.427656914340332e-05,0.0,0.0,0.0,0.0,0.0005466985167004168,-0.0020671491511166096,-0.0009352282504551113,0.9995785355567932,0.0,0.0,0.0,0.27821558713912964,1.702783465385437,4.575199604034424,-50.357574462890625,0
1040.7579999999998,-0.00015832908684387803,-0.00018920042202807963,-9.567070082994178e-05,0.0,0.0,0.0,0.0,0.0017919120145961642,-0.00024938411661423743,0.00045977687113918364,0.9999854564666748,0.0,0.0,0.0,0.27729225158691406,1.6964651346206665,4.57388162612915,-50.19044876098633,0
1050.6669999999995,-0.00015979993622750044,-0.0001501934020780027,-0.0001267516490770504,0.0,0.0,0.0,0.0,0.00021150420070625842,-0.0010404023341834545,-0.0022132357116788626,0.998568058013916,0.0,0.0,0.0,0.28284135460853577,1.7124913930892944,4.577002048492432,-51.194847106933594,0
1060.5750000000007,-0.00014040568203199655,-0.00016424777277279645,-8.743072976358235e-05,0.0,0.0,0.0,0.0,0.0008686573710292578,0.0004334032710175961,0.004428718239068985,0.9979659914970398,0.0,0.0,0.0,0.2816985249519348,1.7155970335006714,4.571626663208008,-50.98799514770508,0
1070.4969999999994,-0.00012872490333393216,-0.00012877100380137563,-0.00013459868205245584,0.0,0.0,0.0,0.0,0.0019599178340286016,-0.0007823503692634404,0.002520376117900014,0.9993802905082703,0.0,0.0,0.0,0.28160178661346436,1.7136706113815308,4.566274166107178,-50.97048568725586,0
1080.402,-9.380699339089915e-05,-0.00014479691162705421,-0.00010267613106407225,0.0,0.0,0.0,0.0,-2.8545311579364352e-05,-0.003227491397410631,0.00013821576430927962,1.0000025033950806,0.0,0.0,0.0,0.28188419342041016,1.7121078968048096,4.558719158172607,-51.02159881591797,0
1090.3109999999997,-5.995957326376811e-05,-0.00011072169581893831,-0.00018716890190262347,0.0,0.0,0.0,0.0,0.00020406610565260053,-0.0008140965364873409,0.0038620729465037584,1.0010037422180176,0.0,0.0,0.0,0.28083115816116333,1.702907919883728,4.550197601318359,-50.830997467041016,0
1100.2250000000004,-0.0001274115638807416,-0.00011541506682988256,-0.0001925238611875102,0.0,0.0,0.0,0.0,-0.004501401912420988,0.001936769811436534,0.0012332453625276685,1.00087571144104,0.0,0.0,0.0,0.28070715069770813,1.7003411054611206,4.553802490234375,-50.80854797363281,0
1110.143,-0.00014992992510087788,-0.00011556777462828904,-0.00022329683997668326,0.0,0.0,0.0,0.0,0.0014644698239862919,-0.0009273238247260451,0.0017843736568465829,0.998688280582428,0.0,0.0,0.0,0.27938392758369446,1.7040907144546509,4.541021347045898,-50.56904602050781,0
1120.0519999999997,-0.00019609615264926106,-0.00015685480320826173,-0.00023358449107035995,0.0,0.0,0.0,0.0,-0.0012018398847430944,0.001072362414561212,-0.0021874383091926575,1.0007458925247192,0.0,0.0,0.0,0.27872225642204285,1.6976951360702515,4.525622367858887,-50.44927978515625,0
1129.9580000000005,-0.00021694654424209148,-0.00013822538312524557,-0.00026639222051016986,0.0,0.0,0.0,0.0,0.00028252237825654447,-0.002698131138458848,-0.003834738861769438,1.0004385709762573,0.0,0.0,0.0,0.278403639793396,1.6987611055374146,4.524386405944824,-50.3916130065918,0
1139.871000000001,-0.00026766376686282456,-0.00018128067313227803,-0.00027724081883206964,0.0,0.0,0.0,0.0,0.002529488643631339,0.0010548288701102138,4.928360795020126e-05,1.0003809928894043,0.0,0.0,0.0,0.2769708037376404,1.6935116052627563,4.528997898101807,-50.13226318359375,0
1149.7880000000005,-0.00028940726770088077,-0.00014576318790204823,-0.0003199983621016145,0.0,0.0,0.0,0.0,0.0010342024033889174,-0.001395922270603478,0.0013758274726569653,0.9986564517021179,0.0,0.0,0.0,0.2713906466960907,1.7184487581253052,4.535934925079346,-49.12224578857422,0
1159.6900000000005,-0.00034068082459270954,-0.00018627068493515253,-0.0003337110101711005,0.0,0.0,0.0,0.0,-0.0007260264246724546,-0.0008318989421240985,0.0005037900991737843,0.9991133809089661,0.0,0.0,0.0,0.27128997445106506,1.717026948928833,4.528846740722656,-49.10401916503906,0
1169.607,-0.0003690658195409924,-0.00013670508633367717,-0.0003697195206768811,0.0,0.0,0.0,0.0,-0.0004560735251288861,0.0004996308707632124,0.002388205612078309,1.0017008781433105,0.0,0.0,0.0,0.27128928899765015,1.7199023962020874,4.531298637390137,-49.10390090942383,0
1179.5149999999994,-0.00042230053804814816,-0.00017583448789082468,-0.00038523238617926836,0.0,0.0,0.0,0.0,-0.0018767272122204304,-0.002032771473750472,-0.0036523984745144844,1.0001964569091797,0.0,0.0,0.0,0.2722207009792328,1.7192686796188354,4.531212329864502,-49.272491455078125,0
1189.4390000000003,-0.0004245525342412293,-5.011747271055356e-05,-0.0004509071004576981,0.0,0.0,0.0,0.0,0.0008487789309583604,-0.0007238550460897386,0.001570332795381546,0.9995619058609009,0.0,0.0,0.0,0.27694159746170044,1.770023226737976,4.556380271911621,-50.12697982788086,0
1199.3559999999998,-0.0004758096765726805,-8.058041566982865e-05,-0.00046985544031485915,0.0,0.0,0.0,0.0,8.145522588165477e-05,-0.0029268600046634674,0.001787046086974442,0.9992625713348389,0.0,0.0,0.0,0.2778620719909668,1.7679626941680908,4.548046112060547,-50.29358673095703,0
1209.259,-0.0004480474453885108,3.3461066777817905e-05,-0.0005847763968631625,0.0,0.0,0.0,0.0,-6.098832454881631e-05,0.0016523997765034437,-0.002185213379561901,0.9984041452407837,0.0,0.0,0.0,0.2730916738510132,1.8167152404785156,4.590065956115723,-49.430137634277344,0
1219.1710000000003,-0.0004942234954796731,1.0426641892991029e-05,-0.0006128247478045523,0.0,0.0,0.0,0.0,0.0013151586754247546,-0.0053026131354272366,-0.004229835234582424,0.9995980858802795,0.0,0.0,0.0,0.2727251946926117,1.816806674003601,4.584024429321289,-49.36380386352539,0
1229.0830000000005,-0.0005119988927617669,6.5858184825629e-05,-0.0006674091564491391,0.0,0.0,0.0,0.0,-0.003615758614614606,-0.0018024110468104482,0.00018211761198472232,1.0008423328399658,0.0,0.0,0.0,0.27057820558547974,1.8122938871383667,4.590095520019531,-48.97519302368164,0
1238.996000000001,-0.000561026856303215,4.6295535867102444e-05,-0.0006978567689657211,0.0,0.0,0.0,0.0,-0.002136064227670431,-0.005107393953949213,0.005716310814023018,1.0008326768875122,0.0,0.0,0.0,0.2696588635444641,1.8163901567459106,4.596923828125,-48.80878829956055,0
1248.9009999999998,-0.0005812265444546938,5.544545274460688e-05,-0.0007669372716918588,0.0,0.0,0.0,0.0,0.0009767593583092093,0.00488982442766428,0.002777437213808298,1.000836730003357,0.0,0.0,0.0,0.27020499110221863,1.818518042564392,4.6043500900268555,-48.90764617919922,0
1258.8180000000011,-0.00012617903121281415,-6.215976463863626e-05,-0.00035100782406516373,0.0,0.0,0.0,0.0,0.000588964088819921,-0.003450836753472686,-0.0006545161013491452,0.9998048543930054,0.0,0.0,0.0,0.269549697637558,1.8006350994110107,4.69482421875,-48.78902816772461,0
1268.7289999999994,-0.0001533516769995913,-7.350845407927409e-05,-0.0003495861601550132,0.0,0.0,0.0,0.0,-0.0010759334545582533,0.003854779526591301,-0.003868386149406433,1.000746488571167,0.0,0.0,0.0,0.26898008584976196,1.7970281839370728,4.695666313171387,-48.68592834472656,0
1278.643,-0.00018159633327741176,-9.885103645501658e-05,-0.00035699529689736664,0.0,0.0,0.0,0.0,0.0005916400696150959,-0.0002789490681607276,-0.0008678518352098763,1.0011476278305054,0.0,0.0,0.0,0.2684548795223236,1.7976957559585571,4.679259777069092,-48.59086608886719,0
1288.5439999999999,-0.00017924120766110718,-6.675741315120831e-05,-0.00034523330396041274,0.0,0.0,0.0,0.0,-0.001484454725869,0.0026491661556065083,0.005004224833101034,1.000227689743042,0.0,0.0,0.0,0.2748907208442688,1.8044133186340332,4.679722785949707,-49.755767822265625,0
1298.4619999999995,-0.00012891627557110041,-0.00010047361865872517,-0.00027193615096621215,0.0,0.0,0.0,0.0,0.001518578385002911,0.0005055831861682236,0.0007087813573889434,1.000138282775879,0.0,0.0,0.0,0.2755040228366852,1.7979439496994019,4.6749091148376465,-49.86677169799805,0
1308.3680000000004,-0.00011706463556038216,-7.53350104787387e-05,-0.00028036400908604264,0.0,0.0,0.0,0.0,0.0008383824024349451,-0.00249776104465127,-0.0018068860517814755,0.9999333620071411,0.0,0.0,0.0,0.2755040228366852,1.7979439496994019,4.6749091148376465,-49.86677169799805,0
1318.2890000000007,-5.59910258743912e-05,-9.507905633654445e-05,-0.00021262980590108782,0.0,0.0,0.0,0.0,0.002052870811894536,0.0013141338713467121,-0.0026454851031303406,0.999599814414978,0.0,0.0,0.0,0.275901734828949,1.7952536344528198,4.6707072257995605,-49.93876647949219,0
1328.1910000000007,-4.8914669605437666e-05,-8.374120079679415e-05,-0.0002469394530635327,0.0,0.0,0.0,0.0,0.003682943759486079,0.005530339665710926,-0.0007982626557350159,1.0012617111206055,0.0,0.0,0.0,0.27535280585289,1.7926501035690308,4.664369583129883,-49.83940124511719,0
1338.1149999999998,-7.710121280979365e-05,-0.00011341140634613112,-0.0002444512501824647,0.0,0.0,0.0,0.0,0.0010306194890290499,0.0005753691657446325,0.001665257615968585,0.9997280836105347,0.0,0.0,0.0,0.27430829405784607,1.7814000844955444,4.644750595092773,-49.65034866333008,0
1348.0200000000004,-7.139640365494415e-05,-0.00010629635653458536,-0.0002861030225176364,0.0,0.0,0.0,0.0,-0.0008628405048511922,0.001411685487255454,0.0017010007286444306,0.9977359771728516,0.0,0.0,0.0,0.27396562695503235,1.7750433683395386,4.641328811645508,-49.58832550048828,0
1357.9449999999997,-0.00010035475133918226,-0.00014036484935786575,-0.0002876636863220483,0.0,0.0,0.0,0.0,0.00011011057358700782,0.0015359160024672747,-0.0013534275349229574,1.0004923343658447,0.0,0.0,0.0,0.27375102043151855,1.7710435390472412,4.633502006530762,-49.54948043823242,0
1367.8379999999997,-9.675280307419598e-05,-9.635437891120091e-05,-0.0002824304683599621,0.0,0.0,0.0,0.0,-0.00016373740800190717,-0.0009242217638529837,0.00029828285914845765,1.0004937648773193,0.0,0.0,0.0,0.27375102043151855,1.7710435390472412,4.633502006530762,-49.54948043823242,0
1377.7600000000002,-9.033395326696336e-05,-7.13704721420072e-05,-0.00021660645143128932,0.0,0.0,0.0,0.0,-0.001620287075638771,0.001593833090737462,-0.0007355185807682574,0.9996668696403503,0.0,0.0,0.0,0.2730516195297241,1.7650319337844849,4.626516819000244,-49.42288589477539,0
1387.6650000000009,-0.00012828654143959284,-9.193207370117307e-05,-0.00022249182802625,0.0,0.0,0.0,0.0,0.002386208390817046,0.0077696917578577995,-0.00017374912567902356,1.000684142112732,0.0,0.0,0.0,0.2721317708492279,1.756908655166626,4.606037616729736,-49.25638961791992,0
1397.5930000000008,-0.00012828654143959284,-9.193207370117307e-05,-0.00022249182802625,0.0,0.0,0.0,0.0,6.14243108429946e-05,-0.0010303390445187688,-0.003118242835626006,0.9989027380943298,0.0,0.0,0.0,0.2721317708492279,1.756908655166626,4.606037616729736,-49.25638961791992,0
1407.4889999999996,-0.00014142278814688325,-7.651899795746431e-05,-0.000233174636377953,0.0,0.0,0.0,0.0,0.0026749521493911743,0.003290328895673156,0.0009576610755175352,0.9976985454559326,0.0,0.0,0.0,0.271784245967865,1.7590543031692505,4.585784912109375,-49.19348907470703,0
1417.398000000001,-0.00010483080404810607,-7.572608592454344e-05,-0.00016879639588296413,0.0,0.0,0.0,0.0,-0.0024440379347652197,-0.0011927747400477529,-0.0021383457351475954,0.9984977841377258,0.0,0.0,0.0,0.2711596190929413,1.7564395666122437,4.580414772033691,-49.08042907714844,0
1427.3099999999995,-0.00019378308206796646,-0.00016352927195839584,-0.00014462953549809754,0.0,0.0,0.0,0.0,0.0019215518841519952,0.005058162845671177,0.0011122225550934672,0.9981513619422913,0.0,0.0,0.0,0.2758856415748596,1.7527427673339844,4.568533420562744,-49.93585205078125,0
1437.2219999999998,-0.00019378308206796646,-0.00016352927195839584,-0.00014462953549809754,0.0,0.0,0.0,0.0,0.00011054277274524793,0.006201675161719322,0.0006071464740671217,1.0011212825775146,0.0,0.0,0.0,0.2758856415748596,1.7527427673339844,4.568533420562744,-49.93585205078125,0
1447.134,-0.00021935308177489787,-0.00016304143355228007,-0.00015018461272120476,0.0,0.0,0.0,0.0,-0.0008042879053391516,-0.00010094632307300344,0.00021435742382891476,0.9993266463279724,0.0,0.0,0.0,0.27611014246940613,1.7493515014648438,4.554413795471191,-49.97649002075195,0
1457.0519999999997,-0.00013862672494724393,-0.0001743290777085349,-5.992909427732229e-05,0.0,0.0,0.0,0.0,0.000931612856220454,0.0012863611336797476,0.003006058046594262,0.999171257019043,0.0,0.0,0.0,0.2759459912776947,1.7467855215072632,4.534499168395996,-49.946773529052734,0
1466.9570000000003,-0.00011798631021520123,-0.0001179811151814647,-9.918408613884822e-05,0.0,0.0,0.0,0.0,-0.0021824692375957966,0.0016427666414529085,-0.0001859977055573836,0.9987601637840271,0.0,0.0,0.0,0.274841845035553,1.7505269050598145,4.534094333648682,-49.74692153930664,0
1476.8770000000004,-0.00011596523836487904,-0.00013995188055559993,-7.409671525238082e-05,0.0,0.0,0.0,0.0,0.0021591258700937033,0.00028054972062818706,0.0012549858074635267,0.9972206950187683,0.0,0.0,0.0,0.2742384374141693,1.7412807941436768,4.521636486053467,-49.6377067565918,0
1486.782000000001,-0.0001509243156760931,-0.0001423067005816847,-0.00010953964374493808,0.0,0.0,0.0,0.0,0.0005483942804858088,-0.003494557458907366,0.00036179966991767287,0.9985350370407104,0.0,0.0,0.0,0.2723631262779236,1.7346831560134888,4.506152153015137,-49.29826354980469,0
1496.7039999999997,-0.0001509243156760931,-0.0001423067005816847,-0.00010953964374493808,0.0,0.0,0.0,0.0,-0.0025317161343991756,-0.002384327119216323,-0.003522359300404787,1.0008891820907593,0.0,0.0,0.0,0.2723631262779236,1.7346831560134888,4.506152153015137,-49.29826354980469,0
1506.6049999999996,-0.00019601812527980655,-0.00013604822743218392,-0.00015712986350990832,0.0,0.0,0.0,0.0,0.0007139968802221119,0.0007147709839046001,0.0003559709875844419,0.9997072815895081,0.0,0.0,0.0,0.27124956250190735,1.7431528568267822,4.522737503051758,-49.096710205078125,0
1516.527,-0.00019601812527980655,-0.00013604822743218392,-0.00015712986350990832,0.0,0.0,0.0,0.0,0.003652683226391673,0.006970416288822889,-0.0008592831436544657,1.0021120309829712,0.0,0.0,0.0,0.27124956250190735,1.7431528568267822,4.522737503051758,-49.096710205078125,0
1526.4300000000003,-0.00026423376402817667,-0.00013516208855435252,-0.0002025570283876732,0.0,0.0,0.0,0.0,-0.0031430423259735107,-0.001277338364161551,0.006904228590428829,1.0005518198013306,0.0,0.0,0.0,0.27062052488327026,1.7290458679199219,4.4984235763549805,-48.982852935791016,0
1536.3410000000003,-0.00026423376402817667,-0.00013516208855435252,-0.0002025570283876732,0.0,0.0,0.0,0.0,-0.00188762869220227,0.001473247422836721,0.0014438651269301772,1.0003591775894165,0.0,0.0,0.0,0.27062052488327026,1.7290458679199219,4.4984235763549805,-48.982852935791016,0
1546.2520000000004,-0.0003403133887331933,-0.00012389894982334226,-0.00025424198247492313,0.0,0.0,0.0,0.0,-0.0026137467939406633,0.004353771917521954,0.00043202785309404135,0.9992752075195312,0.0,0.0,0.0,0.27796298265457153,1.7545936107635498,4.514946937561035,-50.31185531616211,0
1556.1640000000007,-0.0003403133887331933,-0.00012389894982334226,-0.00025424198247492313,0.0,0.0,0.0,0.0,0.0009694687905721366,-0.002634077798575163,0.002261020475998521,0.9987085461616516,0.0,0.0,0.0,0.27796298265457153,1.7545936107635498,4.514946937561035,-50.31185531616211,0
1566.08,-0.0004217160167172551,-0.00011223126784898341,-0.00031287019373849034,0.0,0.0,0.0,0.0,-0.0011303595965728164,-0.0032950430177152157,-0.0018894003005698323,0.9960785508155823,0.0,0.0,0.0,0.28518328070640564,1.782920241355896,4.521358966827393,-51.618743896484375,0
1575.987000000001,-0.0004217160167172551,-0.00011223126784898341,-0.00031287019373849034,0.0,0.0,0.0,0.0,0.0032872476149350405,0.0021012919023633003,-0.003636471461504698,0.9969094395637512,0.0,0.0,0.0,0.28518328070640564,1.782920241355896,4.521358966827393,-51.618743896484375,0
1585.8999999999996,-0.000498825334943831,-0.00013666105223819613,-0.00041373216663487256,0.0,0.0,0.0,0.0,0.00332386652007699,-0.0016190123278647661,0.0008428574074059725,0.9990819692611694,0.0,0.0,0.0,0.29035064578056335,1.7904771566390991,4.531651973724365,-52.554046630859375,0
1595.8109999999997,-0.000498825334943831,-0.00013666105223819613,-0.00041373216663487256,0.0,0.0,0.0,0.0,0.000126615195767954,-0.0024275879841297865,-0.00169767951592803,0.9997116923332214,0.0,0.0,0.0,0.29035064578056335,1.7904771566390991,4.531651973724365,-52.554046630859375,0
1605.723,-0.0005163253517821431,-5.508733738679439e-05,-0.00047449805424548686,0.0,0.0,0.0,0.0,-0.00310684647411108,-0.0030920279677957296,0.0009233972523361444,0.9998169541358948,0.0,0.0,0.0,0.29427072405815125,1.826661467552185,4.55487060546875,-53.263587951660156,0
1615.6360000000004,-0.00017504006973467767,-0.0001508062268840149,-0.00015937905118335038,0.0,0.0,0.0,0.0,-0.0031184866093099117,0.0009216697071678936,0.004309286363422871,0.9986678957939148,0.0,0.0,0.0,0.2938695251941681,1.8106129169464111,4.652760028839111,-53.19096755981445,0
1625.5470000000005,-0.0001402052293997258,-8.334714220836759e-05,-0.0002602444146759808,0.0,0.0,0.0,0.0,0.003874469781294465,-0.002800130285322666,0.0006939542945474386,0.9980507493019104,0.0,0.0,0.0,0.2924429476261139,1.8139986991882324,4.653324127197266,-52.93275451660156,0
1635.464,-9.08902584342286e-05,-6.1000788264209405e-05,-0.00020678607688751072,0.0,0.0,0.0,0.0,-0.0008113188087008893,0.002114759525284171,-0.0023476125206798315,0.9996815323829651,0.0,0.0,0.0,0.2870628833770752,1.8260987997055054,4.663119792938232,-51.958953857421875,0
1645.371000000001,-0.0001178054662887007,-6.815604137955233e-05,-0.00029023393290117383,0.0,0.0,0.0,0.0,0.002607990987598896,-0.00012846347817685455,0.0003019470314029604,0.9992541670799255,0.0,0.0,0.0,0.2861649990081787,1.8156721591949463,4.655986309051514,-51.79643249511719,0
1655.282000000001,-0.0001178054662887007,-6.815604137955233e-05,-0.00029023393290117383,0.0,0.0,0.0,0.0,-0.0005353743326850235,-0.0010699216509237885,-0.002038986422121525,1.001307487487793,0.0,0.0,0.0,0.2861649990081787,1.8156721591949463,4.655986309051514,-51.79643249511719,0
1665.1949999999997,-0.0001630214392207563,-2.549780037952587e-05,-0.00034564107772894204,0.0,0.0,0.0,0.0,-0.000799024011939764,0.002670456888154149,0.00064377038506791,1.0002241134643555,0.0,0.0,0.0,0.2859952449798584,1.8116812705993652,4.6603217124938965,-51.76571273803711,0
1675.1110000000008,-0.0001630214392207563,-2.549780037952587e-05,-0.00034564107772894204,0.0,0.0,0.0,0.0,-0.0015519096050411463,-0.0005136457621119916,0.0005086989258415997,0.9989269971847534,0.0,0.0,0.0,0.2859952449798584,1.8116812705993652,4.6603217124938965,-51.76571273803711,0
1685.0220000000008,-0.00023045219131745398,-4.397604789119214e-05,-0.00041129731107503176,0.0,0.0,0.0,0.0,0.002335243159905076,0.0030597213190048933,0.0014245922211557627,0.9996204376220703,0.0,0.0,0.0,0.2851302921772003,1.8098386526107788,4.648064136505127,-51.60914611816406,0
1694.9310000000005,-0.00028661618125624955,-5.739364860346541e-05,-0.0004250274214427918,0.0,0.0,0.0,0.0,0.0016174160409718752,-0.0035173792857676744,-0.0014319559559226036,0.999115526676178,0.0,0.0,0.0,0.28576114773750305,1.8041712045669556,4.639427185058594,-51.72333526611328,0
1704.8420000000006,-0.00028661618125624955,-5.739364860346541e-05,-0.0004250274214427918,0.0,0.0,0.0,0.0,-0.0004414710565470159,0.002552877413108945,-0.005665166303515434,0.9983099699020386,0.0,0.0,0.0,0.28576114773750305,1.8041712045669556,4.639427185058594,-51.72333526611328,0
1714.7600000000002,-0.00038775207940489054,-0.0001155943755293265,-0.0004440818738657981,0.0,0.0,0.0,0.0,0.001043687341734767,0.002341204322874546,0.0006708891014568508,0.9990885257720947,0.0,0.0,0.0,0.2852817475795746,1.7969509363174438,4.6402177810668945,-51.636566162109375,0
1724.666000000001,-0.00038775207940489054,-0.0001155943755293265,-0.0004440818738657981,0.0,0.0,0.0,0.0,0.0021445672027766705,0.002615443430840969,-0.0037641734816133976,0.999194860458374,0.0,0.0,0.0,0.2852817475795746,1.7969509363174438,4.6402177810668945,-51.636566162109375,0
1734.5789999999997,-0.0004944551619701087,-0.0001437982718925923,-0.0004615279904101044,0.0,0.0,0.0,0.0,-0.0006977519951760769,0.002779999515041709,-0.0023280163295567036,1.0007084608078003,0.0,0.0,0.0,0.28344130516052246,1.7906166315078735,4.622683048248291,-51.30344009399414,0
1744.4899999999998,-0.0004944551619701087,-0.0001437982718925923,-0.0004615279904101044,0.0,0.0,0.0,0.0,-0.00044814476859755814,-0.0029940807726234198,-0.001351545681245625,0.9972334504127502,0.0,0.0,0.0,0.28344130516052246,1.7906166315078735,4.622683048248291,-51.30344009399414,0
1754.402,-0.0005900343530811369,-0.00014372286386787891,-0.0005173457320779562,0.0,0.0,0.0,0.0,0.0002702648052945733,0.0018351709004491568,0.004011884331703186,0.998877227306366,0.0,0.0,0.0,0.28202739357948303,1.7833430767059326,4.617173194885254,-51.04751968383789,0
1764.3140000000003,-0.0005900343530811369,-0.00014372286386787891,-0.0005173457320779562,0.0,0.0,0.0,0.0,0.000716940441634506,-0.001221583574078977,-0.0011483574053272605,0.9995355010032654,0.0,0.0,0.0,0.28202739357948303,1.7833430767059326,4.617173194885254,-51.04751968383789,0
1774.2270000000008,-0.0006890255026519299,-0.0001321269228355959,-0.0005751672433689237,0.0,0.0,0.0,0.0,-0.0010437690652906895,-0.0027598191518336535,0.0019885620567947626,0.9996801018714905,0.0,0.0,0.0,0.287850558757782,1.79880952835083,4.624074935913086,-52.10152816772461,0
1784.1370000000006,-0.0006890255026519299,-0.0001321269228355959,-0.0005751672433689237,0.0,0.0,0.0,0.0,0.0006883153691887856,-0.0010531629668548703,-0.001788071938790381,0.99955153465271,0.0,0.0,0.0,0.287850558757782,1.79880952835083,4.624074935913086,-52.10152816772461,0
1794.050000000001,-0.0007623162236995995,-8.943449938669801e-05,-0.0006882536108605564,0.0,0.0,0.0,0.0,-0.004526976030319929,-0.002502530114725232,-0.0010161680402234197,1.0000656843185425,0.0,0.0,0.0,0.28848421573638916,1.7949376106262207,4.625400066375732,-52.21621322631836,0
1803.9650000000001,-0.00018718939099926502,-0.0002035855723079294,-0.00011815011384896934,0.0,0.0,0.0,0.0,0.0008899588137865067,0.003805492538958788,0.00035452962038107216,0.9991544485092163,0.0,0.0,0.0,0.2885746359825134,1.7862344980239868,4.762054920196533,-52.232582092285156,0
1813.8739999999998,-0.00013762430171482265,-0.00011163380258949474,-0.00021795752400066704,0.0,0.0,0.0,0.0,-0.0018570824759081006,-0.003590766806155443,0.0015866177855059505,1.0000320672988892,0.0,0.0,0.0,0.2883729934692383,1.7796518802642822,4.74949836730957,-52.19608688354492,0
1823.7890000000007,-0.00013762430171482265,-0.00011163380258949474,-0.00021795752400066704,0.0,0.0,0.0,0.0,-0.001326526515185833,0.00010727180051617324,0.0022613846231251955,1.0002875328063965,0.0,0.0,0.0,0.2883729934692383,1.7796518802642822,4.74949836730957,-52.19608688354492,0
1833.6970000000001,-0.00012772010813932866,-3.2766540243756026e-05,-0.00027180154575034976,0.0,0.0,0.0,0.0,0.001826729392632842,-0.0007662504795007408,-0.0027740548830479383,0.9997371435165405,0.0,0.0,0.0,0.2818782925605774,1.8005750179290771,4.759486198425293,-51.020530700683594,0
1843.612000000001,-2.676053009054158e-05,-4.505479955696501e-05,-0.00019321439322084188,0.0,0.0,0.0,0.0,0.0024548147339373827,0.004365482367575169,0.002529216231778264,1.0011909008026123,0.0,0.0,0.0,0.28034767508506775,1.7972420454025269,4.754247665405273,-50.74348831176758,0
1853.5249999999996,-2.1638474208884872e-05,-4.882139546680264e-05,-0.00024359971575904638,0.0,0.0,0.0,0.0,0.0025137432385236025,-0.0023894254118204117,-0.0013253508368507028,1.001171350479126,0.0,0.0,0.0,0.27939343452453613,1.7984122037887573,4.746574401855469,-50.57076644897461,0
1863.4359999999997,2.4733097234275192e-05,-7.537295459769666e-05,-0.0002259766770293936,0.0,0.0,0.0,0.0,-0.003140203421935439,0.0003419663698878139,0.0018057429697364569,0.9994246959686279,0.0,0.0,0.0,0.27926313877105713,1.7906566858291626,4.740602493286133,-50.54718017578125,0
1873.348,-6.436398507503327e-06,-9.275589400203899e-05,-0.0002226791693829,0.0,0.0,0.0,0.0,8.600226465205196e-06,-0.0055423760786652565,0.0024951354134827852,0.9992956519126892,0.0,0.0,0.0,0.2781405746936798,1.7892125844955444,4.733641147613525,-50.343997955322266,0
1883.2600000000002,-3.4203014365630224e-05,-0.00011791361612267792,-0.00022746322792954743,0.0,0.0,0.0,0.0,-0.0026689532678574324,0.004126050043851137,-0.0019921676721423864,0.9987696409225464,0.0,0.0,0.0,0.27867236733436584,1.7874456644058228,4.741508960723877,-50.44025421142578,0
1893.1679999999997,-5.5141419579740614e-05,-0.00010632470366545022,-0.00023429328575730324,0.0,0.0,0.0,0.0,-0.0011478785891085863,-0.0029892779421061277,0.0014292254345491529,1.0018423795700073,0.0,0.0,0.0,0.27806350588798523,1.787254810333252,4.736276149749756,-50.33005142211914,0
1903.0820000000003,-8.811509178485721e-05,-0.00013200008834246546,-0.00024058774579316378,0.0,0.0,0.0,0.0,0.0010499354684725404,-0.0012041718000546098,0.0011382290394976735,1.0021806955337524,0.0,0.0,0.0,0.27684664726257324,1.7945724725723267,4.732653617858887,-50.10979461669922,0
1912.9920000000002,-0.00011801011714851484,-0.00010895480954786763,-0.00024195337027776986,0.0,0.0,0.0,0.0,-0.0016100694192573428,0.0010901391506195068,-0.0006848203483968973,0.9987960457801819,0.0,0.0,0.0,0.27691543102264404,1.7901655435562134,4.727820873260498,-50.12223815917969,0
1922.9040000000005,-0.0001534449402242899,-0.0001343852054560557,-0.0002452748012728989,0.0,0.0,0.0,0.0,0.0030756364576518536,-0.0023436094634234905,-0.00013827014481648803,0.9977495074272156,0.0,0.0,0.0,0.27687978744506836,1.7841522693634033,4.72902774810791,-50.115787506103516,0
1932.8150000000005,-0.00018254034512210637,-0.00010234700312139466,-0.0002497166278772056,0.0,0.0,0.0,0.0,-0.0029262485913932323,0.0022595515474677086,-0.0004805078497156501,0.9982256889343262,0.0,0.0,0.0,0.2763419449329376,1.7786096334457397,4.720650672912598,-50.01844024658203,0
1942.7299999999996,-0.00021636209567077458,-0.00012744343257509172,-0.000255401071626693,0.0,0.0,0.0,0.0,0.0012940348824486136,0.0005400674417614937,0.005199600011110306,0.9982589483261108,0.0,0.0,0.0,0.2774229049682617,1.7742797136306763,4.712413311004639,-50.21409225463867,0
1952.6419999999998,-0.00024020489945542067,-0.00013385139754973352,-0.0002841345267370343,0.0,0.0,0.0,0.0,-6.486720667453483e-05,0.0032691655214875937,-0.0012472301023080945,0.9995893836021423,0.0,0.0,0.0,0.27787351608276367,1.7724974155426025,4.701243877410889,-50.295658111572266,0
1962.5570000000007,-0.00027357018552720547,-0.000159676797920838,-0.00029418175108730793,0.0,0.0,0.0,0.0,0.00029504208941943944,-0.0011818648781627417,-0.0034359253477305174,1.0010584592819214,0.0,0.0,0.0,0.2774120569229126,1.7720696926116943,4.6787638664245605,-50.21213150024414,0
1972.4670000000006,-0.0002855965867638588,-0.00010440510232001543,-0.0003435899270698428,0.0,0.0,0.0,0.0,4.5755306928185746e-05,-0.0030737631022930145,-0.003416338935494423,1.000975489616394,0.0,0.0,0.0,0.2761272192001343,1.772093653678894,4.671271800994873,-49.979576110839844,0
1982.375,-0.0003200967039447278,-0.00012840724957641214,-0.0003567635139916092,0.0,0.0,0.0,0.0,-0.0002495142398402095,-0.0006829877384006977,-0.0001180332837975584,1.0007606744766235,0.0,0.0,0.0,0.2740918695926666,1.7699962854385376,4.667963981628418,-49.611175537109375,0
1992.291000000001,-0.0003207704285159707,-6.252765888348222e-05,-0.00043002600432373583,0.0,0.0,0.0,0.0,-0.0006445742328651249,-0.00036088761407881975,0.001486375229433179,0.9990360140800476,0.0,0.0,0.0,0.27230218052864075,1.7638778686523438,4.663417816162109,-49.287235260009766,0
2002.1990000000005,-9.009714995045215e-05,-0.00011641886521829292,-0.0001982844405574724,0.0,0.0,0.0,0.0,6.757256051059812e-05,-0.0009939910378307104,-0.001212186529301107,0.9990423917770386,0.0,0.0,0.0,0.27301764488220215,1.7593591213226318,4.7265214920043945,-49.41674041748047,0
2012.1170000000002,-0.00010194190690526739,-0.00013445915828924626,-0.00022034329595044255,0.0,0.0,0.0,0.0,0.0045654550194740295,-0.0033164448104798794,0.0005524567677639425,0.9991580843925476,0.0,0.0,0.0,0.27922698855400085,1.7559901475906372,4.733826637268066,-50.54064178466797,0
2022.0259999999998,-0.00012511613022070378,-0.00015713469474576414,-0.00022560363868251443,0.0,0.0,0.0,0.0,0.001099357265047729,0.0023040310479700565,0.0029039315413683653,0.99895179271698,0.0,0.0,0.0,0.2794921398162842,1.7541468143463135,4.722135543823242,-50.5886344909668,0
2031.9349999999995,-0.0001279069110751152,-0.00011511197226354852,-0.000247593765379861,0.0,0.0,0.0,0.0,-0.0030868069734424353,0.00039688151446171105,-0.002166700316593051,0.9998592138290405,0.0,0.0,0.0,0.27975699305534363,1.7433428764343262,4.710634708404541,-50.63657760620117,0
2041.8490000000002,-0.00015342845290433615,-0.00013688892067875713,-0.0002557615516707301,0.0,0.0,0.0,0.0,0.0016758297570049763,0.003056905698031187,2.3047008653520606e-05,1.0009113550186157,0.0,0.0,0.0,0.27895137667655945,1.7410794496536255,4.7097296714782715,-50.490753173828125,0
2051.7649999999994,-0.00017308606766164303,-0.00015599587641190737,-0.00028135726461187005,0.0,0.0,0.0,0.0,0.0005660500028170645,0.0023326571099460125,-0.0033581163734197617,1.001517415046692,0.0,0.0,0.0,0.27823612093925476,1.739190697669983,4.700012683868408,-50.36129379272461,0
2061.6720000000005,-0.0002017011574935168,-0.00017902125546243042,-0.00028972362633794546,0.0,0.0,0.0,0.0,0.0006978273740969598,-0.002875714562833309,-0.0017292872071266174,0.9998953938484192,0.0,0.0,0.0,0.2771967649459839,1.7364554405212402,4.690328598022461,-50.17316436767578,0
2071.5869999999995,-0.0002008936135098338,-0.000111610337626189,-0.00035609997576102614,0.0,0.0,0.0,0.0,0.0011997667606920004,-0.00242093694396317,-0.002577301347628236,0.9983795881271362,0.0,0.0,0.0,0.27628734707832336,1.7402992248535156,4.6815690994262695,-50.0085563659668,0
2081.4930000000004,-0.00023014370526652783,-0.00013233782374300063,-0.00036800114321522415,0.0,0.0,0.0,0.0,0.00021369008754845709,-0.0036548320204019547,-0.0017874608747661114,0.9991334080696106,0.0,0.0,0.0,0.27589109539985657,1.731511116027832,4.681788444519043,-49.93683624267578,0
2091.4130000000005,-0.0002526962198317051,-7.540337537648156e-05,-0.000380752986529842,0.0,0.0,0.0,0.0,0.003007073886692524,-0.0009115446009673178,-0.002370051573961973,0.998607873916626,0.0,0.0,0.0,0.27522051334381104,1.726382851600647,4.678708076477051,-49.81545639038086,0
2101.321,-0.00028340567951090634,-9.190374839818105e-05,-0.0003948109515476972,0.0,0.0,0.0,0.0,0.00021550395467784256,0.0031740269623696804,-0.004116918426007032,0.9985224008560181,0.0,0.0,0.0,0.27365642786026,1.7293580770492554,4.6799821853637695,-49.532352447509766,0
