timestamp,stateEstimate.x,stateEstimate.y,stateEstimate.z,controller.cmd_thrust,controller.cmd_roll,controller.cmd_pitch,controller.cmd_yaw,controller.r_roll,controller.r_pitch,controller.r_yaw,controller.accelz,controller.actuatorThrust,controller.roll,controller.pitch,controller.yaw,controller.rollRate,controller.pitchRate,controller.yawRate,controller.ctr_yaw
0.0,0.06437825411558151,0.031742196530103683,0.0010274006053805351,0.0,0.0,0.0,0.0,-0.001316033536568284,-0.000991047010757029,-0.0021544741466641426,0.9984982013702393,0.0,0.0,0.0,42.1432991027832,0.6181275844573975,5.45287561416626,-7628.02099609375,0
9.90900000000147,0.06438839435577393,0.031693510711193085,0.0010273116640746593,0.0,0.0,0.0,0.0,0.0001403267087880522,-0.005638374947011471,-0.0015939088771119714,1.0001028776168823,0.0,0.0,0.0,42.10166549682617,0.6220237612724304,5.440567493438721,-7620.48486328125,0
19.83300000000054,0.06440302729606628,0.031724005937576294,0.0010476061142981052,0.0,0.0,0.0,0.0,-0.00030464839073829353,0.002669556299224496,-0.0027272170409560204,0.9982895851135254,0.0,0.0,0.0,42.099082946777344,0.6381829977035522,5.468166828155518,-7620.01806640625,0
29.73199999999997,0.0644102469086647,0.03168283402919769,0.0010475455783307552,0.0,0.0,0.0,0.0,0.000637498393189162,0.002253019018098712,0.003748718649148941,0.9997916221618652,0.0,0.0,0.0,42.0565299987793,0.6389660239219666,5.466922283172607,-7612.3154296875,0
39.65400000000045,0.06442540138959885,0.03172573074698448,0.001071482663974166,0.0,0.0,0.0,0.0,0.000660426274407655,-0.0017997388495132327,0.0006094519048929214,0.9995611906051636,0.0,0.0,0.0,42.0685920715332,0.6618916988372803,5.481490135192871,-7614.49853515625,0
49.556000000000495,0.06443136930465698,0.03169175609946251,0.0010717712575569749,0.0,0.0,0.0,0.0,0.0008301792549900711,-0.001719186082482338,-0.0009511855314485729,1.0017004013061523,0.0,0.0,0.0,42.02912521362305,0.6585595607757568,5.476975440979004,-7607.35546875,0
59.475000000000364,0.06444767117500305,0.03172150254249573,0.001089770346879959,0.0,0.0,0.0,0.0,-0.0031612736638635397,0.0033004365395754576,-0.0026153018698096275,0.9991711974143982,0.0,0.0,0.0,42.029640197753906,0.6729179620742798,5.4983015060424805,-7607.4482421875,0
69.38300000000163,0.06445164978504181,0.03169042989611626,0.0010919850319623947,0.0,0.0,0.0,0.0,-0.0005227950750850141,-0.0008167887572199106,0.0004275039245840162,0.9977557063102722,0.0,0.0,0.0,41.98942947387695,0.6784186959266663,5.498974323272705,-7600.169921875,0
79.3020000000015,0.06446138024330139,0.031687039881944656,0.0011013699695467949,0.0,0.0,0.0,0.0,0.0004942773375660181,-0.0020093475468456745,-0.0007343014003708959,0.9973536729812622,0.0,0.0,0.0,42.005680084228516,0.6778572201728821,5.49331521987915,-7603.11181640625,0
89.20100000000093,0.06445987522602081,0.03165464475750923,0.0011021007085219026,0.0,0.0,0.0,0.0,0.0019855881109833717,0.0033155323471874,-0.005120301153510809,0.9997373819351196,0.0,0.0,0.0,41.96531677246094,0.6770462393760681,5.489785671234131,-7595.80615234375,0
99.1260000000002,0.06444059312343597,0.0316784642636776,0.001134062884375453,0.0,0.0,0.0,0.0,-0.00022589050058741122,-0.0010799134615808725,-0.0009389822953380644,1.0010415315628052,0.0,0.0,0.0,41.9819221496582,0.6875255703926086,5.494227886199951,-7598.81201171875,0
109.02400000000125,0.06443408876657486,0.03164830431342125,0.0011348417028784752,0.0,0.0,0.0,0.0,-0.0026274521369487047,-0.0021655221935361624,-0.0008276995504274964,1.000674843788147,0.0,0.0,0.0,41.939937591552734,0.687291145324707,5.482307434082031,-7591.21240234375,0
118.95000000000073,0.06442773342132568,0.03161809965968132,0.0011364396195858717,0.0,0.0,0.0,0.0,-0.0014331104466691613,0.0020286100916564465,0.0029261657036840916,0.9995420575141907,0.0,0.0,0.0,41.898536682128906,0.6973302364349365,5.478904724121094,-7583.71875,0
128.85100000000057,0.0644216388463974,0.031587403267621994,0.0011387788690626621,0.0,0.0,0.0,0.0,0.0010129270376637578,-0.003944576717913151,0.00035367143573239446,0.9996779561042786,0.0,0.0,0.0,41.85786437988281,0.6968427896499634,5.478456020355225,-7576.3564453125,0
138.77100000000064,0.06422536075115204,0.03173406049609184,0.0011217697756364942,0.0,0.0,0.0,0.0,-0.0007566679269075394,0.007688887417316437,-0.0018985705683007836,0.9992900490760803,0.0,0.0,0.0,41.9039421081543,0.7401148080825806,5.484236240386963,-7584.697265625,0
148.66800000000148,0.06421437114477158,0.0317101888358593,0.0011252767872065306,0.0,0.0,0.0,0.0,-0.0003325114375911653,-0.005899117793887854,0.002020130632445216,1.0008368492126465,0.0,0.0,0.0,41.86331558227539,0.7393759489059448,5.475223064422607,-7577.3427734375,0
158.59500000000116,0.06420113146305084,0.031743671745061874,0.0011983455624431372,0.0,0.0,0.0,0.0,-0.002526898169890046,-0.000640724552795291,-4.991658443032065e-06,0.997212827205658,0.0,0.0,0.0,41.907405853271484,0.7369310855865479,5.477043151855469,-7585.32373046875,0
168.49099999999999,0.06419175118207932,0.031720973551273346,0.0012056687846779823,0.0,0.0,0.0,0.0,-0.00029695508419536054,-0.0015810762997716665,0.0008593067177571356,0.9972237348556519,0.0,0.0,0.0,41.86780548095703,0.7402853965759277,5.475399017333984,-7578.15625,0
178.41800000000148,0.06414597481489182,0.03171222656965256,0.0012250719591975212,0.0,0.0,0.0,0.0,-0.0001360127207590267,-0.00012642702495213598,-0.001925468211993575,0.9986950755119324,0.0,0.0,0.0,41.91539764404297,0.7386548519134521,5.478541851043701,-7586.77001953125,0
188.3140000000003,0.06413624435663223,0.031689394265413284,0.0012290786253288388,0.0,0.0,0.0,0.0,-0.000440484844148159,-0.0014186184853315353,-0.003223052015528083,0.9981166124343872,0.0,0.0,0.0,41.87397003173828,0.73943030834198,5.480931758880615,-7579.27197265625,0
198.23500000000058,0.06417275965213776,0.03170221671462059,0.0012674464378505945,0.0,0.0,0.0,0.0,0.0021015452221035957,-0.00112550996709615,0.001449624658562243,1.000106930732727,0.0,0.0,0.0,41.91840362548828,0.7308126091957092,5.498447418212891,-7587.314453125,0
208.13800000000083,0.06416468322277069,0.03167877346277237,0.0012716276105493307,0.0,0.0,0.0,0.0,0.0009970985120162368,-0.002105401363223791,0.0008964045555330813,0.9999318718910217,0.0,0.0,0.0,41.87851333618164,0.7282475829124451,5.493984699249268,-7580.09423828125,0
218.0590000000011,0.06418592482805252,0.0316854789853096,0.0013040456688031554,0.0,0.0,0.0,0.0,-0.002554117701947689,-0.0004849738033954054,0.0035892233718186617,0.9981744885444641,0.0,0.0,0.0,41.92667770385742,0.7148230075836182,5.511062145233154,-7588.81201171875,0
227.95900000000074,0.06417563557624817,0.03166162967681885,0.0013105184771120548,0.0,0.0,0.0,0.0,0.00018077089043799788,0.002253372687846422,0.003553058486431837,0.9983679056167603,0.0,0.0,0.0,41.88624572753906,0.7156572937965393,5.508774757385254,-7581.49365234375,0
237.88500000000022,0.0641179084777832,0.03167828544974327,0.0013430954422801733,0.0,0.0,0.0,0.0,0.0016418136656284332,-0.0005247776280157268,0.0026731411926448345,0.9985917806625366,0.0,0.0,0.0,41.932865142822266,0.7172263860702515,5.511793613433838,-7589.93212890625,0
247.78900000000067,0.0641041100025177,0.0316583625972271,0.0013498699991032481,0.0,0.0,0.0,0.0,0.0012957904255017638,-0.003383644623681903,-0.0002707239182200283,0.9995720386505127,0.0,0.0,0.0,41.892791748046875,0.7154542803764343,5.509504795074463,-7582.6787109375,0
257.70100000000093,0.06414751708507538,0.03166668117046356,0.0013875995064154267,0.0,0.0,0.0,0.0,-0.002606373280286789,0.004747325088828802,-0.0008617861312814057,0.9998213052749634,0.0,0.0,0.0,41.93944549560547,0.7093117237091064,5.51930046081543,-7591.12353515625,0
267.6050000000014,0.06413402408361435,0.03164759278297424,0.0013959396164864302,0.0,0.0,0.0,0.0,0.0031620950903743505,0.0007568987784907222,0.002890794537961483,1.000082015991211,0.0,0.0,0.0,41.89799499511719,0.7125773429870605,5.520815849304199,-7583.62060546875,0
277.52900000000045,0.06410117447376251,0.031677406281232834,0.0014373523881658912,0.0,0.0,0.0,0.0,-0.0005361880175769329,-0.005280618090182543,0.0023194155655801296,0.9994313716888428,0.0,0.0,0.0,41.94059371948242,0.712682843208313,5.533373832702637,-7591.33056640625,0
287.4290000000001,0.06406322121620178,0.0316498838365078,0.0014608941273763776,0.0,0.0,0.0,0.0,0.0032026846893131733,-0.0026880840305238962,-0.00038373234565369785,0.9990870356559753,0.0,0.0,0.0,41.86024475097656,0.7186936736106873,5.532162189483643,-7576.78759765625,0
297.34500000000116,0.06407765299081802,0.031679537147283554,0.0014792419970035553,0.0,0.0,0.0,0.0,-0.0013235717779025435,-0.0010312504600733519,-0.0008396486518904567,0.9991213083267212,0.0,0.0,0.0,41.9431266784668,0.7149906158447266,5.550529479980469,-7591.78955078125,0
307.25,0.0640362948179245,0.03165563568472862,0.0015049329958856106,0.0,0.0,0.0,0.0,0.00022779146092943847,-0.004480045288801193,-0.0020894191693514585,0.999405562877655,0.0,0.0,0.0,41.86091995239258,0.7187281847000122,5.5555100440979,-7576.90966796875,0
317.1700000000001,0.0640699714422226,0.031662553548812866,0.0015161344781517982,0.0,0.0,0.0,0.0,-0.0024802081752568483,0.0020147652830928564,0.0007580872043035924,0.9980339407920837,0.0,0.0,0.0,41.95316696166992,0.7032139301300049,5.569904804229736,-7593.6064453125,0
327.08100000000013,0.06405971199274063,0.03163456916809082,0.0015453952364623547,0.0,0.0,0.0,0.0,0.0006214258610270917,-0.0015892860246822238,0.0012941340683028102,0.9985975623130798,0.0,0.0,0.0,41.959285736083984,0.6907762289047241,5.566771984100342,-7594.71484375,0
337.0040000000008,0.0641813576221466,0.031847842037677765,0.001152507495135069,0.0,0.0,0.0,0.0,-0.00043352291686460376,-0.0007715472020208836,0.0008877478539943695,1.0007238388061523,0.0,0.0,0.0,42.02058792114258,0.7029728889465332,5.608279228210449,-7605.81005859375,0
346.89600000000064,0.06416908651590347,0.03181791305541992,0.0011566041503101587,0.0,0.0,0.0,0.0,-0.0013029740657657385,0.003339363494887948,0.0004982607788406312,1.0017967224121094,0.0,0.0,0.0,42.05789566040039,0.6851828694343567,5.604743480682373,-7612.5625,0
356.8230000000003,0.06420860439538956,0.031882159411907196,0.0010580656817182899,0.0,0.0,0.0,0.0,0.002845789771527052,0.0021068889182060957,0.0014804115053266287,0.9999598860740662,0.0,0.0,0.0,42.072383880615234,0.68539959192276,5.6062750816345215,-7615.18505859375,0
366.72000000000116,0.06417427211999893,0.031911835074424744,0.0010866435477510095,0.0,0.0,0.0,0.0,0.001671845093369484,-0.0013588799629360437,0.004424894228577614,1.0005884170532227,0.0,0.0,0.0,42.105281829833984,0.6724882125854492,5.598813533782959,-7621.14013671875,0
376.64100000000144,0.06415953487157822,0.03190965577960014,0.0010820799507200718,0.0,0.0,0.0,0.0,0.00045092898653820157,0.0022801898885518312,0.0008939687395468354,0.9994818568229675,0.0,0.0,0.0,42.11806106567383,0.6638171672821045,5.594480991363525,-7623.453125,0
386.5430000000015,0.06424311548471451,0.031889643520116806,0.001117949839681387,0.0,0.0,0.0,0.0,-0.00032818890758790076,-0.0009930337546393275,-0.003305816324427724,0.9993613362312317,0.0,0.0,0.0,42.14834976196289,0.6487645506858826,5.602765083312988,-7628.935546875,0
396.46500000000015,0.06426171958446503,0.03193637728691101,0.0010901505593210459,0.0,0.0,0.0,0.0,0.0005399910733103752,-0.0028839975129812956,0.0011072377674281597,0.9995436072349548,0.0,0.0,0.0,42.1560173034668,0.6408997774124146,5.598154544830322,-7630.3232421875,0
406.3640000000014,0.06421946734189987,0.03194163367152214,0.0010974337346851826,0.0,0.0,0.0,0.0,-0.0011450466699898243,0.005150614306330681,-1.9604591216193512e-05,0.99755859375,0.0,0.0,0.0,42.18220901489258,0.6377227306365967,5.6085968017578125,-7635.06396484375,0
416.28700000000026,0.06419972330331802,0.03192626312375069,0.0010980329243466258,0.0,0.0,0.0,0.0,0.003524200990796089,0.004921343177556992,0.0008196870912797749,0.9968242645263672,0.0,0.0,0.0,42.18925094604492,0.6330510973930359,5.599981307983398,-7636.33837890625,0
426.1930000000011,0.06418942660093307,0.03191903978586197,0.001107483054511249,0.0,0.0,0.0,0.0,-0.0012269046856090426,0.0002040234103333205,0.0007354716071859002,0.9984121918678284,0.0,0.0,0.0,42.21223068237305,0.6139411926269531,5.5835442543029785,-7640.498046875,0
436.1110000000008,0.0642182007431984,0.03197452425956726,0.0010702726431190968,0.0,0.0,0.0,0.0,-0.0011112828506156802,-0.0025646609719842672,0.003706318559125066,0.9992382526397705,0.0,0.0,0.0,42.21308135986328,0.6041420102119446,5.577784538269043,-7640.6513671875,0
446.0110000000004,0.06420823931694031,0.03196082264184952,0.0010594853665679693,0.0,0.0,0.0,0.0,-0.002818535780534148,-0.0017128514591604471,-0.0009270335431210697,1.0005508661270142,0.0,0.0,0.0,42.17331314086914,0.6109873056411743,5.572744369506836,-7633.4541015625,0
455.9340000000011,0.0642421618103981,0.031970467418432236,0.000989425927400589,0.0,0.0,0.0,0.0,-0.0026832157745957375,-0.0003050941741093993,-0.005317289382219315,1.0006674528121948,0.0,0.0,0.0,42.1705207824707,0.5960619449615479,5.577106475830078,-7632.9482421875,0
465.83500000000095,0.06423438340425491,0.031954575330019,0.000973215326666832,0.0,0.0,0.0,0.0,-0.0007437861058861017,-0.0008280224865302444,-0.0015944476472213864,0.9977540969848633,0.0,0.0,0.0,42.1291618347168,0.5965274572372437,5.575305461883545,-7625.46240234375,0
475.755000000001,0.06422753632068634,0.03191964328289032,0.0009470432414673269,0.0,0.0,0.0,0.0,0.005572247784584761,0.0015604303916916251,0.0002989369968418032,0.9995854496955872,0.0,0.0,0.0,42.1353874206543,0.5949505567550659,5.57138729095459,-7626.58935546875,0
485.65600000000086,0.06421764194965363,0.03190154209733009,0.000929085654206574,0.0,0.0,0.0,0.0,0.0019451038679108024,-0.002113545313477516,0.00018182158237323165,1.0011147260665894,0.0,0.0,0.0,42.093318939208984,0.5929418206214905,5.562708854675293,-7618.97412109375,0
495.57800000000134,0.06420480459928513,0.03192146494984627,0.0009240871877409518,0.0,0.0,0.0,0.0,-0.003306774655357003,0.0010926362592726946,-0.003114142920821905,1.0010755062103271,0.0,0.0,0.0,42.1004753112793,0.5872665047645569,5.562929630279541,-7620.26953125,0
505.478000000001,0.06419224292039871,0.03190433979034424,0.000907465408090502,0.0,0.0,0.0,0.0,-0.0005660956958308816,0.0050469352863729,0.0007254176307469606,1.0005474090576172,0.0,0.0,0.0,42.05877685546875,0.591394305229187,5.555346965789795,-7612.7216796875,0
515.3990000000013,0.0641901046037674,0.031884629279375076,0.0008727106032893062,0.0,0.0,0.0,0.0,0.0033195798750966787,0.0018989486852660775,0.0038074066396802664,1.0008466243743896,0.0,0.0,0.0,42.07259750366211,0.5879191756248474,5.5521721839904785,-7615.22314453125,0
525.3020000000015,0.06417840719223022,0.03186619281768799,0.0008564660092815757,0.0,0.0,0.0,0.0,0.001222000690177083,0.004186753649264574,-0.0036321026273071766,1.000314712524414,0.0,0.0,0.0,42.031349182128906,0.5865424871444702,5.547418594360352,-7607.7578125,0
535.2260000000006,0.06415240466594696,0.03185412287712097,0.0008663414046168327,0.0,0.0,0.0,0.0,-0.0016421789769083261,0.001080646296031773,-0.001046306686475873,0.9999627470970154,0.0,0.0,0.0,42.047767639160156,0.5835152268409729,5.530349254608154,-7610.7294921875,0
545.1240000000016,0.06413700431585312,0.03183450549840927,0.0008534485241398215,0.0,0.0,0.0,0.0,0.0005655671120621264,0.0019136816263198853,0.004115546587854624,0.9970321655273438,0.0,0.0,0.0,42.00595474243164,0.5872275233268738,5.515608787536621,-7603.1611328125,0
555.0470000000005,0.06409066915512085,0.03182806074619293,0.0008907954324968159,0.0,0.0,0.0,0.0,0.0006637910846620798,-0.0006900695152580738,0.0004285254399292171,0.998847246170044,0.0,0.0,0.0,42.02666091918945,0.5934966206550598,5.491020202636719,-7606.90966796875,0
564.9480000000003,0.06406830996274948,0.03180484473705292,0.000880255363881588,0.0,0.0,0.0,0.0,-0.002835892140865326,0.0014621486188843846,-0.0018602489726617932,1.0001505613327026,0.0,0.0,0.0,41.98638916015625,0.5954403877258301,5.478295803070068,-7599.6201171875,0
574.8740000000016,0.06403108686208725,0.031827107071876526,0.0009126177174039185,0.0,0.0,0.0,0.0,0.0009930869564414024,-0.001710777753032744,-0.0010637271916493773,1.0005673170089722,0.0,0.0,0.0,42.00428009033203,0.6103572845458984,5.477776050567627,-7602.8583984375,0
584.7759999999998,0.06400447338819504,0.031804926693439484,0.0009044564794749022,0.0,0.0,0.0,0.0,0.0008545842138119042,0.0011781107168644667,0.003231277922168374,0.9994426369667053,0.0,0.0,0.0,41.9630012512207,0.6095095872879028,5.484144687652588,-7595.38671875,0
594.6930000000011,0.06397640705108643,0.031820595264434814,0.000921071448829025,0.0,0.0,0.0,0.0,0.0012698075734078884,-0.0008067824528552592,-0.0031270748004317284,0.9985468983650208,0.0,0.0,0.0,41.986358642578125,0.6198537945747375,5.488290309906006,-7599.6142578125,0
604.594000000001,0.06394566595554352,0.031800344586372375,0.0009146153461188078,0.0,0.0,0.0,0.0,0.001303926925174892,0.00010566106357146055,-0.00015797984087839723,0.9990093111991882,0.0,0.0,0.0,41.946903228759766,0.6204158067703247,5.480682849884033,-7592.4736328125,0
614.5200000000004,0.06395573168992996,0.03182663023471832,0.0008970228373073041,0.0,0.0,0.0,0.0,0.0020784607622772455,0.005871082190424204,-0.0018464704044163227,0.9999635815620422,0.0,0.0,0.0,41.968772888183594,0.6213069558143616,5.503198623657227,-7596.43115234375,0
624.4150000000009,0.06389675289392471,0.03178763389587402,0.0008769704727455974,0.0,0.0,0.0,0.0,-0.0017477869987487793,-0.0037486727815121412,-0.0002678830351214856,0.9976988434791565,0.0,0.0,0.0,41.88665008544922,0.6211488246917725,5.473181247711182,-7581.5673828125,0
634.3389999999999,0.06393740326166153,0.03183577209711075,0.0008723043720237911,0.0,0.0,0.0,0.0,-0.0007215263904072344,0.0037581403739750385,0.0005761450156569481,0.9988518357276917,0.0,0.0,0.0,41.94721221923828,0.6253587603569031,5.501945972442627,-7592.52880859375,0
644.2380000000012,0.06388179212808609,0.031800806522369385,0.0008452008478343487,0.0,0.0,0.0,0.0,-0.0014535825466737151,-0.0016176101053133607,-0.0014735219301655889,0.9998617768287659,0.0,0.0,0.0,41.86571502685547,0.6273238062858582,5.511570930480957,-7577.77783203125,0
654.1570000000011,0.06388179212808609,0.031800806522369385,0.0008452008478343487,0.0,0.0,0.0,0.0,-0.003571426495909691,0.0027132376562803984,-0.0009068901417776942,1.0017645359039307,0.0,0.0,0.0,41.86571502685547,0.6273238062858582,5.511570930480957,-7577.77783203125,0
664.0680000000011,0.06382115930318832,0.03176131099462509,0.0008179155411198735,0.0,0.0,0.0,0.0,0.0011939664836972952,-0.005116397514939308,0.0020446814596652985,1.0000256299972534,0.0,0.0,0.0,41.78270721435547,0.6402472853660583,5.505858898162842,-7562.75341796875,0
673.9830000000002,0.06382115930318832,0.03176131099462509,0.0008179155411198735,0.0,0.0,0.0,0.0,-0.0012207968393340707,0.0017064206767827272,-0.0003329205501358956,0.9982879757881165,0.0,0.0,0.0,41.78270721435547,0.6402472853660583,5.505858898162842,-7562.75341796875,0
683.8910000000014,0.06378484517335892,0.03173808008432388,0.000804149720352143,0.0,0.0,0.0,0.0,0.0017430208390578628,-0.0004858501779381186,0.001641408889554441,0.9968960881233215,0.0,0.0,0.0,41.74204635620117,0.636555016040802,5.502832889556885,-7555.39306640625,0
693.7990000000009,0.06375014036893845,0.03171655163168907,0.0007900403579697013,0.0,0.0,0.0,0.0,0.0005864202394150198,0.001986411865800619,-0.0007262823637574911,0.9998495578765869,0.0,0.0,0.0,41.70160675048828,0.6444877982139587,5.502651214599609,-7548.07373046875,0
703.7170000000006,0.06371369957923889,0.031694188714027405,0.0007739332504570484,0.0,0.0,0.0,0.0,0.0032761769834905863,0.0010557505302131176,0.005604048725217581,0.9993799924850464,0.0,0.0,0.0,41.66023254394531,0.6427005529403687,5.492631435394287,-7540.5849609375,0
713.6240000000016,0.06367504596710205,0.03166982904076576,0.0007567686261609197,0.0,0.0,0.0,0.0,0.0006482229218818247,-0.0017483922420069575,-0.004121445585042238,0.999330997467041,0.0,0.0,0.0,41.619972229003906,0.6435596942901611,5.483556747436523,-7533.29736328125,0
723.5410000000011,0.06413380056619644,0.03157692775130272,0.0013094450114294887,0.0,0.0,0.0,0.0,0.0009543548803776503,-0.005719411186873913,-0.002176897833123803,0.9995782971382141,0.0,0.0,0.0,41.69253158569336,0.5785356163978577,5.556182384490967,-7546.431640625,0
733.4470000000001,0.06411579251289368,0.031550902873277664,0.0013124954421073198,0.0,0.0,0.0,0.0,0.0016553953755646944,0.0007604473503306508,-0.0007739475695416331,1.0003927946090698,0.0,0.0,0.0,41.65011215209961,0.583021879196167,5.552262783050537,-7538.75341796875,0
743.362000000001,0.06406469643115997,0.031556837260723114,0.0013758173445239663,0.0,0.0,0.0,0.0,-0.0005294723669067025,0.0006668522255495191,-0.0012682863743975759,1.0000216960906982,0.0,0.0,0.0,41.71807861328125,0.5750415325164795,5.559596061706543,-7551.0556640625,0
753.264000000001,0.06405127793550491,0.03153228759765625,0.001382224727421999,0.0,0.0,0.0,0.0,0.002016128972172737,0.00042233936255797744,-0.0005700739566236734,0.9996098875999451,0.0,0.0,0.0,41.67736053466797,0.5723599195480347,5.5594024658203125,-7543.68505859375,0
763.1840000000011,0.06403063982725143,0.03155437111854553,0.0014432615134865046,0.0,0.0,0.0,0.0,-0.0018343027913942933,-0.0008307053940370679,-0.0008557996479794383,0.9997371435165405,0.0,0.0,0.0,41.7474479675293,0.5747910141944885,5.571554183959961,-7556.37109375,0
773.0860000000011,0.06401988118886948,0.03153248503804207,0.0014530475018545985,0.0,0.0,0.0,0.0,-0.003124559298157692,-0.00019506453827489167,0.0011865949491038918,0.9989082217216492,0.0,0.0,0.0,41.70657730102539,0.5776530504226685,5.570181369781494,-7548.97314453125,0
783.0070000000014,0.06401459872722626,0.03156774118542671,0.001512249931693077,0.0,0.0,0.0,0.0,-0.001790128997527063,-0.001903453143313527,0.0001921552320709452,0.9980338215827942,0.0,0.0,0.0,41.77006149291992,0.5858137607574463,5.595803737640381,-7560.46435546875,0
792.9090000000015,0.06400488317012787,0.03154826909303665,0.0015244330279529095,0.0,0.0,0.0,0.0,-0.0026880912482738495,4.869230906479061e-06,-0.003924851771444082,1.0005619525909424,0.0,0.0,0.0,41.729286193847656,0.593815267086029,5.60510778427124,-7553.083984375,0
802.8330000000005,0.06406021863222122,0.03157221898436546,0.0015753463376313448,0.0,0.0,0.0,0.0,0.003029443556442857,-0.0012113359989598393,0.00333872577175498,1.0014177560806274,0.0,0.0,0.0,41.794193267822266,0.5889965295791626,5.623280048370361,-7564.83203125,0
812.7350000000006,0.06405208259820938,0.03155374154448509,0.0015902731101959944,0.0,0.0,0.0,0.0,-0.001125591923482716,-0.0034996827598661184,4.8777073970995843e-05,1.0015227794647217,0.0,0.0,0.0,41.753475189208984,0.594215452671051,5.6130242347717285,-7557.4619140625,0
822.6560000000009,0.06404378265142441,0.03153444081544876,0.0016069815028458834,0.0,0.0,0.0,0.0,0.0016073982696980238,-0.00030707931728102267,0.0009999284520745277,0.999866783618927,0.0,0.0,0.0,41.712154388427734,0.5945327877998352,5.609584331512451,-7549.98291015625,0
832.5560000000005,0.06403468549251556,0.031513843685388565,0.0016250933986157179,0.0,0.0,0.0,0.0,0.0021705986000597477,-0.0008771990542300045,-0.0008926434093154967,0.9981024861335754,0.0,0.0,0.0,41.67193603515625,0.5971482992172241,5.602668285369873,-7542.70361328125,0
842.478000000001,0.06404902786016464,0.03155364841222763,0.0016726874746382236,0.0,0.0,0.0,0.0,-0.00016862305346876383,-0.004205024801194668,0.00046693134936504066,0.9994401335716248,0.0,0.0,0.0,41.739990234375,0.6036729216575623,5.618144989013672,-7555.021484375,0
852.3830000000016,0.0640392005443573,0.03153197839856148,0.0016928164986893535,0.0,0.0,0.0,0.0,0.0006046800990588963,0.00043963000643998384,-0.0006907820352353156,1.0008622407913208,0.0,0.0,0.0,41.698509216308594,0.6057244539260864,5.611371994018555,-7547.51318359375,0
862.3010000000013,0.06404733657836914,0.031550899147987366,0.0017242522444576025,0.0,0.0,0.0,0.0,-0.000846301147248596,-0.0018361125839874148,0.0011345702223479748,0.9978122115135193,0.0,0.0,0.0,41.76002883911133,0.6014315485954285,5.625449180603027,-7558.6484375,0
872.2060000000001,0.06403855234384537,0.031528741121292114,0.0017459068913012743,0.0,0.0,0.0,0.0,0.0036117499694228172,0.0007152585894800723,-0.0006004508468322456,1.0010621547698975,0.0,0.0,0.0,41.71841812133789,0.5990270376205444,5.617911338806152,-7551.1171875,0
882.1260000000002,0.0640486404299736,0.031542982906103134,0.001769590424373746,0.0,0.0,0.0,0.0,-0.0013621679972857237,-0.0007567376596853137,-0.0027959528379142284,1.0016685724258423,0.0,0.0,0.0,41.77824783325195,0.5925635099411011,5.6266655921936035,-7561.94580078125,0
892.023000000001,0.06403869390487671,0.03152110427618027,0.0017926746513694525,0.0,0.0,0.0,0.0,-0.0014852584572508931,0.004653841257095337,0.0004933779709972441,0.9991307854652405,0.0,0.0,0.0,41.73752212524414,0.5917694568634033,5.621400833129883,-7554.57470703125,0
901.9440000000013,0.06405124068260193,0.031502678990364075,0.0018146411748602986,0.0,0.0,0.0,0.0,0.0009462974849157035,0.0029024386312812567,5.459191743284464e-05,0.998288094997406,0.0,0.0,0.0,41.79812240600586,0.5786585807800293,5.61181116104126,-7565.54296875,0
911.8640000000014,0.06421341001987457,0.031881269067525864,0.0010708547197282314,0.0,0.0,0.0,0.0,0.0008902500267140567,-0.0022692373022437096,0.001286503509618342,0.9990737438201904,0.0,0.0,0.0,41.90912628173828,0.5862566828727722,5.661852836608887,-7585.63525390625,0
921.7759999999998,0.0642118901014328,0.03187126666307449,0.0010661452542990446,0.0,0.0,0.0,0.0,0.001982559682801366,0.0006365451263263822,-0.00011603742314036936,0.9992470741271973,0.0,0.0,0.0,41.868896484375,0.5870814919471741,5.658636569976807,-7578.353515625,0
931.6689999999999,0.06427337229251862,0.031956978142261505,0.0009513359400443733,0.0,0.0,0.0,0.0,-0.0007769885123707354,-0.0014279200695455074,0.001133789774030447,0.9981235265731812,0.0,0.0,0.0,41.895469665527344,0.5865854620933533,5.665099620819092,-7583.1640625,0
941.594000000001,0.06431039422750473,0.03192191943526268,0.0009564798092469573,0.0,0.0,0.0,0.0,-0.0016350086079910398,-0.0008877809159457684,-0.0008286235970444977,0.9989758133888245,0.0,0.0,0.0,41.938995361328125,0.5760528445243835,5.672276020050049,-7591.04150390625,0
951.4940000000006,0.06425510346889496,0.03192953020334244,0.0009559006430208683,0.0,0.0,0.0,0.0,-0.0033041767310351133,0.0026978342793881893,8.848601282807067e-06,0.9987292885780334,0.0,0.0,0.0,42.04168701171875,0.5653016567230225,5.674874782562256,-7609.62841796875,0
961.4150000000009,0.06425642967224121,0.031914032995700836,0.0009441060246899724,0.0,0.0,0.0,0.0,-0.002330219838768244,-0.0006422513979487121,0.0005087569588795304,0.9996355175971985,0.0,0.0,0.0,42.000831604003906,0.5736684799194336,5.669739246368408,-7602.23388671875,0
971.3170000000009,0.06425520032644272,0.0319327712059021,0.0009533358388580382,0.0,0.0,0.0,0.0,-0.0021710367873311043,-0.0002848031581379473,0.003099088091403246,1.0001791715621948,0.0,0.0,0.0,42.09590530395508,0.5622630715370178,5.666672229766846,-7619.4423828125,0
981.2360000000008,0.06425946950912476,0.03191752731800079,0.0009423290612176061,0.0,0.0,0.0,0.0,0.000902569096069783,-0.005407075863331556,0.0014481601538136601,0.9981659054756165,0.0,0.0,0.0,42.0561637878418,0.5678330063819885,5.667281150817871,-7612.2490234375,0
991.1400000000012,0.06422318518161774,0.031924717128276825,0.0009994686115533113,0.0,0.0,0.0,0.0,0.0005975394160486758,0.0011749002151191235,-0.0024119375739246607,0.9987318515777588,0.0,0.0,0.0,42.13198471069336,0.5534185767173767,5.661312580108643,-7625.9736328125,0
1001.0610000000015,0.06422808766365051,0.03190802410244942,0.0009918404975906014,0.0,0.0,0.0,0.0,-0.002757194684818387,-0.0032756594009697437,-0.001554945483803749,0.9973780512809753,0.0,0.0,0.0,42.0899772644043,0.5470653176307678,5.652554512023926,-7618.36962890625,0
1010.9650000000001,0.0641789361834526,0.03193443641066551,0.0009689439903013408,0.0,0.0,0.0,0.0,-0.0009519454324617982,0.003189536975696683,-0.00198723329231143,0.9985306262969971,0.0,0.0,0.0,42.1715202331543,0.5432283282279968,5.647449016571045,-7633.12939453125,0
1020.880000000001,0.06418482214212418,0.03191621974110603,0.0009568056557327509,0.0,0.0,0.0,0.0,-0.00304113095626235,-0.0009188178228214383,0.004132986068725586,0.997750461101532,0.0,0.0,0.0,42.1293830871582,0.5497223734855652,5.642502307891846,-7625.5029296875,0
1030.7920000000013,0.06416171044111252,0.031942255795001984,0.0009899619035422802,0.0,0.0,0.0,0.0,-0.002504043746739626,0.00012426229659467936,9.801653504837304e-05,0.9994843602180481,0.0,0.0,0.0,42.1912727355957,0.5424027442932129,5.64450740814209,-7636.7041015625,0
1040.705,0.06416861712932587,0.031923286616802216,0.0009785797446966171,0.0,0.0,0.0,0.0,-0.0004956036573275924,0.002367927459999919,-0.0007526048575527966,1.0011335611343384,0.0,0.0,0.0,42.15092468261719,0.5518112778663635,5.647124767303467,-7629.4013671875,0
1050.6100000000006,0.06418287754058838,0.03192964568734169,0.001020512543618679,0.0,0.0,0.0,0.0,0.0018449100898578763,0.003920653369277716,-0.0013458721805363894,0.9996812343597412,0.0,0.0,0.0,42.220458984375,0.5379217267036438,5.632791042327881,-7641.9873046875,0
1060.5280000000002,0.06419134885072708,0.031908150762319565,0.001014325418509543,0.0,0.0,0.0,0.0,-0.0013723536394536495,-0.00019141325901728123,0.0023170921485871077,0.999460756778717,0.0,0.0,0.0,42.17839050292969,0.5305551290512085,5.62683629989624,-7634.37255859375,0
1070.434000000001,0.06422717124223709,0.0319255031645298,0.0009920202428475022,0.0,0.0,0.0,0.0,0.0016055405139923096,0.0008819169015623629,-0.0010826067300513387,0.9980795979499817,0.0,0.0,0.0,42.24632263183594,0.5158518552780151,5.632284164428711,-7646.66845703125,0
1080.3540000000012,0.0642351359128952,0.03190004080533981,0.0009835590608417988,0.0,0.0,0.0,0.0,-0.0026077141519635916,-0.003942320588976145,0.00011891446774825454,0.9991137981414795,0.0,0.0,0.0,42.20518112182617,0.5232939124107361,5.626607418060303,-7639.2216796875,0
1090.2530000000006,0.06425303965806961,0.03190888091921806,0.0009714202606119215,0.0,0.0,0.0,0.0,0.0005911882035434246,-0.00021217926405370235,0.00031194937764666975,1.002533197402954,0.0,0.0,0.0,42.2584114074707,0.5103145241737366,5.635846138000488,-7648.8564453125,0
1100.1800000000003,0.06426208466291428,0.03187939152121544,0.000961600337177515,0.0,0.0,0.0,0.0,0.00033573099062778056,0.004570924676954746,0.000656664080452174,1.0005598068237305,0.0,0.0,0.0,42.21732711791992,0.5107520818710327,5.6268134117126465,-7641.42041015625,0
1110.076000000001,0.06423798948526382,0.03186243399977684,0.0010170056484639645,0.0,0.0,0.0,0.0,-0.00015183725918177515,0.0010242441203445196,0.0006021727458573878,0.9989991784095764,0.0,0.0,0.0,42.26478958129883,0.49232324957847595,5.619313716888428,-7650.01123046875,0
1119.9950000000008,0.0642455667257309,0.03182867541909218,0.001014407491311431,0.0,0.0,0.0,0.0,0.0035193325020372868,0.0024823585990816355,0.0009304496343247592,0.9984676241874695,0.0,0.0,0.0,42.2222900390625,0.49014776945114136,5.602058410644531,-7642.31884765625,0
1129.907000000001,0.06420037895441055,0.03191525116562843,0.001014311914332211,0.0,0.0,0.0,0.0,-0.0018058859277516603,-0.0023418667260557413,0.0008975928649306297,0.9992846846580505,0.0,0.0,0.0,42.26923370361328,0.4870683252811432,5.596800804138184,-7650.81494140625,0
1139.8270000000011,0.06420750916004181,0.03188029304146767,0.001010032487101853,0.0,0.0,0.0,0.0,0.0010692239739000797,0.0007378492155112326,-0.0013398990267887712,0.9982515573501587,0.0,0.0,0.0,42.22792053222656,0.4875941574573517,5.592349052429199,-7643.337890625,0
1149.7200000000012,0.06422805786132812,0.03187865391373634,0.0009968848899006844,0.0,0.0,0.0,0.0,-0.005583534948527813,0.00015136618458200246,-0.0012199025368317962,1.0005539655685425,0.0,0.0,0.0,42.28461837768555,0.4686179757118225,5.586929798126221,-7653.60009765625,0
1159.6370000000006,0.06423716247081757,0.03184163197875023,0.0009900220902636647,0.0,0.0,0.0,0.0,0.00353746535256505,0.00037452514516189694,-0.0029750512912869453,0.9998629093170166,0.0,0.0,0.0,42.24264144897461,0.47758281230926514,5.582790374755859,-7646.00244140625,0
1169.5430000000015,0.0641896203160286,0.03188071772456169,0.0010299610439687967,0.0,0.0,0.0,0.0,0.0017403410747647285,0.0032960567623376846,-0.00037037525908090174,1.000482439994812,0.0,0.0,0.0,42.300209045410156,0.4655083417892456,5.578690528869629,-7656.421875,0
1179.4670000000006,0.0641990602016449,0.031841542571783066,0.001027215039357543,0.0,0.0,0.0,0.0,-4.835643630940467e-05,0.004547756165266037,-0.004522279370576143,1.001101016998291,0.0,0.0,0.0,42.26008224487305,0.46560731530189514,5.570553302764893,-7649.1591796875,0
1189.3670000000002,0.06418883800506592,0.0318831205368042,0.0010671456111595035,0.0,0.0,0.0,0.0,-0.0005814166506752372,0.002752835163846612,-0.0026965343859046698,0.9967206716537476,0.0,0.0,0.0,42.30829620361328,0.45893412828445435,5.572235584259033,-7657.88525390625,0
1199.282000000001,0.06419943273067474,0.031843509525060654,0.0010688018519431353,0.0,0.0,0.0,0.0,0.0025414354167878628,-0.0031134942546486855,0.003335674060508609,0.9977347254753113,0.0,0.0,0.0,42.26478576660156,0.4579002559185028,5.5642547607421875,-7650.0107421875,0
1209.1890000000003,0.06420223414897919,0.03190000355243683,0.0011036950163543224,0.0,0.0,0.0,0.0,-0.0009181416826322675,-0.0024501055013388395,-0.0017555421218276024,0.9980071187019348,0.0,0.0,0.0,42.31142807006836,0.44589951634407043,5.578816890716553,-7658.45263671875,0
1219.1080000000002,0.06421546638011932,0.0318605862557888,0.0011041939724236727,0.0,0.0,0.0,0.0,-3.084692798438482e-05,-0.004116986878216267,-0.0014277211157605052,0.9955317974090576,0.0,0.0,0.0,42.269432067871094,0.4442669749259949,5.580845832824707,-7650.85107421875,0
1229.0110000000004,0.06420755386352539,0.03189786896109581,0.0011215857230126858,0.0,0.0,0.0,0.0,-0.002049162983894348,0.00033857382368296385,-0.001721015083603561,0.9981558322906494,0.0,0.0,0.0,42.314579010009766,0.43722280859947205,5.586599826812744,-7659.0234375,0
1238.9320000000007,0.06422027200460434,0.03185578063130379,0.0011180026922374964,0.0,0.0,0.0,0.0,-0.0015355944633483887,0.0008249020320363343,-0.00025834166444838047,0.9984349608421326,0.0,0.0,0.0,42.27324676513672,0.43577566742897034,5.5761213302612305,-7651.5419921875,0
1248.839,0.0641954094171524,0.03189099207520485,0.0011317948810756207,0.0,0.0,0.0,0.0,-0.0013716162648051977,-0.006395717617124319,-0.00168610701803118,0.998763918876648,0.0,0.0,0.0,42.315391540527344,0.43518680334091187,5.579318523406982,-7659.17041015625,0
1258.7540000000008,0.06420794874429703,0.03184829652309418,0.0011263133492320776,0.0,0.0,0.0,0.0,0.0005595837137661874,0.0009329832391813397,-0.0030604726634919643,0.9985107779502869,0.0,0.0,0.0,42.2732048034668,0.4404366612434387,5.575826644897461,-7651.5341796875,0
1268.6580000000013,0.06420343369245529,0.03195015341043472,0.0010947491973638535,0.0,0.0,0.0,0.0,0.0023770551197230816,-0.0012674113968387246,0.0009973455453291535,0.9995267391204834,0.0,0.0,0.0,42.323524475097656,0.44364044070243835,5.5934882164001465,-7660.64208984375,0
1278.5790000000015,0.06421490758657455,0.031911179423332214,0.0010854033753275871,0.0,0.0,0.0,0.0,-0.0009369702893309295,-1.2705964763881639e-05,-0.0005375808686949313,0.9999916553497314,0.0,0.0,0.0,42.28122329711914,0.4448636472225189,5.587474822998047,-7652.98583984375,0
1288.4810000000016,0.0642351359128952,0.03202536702156067,0.0010065275710076094,0.0,0.0,0.0,0.0,0.0012919362634420395,-0.004212040454149246,0.002770153572782874,0.9985653758049011,0.0,0.0,0.0,42.32432174682617,0.44632047414779663,5.604734420776367,-7660.7861328125,0
1298.4000000000015,0.06424687057733536,0.03198525309562683,0.0009908979991450906,0.0,0.0,0.0,0.0,0.0009892499074339867,-0.001010466949082911,-0.00028135275351814926,0.9986444711685181,0.0,0.0,0.0,42.28342819213867,0.44860196113586426,5.606555938720703,-7653.384765625,0
1308.3029999999999,0.06421958655118942,0.03198433667421341,0.0009934998815879226,0.0,0.0,0.0,0.0,-0.004268998745828867,-0.0016148191643878818,0.0009392425417900085,0.9995632767677307,0.0,0.0,0.0,42.339378356933594,0.4352346360683441,5.608735084533691,-7663.51123046875,0
1318.2250000000004,0.06423196196556091,0.03193928673863411,0.000977611169219017,0.0,0.0,0.0,0.0,0.00043662835378199816,-0.0008790647843852639,-0.0042950911447405815,1.000288486480713,0.0,0.0,0.0,42.29832077026367,0.4396895170211792,5.59920072555542,-7656.08056640625,0
1328.130000000001,0.06421754509210587,0.03195863217115402,0.0009772395715117455,0.0,0.0,0.0,0.0,-0.001222247607074678,-0.003131429897621274,-0.0007302184822037816,0.9995285868644714,0.0,0.0,0.0,42.3517951965332,0.426993727684021,5.601163387298584,-7665.7587890625,0
1338.0510000000013,0.06423170119524002,0.03191061317920685,0.0009626278770156205,0.0,0.0,0.0,0.0,0.00010288325574947521,-0.001427627052180469,0.0024510021321475506,1.000019907951355,0.0,0.0,0.0,42.30995178222656,0.4356410503387451,5.606844425201416,-7658.185546875,0
1347.9480000000003,0.06421451270580292,0.03196515142917633,0.0009665478719398379,0.0,0.0,0.0,0.0,0.0013644268037751317,-0.00031255988869816065,0.0021186228841543198,0.9972068667411804,0.0,0.0,0.0,42.36127471923828,0.42901042103767395,5.617493152618408,-7667.47509765625,0
1357.8700000000008,0.06423399597406387,0.03191108629107475,0.0009513312252238393,0.0,0.0,0.0,0.0,0.0007618215167894959,-0.002103364560753107,-0.0008865659474395216,0.9985350370407104,0.0,0.0,0.0,42.31940841674805,0.4350207448005676,5.6216864585876465,-7659.89697265625,0
1367.773000000001,0.06418190151453018,0.03191822022199631,0.0010016144951805472,0.0,0.0,0.0,0.0,-0.00015347913722507656,-0.0007965552504174411,-0.002258692402392626,0.9990259408950806,0.0,0.0,0.0,42.35935974121094,0.43053868412971497,5.622817039489746,-7667.12890625,0
1377.6900000000005,0.0642007514834404,0.03186795487999916,0.0009894189424812794,0.0,0.0,0.0,0.0,0.000539373024366796,-0.005778055172413588,0.0018966528587043285,1.0006842613220215,0.0,0.0,0.0,42.31720733642578,0.4298301935195923,5.6115899085998535,-7659.4990234375,0
1387.5950000000012,0.06421806663274765,0.03185014799237251,0.0010169680463150144,0.0,0.0,0.0,0.0,-0.001896456815302372,0.001482699764892459,6.467998900916427e-05,0.9994679093360901,0.0,0.0,0.0,42.36223220825195,0.4117836058139801,5.624743461608887,-7667.6484375,0
1397.5150000000012,0.06424108892679214,0.03179803490638733,0.0010077685583382845,0.0,0.0,0.0,0.0,-0.0009084173943847418,-0.001097590196877718,-0.0005023010889999568,0.997877299785614,0.0,0.0,0.0,42.320308685302734,0.41793420910835266,5.614626407623291,-7660.06005859375,0
1407.4189999999999,0.06419476866722107,0.03184587508440018,0.0010444711660966277,0.0,0.0,0.0,0.0,0.0027260002680122852,-0.004028452094644308,-0.0026472583413124084,1.0003058910369873,0.0,0.0,0.0,42.36947250366211,0.42155221104621887,5.617408752441406,-7668.95849609375,0
1417.3430000000008,0.06419476866722107,0.03181469067931175,0.0010736666154116392,0.0,0.0,0.0,0.0,-0.00032208036282099783,0.001373551320284605,-0.0003648973361123353,0.9999421834945679,0.0,0.0,0.0,42.36231994628906,0.41744545102119446,5.6195244789123535,-7667.6640625,0
1427.2400000000016,0.06421181559562683,0.03179079666733742,0.001095339423045516,0.0,0.0,0.0,0.0,0.0021173213608562946,0.001172850257717073,0.004845726303756237,0.9991520047187805,0.0,0.0,0.0,42.3739128112793,0.4080549478530884,5.619844436645508,-7669.7626953125,0
1437.1800000000003,0.06429295986890793,0.0318380706012249,0.0010593332117423415,0.0,0.0,0.0,0.0,-0.0017923127161338925,-0.0009154515573754907,-0.0013580573722720146,0.9983370900154114,0.0,0.0,0.0,42.357444763183594,0.4092060625553131,5.637937545776367,-7666.78125,0
1447.062,0.0642913207411766,0.031855564564466476,0.0010791404638439417,0.0,0.0,0.0,0.0,0.0009941444732248783,0.0020739231258630753,-0.0023930666502565145,1.0007200241088867,0.0,0.0,0.0,42.36882019042969,0.4111081063747406,5.637362003326416,-7668.8408203125,0
1456.991,0.06434927880764008,0.03186580166220665,0.001066349446773529,0.0,0.0,0.0,0.0,-0.003797783050686121,-0.0014517151284962893,0.0014793566660955548,1.0017122030258179,0.0,0.0,0.0,42.352134704589844,0.413934588432312,5.643006801605225,-7665.8203125,0
1466.8850000000002,0.06424187123775482,0.03190870210528374,0.0010709501802921295,0.0,0.0,0.0,0.0,0.0010760970180854201,0.0026833342853933573,0.0002982145524583757,0.9999239444732666,0.0,0.0,0.0,42.36530685424805,0.42516618967056274,5.635704517364502,-7668.205078125,0
1476.808000000001,0.06428764015436172,0.03189125657081604,0.0010620306711643934,0.0,0.0,0.0,0.0,-0.0012747362488880754,0.0002584729518275708,0.0034665269777178764,0.999697208404541,0.0,0.0,0.0,42.348392486572266,0.4279252886772156,5.635040283203125,-7665.14306640625,0
1486.7090000000007,0.0642169862985611,0.03191382810473442,0.0010699741542339325,0.0,0.0,0.0,0.0,0.002861088840290904,0.0016136650228872895,0.003781222505494952,0.9999576210975647,0.0,0.0,0.0,42.36058044433594,0.43397364020347595,5.631802558898926,-7667.349609375,0
1496.6290000000008,0.06423361599445343,0.03185189515352249,0.0010785289341583848,0.0,0.0,0.0,0.0,0.004635734483599663,-0.0013469376135617495,0.0004259483248461038,1.0009357929229736,0.0,0.0,0.0,42.35481643676758,0.4317777156829834,5.620912075042725,-7666.3056640625,0
1506.5310000000009,0.06422733515501022,0.03183867782354355,0.0010962263913825154,0.0,0.0,0.0,0.0,-0.0028806098271161318,-0.0014911910984665155,-0.0017874541226774454,0.998830258846283,0.0,0.0,0.0,42.36662673950195,0.4180789887905121,5.616754055023193,-7668.44384765625,0
1516.446,0.06429161876440048,0.03185828775167465,0.001081130700185895,0.0,0.0,0.0,0.0,0.00045560472062788904,0.0024282620288431644,-0.0012537153670564294,0.9995202422142029,0.0,0.0,0.0,42.34603500366211,0.4215931296348572,5.610772132873535,-7664.7158203125,0
1526.3550000000014,0.06422004848718643,0.03187886252999306,0.0010793637484312057,0.0,0.0,0.0,0.0,0.00364183122292161,0.005632996559143066,0.003146510571241379,0.9999855160713196,0.0,0.0,0.0,42.36164474487305,0.4256156384944916,5.60089111328125,-7667.54248046875,0
1536.2690000000002,0.06427973508834839,0.03188551589846611,0.0010617594234645367,0.0,0.0,0.0,0.0,0.0012340345419943333,0.000642226601485163,-0.0005129797500558197,0.9981702566146851,0.0,0.0,0.0,42.34174728393555,0.42321786284446716,5.588335037231445,-7663.9404296875,0
1546.1770000000015,0.06420301645994186,0.03191010653972626,0.001067337580025196,0.0,0.0,0.0,0.0,0.0008366298861801624,0.0005771478754468262,-0.001287363818846643,0.9995237588882446,0.0,0.0,0.0,42.35551071166992,0.43092960119247437,5.583395004272461,-7666.43115234375,0
1556.1000000000004,0.0642198845744133,0.0318613275885582,0.0010755346156656742,0.0,0.0,0.0,0.0,0.002509252168238163,-0.003009722102433443,-0.00025006767828017473,1.0009973049163818,0.0,0.0,0.0,42.34804153442383,0.42625656723976135,5.580188274383545,-7665.07958984375,0
1565.9990000000016,0.06419374793767929,0.03187769278883934,0.0010982766980305314,0.0,0.0,0.0,0.0,0.0029582211282104254,0.0029541291296482086,0.002243949333205819,1.000663161277771,0.0,0.0,0.0,42.360504150390625,0.4161294400691986,5.587061882019043,-7667.3359375,0
1575.911,0.06427200138568878,0.03191499784588814,0.0010623530251905322,0.0,0.0,0.0,0.0,-0.0020553229842334986,-0.0011838872451335192,0.00269759027287364,0.9991349577903748,0.0,0.0,0.0,42.36062240600586,0.4134886562824249,5.594863414764404,-7667.35693359375,0
1585.8220000000001,0.06423183530569077,0.03191259130835533,0.0010605332208797336,0.0,0.0,0.0,0.0,0.0007961787632666528,0.0024615111760795116,0.002369282767176628,0.9991487264633179,0.0,0.0,0.0,42.37674331665039,0.41474151611328125,5.59073543548584,-7670.27490234375,0
1595.737000000001,0.06427708268165588,0.031916387379169464,0.001049896003678441,0.0,0.0,0.0,0.0,0.00013534071331378073,-0.004645128734409809,0.002376186428591609,0.9991596937179565,0.0,0.0,0.0,42.36990737915039,0.41483694314956665,5.598484039306641,-7669.03759765625,0
1605.6450000000004,0.06422314047813416,0.031920429319143295,0.0010542331729084253,0.0,0.0,0.0,0.0,-0.0005178097053430974,0.000616381992585957,-0.0007980422233231366,0.9971264004707336,0.0,0.0,0.0,42.38313674926758,0.412148654460907,5.601328372955322,-7671.43212890625,0
1615.5570000000007,0.06426489353179932,0.03191446140408516,0.001043983269482851,0.0,0.0,0.0,0.0,0.002239277819171548,0.0012489816872403026,-0.003939417190849781,0.9967124462127686,0.0,0.0,0.0,42.36417007446289,0.41796284914016724,5.602998733520508,-7667.99951171875,0
1625.4670000000006,0.0642971321940422,0.03190440312027931,0.001060358015820384,0.0,0.0,0.0,0.0,-1.3774411854683422e-05,0.0032168040052056313,0.004492496140301228,0.9990900158882141,0.0,0.0,0.0,42.376869201660156,0.4082580506801605,5.605011463165283,-7670.2978515625,0
1635.3850000000002,0.06433456391096115,0.031888172030448914,0.0010503457160666585,0.0,0.0,0.0,0.0,-0.002750406041741371,-0.0017580207204446197,0.0031456786673516035,0.9988663196563721,0.0,0.0,0.0,42.363433837890625,0.40943899750709534,5.598757266998291,-7667.8662109375,0
1645.2900000000009,0.0642319917678833,0.0319158174097538,0.001042265328578651,0.0,0.0,0.0,0.0,-0.00054056232329458,-0.0003851306682918221,0.00043036905117332935,0.9961914420127869,0.0,0.0,0.0,42.377010345458984,0.4208087921142578,5.5927910804748535,-7670.3232421875,0
1655.2020000000011,0.0642421692609787,0.03187510371208191,0.0010527628473937511,0.0,0.0,0.0,0.0,0.0035070283338427544,-0.005182984285056591,0.003826900152489543,0.9978532195091248,0.0,0.0,0.0,42.365806579589844,0.42155733704566956,5.586052894592285,-7668.29541015625,0
1665.1140000000014,0.06419806182384491,0.03189735487103462,0.0010648556053638458,0.0,0.0,0.0,0.0,0.0029518487863242626,0.008157470263540745,-0.005074407905340195,1.0011115074157715,0.0,0.0,0.0,42.37940979003906,0.42536309361457825,5.593934059143066,-7670.75732421875,0
1675.0250000000015,0.06422649323940277,0.031877174973487854,0.0010592523030936718,0.0,0.0,0.0,0.0,-0.0018493985990062356,-0.0035611451603472233,0.00012977984442841262,0.9995137453079224,0.0,0.0,0.0,42.3704948425293,0.4238404631614685,5.581087589263916,-7669.14404296875,0
1684.937,0.06420576572418213,0.03188718482851982,0.0010749746579676867,0.0,0.0,0.0,0.0,-0.0020125277806073427,0.00222375406883657,0.0004295138060115278,0.9990813732147217,0.0,0.0,0.0,42.38246536254883,0.42617255449295044,5.586518287658691,-7671.31103515625,0
1694.8470000000016,0.06425934284925461,0.03189194202423096,0.00105186621658504,0.0,0.0,0.0,0.0,0.002048847731202841,0.0005686269141733646,0.0008714603027328849,1.0007340908050537,0.0,0.0,0.0,42.36256790161133,0.434002548456192,5.5912933349609375,-7667.70947265625,0
1704.7620000000006,0.06425587832927704,0.03185234218835831,0.0010501602664589882,0.0,0.0,0.0,0.0,0.001539515214972198,-0.0008844204712659121,0.000245333940256387,1.00081205368042,0.0,0.0,0.0,42.375919342041016,0.43112319707870483,5.58571195602417,-7670.1259765625,0
1714.6730000000007,0.06430342048406601,0.031856268644332886,0.001037141541019082,0.0,0.0,0.0,0.0,0.0012571985134854913,0.004014131147414446,-0.0024152621626853943,0.9987363815307617,0.0,0.0,0.0,42.359004974365234,0.43627285957336426,5.585611343383789,-7667.064453125,0
1724.5860000000011,0.0642576739192009,0.03185030817985535,0.0010367764625698328,0.0,0.0,0.0,0.0,0.003294986439868808,7.867977546993643e-05,0.0010020943591371179,1.001328468322754,0.0,0.0,0.0,42.371089935302734,0.4296879172325134,5.590010166168213,-7669.251953125,0
1734.5040000000008,0.0643630400300026,0.031939536333084106,0.0009793826611712575,0.0,0.0,0.0,0.0,0.0008304202929139137,0.00412086583673954,0.0009514652192592621,0.9998937249183655,0.0,0.0,0.0,42.359405517578125,0.43329083919525146,5.6051812171936035,-7667.13671875,0
1744.4080000000013,0.06435438245534897,0.03188222274184227,0.0009528949740342796,0.0,0.0,0.0,0.0,-0.0019075433956459165,0.000655567564535886,-0.002053853590041399,1.002736210823059,0.0,0.0,0.0,42.37089157104492,0.4216863811016083,5.5933380126953125,-7669.2158203125,0
1754.33,0.06441228836774826,0.03187847509980202,0.0009201304637826979,0.0,0.0,0.0,0.0,-0.0009406448225490749,-0.002376187825575471,0.003030225867405534,1.0010764598846436,0.0,0.0,0.0,42.356990814208984,0.42914077639579773,5.587645530700684,-7666.69921875,0
1764.2270000000008,0.0643186941742897,0.031912911683321,0.0009067384526133537,0.0,0.0,0.0,0.0,-0.0010282540461048484,0.006686341483145952,-0.0011458846274763346,0.9989377856254578,0.0,0.0,0.0,42.36724853515625,0.4423162639141083,5.580704689025879,-7668.556640625,0
1774.1470000000008,0.064329132437706,0.031888674944639206,0.0009251725277863443,0.0,0.0,0.0,0.0,-0.0007936351466923952,-0.0010235004592686892,-0.0021599112078547478,0.9996306300163269,0.0,0.0,0.0,42.34819793701172,0.4472235143184662,5.574598789215088,-7665.10791015625,0
1784.0510000000013,0.06422947347164154,0.031933631747961044,0.0009313154732808471,0.0,0.0,0.0,0.0,0.0006725767743773758,0.0007026437669992447,-0.002033776603639126,0.9993463158607483,0.0,0.0,0.0,42.35771560668945,0.4572236239910126,5.572577953338623,-7666.8310546875,0
1793.9700000000012,0.06430474668741226,0.03198990225791931,0.0008955752127803862,0.0,0.0,0.0,0.0,-0.0011409478029236197,-0.0028579470235854387,0.004171475768089294,1.0001181364059448,0.0,0.0,0.0,42.34557342529297,0.4583950638771057,5.586150169372559,-7664.63232421875,0
1803.8740000000016,0.06424844264984131,0.03201865777373314,0.0009036469273269176,0.0,0.0,0.0,0.0,0.00010187913721892983,0.005859791301190853,-0.00024449583725072443,0.9996930360794067,0.0,0.0,0.0,42.35420608520508,0.4559933841228485,5.586241245269775,-7666.19482421875,0
1813.7980000000007,0.06424817442893982,0.03196052089333534,0.0009218510822393,0.0,0.0,0.0,0.0,-1.6221565601881593e-05,-0.0019971837755292654,-0.0007806472131051123,0.9996235966682434,0.0,0.0,0.0,42.338165283203125,0.4558824598789215,5.567521572113037,-7663.2919921875,0
1823.6970000000001,0.06421541422605515,0.031971365213394165,0.0009354230714961886,0.0,0.0,0.0,0.0,0.0021741173695772886,-0.0030086347833275795,2.9740371246589348e-05,0.9976693987846375,0.0,0.0,0.0,42.34872817993164,0.45408913493156433,5.563718318939209,-7665.20361328125,0
1833.616,0.06420156359672546,0.031895946711301804,0.0009682798990979791,0.0,0.0,0.0,0.0,0.0023797298781573772,0.0002993228263221681,0.0038399475160986185,0.9995962381362915,0.0,0.0,0.0,42.34055709838867,0.4509361982345581,5.546586990356445,-7663.72509765625,0
1843.5259999999998,0.06422004103660583,0.03186594694852829,0.0009754368802532554,0.0,0.0,0.0,0.0,0.0009381033014506102,-0.002263826783746481,0.00128257111646235,1.0021542310714722,0.0,0.0,0.0,42.35431671142578,0.44224053621292114,5.547979354858398,-7666.2158203125,0
1853.437,0.06423705071210861,0.03185315802693367,0.0009956415742635727,0.0,0.0,0.0,0.0,0.002348430221900344,0.004450469743460417,-0.001589917577803135,1.002253532409668,0.0,0.0,0.0,42.34074401855469,0.44648322463035583,5.546192646026611,-7663.7587890625,0
1863.3420000000006,0.06421595811843872,0.03184214234352112,0.0010030483826994896,0.0,0.0,0.0,0.0,0.0006108919042162597,-0.0036978614516556263,0.0023196048568934202,1.000810980796814,0.0,0.0,0.0,42.35371780395508,0.44008344411849976,5.536435604095459,-7666.10693359375,0
1873.2650000000012,0.06424010545015335,0.03183666989207268,0.0010203656274825335,0.0,0.0,0.0,0.0,0.00040440179873257875,0.001380982343107462,-0.0043623908422887325,1.0030468702316284,0.0,0.0,0.0,42.34455490112305,0.44203582406044006,5.535454273223877,-7664.44873046875,0
1883.1650000000009,0.06421934068202972,0.03182091563940048,0.001034144195728004,0.0,0.0,0.0,0.0,0.0009106524521484971,-0.0019683565478771925,-6.601204404432792e-06,0.9990800023078918,0.0,0.0,0.0,42.35614776611328,0.4439183175563812,5.538323879241943,-7666.54638671875,0
1893.085000000001,0.0642205998301506,0.03179251402616501,0.0010775746777653694,0.0,0.0,0.0,0.0,-1.1508399438753258e-05,0.0016617283690720797,-0.00017669085355009884,0.9983834028244019,0.0,0.0,0.0,42.352848052978516,0.44831785559654236,5.540960788726807,-7665.94970703125,0
1902.987000000001,0.06419871002435684,0.03177296370267868,0.001106736483052373,0.0,0.0,0.0,0.0,0.0009902891470119357,-0.0019541867077350616,0.0011521439300850034,1.0009278059005737,0.0,0.0,0.0,42.36393737792969,0.4389108717441559,5.53980016708374,-7667.95703125,0
1912.9140000000007,0.06422137469053268,0.03176514059305191,0.0011325684608891606,0.0,0.0,0.0,0.0,-0.001300458563491702,-0.004990665707737207,0.0009503679466433823,1.0000672340393066,0.0,0.0,0.0,42.359588623046875,0.4356151819229126,5.5373311042785645,-7667.169921875,0
1922.8100000000013,0.06422574073076248,0.03176471218466759,0.0011735823936760426,0.0,0.0,0.0,0.0,-0.0024564098566770554,0.0028345754835754633,-0.0034853010438382626,0.9998381733894348,0.0,0.0,0.0,42.37372589111328,0.43761470913887024,5.546195030212402,-7669.728515625,0
1932.7310000000016,0.06431704014539719,0.03181663900613785,0.0011394800385460258,0.0,0.0,0.0,0.0,0.0015104610938578844,0.006617393344640732,-0.0022352624218910933,0.9984089136123657,0.0,0.0,0.0,42.35722351074219,0.4433988630771637,5.567894458770752,-7666.74169921875,0
1942.634,0.0642322525382042,0.03181736543774605,0.0011537621030583978,0.0,0.0,0.0,0.0,0.0015640933997929096,-0.0021969673689454794,-0.002148101106286049,0.9965772032737732,0.0,0.0,0.0,42.36460494995117,0.4452383816242218,5.548175811767578,-7668.07763671875,0
1952.5510000000013,0.06431958079338074,0.031869418919086456,0.0011180432047694921,0.0,0.0,0.0,0.0,0.000634971831459552,-0.0022175756748765707,0.001197002362459898,0.9976211190223694,0.0,0.0,0.0,42.36023712158203,0.4485113322734833,5.56334114074707,-7667.28759765625,0
1962.4560000000001,0.06422151625156403,0.031881432980298996,0.001121841836720705,0.0,0.0,0.0,0.0,0.0027103866450488567,-0.0007995953201316297,0.0020070665050297976,1.0005301237106323,0.0,0.0,0.0,42.37058639526367,0.4486607313156128,5.550652980804443,-7669.1611328125,0
1972.3790000000008,0.06432510912418365,0.03192077949643135,0.0010487089166417718,0.0,0.0,0.0,0.0,0.0009683229145593941,0.0006131752743385732,0.0005392209277488291,0.9991260170936584,0.0,0.0,0.0,42.35944747924805,0.4503696858882904,5.5752787590026855,-7667.14453125,0
1982.2780000000002,0.06425587832927704,0.03189580887556076,0.0010227059246972203,0.0,0.0,0.0,0.0,0.0015669435961171985,-0.005327580031007528,-0.0003628802369348705,0.9994640946388245,0.0,0.0,0.0,42.3720703125,0.453163206577301,5.563528060913086,-7669.4287109375,0
1992.1980000000003,0.06432320922613144,0.03191903978586197,0.000975453935097903,0.0,0.0,0.0,0.0,0.004363398067653179,0.00014564846060238779,-0.0006007435149513185,0.9990596771240234,0.0,0.0,0.0,42.3677864074707,0.44849693775177,5.578000068664551,-7668.65380859375,0
2002.1010000000006,0.06423439085483551,0.03194217383861542,0.0009622604702599347,0.0,0.0,0.0,0.0,0.0019901811610907316,-0.0011458921944722533,-0.003207762958481908,0.9981129765510559,0.0,0.0,0.0,42.38179016113281,0.46065884828567505,5.575504779815674,-7671.1884765625,0
2012.0220000000008,0.06429468095302582,0.031947433948516846,0.0009085374767892063,0.0,0.0,0.0,0.0,0.0006818198598921299,-0.0017112831119447947,0.000678922631777823,0.9996098875999451,0.0,0.0,0.0,42.36904525756836,0.4551573097705841,5.576809883117676,-7668.8818359375,0
2021.924000000001,0.06422760337591171,0.03197350725531578,0.0009060151060111821,0.0,0.0,0.0,0.0,-0.000775839202105999,0.0037700810935348272,0.0013180567184463143,0.9995613694190979,0.0,0.0,0.0,42.38115692138672,0.45672571659088135,5.585333824157715,-7671.07421875,0
2031.8420000000006,0.0642344206571579,0.0318990983068943,0.000888302456587553,0.0,0.0,0.0,0.0,-0.0028883826453238726,0.0007891354034654796,0.002918659709393978,0.9993684887886047,0.0,0.0,0.0,42.379981994628906,0.4510289132595062,5.5621514320373535,-7670.861328125,0
2041.7510000000002,0.06419381499290466,0.031922560185194016,0.0008904612041078508,0.0,0.0,0.0,0.0,0.002706865081563592,0.004399880766868591,0.0014383847592398524,0.9995924234390259,0.0,0.0,0.0,42.39545822143555,0.45789289474487305,5.561522006988525,-7673.66259765625,0
2051.669,0.0641774982213974,0.03187042847275734,0.0009124418720602989,0.0,0.0,0.0,0.0,0.0015973038971424103,8.918003732105717e-05,0.00033327072742395103,1.0019993782043457,0.0,0.0,0.0,42.38513946533203,0.4575376808643341,5.555870532989502,-7671.794921875,0
2061.572,0.06419001519680023,0.0319025032222271,0.0009545520879328251,0.0,0.0,0.0,0.0,-0.0018777266377583146,-0.003420631168410182,-0.000649588939268142,0.9990219473838806,0.0,0.0,0.0,42.39699172973633,0.4557304382324219,5.5604963302612305,-7673.939453125,0
2071.4940000000006,0.06419824808835983,0.031865015625953674,0.0009609655826352537,0.0,0.0,0.0,0.0,-0.0020248047076165676,0.0005190778756514192,0.0023706729989498854,0.9993151426315308,0.0,0.0,0.0,42.38470458984375,0.46164119243621826,5.556538105010986,-7671.7158203125,0
2081.397000000001,0.06419303268194199,0.03189190477132797,0.0010015132138505578,0.0,0.0,0.0,0.0,-0.001957521541044116,-0.003084437223151326,0.0017170764040201902,1.0012749433517456,0.0,0.0,0.0,42.39421844482422,0.46000391244888306,5.573754787445068,-7673.4375,0
2091.3140000000003,0.06416789442300797,0.03182850405573845,0.001049250946380198,0.0,0.0,0.0,0.0,0.00032308284426108,0.0015610348200425506,-0.0025549721904098988,0.998846173286438,0.0,0.0,0.0,42.38868713378906,0.45628678798675537,5.561723232269287,-7672.4365234375,0
2101.2160000000003,0.06416910886764526,0.03186393529176712,0.0011059052776545286,0.0,0.0,0.0,0.0,-0.002145985374227166,-0.0005230636452324688,0.006597904022783041,0.9970502853393555,0.0,0.0,0.0,42.39555740356445,0.45402786135673523,5.568577766418457,-7673.6806640625,0
2111.1410000000014,0.06421060860157013,0.031848058104515076,0.0010937111219391227,0.0,0.0,0.0,0.0,-0.0003694324695970863,-0.0012674551689997315,0.004415750969201326,0.999005138874054,0.0,0.0,0.0,42.38741683959961,0.4502803087234497,5.569405555725098,-7672.20703125,0
2121.0380000000005,0.06422147154808044,0.031811777502298355,0.0011125849559903145,0.0,0.0,0.0,0.0,-0.0015293433098122478,0.0007979817455634475,-0.001435071462765336,1.0012460947036743,0.0,0.0,0.0,42.39771270751953,0.4370410442352295,5.5688042640686035,-7674.0703125,0
2130.9570000000003,0.0642576664686203,0.03183047100901604,0.0011220223968848586,0.0,0.0,0.0,0.0,0.0018502656603232026,-0.0005190932424739003,0.0018206684617325664,1.0015270709991455,0.0,0.0,0.0,42.37804412841797,0.44695281982421875,5.569930553436279,-7670.51025390625,0
2140.861000000001,0.06423322856426239,0.03180350735783577,0.0011348287807777524,0.0,0.0,0.0,0.0,-0.0008674513665027916,-0.004510992206633091,0.00022130463912617415,1.001798152923584,0.0,0.0,0.0,42.38915252685547,0.43821588158607483,5.574891567230225,-7672.521484375,0
2150.7790000000005,0.06430139392614365,0.03184374421834946,0.001112769590690732,0.0,0.0,0.0,0.0,-0.00036022000131197274,0.0033552420791238546,-0.001929854042828083,1.001063585281372,0.0,0.0,0.0,42.368560791015625,0.4431208372116089,5.591311454772949,-7668.7939453125,0
2160.684000000001,0.06428129971027374,0.03184552863240242,0.0011316383024677634,0.0,0.0,0.0,0.0,-0.0012174738803878427,0.0009844248415902257,-0.0013756194384768605,0.999514102935791,0.0,0.0,0.0,42.378082275390625,0.4417686462402344,5.589919567108154,-7670.517578125,0
2170.5960000000014,0.06430906802415848,0.031824201345443726,0.0011373588349670172,0.0,0.0,0.0,0.0,0.004928965121507645,0.0037491510156542063,0.0020768563263118267,0.9989960789680481,0.0,0.0,0.0,42.36566162109375,0.4450545608997345,5.578598499298096,-7668.26904296875,0
2180.509,0.06423592567443848,0.031802836805582047,0.0011404991382732987,0.0,0.0,0.0,0.0,-0.0020054555498063564,0.004260210320353508,-0.0006348037859424949,0.9981902241706848,0.0,0.0,0.0,42.37470626831055,0.4381503164768219,5.566922664642334,-7669.90576171875,0
2190.419,0.0642734095454216,0.03177778050303459,0.0011309399269521236,0.0,0.0,0.0,0.0,0.0001850143016781658,-2.2427013391279615e-05,0.004312209784984589,0.9994851350784302,0.0,0.0,0.0,42.360477447509766,0.43690553307533264,5.562821865081787,-7667.33154296875,0
2200.33,0.06418813765048981,0.0318203866481781,0.0011552186915650964,0.0,0.0,0.0,0.0,0.0020149790216237307,0.00012847917969338596,0.0010931827127933502,0.9987778067588806,0.0,0.0,0.0,42.36945724487305,0.4442494511604309,5.564401149749756,-7668.95654296875,0
