timestamp,stateEstimate.x,stateEstimate.y,stateEstimate.z,controller.cmd_thrust,controller.cmd_roll,controller.cmd_pitch,controller.cmd_yaw,controller.r_roll,controller.r_pitch,controller.r_yaw,controller.accelz,controller.actuatorThrust,controller.roll,controller.pitch,controller.yaw,controller.rollRate,controller.pitchRate,controller.yawRate,controller.ctr_yaw
0.0,-0.06922147423028946,-0.007418135646730661,-0.0015742834657430649,0.0,0.0,0.0,0.0,-0.001271207700483501,-0.003248517634347081,-0.0015658332267776132,1.0003167390823364,0.0,0.0,0.0,-1.263418197631836,2.0453855991363525,5.502825736999512,228.6811981201172,0
9.910000000001673,-0.0692390650510788,-0.007468793075531721,-0.0016504250233992934,0.0,0.0,0.0,0.0,-0.0007385979988612235,0.001218130229972303,0.00197983137331903,0.9992913603782654,0.0,0.0,0.0,-1.2695761919021606,2.0433647632598877,5.5058112144470215,229.7958221435547,0
19.82100000000173,-0.06927266716957092,-0.0073677049949765205,-0.001566435443237424,0.0,0.0,0.0,0.0,0.0011363287921994925,-0.0016289944760501385,-0.003420400433242321,1.0000032186508179,0.0,0.0,0.0,-1.2672630548477173,2.042668581008911,5.499279499053955,229.3771209716797,0
29.740999999999985,-0.06929847598075867,-0.007419148925691843,-0.0016336548142135143,0.0,0.0,0.0,0.0,-0.0005293298745527864,-0.0014952484052628279,0.00010748583008535206,1.0001767873764038,0.0,0.0,0.0,-1.2743892669677734,2.033613443374634,5.4984636306762695,230.66697692871094,0
39.64300000000003,-0.06929445266723633,-0.0073759900406003,-0.0015687346458435059,0.0,0.0,0.0,0.0,-0.0006696333875879645,-0.002803435083478689,-0.0001982647372642532,0.9988647699356079,0.0,0.0,0.0,-1.2635269165039062,2.0474886894226074,5.513634204864502,228.70089721679688,0
49.56000000000131,-0.06931156665086746,-0.007418287452310324,-0.001644272357225418,0.0,0.0,0.0,0.0,0.00027899170527234674,-0.005663745570927858,0.004148884676396847,0.998279333114624,0.0,0.0,0.0,-1.2689876556396484,2.0429420471191406,5.5259504318237305,229.68927001953125,0
59.46600000000035,-0.06932399421930313,-0.007325655315071344,-0.0015664583770558238,0.0,0.0,0.0,0.0,-0.0009280918166041374,-0.001464586821384728,0.00044419916230253875,0.9987028241157532,0.0,0.0,0.0,-1.2574230432510376,2.060518980026245,5.530121803283691,227.5960693359375,0
69.38500000000022,-0.06930364668369293,-0.007316775619983673,-0.001679915119893849,0.0,0.0,0.0,0.0,0.0002775002212729305,-0.004142137710005045,0.0013649158645421267,0.999906599521637,0.0,0.0,0.0,-1.255719542503357,2.0568175315856934,5.529139995574951,227.28773498535156,0
79.29200000000128,-0.06927807629108429,-0.007290358655154705,-0.0016271520871669054,0.0,0.0,0.0,0.0,-0.00015528983203694224,-0.004618476144969463,0.003746271366253495,0.998997151851654,0.0,0.0,0.0,-1.2459639310836792,2.0593454837799072,5.542953968048096,225.52194213867188,0
89.20900000000074,-0.06930655986070633,-0.00736087653785944,-0.0017085066065192223,0.0,0.0,0.0,0.0,6.481719174189493e-05,0.00039830183959566057,-1.1280881153652444e-05,1.000281572341919,0.0,0.0,0.0,-1.2524690628051758,2.049765110015869,5.543629169464111,226.6993865966797,0
99.1140000000014,-0.06920979917049408,-0.007307848427444696,-0.0016192515613511205,0.0,0.0,0.0,0.0,0.0018508660141378641,0.0034551164135336876,-0.0021113853435963392,0.9995560646057129,0.0,0.0,0.0,-1.2443448305130005,2.0620360374450684,5.570201873779297,225.2288818359375,0
109.03200000000106,-0.0692434087395668,-0.007345934864133596,-0.0016806373605504632,0.0,0.0,0.0,0.0,-0.0016108097042888403,0.003626150544732809,-0.0005956387030892074,0.9972072243690491,0.0,0.0,0.0,-1.252733588218689,2.0535528659820557,5.558236598968506,226.7472686767578,0
118.9320000000007,-0.06923167407512665,-0.007344665005803108,-0.0016384387854486704,0.0,0.0,0.0,0.0,0.003241857746616006,0.001981945475563407,0.00047782520414330065,0.9978679418563843,0.0,0.0,0.0,-1.2590147256851196,2.0568997859954834,5.561237335205078,227.88417053222656,0
128.84799999999996,-0.06926746666431427,-0.007419611793011427,-0.001716112019494176,0.0,0.0,0.0,0.0,-0.0002551165234763175,-6.990852853050455e-05,-0.0021230049896985292,0.9997154474258423,0.0,0.0,0.0,-1.265219807624817,2.046858310699463,5.55930757522583,229.00730895996094,0
138.76500000000124,-0.06924788653850555,-0.0073823630809783936,-0.0017315855948254466,0.0,0.0,0.0,0.0,0.00037756157689727843,0.0044174944050610065,-0.0006026822375133634,0.9979618787765503,0.0,0.0,0.0,-1.2723181247711182,2.045901298522949,5.566555976867676,230.29212951660156,0
148.6790000000001,-0.06932278722524643,-0.00741566950455308,-0.0017433202592656016,0.0,0.0,0.0,0.0,-0.0017210047226399183,0.00251701264642179,0.00014665565686300397,1.0004808902740479,0.0,0.0,0.0,-1.2724945545196533,2.0402231216430664,5.542293071746826,230.3240509033203,0
158.57800000000134,-0.06926646828651428,-0.0073813218623399734,-0.001743994653224945,0.0,0.0,0.0,0.0,-0.0014690662501379848,-0.005676354747265577,0.0048338379710912704,0.9999088048934937,0.0,0.0,0.0,-1.2782164812088013,2.053363561630249,5.542845249176025,231.35972595214844,0
168.5,-0.06934105604887009,-0.007416196167469025,-0.0017556252423673868,0.0,0.0,0.0,0.0,-0.0008522987482137978,0.0022679902613162994,-0.0018134996062144637,0.9976637363433838,0.0,0.0,0.0,-1.2769880294799805,2.054213762283325,5.544485569000244,231.13735961914062,0
178.40000000000146,-0.06926319003105164,-0.007353495340794325,-0.0017549158073961735,0.0,0.0,0.0,0.0,0.0022613382898271084,0.005083977710455656,-0.0007871613488532603,0.9994640946388245,0.0,0.0,0.0,-1.2765655517578125,2.0514984130859375,5.539112091064453,231.0609130859375,0
188.32200000000012,-0.06933752447366714,-0.007388472091406584,-0.0017681719036772847,0.0,0.0,0.0,0.0,0.0005033178604207933,-0.0012066075578331947,0.0037431649398058653,1.0004347562789917,0.0,0.0,0.0,-1.2743680477142334,2.047055959701538,5.536514759063721,230.6631622314453,0
198.22299999999996,-0.06926386803388596,-0.007316130213439465,-0.0017590969800949097,0.0,0.0,0.0,0.0,-0.00016359805886168033,-0.0004525398835539818,0.00115010526496917,1.0000513792037964,0.0,0.0,0.0,-1.2802982330322266,2.0468387603759766,5.529130935668945,231.73654174804688,0
208.14400000000023,-0.0693385899066925,-0.0073486450128257275,-0.0017708824016153812,0.0,0.0,0.0,0.0,-0.00020501008839346468,0.00014791786088608205,-0.0009588443790562451,0.9989341497421265,0.0,0.0,0.0,-1.2792540788650513,2.0504586696624756,5.523986339569092,231.5475311279297,0
218.04500000000007,-0.06926438212394714,-0.007368473336100578,-0.0017805614043027163,0.0,0.0,0.0,0.0,0.0005496424855664372,-0.0010952765587717295,0.0004835086583625525,0.997346818447113,0.0,0.0,0.0,-1.2857184410095215,2.04256272315979,5.526203155517578,232.7176055908203,0
227.96600000000035,-0.06933612376451492,-0.007403722498565912,-0.0017942771082744002,0.0,0.0,0.0,0.0,0.0016559017822146416,-0.0010045294184237719,0.00043440755689516664,0.998033344745636,0.0,0.0,0.0,-1.2854118347167969,2.0354692935943604,5.520047187805176,232.66207885742188,0
237.8670000000002,-0.06926067918539047,-0.007374913897365332,-0.001782114035449922,0.0,0.0,0.0,0.0,0.00019219609384890646,0.003191336989402771,-0.00235424074344337,0.9998866319656372,0.0,0.0,0.0,-1.2821040153503418,2.0485594272613525,5.547170162200928,232.06338500976562,0
247.78600000000006,-0.06933080404996872,-0.007409241516143084,-0.0017975913360714912,0.0,0.0,0.0,0.0,0.003146279836073518,0.0003509311063680798,-0.002687206258997321,0.9986594319343567,0.0,0.0,0.0,-1.2817522287368774,2.0449483394622803,5.528681755065918,231.99969482421875,0
257.6900000000005,-0.06927017122507095,-0.007428983226418495,-0.0017643289174884558,0.0,0.0,0.0,0.0,-0.0016952825244516134,0.004380946978926659,-0.0024816126096993685,0.9981682300567627,0.0,0.0,0.0,-1.2972255945205688,2.0466203689575195,5.546224117279053,234.80043029785156,0
267.60699999999997,-0.06933929771184921,-0.007464692462235689,-0.0017780568450689316,0.0,0.0,0.0,0.0,-0.0026575808878988028,-0.006754438392817974,0.005141363944858313,0.9971812963485718,0.0,0.0,0.0,-1.2976813316345215,2.0425636768341064,5.538390159606934,234.88290405273438,0
277.51500000000124,-0.06925244629383087,-0.007425949443131685,-0.0017345944652333856,0.0,0.0,0.0,0.0,-0.0005326218088157475,-0.0015890200156718493,-0.0007602749392390251,0.9979597926139832,0.0,0.0,0.0,-1.3014464378356934,2.0391554832458496,5.540609359741211,235.5644073486328,0
287.4300000000003,-0.06931936740875244,-0.007462036795914173,-0.001747477101162076,0.0,0.0,0.0,0.0,0.0027744818944483995,-0.0006477371207438409,-0.0032056099735200405,0.9990115165710449,0.0,0.0,0.0,-1.300560474395752,2.0447206497192383,5.541522026062012,235.40402221679688,0
297.34000000000015,-0.06923021376132965,-0.00734531506896019,-0.0017403012607246637,0.0,0.0,0.0,0.0,0.0014009514125064015,0.00736431498080492,0.0019877012819051743,0.9998920559883118,0.0,0.0,0.0,-1.302276372909546,2.0668230056762695,5.5627031326293945,235.71463012695312,0
307.25800000000163,-0.06929590553045273,-0.007376901339739561,-0.001754098804667592,0.0,0.0,0.0,0.0,0.0005423240945674479,-0.0016875537112355232,-0.0007009690161794424,1.0006074905395508,0.0,0.0,0.0,-1.2989846467971802,2.057427167892456,5.553555965423584,235.1188201904297,0
317.15600000000086,-0.06928672641515732,-0.007313985377550125,-0.0016918088076636195,0.0,0.0,0.0,0.0,0.0012760029640048742,0.0002156466944143176,-0.001051635481417179,0.9991291761398315,0.0,0.0,0.0,-1.2986658811569214,2.0521743297576904,5.539627552032471,235.06109619140625,0
327.0730000000003,-0.0693569928407669,-0.00734521821141243,-0.0016988024581223726,0.0,0.0,0.0,0.0,0.001007390208542347,-0.0015652173897251487,-0.000700129137840122,0.9976473450660706,0.0,0.0,0.0,-1.2973624467849731,2.0452117919921875,5.531484603881836,234.8251953125,0
336.978000000001,-0.06936619430780411,-0.007333151996135712,-0.0017939906101673841,0.0,0.0,0.0,0.0,8.771188004175201e-05,0.00039162300527095795,0.0009725804557092488,0.9986782073974609,0.0,0.0,0.0,-1.303450584411621,2.0487258434295654,5.546497821807861,235.9271697998047,0
346.89800000000105,-0.06944028288125992,-0.007365427445620298,-0.0018100393936038017,0.0,0.0,0.0,0.0,-0.0025565053801983595,-0.001447417656891048,0.0006605844246223569,0.999347984790802,0.0,0.0,0.0,-1.3032361268997192,2.044506311416626,5.544576168060303,235.88833618164062,0
356.8010000000013,-0.06946048140525818,-0.007369318976998329,-0.001906919525936246,0.0,0.0,0.0,0.0,-0.0017597817350178957,0.0013378874864429235,-0.0007637934759259224,0.9993811249732971,0.0,0.0,0.0,-1.3017641305923462,2.043160915374756,5.53704309463501,235.6219024658203,0
366.71900000000096,-0.06953684985637665,-0.007399940863251686,-0.0019309597555547953,0.0,0.0,0.0,0.0,-0.001670742523856461,-0.003826890839263797,0.0002707535750232637,0.999804675579071,0.0,0.0,0.0,-1.3007255792617798,2.04455304145813,5.525027275085449,235.43389892578125,0
376.6230000000014,-0.06955359131097794,-0.007365519646555185,-0.0020236645359545946,0.0,0.0,0.0,0.0,0.002395658753812313,-0.0005114385858178139,0.001539396122097969,1.0006157159805298,0.0,0.0,0.0,-1.3057903051376343,2.0693578720092773,5.547979831695557,236.35064697265625,0
386.5400000000009,-0.06962771713733673,-0.0073928674682974815,-0.0020534940995275974,0.0,0.0,0.0,0.0,0.001195187564007938,0.0005129179335199296,0.004728094208985567,1.0002716779708862,0.0,0.0,0.0,-1.3040268421173096,2.073096513748169,5.545267581939697,236.0314483642578,0
396.44600000000173,-0.06964357197284698,-0.0074235983192920685,-0.0021607251837849617,0.0,0.0,0.0,0.0,-0.000611471536103636,-0.00918575655668974,0.004617717582732439,0.9980211853981018,0.0,0.0,0.0,-1.3031301498413086,2.0684521198272705,5.541715621948242,235.86917114257812,0
406.3640000000014,-0.0697188451886177,-0.007452720310539007,-0.0021958202123641968,0.0,0.0,0.0,0.0,0.000348979898262769,-0.0020610757637768984,0.0019034163560718298,0.9997398257255554,0.0,0.0,0.0,-1.3008962869644165,2.0612986087799072,5.539870738983154,235.46482849121094,0
416.26800000000003,-0.06973248720169067,-0.007430865429341793,-0.002286139177158475,0.0,0.0,0.0,0.0,0.0007157459040172398,-0.0003877187555190176,-0.0027130444068461657,0.9986981153488159,0.0,0.0,0.0,-1.3065003156661987,2.0872883796691895,5.574909210205078,236.47915649414062,0
426.20600000000013,-0.06972771137952805,-0.0074122133664786816,-0.0023897760547697544,0.0,0.0,0.0,0.0,-0.0027334028854966164,-0.0017727355007082224,0.0026490408927202225,0.9987332820892334,0.0,0.0,0.0,-1.309090256690979,2.1081178188323975,5.603055000305176,236.9479522705078,0
436.09000000000015,-0.06979801505804062,-0.007436785846948624,-0.0024371128529310226,0.0,0.0,0.0,0.0,0.0032167204190045595,-0.0019863678608089685,0.0006473560933955014,1.0001325607299805,0.0,0.0,0.0,-1.3078542947769165,2.110333204269409,5.604321002960205,236.72422790527344,0
446.01600000000144,-0.06979057192802429,-0.0073655215092003345,-0.002520310925319791,0.0,0.0,0.0,0.0,-0.002096737502142787,7.876056042732671e-05,3.395857856958173e-05,0.9975694417953491,0.0,0.0,0.0,-1.313069224357605,2.143667459487915,5.628493309020996,237.66815185546875,0
455.91300000000047,-0.06985782086849213,-0.007383171934634447,-0.0025726414751261473,0.0,0.0,0.0,0.0,0.0028071999549865723,0.0006104217027314007,0.0030673311557620764,0.997329831123352,0.0,0.0,0.0,-1.3115055561065674,2.1379919052124023,5.622150421142578,237.38511657714844,0
465.83400000000074,-0.06989575177431107,-0.0073220860213041306,-0.002624998800456524,0.0,0.0,0.0,0.0,0.002921202452853322,0.0036024197470396757,0.0027820123359560966,0.9988507628440857,0.0,0.0,0.0,-1.3100461959838867,2.1286380290985107,5.602182865142822,237.1209716796875,0
475.7350000000006,-0.06996618956327438,-0.007332829758524895,-0.0026816234458237886,0.0,0.0,0.0,0.0,0.0020241455640643835,-0.0012631434947252274,0.0009439960704185069,0.9989959597587585,0.0,0.0,0.0,-1.3084474802017212,2.1228840351104736,5.596972465515137,236.83160400390625,0
485.65400000000045,-0.07004032284021378,-0.007344126235693693,-0.0027395454235374928,0.0,0.0,0.0,0.0,-0.003361308015882969,-0.0037164264358580112,-0.001456111902371049,0.9986875057220459,0.0,0.0,0.0,-1.306295394897461,2.11519718170166,5.582215785980225,236.44204711914062,0
495.5590000000011,-0.07011719048023224,-0.0073561170138418674,-0.002798389410600066,0.0,0.0,0.0,0.0,0.001073376857675612,-0.002116701565682888,0.0014277608133852482,0.9992062449455261,0.0,0.0,0.0,-1.3052676916122437,2.1127026081085205,5.58682107925415,236.25604248046875,0
505.4810000000016,-0.07019617408514023,-0.007369561120867729,-0.002857824554666877,0.0,0.0,0.0,0.0,-0.0023312910925596952,-0.0008272867416962981,-0.0022503018844872713,0.9991065263748169,0.0,0.0,0.0,-1.304152250289917,2.1114752292633057,5.590751647949219,236.05416870117188,0
515.380000000001,-0.07022935152053833,-0.0073261866346001625,-0.0029339164029806852,0.0,0.0,0.0,0.0,0.0018442444270476699,0.0027579781599342823,-0.0010330644436180592,0.9995920658111572,0.0,0.0,0.0,-1.311432123184204,2.137295722961426,5.592190265655518,237.37181091308594,0
525.3040000000001,-0.07031077891588211,-0.007338395807892084,-0.002996414666995406,0.0,0.0,0.0,0.0,0.0004040227213408798,0.00292643322609365,0.00022339649149216712,0.9997133612632751,0.0,0.0,0.0,-1.310909390449524,2.1318633556365967,5.590713024139404,237.27720642089844,0
535.2020000000011,-0.07039440423250198,-0.00735135655850172,-0.0030592551920562983,0.0,0.0,0.0,0.0,0.0018737962236627936,0.002129555447027087,0.0009411185747012496,0.9989453554153442,0.0,0.0,0.0,-1.3078656196594238,2.1244683265686035,5.587639331817627,236.72628784179688,0
545.1220000000012,-0.07047972083091736,-0.007365614175796509,-0.003122524591162801,0.0,0.0,0.0,0.0,-0.0028789115604013205,-0.0012214634334668517,0.00036133729736320674,0.9979041814804077,0.0,0.0,0.0,-1.3067041635513306,2.115872859954834,5.569235324859619,236.51605224609375,0
555.0280000000002,-0.07056726515293121,-0.007382369600236416,-0.003186707617715001,0.0,0.0,0.0,0.0,-0.0012075125705450773,0.0022882865741848946,0.00126760290004313,0.9991833567619324,0.0,0.0,0.0,-1.3048114776611328,2.1145920753479004,5.559568881988525,236.17347717285156,0
564.9490000000005,-0.06925909221172333,-0.007438072934746742,-0.0018123104237020016,0.0,0.0,0.0,0.0,0.0016252838540822268,-0.000264904199866578,-0.0021924071479588747,0.9988008141517639,0.0,0.0,0.0,-1.2924232482910156,2.177058696746826,5.772230625152588,233.93116760253906,0
574.848,-0.06929126381874084,-0.007449134718626738,-0.0018185606459155679,0.0,0.0,0.0,0.0,-0.0013005067594349384,0.0023455226328223944,0.0019517645705491304,0.9991418719291687,0.0,0.0,0.0,-1.2907243967056274,2.169066905975342,5.747714996337891,233.62367248535156,0
584.768,-0.06923811137676239,-0.007354901637881994,-0.0016828126972541213,0.0,0.0,0.0,0.0,-0.003265694947913289,0.0028445750940591097,-0.002914122072979808,0.9990924596786499,0.0,0.0,0.0,-1.2960114479064941,2.205087184906006,5.755805969238281,234.5806427001953,0
594.6790000000001,-0.06927236169576645,-0.007361148484051228,-0.0016829436644911766,0.0,0.0,0.0,0.0,0.004619576968252659,-0.002240078989416361,-0.004465688019990921,0.9994999766349792,0.0,0.0,0.0,-1.2945148944854736,2.2058143615722656,5.750244140625,234.30978393554688,0
604.5950000000012,-0.06922122836112976,-0.007311229594051838,-0.001622500247322023,0.0,0.0,0.0,0.0,0.0008867444121278822,-0.0025736393872648478,0.00028140281210653484,0.999992311000824,0.0,0.0,0.0,-1.2816479206085205,2.224027395248413,5.75139045715332,231.98080444335938,0
614.4940000000006,-0.0692572295665741,-0.00731487525627017,-0.0016193484188988805,0.0,0.0,0.0,0.0,-0.0006168836262077093,0.0044370852410793304,0.0008909992757253349,0.9997994899749756,0.0,0.0,0.0,-1.2808398008346558,2.2137742042541504,5.7410712242126465,231.8345489501953,0
624.4110000000001,-0.06926273554563522,-0.007244626991450787,-0.0015545659698545933,0.0,0.0,0.0,0.0,-0.0005138230044394732,0.001246071420609951,-0.002450501313433051,0.9984906315803528,0.0,0.0,0.0,-1.2909579277038574,2.242624044418335,5.732872009277344,233.66595458984375,0
634.3170000000009,-0.06930214911699295,-0.0072449082508683205,-0.001546639483422041,0.0,0.0,0.0,0.0,-0.0009036968112923205,-0.002471283543854952,0.00011951320630032569,0.9983959794044495,0.0,0.0,0.0,-1.2904748916625977,2.2385053634643555,5.727366924285889,233.57852172851562,0
644.232,-0.06922975182533264,-0.0072279879823327065,-0.0015236383769661188,0.0,0.0,0.0,0.0,0.0019109355052933097,0.005841473117470741,-0.0002472539199516177,0.9987589120864868,0.0,0.0,0.0,-1.279281735420227,2.2373523712158203,5.740911483764648,231.5525360107422,0
654.1360000000004,-0.06927220523357391,-0.007230786606669426,-0.001516155432909727,0.0,0.0,0.0,0.0,0.00028382186428643763,0.00018392267520539463,-0.00028621451929211617,1.0000693798065186,0.0,0.0,0.0,-1.2786543369293213,2.232008457183838,5.727325916290283,231.43898010253906,0
664.0530000000017,-0.06920116394758224,-0.007231149356812239,-0.001505370019003749,0.0,0.0,0.0,0.0,-0.0012689800933003426,0.0018954171100631356,-0.0019324386958032846,0.9990154504776001,0.0,0.0,0.0,-1.269654631614685,2.2283453941345215,5.727107524871826,229.80999755859375,0
673.9590000000007,-0.06924574077129364,-0.007234332617372274,-0.001497781602665782,0.0,0.0,0.0,0.0,0.00025617540813982487,-0.0012329632882028818,0.0003060688322875649,1.0010719299316406,0.0,0.0,0.0,-1.2689062356948853,2.220294713973999,5.7279462814331055,229.67453002929688,0
683.8740000000016,-0.06921195238828659,-0.007243443746119738,-0.0014921205583959818,0.0,0.0,0.0,0.0,4.6764947910560295e-05,-0.0012147958623245358,-0.0018971003592014313,1.0004576444625854,0.0,0.0,0.0,-1.2680493593215942,2.2218616008758545,5.712531089782715,229.5194549560547,0
693.7830000000013,-0.0692586824297905,-0.007248641457408667,-0.001483839238062501,0.0,0.0,0.0,0.0,0.00040228990837931633,-0.0005496593657881021,-0.002487864578142762,0.9995179176330566,0.0,0.0,0.0,-1.2666136026382446,2.2208540439605713,5.703464508056641,229.25958251953125,0
703.6950000000015,-0.06921763718128204,-0.0072832368314266205,-0.001489022048190236,0.0,0.0,0.0,0.0,-0.0004768679791595787,0.00445533636957407,-0.0004731902736239135,0.999176025390625,0.0,0.0,0.0,-1.2648391723632812,2.2227625846862793,5.711577892303467,228.93841552734375,0
713.6090000000004,-0.06926664710044861,-0.007291433401405811,-0.0014817874180153012,0.0,0.0,0.0,0.0,-0.000782395713031292,-0.0023907937575131655,0.002593334298580885,1.0018165111541748,0.0,0.0,0.0,-1.2634696960449219,2.2243571281433105,5.699044227600098,228.69052124023438,0
723.5150000000012,-0.06918824464082718,-0.007300048600882292,-0.001467979047447443,0.0,0.0,0.0,0.0,0.0013256138190627098,0.0023541804403066635,-0.0025352195370942354,0.9998719096183777,0.0,0.0,0.0,-1.2611500024795532,2.217029333114624,5.695621967315674,228.27064514160156,0
733.4260000000013,-0.06923415511846542,-0.007311415858566761,-0.0014585100580006838,0.0,0.0,0.0,0.0,0.004418041091412306,0.001662399503402412,-0.005024467594921589,0.9990985989570618,0.0,0.0,0.0,-1.259454607963562,2.210693120956421,5.6949968338012695,227.96380615234375,0
743.3380000000016,-0.06922082602977753,-0.007338112685829401,-0.0014502431731671095,0.0,0.0,0.0,0.0,-0.004455164540559053,0.0013254908844828606,0.0005816335324198008,1.0017058849334717,0.0,0.0,0.0,-1.2649779319763184,2.2036733627319336,5.69650936126709,228.96353149414062,0
753.2520000000004,-0.06921575218439102,-0.007364441640675068,-0.001441301079466939,0.0,0.0,0.0,0.0,-0.0041200341656804085,-0.0014460613019764423,-0.0010180749231949449,0.9990997314453125,0.0,0.0,0.0,-1.2640502452850342,2.196326971054077,5.684192657470703,228.7956085205078,0
763.1600000000017,-0.06922861188650131,-0.007328741252422333,-0.001654325402341783,0.0,0.0,0.0,0.0,0.0009344969294033945,0.001539517194032669,-0.00274172006174922,0.998725175857544,0.0,0.0,0.0,-1.2634179592132568,2.2033748626708984,5.675987243652344,228.68115234375,0
773.0760000000009,-0.06920383870601654,-0.007319236174225807,-0.0015826066955924034,0.0,0.0,0.0,0.0,0.0038792144041508436,0.00150210817810148,-0.0011035030474886298,0.9986679553985596,0.0,0.0,0.0,-1.2618657350540161,2.204176664352417,5.682033538818359,228.40020751953125,0
782.9840000000004,-0.0692124217748642,-0.00736113591119647,-0.0017057614168152213,0.0,0.0,0.0,0.0,0.0008680897881276906,0.0012318994849920273,0.002711773384362459,0.9994602799415588,0.0,0.0,0.0,-1.2726671695709229,2.196319341659546,5.6634602546691895,230.35528564453125,0
792.8940000000002,-0.06911798566579819,-0.007317856885492802,-0.0016024017240852118,0.0,0.0,0.0,0.0,-0.001450235489755869,-0.0013983631506562233,0.002072653966024518,0.9989009499549866,0.0,0.0,0.0,-1.2717139720916748,2.1880784034729004,5.652487754821777,230.18275451660156,0
802.8040000000001,-0.06913270801305771,-0.007335600443184376,-0.0016725588357076049,0.0,0.0,0.0,0.0,0.0005428701406344771,0.00041581899859011173,0.002652902388945222,0.9966170787811279,0.0,0.0,0.0,-1.277498483657837,2.1907520294189453,5.661185264587402,231.22976684570312,0
812.7150000000001,-0.06919386237859726,-0.007269811816513538,-0.001636657165363431,0.0,0.0,0.0,0.0,-0.0013204599963501096,0.007935753092169762,-0.005175276659429073,0.9983009099960327,0.0,0.0,0.0,-1.2623438835144043,2.1965110301971436,5.654513835906982,228.48675537109375,0
822.6290000000008,-0.06920894235372543,-0.0072912294417619705,-0.001709216507151723,0.0,0.0,0.0,0.0,0.0022575645707547665,0.0008928274037316442,-0.0013434808934107423,0.9969485998153687,0.0,0.0,0.0,-1.2697505950927734,2.19692063331604,5.645859718322754,229.82736206054688,0
832.5390000000007,-0.06918764114379883,-0.0072614760138094425,-0.001666847849264741,0.0,0.0,0.0,0.0,0.002210140461102128,-9.001928265206516e-05,-0.0025805714540183544,0.9989286065101624,0.0,0.0,0.0,-1.2612305879592896,2.1899161338806152,5.6415114402771,228.2852325439453,0
842.4490000000005,-0.06920754164457321,-0.00728651275858283,-0.001735185389406979,0.0,0.0,0.0,0.0,0.003519657766446471,-1.2625419913092628e-05,-0.00035247241612523794,0.9985377192497253,0.0,0.0,0.0,-1.2609035968780518,2.1819374561309814,5.640028953552246,228.22605895996094,0
852.3600000000006,-0.06919678300619125,-0.0072472477331757545,-0.001696597202681005,0.0,0.0,0.0,0.0,-0.004643769934773445,0.0018864261219277978,-0.0009150003315880895,0.9987634420394897,0.0,0.0,0.0,-1.2495898008346558,2.1827445030212402,5.6368279457092285,226.17823791503906,0
862.2710000000006,-0.0693201869726181,-0.007385639473795891,-0.0017559983534738421,0.0,0.0,0.0,0.0,0.0028762049041688442,-0.0014694009441882372,0.0017016869969666004,0.9991317391395569,0.0,0.0,0.0,-1.254047155380249,2.167869806289673,5.6213531494140625,226.98501586914062,0
872.1830000000009,-0.0691729411482811,-0.007332370616495609,-0.0016826656647026539,0.0,0.0,0.0,0.0,-0.002173081738874316,-0.0028105208184570074,0.001568827428855002,0.9996368288993835,0.0,0.0,0.0,-1.254047155380249,2.167869806289673,5.6213531494140625,226.98501586914062,0
882.094000000001,-0.06926160305738449,-0.007379267830401659,-0.0017579356208443642,0.0,0.0,0.0,0.0,0.0027184500358998775,-0.0010093426099047065,0.0011073293862864375,1.0000522136688232,0.0,0.0,0.0,-1.2611693143844604,2.171445608139038,5.62104606628418,228.27415466308594,0
892.005000000001,-0.06916878372430801,-0.007334766443818808,-0.0017058959929272532,0.0,0.0,0.0,0.0,-0.0008740777848288417,0.0030600987374782562,-0.0009142752387560904,0.9980860352516174,0.0,0.0,0.0,-1.2611693143844604,2.171445608139038,5.62104606628418,228.27415466308594,0
901.9170000000013,-0.06927617639303207,-0.007437199354171753,-0.0017812945879995823,0.0,0.0,0.0,0.0,-0.0005970588536001742,-0.0023893145844340324,0.0020262207835912704,0.9972258806228638,0.0,0.0,0.0,-1.2664440870285034,2.157480478286743,5.611027717590332,229.2288818359375,0
911.8270000000011,-0.06917417049407959,-0.007351932115852833,-0.0017057626973837614,0.0,0.0,0.0,0.0,0.001203086692839861,-0.0007406094809994102,0.0001905791141325608,1.0001451969146729,0.0,0.0,0.0,-1.2664440870285034,2.157480478286743,5.611027717590332,229.2288818359375,0
921.7380000000012,-0.0692748948931694,-0.0074395909905433655,-0.0017910234164446592,0.0,0.0,0.0,0.0,0.0004993937909603119,-0.00011672607797663659,0.0006298560765571892,0.9985698461532593,0.0,0.0,0.0,-1.2746542692184448,2.1620538234710693,5.612178325653076,230.71495056152344,0
931.6490000000013,-0.06921038031578064,-0.007305439095944166,-0.0017052280018106103,0.0,0.0,0.0,0.0,-0.0008955359808169305,-0.0004429912951309234,-0.0015719453804194927,0.998701810836792,0.0,0.0,0.0,-1.2683604955673218,2.1767282485961914,5.622467517852783,229.57577514648438,0
941.5690000000013,-0.06925154477357864,-0.007381403353065252,-0.001782623352482915,0.0,0.0,0.0,0.0,0.00025089780683629215,0.0011017718352377415,0.0027680874336510897,0.9969280362129211,0.0,0.0,0.0,-1.272288203239441,2.173285722732544,5.625422954559326,230.28668212890625,0
951.4760000000006,-0.06931694597005844,-0.007411745376884937,-0.0018003794830292463,0.0,0.0,0.0,0.0,-0.0024622916243970394,-0.004245373420417309,-0.0014127762988209724,0.9987586736679077,0.0,0.0,0.0,-1.2720338106155396,2.172635316848755,5.623332977294922,230.2406463623047,0
961.3880000000008,-0.069331593811512,-0.007420780137181282,-0.0018985167844220996,0.0,0.0,0.0,0.0,0.002053549513220787,-0.002443766687065363,-0.0007384588825516403,1.0010515451431274,0.0,0.0,0.0,-1.2707712650299072,2.170849561691284,5.61534309387207,230.01214599609375,0
971.3030000000017,-0.06939810514450073,-0.0074530052952468395,-0.0019264069851487875,0.0,0.0,0.0,0.0,0.0011785971000790596,0.002580223372206092,-0.0019988997373729944,0.9993500709533691,0.0,0.0,0.0,-1.2702826261520386,2.1718499660491943,5.620064735412598,229.92367553710938,0
981.2060000000001,-0.06939688324928284,-0.007390698418021202,-0.0020456889178603888,0.0,0.0,0.0,0.0,-0.0005832373863086104,0.004418714437633753,0.00098390132188797,0.9988698959350586,0.0,0.0,0.0,-1.27327299118042,2.196770429611206,5.641127586364746,230.46495056152344,0
991.1170000000002,-0.06945984810590744,-0.007420830428600311,-0.0020812619477510452,0.0,0.0,0.0,0.0,-0.0026509747840464115,0.0009155809530057013,0.0012526443460956216,0.9988983273506165,0.0,0.0,0.0,-1.2716103792190552,2.1934683322906494,5.633120536804199,230.16403198242188,0
1001.0280000000002,-0.06946837157011032,-0.007364210672676563,-0.0021861183922737837,0.0,0.0,0.0,0.0,0.0006956865545362234,-0.001726130023598671,-0.001735615311190486,1.0013561248779297,0.0,0.0,0.0,-1.2695958614349365,2.191446542739868,5.6195220947265625,229.7993621826172,0
1010.9460000000017,-0.06952963769435883,-0.007390987128019333,-0.0022288416512310505,0.0,0.0,0.0,0.0,0.0014229601947590709,0.0014659248990938067,-0.004139451310038567,1.000011920928955,0.0,0.0,0.0,-1.2688968181610107,2.1885571479797363,5.612678527832031,229.6728515625,0
1020.8510000000006,-0.06955130398273468,-0.007398165762424469,-0.0023285159841179848,0.0,0.0,0.0,0.0,-0.001470552058890462,0.004587241448462009,0.0005304099177010357,0.9976764917373657,0.0,0.0,0.0,-1.267964482307434,2.1883320808410645,5.604311466217041,229.5041046142578,0
1030.7630000000008,-0.06961118429899216,-0.007425002288073301,-0.002375297248363495,0.0,0.0,0.0,0.0,-0.0032912069000303745,-0.0009001140715554357,-0.0015042186714708805,1.0010334253311157,0.0,0.0,0.0,-1.2667983770370483,2.187333822250366,5.596301078796387,229.29302978515625,0
1040.6800000000003,-0.06967352330684662,-0.007453607860952616,-0.0024225942324846983,0.0,0.0,0.0,0.0,-0.0017276282887905836,-0.0008008296717889607,-0.0004314965335652232,0.9998295307159424,0.0,0.0,0.0,-1.265379548072815,2.1839210987091064,5.590451717376709,229.03622436523438,0
1050.5870000000014,-0.06973784416913986,-0.007483149878680706,-0.002469951519742608,0.0,0.0,0.0,0.0,-0.0018650501733645797,-0.006047142203897238,0.0009944327175617218,0.9986475706100464,0.0,0.0,0.0,-1.2651630640029907,2.183511257171631,5.591383934020996,228.9970245361328,0
1060.5040000000008,-0.06977497786283493,-0.007424573879688978,-0.002516968408599496,0.0,0.0,0.0,0.0,0.00042072078213095665,0.007246584631502628,-0.004415998701006174,0.9982293248176575,0.0,0.0,0.0,-1.2710727453231812,2.2233967781066895,5.6010823249816895,230.0666961669922,0
1070.4060000000009,-0.06983990967273712,-0.007446943782269955,-0.002565782517194748,0.0,0.0,0.0,0.0,0.0038068373687565327,0.0013208318268880248,-0.0005441170651465654,0.9983735680580139,0.0,0.0,0.0,-1.2696869373321533,2.2276124954223633,5.606431007385254,229.81585693359375,0
1080.3230000000003,-0.0698670819401741,-0.007406569551676512,-0.0026322053745388985,0.0,0.0,0.0,0.0,0.0026812823489308357,-0.0011526269372552633,-0.003796885721385479,0.9989263415336609,0.0,0.0,0.0,-1.2762980461120605,2.249323844909668,5.606844425201416,231.01248168945312,0
1090.2290000000012,-0.06993269175291061,-0.007424850016832352,-0.002685306593775749,0.0,0.0,0.0,0.0,0.0002830422599799931,0.00016919884365051985,-0.0007366019999608397,0.9973865747451782,0.0,0.0,0.0,-1.2751232385635376,2.240562915802002,5.603816032409668,230.79983520507812,0
1100.1510000000017,-0.0699833482503891,-0.007403865922242403,-0.0027421326376497746,0.0,0.0,0.0,0.0,0.002647775923833251,0.0012457492994144559,-0.00011227813229197636,0.9984690546989441,0.0,0.0,0.0,-1.2740504741668701,2.23622989654541,5.598183631896973,230.6056671142578,0
1110.0520000000015,-0.07005362957715988,-0.0074204509146511555,-0.0027989798691123724,0.0,0.0,0.0,0.0,0.0004776443529408425,0.00020380511705297977,-0.0018456934485584497,0.9999541640281677,0.0,0.0,0.0,-1.2717691659927368,2.2326765060424805,5.588717460632324,230.19276428222656,0
1119.973,-0.07009516656398773,-0.007327105384320021,-0.002835128689184785,0.0,0.0,0.0,0.0,-0.000922050850931555,-0.003440283704549074,-0.0011807481059804559,1.0008891820907593,0.0,0.0,0.0,-1.2743277549743652,2.2659223079681396,5.595459461212158,230.65585327148438,0
1129.8740000000016,-0.070169597864151,-0.0073343729600310326,-0.0028926674276590347,0.0,0.0,0.0,0.0,-0.00018850373453460634,0.001733990851789713,0.0013900281628593802,1.0000559091567993,0.0,0.0,0.0,-1.2728440761566162,2.26819109916687,5.590722560882568,230.38731384277344,0
1139.7920000000013,-0.07024677842855453,-0.007341960445046425,-0.0029499370139092207,0.0,0.0,0.0,0.0,-0.0009335008799098432,-0.0014525391161441803,0.004247989971190691,1.0003666877746582,0.0,0.0,0.0,-1.272313117980957,2.262120008468628,5.588911056518555,230.2912139892578,0
1149.6960000000017,-0.07032676786184311,-0.007350493222475052,-0.0030066154431551695,0.0,0.0,0.0,0.0,0.00020413135644048452,-0.0013037517201155424,-0.0017789601115509868,0.9985542297363281,0.0,0.0,0.0,-1.2717467546463013,2.262763738632202,5.576412677764893,230.18869018554688,0
1159.621000000001,-0.07040940225124359,-0.0073600513860583305,-0.003063168842345476,0.0,0.0,0.0,0.0,0.0054040285758674145,0.0014051818288862705,-0.0016923652729019523,0.9979819059371948,0.0,0.0,0.0,-1.2701305150985718,2.2657864093780518,5.572171211242676,229.89614868164062,0
1169.523000000001,-0.0704955980181694,-0.007370108272880316,-0.00312074925750494,0.0,0.0,0.0,0.0,0.002009278628975153,0.004075710661709309,-0.0038476362824440002,0.9988718628883362,0.0,0.0,0.0,-1.2679892778396606,2.2654097080230713,5.563599586486816,229.5085906982422,0
1179.438,-0.07058561593294144,-0.007381162140518427,-0.0031797313131392,0.0,0.0,0.0,0.0,-0.005083644296973944,0.0013566665584221482,0.0008082621498033404,0.997972846031189,0.0,0.0,0.0,-1.267358422279358,2.250706434249878,5.552493572235107,229.3944091796875,0
1189.3410000000003,-0.06923392415046692,-0.007491206284612417,-0.0017997263930737972,0.0,0.0,0.0,0.0,0.0036080495920032263,-0.0018728453433141112,0.0009465751936659217,0.998597264289856,0.0,0.0,0.0,-1.2735919952392578,2.2895092964172363,5.773193836212158,230.52268981933594,0
1199.268,-0.06926560401916504,-0.007500393316149712,-0.0018027930054813623,0.0,0.0,0.0,0.0,-0.0018928991630673409,0.0009390667546540499,0.001551318448036909,0.9988964796066284,0.0,0.0,0.0,-1.2708076238632202,2.288503408432007,5.777889251708984,230.0187225341797,0
1209.1650000000009,-0.06919822841882706,-0.007415921427309513,-0.0016713745426386595,0.0,0.0,0.0,0.0,-0.0001455319143133238,-0.003228349145501852,0.0027617893647402525,0.9979994893074036,0.0,0.0,0.0,-1.2702628374099731,2.2817304134368896,5.778787612915039,229.92010498046875,0
1219.0910000000003,-0.06926408410072327,-0.007424918934702873,-0.0016679537948220968,0.0,0.0,0.0,0.0,0.004909364972263575,0.0035222459118813276,0.001464261207729578,1.0021700859069824,0.0,0.0,0.0,-1.266223669052124,2.2718288898468018,5.764035224914551,229.18899536132812,0
1228.9850000000006,-0.06922732293605804,-0.007355367299169302,-0.0016023798380047083,0.0,0.0,0.0,0.0,0.0048013003543019295,0.00330159324221313,-0.0014617982087656856,0.9995553493499756,0.0,0.0,0.0,-1.272985816001892,2.2960991859436035,5.767047882080078,230.41294860839844,0
1238.9050000000007,-0.06930100917816162,-0.007353592198342085,-0.0015893172239884734,0.0,0.0,0.0,0.0,0.00024300656514242291,3.026268859684933e-05,-0.0020389091223478317,1.0001323223114014,0.0,0.0,0.0,-1.2708790302276611,2.2807395458221436,5.737375736236572,230.03164672851562,0
1248.808000000001,-0.06920502334833145,-0.007305734790861607,-0.0015486760530620813,0.0,0.0,0.0,0.0,0.00018873278168030083,0.001422148896381259,0.0004192359047010541,0.9992493391036987,0.0,0.0,0.0,-1.2708790302276611,2.2807395458221436,5.737375736236572,230.03164672851562,0
1258.7270000000008,-0.06928599625825882,-0.0072992220520973206,-0.0015285169938579202,0.0,0.0,0.0,0.0,0.0019979318603873253,-0.004272351041436195,0.0014234654372557998,0.998458981513977,0.0,0.0,0.0,-1.2680057287216187,2.2723069190979004,5.729350566864014,229.5115509033203,0
1268.6310000000012,-0.06920688599348068,-0.007286142557859421,-0.001518583158031106,0.0,0.0,0.0,0.0,-0.0011923660058528185,0.0002512071805540472,0.004006833303719759,0.9976632595062256,0.0,0.0,0.0,-1.2743732929229736,2.2767293453216553,5.739384651184082,230.6641082763672,0
1278.5550000000003,-0.06925518065690994,-0.007284334395080805,-0.0015082305762916803,0.0,0.0,0.0,0.0,-0.0002504700969439,0.003497583093121648,-0.000184216711204499,0.9987320303916931,0.0,0.0,0.0,-1.271469235420227,2.270185708999634,5.747405052185059,230.13845825195312,0
1288.4560000000001,-0.06922678649425507,-0.007282464765012264,-0.0014990828931331635,0.0,0.0,0.0,0.0,0.003737468970939517,0.001633177511394024,-0.0018708958523347974,0.9993217587471008,0.0,0.0,0.0,-1.2697477340698242,2.265077590942383,5.737464904785156,229.8268585205078,0
1298.380000000001,-0.06927360594272614,-0.007282482925802469,-0.00149203697219491,0.0,0.0,0.0,0.0,-0.00019115609757136554,0.0009672894375398755,-0.003429635427892208,0.9997493028640747,0.0,0.0,0.0,-1.2684537172317505,2.263448715209961,5.717390060424805,229.59263610839844,0
1308.282000000001,-0.06932295858860016,-0.00728371599689126,-0.001485477201640606,0.0,0.0,0.0,0.0,0.0024068118073046207,-0.00038561681867577136,0.003420165041461587,1.000400424003601,0.0,0.0,0.0,-1.267109990119934,2.2615714073181152,5.705545902252197,229.3494415283203,0
1318.2040000000015,-0.06937496364116669,-0.007285795174539089,-0.0014791658613830805,0.0,0.0,0.0,0.0,-0.0007444802904501557,-0.003886863589286804,-0.0003544124774634838,0.9997430443763733,0.0,0.0,0.0,-1.2662968635559082,2.2608726024627686,5.695584297180176,229.20223999023438,0
1328.0970000000016,-0.06921972334384918,-0.007307397201657295,-0.0014627482742071152,0.0,0.0,0.0,0.0,0.0013155071064829826,0.001142560737207532,-0.001556226285174489,0.9990907907485962,0.0,0.0,0.0,-1.260233998298645,2.2414751052856445,5.757368087768555,228.10484313964844,0
1338.0150000000012,-0.0692678689956665,-0.007313696201890707,-0.0014545232988893986,0.0,0.0,0.0,0.0,-0.0015130593674257398,0.002958059310913086,-0.0012417604448273778,0.9983549118041992,0.0,0.0,0.0,-1.2589695453643799,2.237860918045044,5.757018566131592,227.87599182128906,0
1347.92,-0.06923004984855652,-0.007306919898837805,-0.0014319655019789934,0.0,0.0,0.0,0.0,-0.0018584785284474492,-0.0011455469066277146,0.0011784315574914217,0.9974150657653809,0.0,0.0,0.0,-1.2457858324050903,2.238368511199951,5.766831874847412,225.48971557617188,0
1357.839,-0.06927985697984695,-0.007314133457839489,-0.0014241414610296488,0.0,0.0,0.0,0.0,0.0017101073171943426,0.0020058590453118086,-0.005600523669272661,0.9987807273864746,0.0,0.0,0.0,-1.2440433502197266,2.233635425567627,5.757795333862305,225.17433166503906,0
1367.7430000000004,-0.06933195143938065,-0.00732249952852726,-0.0014180002035573125,0.0,0.0,0.0,0.0,-0.00397398229688406,0.0016068791737779975,-0.003211426315829158,0.9975365996360779,0.0,0.0,0.0,-1.2433844804763794,2.231947422027588,5.745442867279053,225.05506896972656,0
1377.6620000000003,-0.0693860650062561,-0.007332571316510439,-0.0014132056385278702,0.0,0.0,0.0,0.0,-0.000395795184886083,0.0025395711418241262,-0.00014532562636304647,0.9987802505493164,0.0,0.0,0.0,-1.2444443702697754,2.226952314376831,5.734588623046875,225.2469024658203,0
1387.5690000000013,-0.06925690919160843,-0.007352858316153288,-0.0013769948855042458,0.0,0.0,0.0,0.0,-0.0016262251883745193,-0.005606447346508503,0.0020654171239584684,1.0007717609405518,0.0,0.0,0.0,-1.2402989864349365,2.2238807678222656,5.799652576446533,224.49658203125,0
1397.4850000000006,-0.06924097239971161,-0.007239002268761396,-0.001765306107699871,0.0,0.0,0.0,0.0,0.0011231295065954328,0.0005973005318082869,0.00016957729530986398,0.9991317987442017,0.0,0.0,0.0,-1.2536722421646118,2.239105224609375,5.804942607879639,226.91717529296875,0
1407.3870000000006,-0.06918193399906158,-0.007223954889923334,-0.0016857539303600788,0.0,0.0,0.0,0.0,-0.0030479782726615667,-0.0009939275914803147,0.003252427326515317,0.9976876378059387,0.0,0.0,0.0,-1.2462188005447388,2.2444634437561035,5.822145462036133,225.5680694580078,0
1417.3070000000007,-0.06918259710073471,-0.007230492774397135,-0.00182539748493582,0.0,0.0,0.0,0.0,0.002566697308793664,0.0005578318377956748,0.0006297046202234924,0.9991691708564758,0.0,0.0,0.0,-1.252482295036316,2.2424659729003906,5.827939987182617,226.70176696777344,0
1427.210000000001,-0.06913082301616669,-0.007232750300318003,-0.001784770400263369,0.0,0.0,0.0,0.0,-0.0033160902094095945,-0.0011641631135717034,-0.0019132387824356556,0.9992380142211914,0.0,0.0,0.0,-1.25034499168396,2.236443281173706,5.830409526824951,226.31494140625,0
1437.139000000001,-0.06915341317653656,-0.0072654057294130325,-0.0018563963240012527,0.0,0.0,0.0,0.0,0.0017148152692243457,-0.000466487486846745,-0.004750379361212254,0.9976867437362671,0.0,0.0,0.0,-1.2551121711730957,2.2351739406585693,5.822076797485352,227.17779541015625,0
1447.032000000001,-0.06912202388048172,-0.007239473517984152,-0.0018197991885244846,0.0,0.0,0.0,0.0,-0.0009909248910844326,0.0033414685167372227,-0.0009290160960517824,0.9979351758956909,0.0,0.0,0.0,-1.2544468641281128,2.2320356369018555,5.812558650970459,227.057373046875,0
1456.9560000000001,-0.06917571276426315,-0.007289307191967964,-0.0018378091044723988,0.0,0.0,0.0,0.0,0.0003364432486705482,-0.0005297543248161674,-0.0004969369038008153,1.0005130767822266,0.0,0.0,0.0,-1.2613328695297241,2.2304258346557617,5.8027024269104,228.30374145507812,0
1466.8550000000014,-0.06917443871498108,-0.007246288005262613,-0.0018038214184343815,0.0,0.0,0.0,0.0,0.0005322885699570179,0.004340318962931633,0.0020775843877345324,0.9987762570381165,0.0,0.0,0.0,-1.259491205215454,2.2303996086120605,5.789468765258789,227.97039794921875,0
1476.773000000001,-0.06920036673545837,-0.00731460889801383,-0.001873137429356575,0.0,0.0,0.0,0.0,0.0004835605504922569,0.0055238050408661366,0.002494886051863432,0.9992165565490723,0.0,0.0,0.0,-1.2582731246948242,2.230536460876465,5.785377502441406,227.74993896484375,0
1486.6770000000015,-0.06918364763259888,-0.0072552235797047615,-0.001829403219744563,0.0,0.0,0.0,0.0,0.003983674105256796,-0.0019165005069226027,0.0019802432507276535,0.9991278052330017,0.0,0.0,0.0,-1.2562527656555176,2.2303829193115234,5.765254497528076,227.38426208496094,0
1496.6040000000012,-0.0692523941397667,-0.007345330435782671,-0.0018441284773871303,0.0,0.0,0.0,0.0,-0.0018924834439530969,-0.0008995659882202744,0.0009030909277498722,0.9996792078018188,0.0,0.0,0.0,-1.2551696300506592,2.2265682220458984,5.749888896942139,227.18820190429688,0
1506.4990000000016,-0.06921783834695816,-0.007257287856191397,-0.0017827859846875072,0.0,0.0,0.0,0.0,0.0010695257224142551,0.0006241337978281081,-0.0026989115867763758,0.9992184042930603,0.0,0.0,0.0,-1.2437864542007446,2.220691680908203,5.759917259216309,225.12782287597656,0
1516.4230000000007,-0.06925107538700104,-0.007295655086636543,-0.0018255888717249036,0.0,0.0,0.0,0.0,-0.001585331978276372,-0.0001410780823789537,-0.0018499279394745827,0.9981514811515808,0.0,0.0,0.0,-1.252681851387024,2.216804265975952,5.758253574371338,226.73789978027344,0
1526.3210000000017,-0.06921330839395523,-0.007237457204610109,-0.0017744064098224044,0.0,0.0,0.0,0.0,0.0028046334628015757,-0.0058418684639036655,-9.06347413547337e-05,0.9970815777778625,0.0,0.0,0.0,-1.2412313222885132,2.2202088832855225,5.764880180358887,224.6653594970703,0
1536.2360000000008,-0.06927270442247391,-0.007328166626393795,-0.0017980466363951564,0.0,0.0,0.0,0.0,-0.0019893210846930742,-0.0018685095710679889,-0.002115135546773672,0.9980400204658508,0.0,0.0,0.0,-1.2403439283370972,2.2223548889160156,5.761605262756348,224.50473022460938,0
1546.143,-0.06921414285898209,-0.007263183128088713,-0.0017326254164800048,0.0,0.0,0.0,0.0,-0.0011665811762213707,-0.0014115922385826707,0.003521069185808301,1.0003657341003418,0.0,0.0,0.0,-1.23944890499115,2.2208092212677,5.763881206512451,224.34271240234375,0
1556.0600000000013,-0.06922698765993118,-0.007312560919672251,-0.001809501089155674,0.0,0.0,0.0,0.0,4.3132793507538736e-05,-0.0009584372746758163,0.0005744220688939095,1.0004574060440063,0.0,0.0,0.0,-1.2386445999145508,2.2170403003692627,5.763526916503906,224.19712829589844,0
1565.9660000000003,-0.06922468543052673,-0.007199170533567667,-0.0017341816565021873,0.0,0.0,0.0,0.0,-0.002105880528688431,0.0036219737958163023,-0.0013938831398263574,0.9989466071128845,0.0,0.0,0.0,-1.2353113889694214,2.2211196422576904,5.754378795623779,223.59381103515625,0
1575.8810000000012,-0.06922610849142075,-0.007228736765682697,-0.0018209906993433833,0.0,0.0,0.0,0.0,-0.002618042752146721,-0.00011811153672169894,-0.0018552817637100816,1.0002456903457642,0.0,0.0,0.0,-1.2439520359039307,2.2221035957336426,5.756078720092773,225.15780639648438,0
1585.7940000000017,-0.06917565315961838,-0.0071787042543292046,-0.0017622667364776134,0.0,0.0,0.0,0.0,-0.0012109314557164907,0.000599546532612294,0.0008823159732855856,0.9984225630760193,0.0,0.0,0.0,-1.2434494495391846,2.2239980697631836,5.744869709014893,225.0668182373047,0
1595.7040000000015,-0.06922983378171921,-0.00727068679407239,-0.001793980598449707,0.0,0.0,0.0,0.0,0.002826248062774539,0.0013653914211317897,-0.0019002194749191403,1.000130295753479,0.0,0.0,0.0,-1.2538164854049683,2.217916250228882,5.749636650085449,226.94326782226562,0
1605.6110000000008,-0.06919928640127182,-0.007218120153993368,-0.001737966318614781,0.0,0.0,0.0,0.0,0.0015726488782092929,0.00020488136215135455,0.00024006458988878876,1.0006035566329956,0.0,0.0,0.0,-1.2434947490692139,2.2195663452148438,5.753875255584717,225.0750274658203,0
1615.5280000000002,-0.06925497204065323,-0.007315253373235464,-0.0017686296487227082,0.0,0.0,0.0,0.0,0.0008183369063772261,-0.00025409128284081817,-0.0008696871227584779,0.9988113641738892,0.0,0.0,0.0,-1.2424100637435913,2.2147271633148193,5.745432376861572,224.8787078857422,0
1625.4370000000017,-0.06920399516820908,-0.00727173313498497,-0.001705395057797432,0.0,0.0,0.0,0.0,-0.001415861421264708,-0.0020706939976662397,-0.00036558019928634167,0.9988499283790588,0.0,0.0,0.0,-1.231958270072937,2.219327688217163,5.750418186187744,222.98690795898438,0
1635.3490000000002,-0.06924512982368469,-0.007348406594246626,-0.0017489680321887136,0.0,0.0,0.0,0.0,0.00025652340264059603,0.0019009914249181747,0.00037489895476028323,0.9972659349441528,0.0,0.0,0.0,-1.2308732271194458,2.22196888923645,5.745425224304199,222.79049682617188,0
1645.2560000000012,-0.0692165344953537,-0.007283725310117006,-0.0016796939307823777,0.0,0.0,0.0,0.0,0.004867905285209417,-0.0007848141249269247,0.00168803078122437,0.9974989295005798,0.0,0.0,0.0,-1.229702353477478,2.215405225753784,5.74465799331665,222.5785675048828,0
1655.1680000000015,-0.06925380975008011,-0.007347919512540102,-0.001725466805510223,0.0,0.0,0.0,0.0,-0.002119875978678465,0.001680677174590528,-0.0014608874917030334,0.9995400905609131,0.0,0.0,0.0,-1.2285665273666382,2.20987868309021,5.732553005218506,222.3730010986328,0
1665.0780000000013,-0.06922626495361328,-0.007277546916157007,-0.00165762088727206,0.0,0.0,0.0,0.0,0.002882951172068715,0.0029885047115385532,-0.0013358358992263675,0.9989663362503052,0.0,0.0,0.0,-1.2192350625991821,2.2101218700408936,5.738186836242676,220.68397521972656,0
1674.9970000000012,-0.06924497336149216,-0.007333371788263321,-0.0017300226027145982,0.0,0.0,0.0,0.0,-0.0006324682617560029,-0.0008010868332348764,-0.0018294575856998563,0.9997128248214722,0.0,0.0,0.0,-1.2254853248596191,2.2119698524475098,5.741426944732666,221.81527709960938,0
1684.9000000000015,-0.06919124722480774,-0.007289134431630373,-0.0016670303884893656,0.0,0.0,0.0,0.0,0.0018091661622747779,-0.0035098535008728504,-0.001747179077938199,1.0032321214675903,0.0,0.0,0.0,-1.2227442264556885,2.2040159702301025,5.733088970184326,221.3191375732422,0
1694.8180000000011,-0.06923433393239975,-0.007369475904852152,-0.0017124979058280587,0.0,0.0,0.0,0.0,-0.0015323865227401257,-7.562349492218345e-05,0.0015354708302766085,1.0009832382202148,0.0,0.0,0.0,-1.2224133014678955,2.205430269241333,5.740911483764648,221.25921630859375,0
1704.7340000000004,-0.06919537484645844,-0.007301809266209602,-0.001638254732824862,0.0,0.0,0.0,0.0,-0.003190268063917756,0.0021153504494577646,0.0006898391293361783,1.0001838207244873,0.0,0.0,0.0,-1.2207189798355103,2.203855037689209,5.737578868865967,220.95254516601562,0
1714.6470000000008,-0.0692291334271431,-0.007366310339421034,-0.001680999994277954,0.0,0.0,0.0,0.0,-0.0007019481854513288,-0.005704308860003948,0.0001332325191469863,1.0003572702407837,0.0,0.0,0.0,-1.2186814546585083,2.2052741050720215,5.729616165161133,220.58377075195312,0
1724.5470000000005,-0.06923089921474457,-0.007322684861719608,-0.001626373385079205,0.0,0.0,0.0,0.0,0.0014175152173265815,0.0005036526126787066,0.003156519727781415,0.9990156292915344,0.0,0.0,0.0,-1.2229771614074707,2.2238848209381104,5.731393814086914,221.3612823486328,0
1734.4750000000004,-0.06925460696220398,-0.007371296640485525,-0.0016719754785299301,0.0,0.0,0.0,0.0,0.006015771068632603,0.002524142386391759,-0.0005136681720614433,0.9971008896827698,0.0,0.0,0.0,-1.222132921218872,2.2219302654266357,5.731583118438721,221.20848083496094,0
1744.3680000000004,-0.06921526789665222,-0.007330086547881365,-0.0016098134219646454,0.0,0.0,0.0,0.0,-0.00263229850679636,0.0017961652483791113,-0.0009573171264491975,1.0001869201660156,0.0,0.0,0.0,-1.219452142715454,2.215730905532837,5.722407817840576,220.72325134277344,0
1754.2870000000003,-0.06921522319316864,-0.007383089978247881,-0.0016891492996364832,0.0,0.0,0.0,0.0,-0.0010492498986423016,0.003106113988906145,-0.0023272549733519554,0.9987818002700806,0.0,0.0,0.0,-1.2263891696929932,2.2097723484039307,5.720254898071289,221.97889709472656,0
1764.1900000000005,-0.06925903260707855,-0.00731109781190753,-0.0016408314695581794,0.0,0.0,0.0,0.0,-0.0025971911381930113,-0.005321446806192398,-0.006026821210980415,0.9980440139770508,0.0,0.0,0.0,-1.2190756797790527,2.2179553508758545,5.7148823738098145,220.65512084960938,0
1774.107,-0.06926869601011276,-0.007357339840382338,-0.001712450641207397,0.0,0.0,0.0,0.0,-0.0003594182198867202,-0.005221379920840263,0.002981919562444091,0.9986734986305237,0.0,0.0,0.0,-1.2201032638549805,2.209726333618164,5.716699123382568,220.8411102294922,0
1784.0150000000012,-0.06925565749406815,-0.007293897680938244,-0.001655497821047902,0.0,0.0,0.0,0.0,0.001149502000771463,-0.0002502586576156318,0.0016640741378068924,0.9984620809555054,0.0,0.0,0.0,-1.2112960815429688,2.2215044498443604,5.732329368591309,219.24700927734375,0
1793.942000000001,-0.06928597390651703,-0.007385617587715387,-0.0017276762519031763,0.0,0.0,0.0,0.0,0.0008311341516673565,-0.0015887990593910217,-0.0005547375185415149,0.9989166259765625,0.0,0.0,0.0,-1.2197201251983643,2.2129335403442383,5.730406284332275,220.7717742919922,0
1803.8380000000016,-0.06925409287214279,-0.007341337855905294,-0.0016710096970200539,0.0,0.0,0.0,0.0,-0.00018446713511366397,0.002130447421222925,0.0035534005146473646,0.9992733597755432,0.0,0.0,0.0,-1.2198107242584229,2.206789255142212,5.720559597015381,220.7881622314453,0
1813.7540000000008,-0.0692584216594696,-0.007342449855059385,-0.0017368618864566088,0.0,0.0,0.0,0.0,-0.0009881783043965697,-0.0007716203690506518,6.216252950252965e-05,0.9981531500816345,0.0,0.0,0.0,-1.2231823205947876,2.212249279022217,5.7131781578063965,221.39842224121094,0
1823.657000000001,-0.06924378126859665,-0.007311997935175896,-0.0016938893822953105,0.0,0.0,0.0,0.0,0.002630026312544942,0.0015477550914511085,0.00013639223470818251,1.0003077983856201,0.0,0.0,0.0,-1.2206013202667236,2.215409755706787,5.714529037475586,220.9312744140625,0
1833.576000000001,-0.06922998279333115,-0.007309715263545513,-0.001788993482477963,0.0,0.0,0.0,0.0,-0.0007636460941284895,0.005193684250116348,0.004099060781300068,0.9999886155128479,0.0,0.0,0.0,-1.2203547954559326,2.2043819427490234,5.708195209503174,220.8866424560547,0
1843.4800000000014,-0.06925048679113388,-0.007266178261488676,-0.0017554555088281631,0.0,0.0,0.0,0.0,-0.00029158321558497846,-0.0019044653745368123,-0.0029365632217377424,1.0011265277862549,0.0,0.0,0.0,-1.21759831905365,2.1982057094573975,5.6964216232299805,220.38772583007812,0
1853.4000000000015,-0.0692533403635025,-0.007286163978278637,-0.0018431387143209577,0.0,0.0,0.0,0.0,0.002809518948197365,0.00237257219851017,-0.0033259429037570953,1.0003972053527832,0.0,0.0,0.0,-1.2220276594161987,2.1996543407440186,5.703541278839111,221.18943786621094,0
1863.3020000000015,-0.06922858208417892,-0.0072555383667349815,-0.0018006094032898545,0.0,0.0,0.0,0.0,0.000519496388733387,0.006618224550038576,0.0015291724121198058,0.9988963603973389,0.0,0.0,0.0,-1.2286866903305054,2.205487012863159,5.704432487487793,222.3947296142578,0
1873.2210000000014,-0.0692414864897728,-0.007291286252439022,-0.0018804724095389247,0.0,0.0,0.0,0.0,-0.003531167982146144,-0.0015355750219896436,-0.0013101876247674227,0.9973165392875671,0.0,0.0,0.0,-1.2330906391143799,2.2018215656280518,5.688514232635498,223.19186401367188,0
1883.1240000000016,-0.06923702359199524,-0.0072457133792340755,-0.0018418631516397,0.0,0.0,0.0,0.0,0.0007226014276966453,-0.0023310163524001837,-0.0007585101993754506,0.9975841641426086,0.0,0.0,0.0,-1.233548641204834,2.2035915851593018,5.6850361824035645,223.27476501464844,0
1893.045,-0.06928692013025284,-0.0073040081188082695,-0.0018786939326673746,0.0,0.0,0.0,0.0,-0.0010229850886389613,0.0024851812049746513,-0.0017768403049558401,0.9982039928436279,0.0,0.0,0.0,-1.2324575185775757,2.198098659515381,5.681310653686523,223.07728576660156,0
1902.955,-0.06924459338188171,-0.007264713291078806,-0.0018307940335944295,0.0,0.0,0.0,0.0,0.0019854919519275427,-0.002080534351989627,-0.0007261467399075627,0.997901201248169,0.0,0.0,0.0,-1.2377128601074219,2.2068607807159424,5.685052394866943,224.02847290039062,0
1912.8670000000002,-0.06933319568634033,-0.007404373958706856,-0.0018378249369561672,0.0,0.0,0.0,0.0,0.0025030593387782574,-0.0022842565085738897,0.004013416822999716,0.9989336729049683,0.0,0.0,0.0,-1.2436844110488892,2.1829421520233154,5.681912899017334,225.10935974121094,0
1922.7760000000017,-0.06924266368150711,-0.0073478505946695805,-0.0017637964338064194,0.0,0.0,0.0,0.0,0.0003368125471752137,0.002151771914213896,0.0021629270631819963,0.9994876980781555,0.0,0.0,0.0,-1.2426471710205078,2.17653489112854,5.678573131561279,224.92161560058594,0
1932.6930000000011,-0.06930407881736755,-0.007433291524648666,-0.0017837855266407132,0.0,0.0,0.0,0.0,0.0006427126354537904,0.0025418896693736315,0.0005059328395873308,0.9987871050834656,0.0,0.0,0.0,-1.2513062953948975,2.1589269638061523,5.6683268547058105,226.4889373779297,0
1942.6040000000012,-0.06923750787973404,-0.007388447877019644,-0.0017175617394968867,0.0,0.0,0.0,0.0,0.001037996495142579,-0.00028800536529161036,0.0032191576901823282,0.9989738464355469,0.0,0.0,0.0,-1.251184105873108,2.1534876823425293,5.65673303604126,226.46682739257812,0
1952.5120000000006,-0.06925885379314423,-0.007453963626176119,-0.0017860494554042816,0.0,0.0,0.0,0.0,0.000994207919575274,0.0026791610289365053,-0.0014489832101389766,0.9995256066322327,0.0,0.0,0.0,-1.2571560144424438,2.14152193069458,5.6542582511901855,227.54776000976562,0
1962.4280000000017,-0.06927892565727234,-0.0073652444407343864,-0.0017265884671360254,0.0,0.0,0.0,0.0,0.0007262506405822933,0.005000637378543615,0.0024341363459825516,0.9995518922805786,0.0,0.0,0.0,-1.2556794881820679,2.135748863220215,5.64357852935791,227.28048706054688,0
1972.3430000000008,-0.06928464770317078,-0.00737334368750453,-0.0017968597821891308,0.0,0.0,0.0,0.0,0.0059507014229893684,0.00304907257668674,-0.0016508353874087334,0.9989477396011353,0.0,0.0,0.0,-1.2547504901885986,2.135794162750244,5.627890110015869,227.11233520507812,0
1982.2440000000006,-0.06919976323843002,-0.0073485649190843105,-0.0017341582570225,0.0,0.0,0.0,0.0,0.000467854697490111,-0.0005366866826079786,-0.0010059141786769032,0.9965256452560425,0.0,0.0,0.0,-1.2536166906356812,2.1272776126861572,5.6156392097473145,226.9071044921875,0
1992.1580000000013,-0.06922844052314758,-0.007439299952238798,-0.0017988634062930942,0.0,0.0,0.0,0.0,-0.0008912266348488629,0.00044347235234454274,-0.0056718625128269196,0.9998155236244202,0.0,0.0,0.0,-1.260955572128296,2.1206259727478027,5.6106672286987305,228.2354736328125,0
2002.0700000000015,-0.06927382946014404,-0.007358274422585964,-0.001754359807819128,0.0,0.0,0.0,0.0,-0.0029294893611222506,-0.0010098371421918273,0.0013754540123045444,1.0005911588668823,0.0,0.0,0.0,-1.2608065605163574,2.121542453765869,5.612639904022217,228.20849609375,0
2011.982,-0.06928373128175735,-0.007366620935499668,-0.001817719778046012,0.0,0.0,0.0,0.0,0.0012428038753569126,0.0035278412979096174,-0.0027610990218818188,0.9990542531013489,0.0,0.0,0.0,-1.268654227256775,2.1350648403167725,5.617103576660156,229.62893676757812,0
2021.8900000000012,-0.06925114244222641,-0.007285235449671745,-0.001749324263073504,0.0,0.0,0.0,0.0,-0.0025863139890134335,-0.0015540252206847072,-0.0019955395255237818,0.9984872341156006,0.0,0.0,0.0,-1.2606827020645142,2.1490366458892822,5.619717597961426,228.1860809326172,0
2031.8010000000013,-0.06927172094583511,-0.007316626142710447,-0.0018052100203931332,0.0,0.0,0.0,0.0,-0.0010787855135276914,0.0006359696271829307,0.0007981571834534407,0.9973679184913635,0.0,0.0,0.0,-1.2664945125579834,2.1499128341674805,5.621495723724365,229.238037109375,0
2041.7130000000016,-0.06913349777460098,-0.007286764215677977,-0.0017265102360397577,0.0,0.0,0.0,0.0,-0.0002298480976605788,0.0005567374173551798,0.0013101334916427732,1.0008423328399658,0.0,0.0,0.0,-1.2647451162338257,2.153898239135742,5.625394821166992,228.92140197753906,0
2051.6280000000006,-0.06917805969715118,-0.0073828063905239105,-0.0017643764149397612,0.0,0.0,0.0,0.0,0.005415195599198341,0.0038509198930114508,-0.00015269154391717166,0.9998363852500916,0.0,0.0,0.0,-1.2679287195205688,2.1395273208618164,5.626436710357666,229.4976348876953,0
2061.541000000001,-0.06921514868736267,-0.007295497693121433,-0.0017149863997474313,0.0,0.0,0.0,0.0,0.003122994676232338,-0.0016180980019271374,0.003751997137442231,0.9981595873832703,0.0,0.0,0.0,-1.266681432723999,2.1249191761016846,5.6120758056640625,229.2718505859375,0
2071.4440000000013,-0.0692482590675354,-0.007395095657557249,-0.0017749594990164042,0.0,0.0,0.0,0.0,0.0009026165935210884,-0.0009931125678122044,0.0014174376847222447,0.9995191097259521,0.0,0.0,0.0,-1.2713803052902222,2.1113626956939697,5.616987705230713,230.12237548828125,0
2081.3560000000016,-0.06926051527261734,-0.007302123587578535,-0.0017169320490211248,0.0,0.0,0.0,0.0,0.0009663884993642569,-0.0029231072403490543,0.0016071692807599902,0.9976987242698669,0.0,0.0,0.0,-1.2629923820495605,2.1248767375946045,5.614860534667969,228.60414123535156,0
2091.2700000000004,-0.06931458413600922,-0.007401531096547842,-0.0017463617259636521,0.0,0.0,0.0,0.0,-0.001006048172712326,0.0005473989876918495,-6.34651369182393e-05,0.9998294115066528,0.0,0.0,0.0,-1.2669620513916016,2.115037202835083,5.616909980773926,229.32266235351562,0
2101.1890000000003,-0.06927458941936493,-0.0073120673187077045,-0.0016698394902050495,0.0,0.0,0.0,0.0,-0.001460955012589693,-0.002423467580229044,0.0007065005484037101,0.9991888999938965,0.0,0.0,0.0,-1.2578387260437012,2.1271519660949707,5.628435134887695,227.67129516601562,0
2111.09,-0.06933558732271194,-0.007402169983834028,-0.0016815687995404005,0.0,0.0,0.0,0.0,0.004658168181777,0.004293722100555897,-0.0014645463088527322,0.9976324439048767,0.0,0.0,0.0,-1.2640502452850342,2.116161584854126,5.624386310577393,228.7956085205078,0
2121.0030000000006,-0.06928552687168121,-0.007344989571720362,-0.0016104765236377716,0.0,0.0,0.0,0.0,-0.0004252339422237128,-0.0013867460656911135,-0.0008142506121657789,0.9976783990859985,0.0,0.0,0.0,-1.2555071115493774,2.121272087097168,5.62548828125,227.24928283691406,0
2130.916000000001,-0.06930141896009445,-0.007403661031275988,-0.0016794010298326612,0.0,0.0,0.0,0.0,0.0009880048455670476,-0.0031436963472515345,0.0008015004568733275,0.9984299540519714,0.0,0.0,0.0,-1.2552317380905151,2.123157262802124,5.623428821563721,227.19944763183594,0
2140.8280000000013,-0.06931082904338837,-0.0073046935722231865,-0.0016074152663350105,0.0,0.0,0.0,0.0,0.0007006521336734295,-0.0005573421949520707,-0.00031429529190063477,0.9991897940635681,0.0,0.0,0.0,-1.2526919841766357,2.1146938800811768,5.627204895019531,226.73974609375,0
