timestamp,stateEstimate.x,stateEstimate.y,stateEstimate.z,controller.cmd_thrust,controller.cmd_roll,controller.cmd_pitch,controller.cmd_yaw,controller.r_roll,controller.r_pitch,controller.r_yaw,controller.accelz,controller.actuatorThrust,controller.roll,controller.pitch,controller.yaw,controller.rollRate,controller.pitchRate,controller.yawRate,controller.ctr_yaw
0.0,0.015084998682141304,-0.017004704102873802,0.00029292592080309987,0.0,0.0,0.0,0.0,0.0013728850753977895,0.00030148914083838463,0.0009281738311983645,0.9995582699775696,0.0,0.0,0.0,-60.904109954833984,9.173457145690918,-6.698408126831055,11023.765625,0
9.8700000000008,0.015117921866476536,-0.017045602202415466,0.00031421560561284423,0.0,0.0,0.0,0.0,0.00010589884186629206,0.0015287513379007578,0.0005207728827372193,0.9982882738113403,0.0,0.0,0.0,-60.846229553222656,9.1638822555542,-6.6908793449401855,11013.2890625,0
19.76599999999962,0.015159177593886852,-0.017005084082484245,0.0003542209160514176,0.0,0.0,0.0,0.0,0.0014156971592456102,0.005077035631984472,0.0007646527956239879,0.9992901086807251,0.0,0.0,0.0,-60.813472747802734,9.1720609664917,-6.7089996337890625,11007.359375,0
29.641999999999825,0.01518911775201559,-0.01704355515539646,0.0003756924415938556,0.0,0.0,0.0,0.0,0.0009301453246735036,0.004852414131164551,0.002910354407504201,0.9967921376228333,0.0,0.0,0.0,-60.756256103515625,9.160835266113281,-6.707306861877441,10997.0029296875,0
39.534999999999854,0.015227120369672775,-0.016983352601528168,0.0004280724097043276,0.0,0.0,0.0,0.0,7.605279824929312e-05,0.009861619211733341,0.001518250210210681,0.9974113702774048,0.0,0.0,0.0,-60.72810363769531,9.171785354614258,-6.741892337799072,10991.9072265625,0
49.40899999999965,0.015253311023116112,-0.0170196071267128,0.0004480666248127818,0.0,0.0,0.0,0.0,-0.00010253610525978729,-0.0013309908099472523,0.004687389824539423,0.9985687136650085,0.0,0.0,0.0,-60.669952392578125,9.168937683105469,-6.751709461212158,10981.3818359375,0
59.302999999999884,0.015294224955141544,-0.016980493441224098,0.00048203716869466007,0.0,0.0,0.0,0.0,0.0027619667816907167,-0.0021213400177657604,0.0030595387797802687,0.9995937943458557,0.0,0.0,0.0,-60.63563537597656,9.183850288391113,-6.764616966247559,10975.169921875,0
69.18399999999929,0.015316802076995373,-0.0170152448117733,0.0005013442132622004,0.0,0.0,0.0,0.0,-0.0018616423476487398,-0.00043532680138014257,0.00024141596804838628,0.9993770718574524,0.0,0.0,0.0,-60.57753372192383,9.174899101257324,-6.7498345375061035,10964.6533203125,0
79.07500000000073,0.01535518653690815,-0.016952598467469215,0.0005499483086168766,0.0,0.0,0.0,0.0,0.0012984945205971599,0.00392017001286149,-0.0006194710149429739,0.9982883930206299,0.0,0.0,0.0,-60.55321502685547,9.191727638244629,-6.770740032196045,10960.251953125,0
88.94700000000012,0.015375489369034767,-0.016981378197669983,0.0005701521295122802,0.0,0.0,0.0,0.0,-0.0005598298739641905,0.0018964132759720087,0.0009387234458699822,0.998711884021759,0.0,0.0,0.0,-60.4959602355957,9.181918144226074,-6.766488552093506,10949.888671875,0
98.83899999999994,0.015407639555633068,-0.016919374465942383,0.0006256405613385141,0.0,0.0,0.0,0.0,0.00011860158701892942,0.002362178871408105,0.0006043221801519394,0.9993380904197693,0.0,0.0,0.0,-60.47854232788086,9.193288803100586,-6.790805816650391,10946.736328125,0
108.71800000000076,0.015425861813127995,-0.016947874799370766,0.0006465663900598884,0.0,0.0,0.0,0.0,-0.0018896025139838457,-0.005071131978183985,0.004506171215325594,0.998429536819458,0.0,0.0,0.0,-60.4211540222168,9.187827110290527,-6.78923225402832,10936.349609375,0
118.61399999999958,0.015456216409802437,-0.016920004040002823,0.0006842728471383452,0.0,0.0,0.0,0.0,-0.00027886981843039393,0.0029748305678367615,0.0027462784200906754,0.9964243769645691,0.0,0.0,0.0,-60.40700149536133,9.196270942687988,-6.794463634490967,10933.7880859375,0
128.4860000000008,0.015470567159354687,-0.016950879245996475,0.0007032996509224176,0.0,0.0,0.0,0.0,0.0007901443750597537,0.003469860414043069,-0.0018984066555276513,0.9991859793663025,0.0,0.0,0.0,-60.34764862060547,9.188726425170898,-6.788308620452881,10923.044921875,0
138.38700000000063,0.015497194603085518,-0.01695060543715954,0.0007278178236447275,0.0,0.0,0.0,0.0,0.0002417069481452927,-0.001441044150851667,-0.0012010162463411689,1.0008422136306763,0.0,0.0,0.0,-60.33481979370117,9.187559127807617,-6.794039726257324,10920.72265625,0
148.2559999999994,0.015509124845266342,-0.016984546557068825,0.0007463345536962152,0.0,0.0,0.0,0.0,-0.0024572897236794233,-0.0050409818068146706,0.0007584227132610977,0.9993932247161865,0.0,0.0,0.0,-60.27781677246094,9.178485870361328,-6.782314300537109,10910.404296875,0
158.14800000000105,0.01551938708871603,-0.017020808532834053,0.0007656462257727981,0.0,0.0,0.0,0.0,-0.0016231773188337684,-0.0007192070479504764,0.0037363707087934017,1.0004723072052002,0.0,0.0,0.0,-60.220054626464844,9.176501274108887,-6.768276214599609,10899.94921875,0
168.03100000000086,0.015527529641985893,-0.0170579981058836,0.0007856999873183668,0.0,0.0,0.0,0.0,0.0001709811040200293,2.804933137667831e-05,1.0761386874946766e-05,1.0017844438552856,0.0,0.0,0.0,-60.161354064941406,9.176042556762695,-6.7608442306518555,10889.32421875,0
177.9300000000003,0.01553321722894907,-0.01709536649286747,0.0008073111530393362,0.0,0.0,0.0,0.0,-0.0017709815874695778,-0.003612447762861848,-0.0024508789647370577,0.9995235204696655,0.0,0.0,0.0,-60.10417175292969,9.17311954498291,-6.753077030181885,10878.974609375,0
187.79299999999967,0.01553733367472887,-0.01713269203901291,0.000829881988465786,0.0,0.0,0.0,0.0,0.001437220722436905,-0.0007541163940913975,0.000826124451123178,0.9976937174797058,0.0,0.0,0.0,-60.0471076965332,9.173303604125977,-6.735730171203613,10868.6455078125,0
197.6929999999993,0.014753698371350765,-0.01705067977309227,0.00029824645025655627,0.0,0.0,0.0,0.0,0.002486797282472253,-0.0001602928532520309,-0.0014962113928049803,0.9981225728988647,0.0,0.0,0.0,-60.20762252807617,9.053021430969238,-6.808194160461426,10897.7001953125,0
207.57300000000032,0.014722755178809166,-0.01708841882646084,0.0002955103409476578,0.0,0.0,0.0,0.0,0.002548657590523362,-0.0029383511282503605,0.00019491730199661106,0.998668372631073,0.0,0.0,0.0,-60.150787353515625,9.041460990905762,-6.797336101531982,10887.412109375,0
217.45800000000054,0.01454079058021307,-0.01713082753121853,0.0002968560438603163,0.0,0.0,0.0,0.0,0.005321201868355274,0.0021038849372416735,0.0061072129756212234,0.9992104768753052,0.0,0.0,0.0,-60.3072395324707,9.01896858215332,-6.806241989135742,10915.7314453125,0
227.33599999999933,0.014505281113088131,-0.017172297462821007,0.0002924113068729639,0.0,0.0,0.0,0.0,0.0004408830718602985,0.001218359568156302,0.0006079193553887308,0.9977901577949524,0.0,0.0,0.0,-60.24851989746094,9.008058547973633,-6.794076442718506,10905.1015625,0
237.2360000000008,0.014521801844239235,-0.017199890688061714,0.0003408109478186816,0.0,0.0,0.0,0.0,0.00021173716231714934,0.001634517451748252,0.0010483955265954137,0.9984397888183594,0.0,0.0,0.0,-60.40605163574219,9.007694244384766,-6.798228740692139,10933.615234375,0
247.10499999999956,0.014483843930065632,-0.0172441229224205,0.0003375567903276533,0.0,0.0,0.0,0.0,-0.001246601459570229,-0.0018749971641227603,0.0045241364277899265,0.9986422061920166,0.0,0.0,0.0,-60.34840774536133,9.000426292419434,-6.7907538414001465,10923.1826171875,0
257.0069999999996,0.014520309865474701,-0.01725240983068943,0.0003846629988402128,0.0,0.0,0.0,0.0,0.002503453753888607,0.0003691587189678103,0.00011049488966818899,1.0002714395523071,0.0,0.0,0.0,-60.50082015991211,9.009224891662598,-6.793526649475098,10950.7685546875,0
266.875,0.014480066485702991,-0.017299041152000427,0.00038562691770493984,0.0,0.0,0.0,0.0,-0.0007457737228833139,-0.0020436544436961412,0.0010616399813443422,0.9998237490653992,0.0,0.0,0.0,-60.443729400634766,9.001022338867188,-6.7865986824035645,10940.435546875,0
276.77000000000044,0.01452606450766325,-0.017311690375208855,0.0004297239938750863,0.0,0.0,0.0,0.0,0.0005518767284229398,-0.007609716150909662,-0.0009002592414617538,0.9991913437843323,0.0,0.0,0.0,-60.58893966674805,9.00979995727539,-6.795483112335205,10966.7177734375,0
286.64300000000003,0.014484325423836708,-0.01736309751868248,0.00043639232171699405,0.0,0.0,0.0,0.0,-0.0015628187684342265,-0.0041901287622749805,0.00017298266175203025,0.998550534248352,0.0,0.0,0.0,-60.53188705444336,9.001970291137695,-6.770935535430908,10956.3916015625,0
296.53399999999965,0.014510951936244965,-0.017393454909324646,0.0004600545216817409,0.0,0.0,0.0,0.0,0.000860747299157083,-0.0008708880050107837,0.0017061257967725396,0.9997060298919678,0.0,0.0,0.0,-60.662376403808594,9.008177757263184,-6.773125648498535,10980.0107421875,0
306.41100000000006,0.014469961635768414,-0.017449647188186646,0.0004688310145866126,0.0,0.0,0.0,0.0,-0.00037653831532225013,0.0007037171744741499,-0.0010361556196585298,0.9999034404754639,0.0,0.0,0.0,-60.60344696044922,9.003498077392578,-6.764387130737305,10969.3447265625,0
316.3029999999999,0.014496621675789356,-0.017436344176530838,0.0005420839297585189,0.0,0.0,0.0,0.0,0.0008065610891208053,0.009324787184596062,-0.0020125724840909243,0.9995505213737488,0.0,0.0,0.0,-60.739707946777344,9.01927375793457,-6.7964396476745605,10994.0078125,0
326.1810000000005,0.014453466050326824,-0.017491908743977547,0.0005593927926383913,0.0,0.0,0.0,0.0,0.0017944498686119914,0.0008271021652035415,0.0021202999632805586,1.0013171434402466,0.0,0.0,0.0,-60.681739807128906,9.010269165039062,-6.807513236999512,10983.515625,0
336.07600000000093,0.014479314908385277,-0.017475835978984833,0.0006463079480454326,0.0,0.0,0.0,0.0,-0.0018240257631987333,-0.001704941620118916,-0.0017686650389805436,1.0000232458114624,0.0,0.0,0.0,-60.81766891479492,9.02917194366455,-6.83356237411499,11008.1201171875,0
345.95600000000013,0.014436488039791584,-0.017530390992760658,0.0006743083358742297,0.0,0.0,0.0,0.0,-0.001037374371662736,-0.003297976916655898,0.0005710534751415253,1.0006729364395142,0.0,0.0,0.0,-60.76063537597656,9.027531623840332,-6.821590423583984,10997.794921875,0
355.84300000000076,0.014413378201425076,-0.017512090504169464,0.0007345113554038107,0.0,0.0,0.0,0.0,0.002345371525734663,0.0038131061010062695,-0.0036587845534086227,0.9982050657272339,0.0,0.0,0.0,-60.88266372680664,9.028116226196289,-6.855192184448242,11019.8837890625,0
365.71999999999935,0.014402519911527634,-0.01750120520591736,0.0008012491744011641,0.0,0.0,0.0,0.0,0.0004960153601132333,0.002053086878731847,0.001547723775729537,1.0011770725250244,0.0,0.0,0.0,-60.993797302246094,9.031526565551758,-6.893909931182861,11039.9990234375,0
375.6100000000006,0.014705638401210308,-0.016981814056634903,-0.00014612861559726298,0.0,0.0,0.0,0.0,-0.0002724218356888741,-0.0028784628957509995,0.0026728559751063585,0.9998794794082642,0.0,0.0,0.0,-60.949771881103516,9.141287803649902,-6.967776775360107,11032.0302734375,0
385.491,0.014603743329644203,-0.01699419505894184,-8.372568117920309e-05,0.0,0.0,0.0,0.0,0.0005661331815645099,0.002352882409468293,0.0019173948094248772,1.0011770725250244,0.0,0.0,0.0,-61.05223083496094,9.141204833984375,-6.9622697830200195,11050.5751953125,0
395.3829999999998,0.01461638230830431,-0.01691959798336029,-0.00012328775483183563,0.0,0.0,0.0,0.0,-0.001671984908170998,-0.0013049852568656206,0.0009868183406069875,0.9994784593582153,0.0,0.0,0.0,-61.006629943847656,9.149940490722656,-6.960943698883057,11042.322265625,0
405.2579999999998,0.014612618833780289,-0.017026476562023163,-5.582319136010483e-05,0.0,0.0,0.0,0.0,0.00098258291836828,0.0005936215166002512,-0.0019061877392232418,0.9993971586227417,0.0,0.0,0.0,-61.100746154785156,9.153873443603516,-6.946803092956543,11059.3564453125,0
415.15400000000045,0.014692476950585842,-0.01681354269385338,-0.00013694234075956047,0.0,0.0,0.0,0.0,-0.0002455873182043433,0.002756190486252308,-0.0009700839873403311,0.9985580444335938,0.0,0.0,0.0,-61.04290008544922,9.142901420593262,-6.942892551422119,11048.88671875,0
425.02800000000025,0.01473180390894413,-0.017007648944854736,-0.00010069146082969382,0.0,0.0,0.0,0.0,-0.0005675117135979235,0.0009716183412820101,-0.0012040035799145699,0.9976757764816284,0.0,0.0,0.0,-61.129600524902344,9.139479637145996,-6.933892726898193,11064.5791015625,0
434.9279999999999,0.01473340205848217,-0.016919540241360664,-8.42508306959644e-05,0.0,0.0,0.0,0.0,-0.0029711443930864334,0.004510373808443546,0.0009803578723222017,0.9991163015365601,0.0,0.0,0.0,-61.072357177734375,9.131341934204102,-6.9247283935546875,11054.21875,0
444.7960000000003,0.014658952131867409,-0.017062854021787643,-6.469967047451064e-05,0.0,0.0,0.0,0.0,0.0015975736314430833,0.0016341678565368056,0.0018608624814078212,0.9994508624076843,0.0,0.0,0.0,-61.155181884765625,9.129786491394043,-6.927913665771484,11069.208984375,0
454.6869999999999,0.014668447896838188,-0.016974112018942833,-7.225669833132997e-05,0.0,0.0,0.0,0.0,-0.002365345135331154,0.002261294052004814,-0.0027543113101273775,0.9982434511184692,0.0,0.0,0.0,-61.10431671142578,9.13313102722168,-6.926670074462891,11060.0029296875,0
464.5720000000001,0.014632654376327991,-0.017013661563396454,7.477112376363948e-06,0.0,0.0,0.0,0.0,-0.001669177203439176,0.003123626811429858,-8.112540672300383e-05,0.9969794750213623,0.0,0.0,0.0,-61.191505432128906,9.135753631591797,-6.925033092498779,11075.7841796875,0
504.10399999999936,0.014627061784267426,-0.017126858234405518,0.00018986751092597842,0.0,0.0,0.0,0.0,0.0002839492226485163,0.002095636446028948,0.00280376267619431,1.0018277168273926,0.0,0.0,0.0,-61.2253532409668,9.135037422180176,-6.898929119110107,11081.9111328125,0
514.005000000001,0.014614601619541645,-0.01706084981560707,0.00023497796792071313,0.0,0.0,0.0,0.0,0.0003631144354585558,0.0017091131303459406,0.0020343607757240534,0.999055027961731,0.0,0.0,0.0,-61.16691589355469,9.130853652954102,-6.887914180755615,11071.333984375,0
523.8729999999996,0.014593142084777355,-0.017169591039419174,0.00030199630418792367,0.0,0.0,0.0,0.0,0.0012395716039463878,0.0031227620784193277,-0.0027771962340921164,0.9989772439002991,0.0,0.0,0.0,-61.23319625854492,9.13080883026123,-6.87888240814209,11083.330078125,0
533.7669999999998,0.014636109583079815,-0.017066920176148415,0.00027279823552817106,0.0,0.0,0.0,0.0,-0.0009711213642731309,0.0034896754659712315,-0.002453456399962306,1.0003963708877563,0.0,0.0,0.0,-61.17580795288086,9.122010231018066,-6.877984046936035,11072.9423828125,0
543.6419999999998,0.014559170231223106,-0.017182759940624237,0.00031498249154537916,0.0,0.0,0.0,0.0,0.0010043170768767595,-0.0045294989831745625,0.0003269692824687809,0.998957633972168,0.0,0.0,0.0,-61.2431755065918,9.115921974182129,-6.870189189910889,11085.1357421875,0
553.5320000000011,0.01460912637412548,-0.01707802712917328,0.00026943732518702745,0.0,0.0,0.0,0.0,-0.000170986691955477,-0.0006877674604766071,0.0037148024421185255,0.9974673390388489,0.0,0.0,0.0,-61.19202423095703,9.126628875732422,-6.869387626647949,11075.8779296875,0
563.4089999999997,0.014531303197145462,-0.017179956659674644,0.00031094279256649315,0.0,0.0,0.0,0.0,0.0029494643677026033,0.006155950482934713,-0.0015217040199786425,0.9962929487228394,0.0,0.0,0.0,-61.2525749206543,9.123093605041504,-6.853549480438232,11086.8369140625,0
573.3070000000007,0.01460100244730711,-0.017031244933605194,0.00024804886197671294,0.0,0.0,0.0,0.0,-0.001246658735908568,0.0011103263823315501,-0.00024527826462872326,0.9989463686943054,0.0,0.0,0.0,-61.19516372680664,9.114656448364258,-6.857713222503662,11076.4462890625,0
583.1849999999995,0.014544261619448662,-0.01710558496415615,0.0003005275793839246,0.0,0.0,0.0,0.0,-0.00042265397496521473,0.0017700984608381987,0.0019327147165313363,0.9974035620689392,0.0,0.0,0.0,-61.25654983520508,9.122282028198242,-6.849302291870117,11087.556640625,0
593.0709999999999,0.01464312244206667,-0.01693120226264,0.00020044742268510163,0.0,0.0,0.0,0.0,0.0016901212511584163,-0.0024516198318451643,0.0012255220208317041,0.9996280670166016,0.0,0.0,0.0,-61.19783020019531,9.118998527526855,-6.842761039733887,11076.9287109375,0
602.9529999999995,0.01453487854450941,-0.01701805554330349,0.0002150573709513992,0.0,0.0,0.0,0.0,0.0007786862552165985,-0.0002918157260864973,0.001494882395491004,0.9997079372406006,0.0,0.0,0.0,-61.254364013671875,9.113018035888672,-6.82966947555542,11087.1611328125,0
612.8469999999998,0.01462438702583313,-0.016843212768435478,0.00013188789307605475,0.0,0.0,0.0,0.0,0.002429261337965727,0.003503577085211873,-6.888415373396128e-05,1.0003578662872314,0.0,0.0,0.0,-61.19585418701172,9.107223510742188,-6.822688102722168,11076.5703125,0
622.7180000000008,0.01461659837514162,-0.01699035055935383,0.0001480856299167499,0.0,0.0,0.0,0.0,-0.0014399903593584895,0.0014572786167263985,-0.0012634776066988707,0.999714732170105,0.0,0.0,0.0,-61.2498893737793,9.107351303100586,-6.805612564086914,11086.3515625,0
632.6110000000008,0.014688408933579922,-0.016834678128361702,8.899930980987847e-05,0.0,0.0,0.0,0.0,0.0011800990905612707,-0.0015857693506404757,0.002183936769142747,0.9971990585327148,0.0,0.0,0.0,-61.191707611083984,9.108108520507812,-6.795629024505615,11075.8203125,0
642.487000000001,0.014652037061750889,-0.01695564202964306,0.00010061293869512156,0.0,0.0,0.0,0.0,-0.0003923882031813264,-0.0035077412612736225,-0.0026851771399378777,0.9984235167503357,0.0,0.0,0.0,-61.24383544921875,9.10909652709961,-6.77284574508667,11085.255859375,0
652.3860000000004,0.014704686589539051,-0.01683942973613739,5.79370534978807e-05,0.0,0.0,0.0,0.0,0.0017484222771599889,0.001476613455452025,-0.002038516104221344,0.9987749457359314,0.0,0.0,0.0,-61.18617630004883,9.106902122497559,-6.757530212402344,11074.8193359375,0
662.2579999999998,0.014670575968921185,-0.016945917159318924,7.391429971903563e-05,0.0,0.0,0.0,0.0,0.0030707335099577904,-2.885293952203938e-06,0.00033299613278359175,0.9988471865653992,0.0,0.0,0.0,-61.238590240478516,9.11125659942627,-6.741218090057373,11084.3056640625,0
672.1610000000001,0.014728168025612831,-0.016820142045617104,3.751074109459296e-05,0.0,0.0,0.0,0.0,0.0020746125373989344,-0.00399691890925169,-0.0008805931429378688,0.9983119368553162,0.0,0.0,0.0,-61.1801872253418,9.101385116577148,-6.742445945739746,11073.7353515625,0
682.0259999999998,0.014674530364573002,-0.016956806182861328,3.482522879494354e-05,0.0,0.0,0.0,0.0,0.0015810489421710372,-0.0008810804574750364,-0.001626271172426641,0.9989597201347351,0.0,0.0,0.0,-61.23794937133789,9.098458290100098,-6.713626861572266,11084.1904296875,0
691.9189999999999,0.014681337401270866,-0.01692192628979683,4.220501796226017e-05,0.0,0.0,0.0,0.0,0.00015503077884204686,0.0003610345593187958,-0.0012765770079568028,0.9989171028137207,0.0,0.0,0.0,-61.179954528808594,9.092329025268555,-6.7041521072387695,11073.693359375,0
701.7939999999999,0.014647545292973518,-0.017055127769708633,4.635576988221146e-05,0.0,0.0,0.0,0.0,0.00097041972912848,-0.00019622663967311382,0.002849690383300185,0.9993799328804016,0.0,0.0,0.0,-61.228729248046875,9.091729164123535,-6.685767650604248,11082.521484375,0
711.6890000000003,0.014690609648823738,-0.01695762574672699,2.8869049856439233e-05,0.0,0.0,0.0,0.0,-0.00078978156670928,-2.828009019140154e-05,-0.002773155691102147,0.9977396726608276,0.0,0.0,0.0,-61.1695442199707,9.0796480178833,-6.676331043243408,11071.8095703125,0
721.5689999999995,0.01465596817433834,-0.01708134077489376,3.8629914342891425e-05,0.0,0.0,0.0,0.0,0.0005556442774832249,0.002190405735746026,-0.0008824715623632073,0.9996968507766724,0.0,0.0,0.0,-61.21785354614258,9.080782890319824,-6.653737545013428,11080.5537109375,0
731.4670000000006,0.014649877324700356,-0.01712309569120407,3.0225950467865914e-05,0.0,0.0,0.0,0.0,0.0023918068036437035,0.0012503007892519236,0.001044464879669249,0.9997627139091492,0.0,0.0,0.0,-61.1594352722168,9.073713302612305,-6.64794921875,11069.9794921875,0
741.3449999999993,0.014637925662100315,-0.017142202705144882,5.400821100920439e-05,0.0,0.0,0.0,0.0,0.003430693643167615,0.0023713100235909224,-0.002500506117939949,0.9991945028305054,0.0,0.0,0.0,-61.209835052490234,9.084196090698242,-6.644714832305908,11079.1015625,0
751.2309999999998,0.014685253612697124,-0.017058951780200005,2.17586311919149e-05,0.0,0.0,0.0,0.0,0.0009041464072652161,-0.0002661340404301882,0.002109543653205037,0.9974697232246399,0.0,0.0,0.0,-61.15863800048828,9.096126556396484,-6.667827129364014,11069.8359375,0
761.103000000001,0.014655355364084244,-0.017086993902921677,7.321140583371744e-05,0.0,0.0,0.0,0.0,0.003232087939977646,0.004458092153072357,-0.001823912374675274,0.9981113076210022,0.0,0.0,0.0,-61.211421966552734,9.111021041870117,-6.658127784729004,11079.388671875,0
770.9989999999998,0.014696826227009296,-0.017013048753142357,5.5696429626550525e-05,0.0,0.0,0.0,0.0,-0.0009321881225332618,0.00015642262587789446,0.0009294385090470314,1.000484824180603,0.0,0.0,0.0,-61.160064697265625,9.118589401245117,-6.676915168762207,11070.0927734375,0
780.875,0.014642918482422829,-0.01711222343146801,7.253231160575524e-05,0.0,0.0,0.0,0.0,0.0009912706445902586,0.003241528058424592,-0.0013456350425258279,1.0002171993255615,0.0,0.0,0.0,-61.20907211303711,9.125265121459961,-6.656723976135254,11078.9638671875,0
790.764000000001,0.01469418965280056,-0.017033925279974937,5.223343032412231e-05,0.0,0.0,0.0,0.0,-0.0004665636515710503,-0.003224968910217285,-0.000288196635665372,0.999984622001648,0.0,0.0,0.0,-61.15087127685547,9.11610221862793,-6.648859977722168,11068.4287109375,0
800.643,0.014635938219726086,-0.017122017219662666,7.545680273324251e-05,0.0,0.0,0.0,0.0,0.0005846379208378494,0.00013161414244677871,-0.0001558461517561227,0.9992994070053101,0.0,0.0,0.0,-61.19772720336914,9.120895385742188,-6.627994537353516,11076.91015625,0
810.5429999999997,0.014725012704730034,-0.016988063231110573,1.959164728759788e-05,0.0,0.0,0.0,0.0,-0.0008086677989922464,0.0024608445819467306,-0.0011400225339457393,0.9986440539360046,0.0,0.0,0.0,-61.139610290527344,9.116125106811523,-6.614745140075684,11066.390625,0
820.4110000000001,0.014722832478582859,-0.017030341550707817,1.5731460734969005e-05,0.0,0.0,0.0,0.0,0.0008933069766499102,0.0011918977834284306,-0.003249428467825055,0.9990330338478088,0.0,0.0,0.0,-61.081504821777344,9.11389446258545,-6.605438232421875,11055.8740234375,0
830.3099999999995,0.014748322777450085,-0.016944600269198418,1.8501716112950817e-05,0.0,0.0,0.0,0.0,0.0008354798774234951,-0.0020988492760807276,0.006505526136606932,0.998822033405304,0.0,0.0,0.0,-61.034603118896484,9.130600929260254,-6.6279191970825195,11047.384765625,0
840.1839999999993,0.014741002582013607,-0.016985781490802765,1.4900291716912761e-05,0.0,0.0,0.0,0.0,-0.0037787342444062233,0.002439537551254034,-0.00042398477671667933,0.9990407824516296,0.0,0.0,0.0,-60.97458267211914,9.125359535217285,-6.614109516143799,11036.5205078125,0
850.0709999999999,0.014758416451513767,-0.016851333901286125,3.861744698951952e-05,0.0,0.0,0.0,0.0,0.0006835248786956072,0.0017415439942851663,-0.0034133950248360634,0.9999653100967407,0.0,0.0,0.0,-60.93031692504883,9.163239479064941,-6.653973579406738,11028.5087890625,0
859.9470000000001,0.014750217087566853,-0.01688769832253456,3.700171873788349e-05,0.0,0.0,0.0,0.0,-0.0022570390719920397,0.0015536599094048142,0.002520958660170436,1.0003330707550049,0.0,0.0,0.0,-60.87251281738281,9.153114318847656,-6.6491498947143555,11018.046875,0
869.8449999999993,0.014747507870197296,-0.01681661047041416,6.730057793902233e-05,0.0,0.0,0.0,0.0,0.002790722530335188,-0.0020397407934069633,-0.002381150843575597,1.000619649887085,0.0,0.0,0.0,-60.830352783203125,9.175122261047363,-6.680624961853027,11010.416015625,0
879.7199999999993,0.014735354110598564,-0.016850177198648453,6.970659160288051e-05,0.0,0.0,0.0,0.0,-0.0007919098134152591,0.0032171166967600584,-0.001041304087266326,0.9978411793708801,0.0,0.0,0.0,-60.773319244384766,9.165757179260254,-6.67042875289917,11000.0908203125,0
889.616,0.014729655347764492,-0.016778064891695976,0.00010351849050493911,0.0,0.0,0.0,0.0,-0.00011198841093573719,0.003084787167608738,-0.002345059299841523,0.9980582594871521,0.0,0.0,0.0,-60.73590850830078,9.184784889221191,-6.703958511352539,10993.3193359375,0
899.4860000000008,0.01471569575369358,-0.01680753007531166,0.00010678091348381713,0.0,0.0,0.0,0.0,3.049240513064433e-05,0.0030897720716893673,0.0030356578063219786,1.0001252889633179,0.0,0.0,0.0,-60.6783447265625,9.178314208984375,-6.693201541900635,10982.9013671875,0
909.3780000000006,0.014716057106852531,-0.016716301441192627,0.00014016350905876607,0.0,0.0,0.0,0.0,0.0017276582075282931,0.0042277853935956955,-8.937102393247187e-05,1.0005701780319214,0.0,0.0,0.0,-60.64471435546875,9.202909469604492,-6.730501651763916,10976.8134765625,0
919.2559999999994,0.01470101810991764,-0.01674083061516285,0.00014549125626217574,0.0,0.0,0.0,0.0,0.002834657672792673,0.0005646994686685503,0.0017168241320177913,1.0004976987838745,0.0,0.0,0.0,-60.587215423583984,9.195934295654297,-6.725589275360107,10966.40625,0
929.148000000001,0.014690305106341839,-0.016695288941264153,0.00017759393085725605,0.0,0.0,0.0,0.0,-0.0007618731469847262,0.0022820138838142157,-0.00017150869825854897,1.0005916357040405,0.0,0.0,0.0,-60.5545539855957,9.203282356262207,-6.744029998779297,10960.494140625,0
939.0280000000002,0.014672178775072098,-0.016718024387955666,0.00018667682888917625,0.0,0.0,0.0,0.0,0.0005170113872736692,-0.0004953682655468583,0.00035351337282918394,0.9983701109886169,0.0,0.0,0.0,-60.496646881103516,9.199332237243652,-6.742992877960205,10950.013671875,0
948.9220000000005,0.014628952369093895,-0.01674560457468033,0.00022087176330387592,0.0,0.0,0.0,0.0,0.0028970285784453154,0.0012593797873705626,0.0008020466775633395,0.9999628663063049,0.0,0.0,0.0,-60.472286224365234,9.182211875915527,-6.740682125091553,10945.6044921875,0
958.7939999999999,0.014604523777961731,-0.016771482303738594,0.00023180205607786775,0.0,0.0,0.0,0.0,-0.0010557649657130241,0.002636832417920232,-0.0017720654141157866,0.9986713528633118,0.0,0.0,0.0,-60.414058685302734,9.171438217163086,-6.733378887176514,10935.064453125,0
968.6910000000007,0.014536233618855476,-0.01677100360393524,0.0003009900392498821,0.0,0.0,0.0,0.0,-0.0015046732733026147,6.866861076559871e-05,-4.201159390504472e-05,0.9987579584121704,0.0,0.0,0.0,-60.39237976074219,9.153400421142578,-6.753695964813232,10931.140625,0
978.5630000000001,0.014504597522318363,-0.016799047589302063,0.00031511325505562127,0.0,0.0,0.0,0.0,-0.0001216144664795138,0.006288907025009394,-0.001225413172505796,0.99838787317276,0.0,0.0,0.0,-60.33506774902344,9.151457786560059,-6.7462310791015625,10920.7685546875,0
988.4570000000003,0.01445231307297945,-0.01684213988482952,0.0003429607895668596,0.0,0.0,0.0,0.0,0.0052240220829844475,0.0028063571080565453,-2.39068285736721e-05,0.99924236536026,0.0,0.0,0.0,-60.31950759887695,9.13395881652832,-6.744972229003906,10917.951171875,0
998.3400000000001,0.014415496960282326,-0.01687558926641941,0.0003568545507732779,0.0,0.0,0.0,0.0,-0.0022534376475960016,0.0016255915397778153,-0.0034054440911859274,0.9998070001602173,0.0,0.0,0.0,-60.261390686035156,9.11756706237793,-6.744478225708008,10907.4306640625,0
1008.2240000000002,0.014422152191400528,-0.016801699995994568,0.00037972722202539444,0.0,0.0,0.0,0.0,-0.0036282739602029324,-0.004423529841005802,0.0026846497785300016,1.0003479719161987,0.0,0.0,0.0,-60.247047424316406,9.14687728881836,-6.772843837738037,10904.8349609375,0
1018.1010000000006,0.014384492300450802,-0.01682954467833042,0.0003941811737604439,0.0,0.0,0.0,0.0,5.675429929397069e-05,-0.0029807635582983494,-0.000757990637794137,1.0002248287200928,0.0,0.0,0.0,-60.18938064575195,9.14730453491211,-6.754414081573486,10894.3984375,0
1028.0040000000008,0.01434299536049366,-0.01685934141278267,0.00040968565735965967,0.0,0.0,0.0,0.0,0.0006607216782867908,0.00011582140723476186,0.000756900932174176,1.0014827251434326,0.0,0.0,0.0,-60.132328033447266,9.141668319702148,-6.74176025390625,10884.0703125,0
1037.8700000000008,0.014298871159553528,-0.016891149803996086,0.0004267248441465199,0.0,0.0,0.0,0.0,-0.0027196069713681936,-0.000716250913683325,-0.0031377405393868685,1.0007272958755493,0.0,0.0,0.0,-60.075016021728516,9.134600639343262,-6.728100776672363,10873.697265625,0
1047.7649999999994,0.014253038913011551,-0.016924317926168442,0.00044550426537171006,0.0,0.0,0.0,0.0,-0.00016089470591396093,0.0012661777436733246,-0.0003890984517056495,0.9991171360015869,0.0,0.0,0.0,-60.01893997192383,9.133951187133789,-6.715892791748047,10863.546875,0
1057.6440000000002,0.0145906126126647,-0.017238052561879158,0.0005765504320152104,0.0,0.0,0.0,0.0,0.0021366020664572716,-0.003018039045855403,0.0004221139824949205,0.9998086094856262,0.0,0.0,0.0,-60.14064025878906,9.14949893951416,-6.6320085525512695,10885.5751953125,0
1067.532000000001,0.014560031704604626,-0.017288759350776672,0.0005966921453364193,0.0,0.0,0.0,0.0,0.0019140637014061213,0.0029671492520719767,-0.002176398877054453,0.9975277781486511,0.0,0.0,0.0,-60.08254623413086,9.14396858215332,-6.61814546585083,10875.060546875,0
1077.4099999999999,0.0144585482776165,-0.0173330157995224,0.0006819073460064828,0.0,0.0,0.0,0.0,-0.002846600953489542,0.0041545238345861435,-0.0005957644316367805,0.9972761273384094,0.0,0.0,0.0,-60.21036148071289,9.136481285095215,-6.628236293792725,10898.1943359375,0
1087.3009999999995,0.014427939429879189,-0.017387762665748596,0.0007030164124444127,0.0,0.0,0.0,0.0,-0.000196192879229784,-0.0034644287079572678,0.0013298045378178358,1.0010589361190796,0.0,0.0,0.0,-60.15285873413086,9.133160591125488,-6.619766712188721,10887.787109375,0
1097.1779999999999,0.014409695751965046,-0.017419517040252686,0.0007751398952677846,0.0,0.0,0.0,0.0,-0.0003833250666502863,0.0019980119541287422,-0.000386313273338601,1.0012491941452026,0.0,0.0,0.0,-60.27730941772461,9.135923385620117,-6.614459991455078,10910.3125,0
1107.0750000000007,0.014379429630935192,-0.01747797429561615,0.0008010833407752216,0.0,0.0,0.0,0.0,0.0021148109808564186,-0.002136284252628684,-0.00038240940193645656,1.0002150535583496,0.0,0.0,0.0,-60.219486236572266,9.13211441040039,-6.601366996765137,10899.8466796875,0
1116.9470000000001,0.014382604509592056,-0.017495591193437576,0.0008719948818907142,0.0,0.0,0.0,0.0,-0.002409230684861541,0.005314744543284178,-0.0025867221411317587,0.9985800981521606,0.0,0.0,0.0,-60.34370040893555,9.132308006286621,-6.602324485778809,10922.3310546875,0
1126.8420000000006,0.014354124665260315,-0.017555447295308113,0.0009030512883327901,0.0,0.0,0.0,0.0,-0.0001223165454575792,-0.004229464568197727,7.337601709878072e-05,0.9984853267669678,0.0,0.0,0.0,-60.28655242919922,9.132372856140137,-6.605490207672119,10911.986328125,0
1136.7219999999998,0.014339997433125973,-0.017591964453458786,0.0009532595868222415,0.0,0.0,0.0,0.0,0.000989794498309493,-0.0009420081041753292,0.0023222786840051413,0.9978435039520264,0.0,0.0,0.0,-60.399497985839844,9.132704734802246,-6.600372314453125,10932.4296875,0
1146.616,0.014310463331639767,-0.017654024064540863,0.000984635204076767,0.0,0.0,0.0,0.0,0.0012902093585580587,-0.005740484222769737,0.00015403360885102302,0.9977290034294128,0.0,0.0,0.0,-60.34101486206055,9.122596740722656,-6.588019371032715,10921.84375,0
1156.4860000000008,0.014342058449983597,-0.017658349126577377,0.0010636649094522,0.0,0.0,0.0,0.0,-0.0015261850785464048,-0.001954388339072466,-0.0021436738315969706,0.9980717897415161,0.0,0.0,0.0,-60.458045959472656,9.133460998535156,-6.59588098526001,10943.0263671875,0
1166.3829999999998,0.014309541322290897,-0.017720334231853485,0.0010976927587762475,0.0,0.0,0.0,0.0,-0.0008119003614410758,0.0005763182998634875,0.002149824285879731,0.9980798959732056,0.0,0.0,0.0,-60.400821685791016,9.131020545959473,-6.590467929840088,10932.669921875,0
1176.2569999999996,0.014313054271042347,-0.017740357667207718,0.0011581538710743189,0.0,0.0,0.0,0.0,0.00031039188615977764,0.0019958284683525562,-0.0021531677339226007,0.9991866946220398,0.0,0.0,0.0,-60.50792694091797,9.133663177490234,-6.611513614654541,10952.0556640625,0
1186.1499999999996,0.014275319874286652,-0.01780521310865879,0.0011938302777707577,0.0,0.0,0.0,0.0,-0.0015143040800467134,0.0012056473642587662,0.0009111352846957743,1.000234603881836,0.0,0.0,0.0,-60.450504302978516,9.124330520629883,-6.608868598937988,10941.6611328125,0
1196.0239999999994,0.014276460744440556,-0.017820969223976135,0.0012583775678649545,0.0,0.0,0.0,0.0,0.0007296969415619969,-0.0028738160617649555,0.00038708923966623843,0.9991470575332642,0.0,0.0,0.0,-60.555389404296875,9.12795352935791,-6.627674579620361,10960.6455078125,0
1205.9169999999995,0.01423444040119648,-0.017885904759168625,0.0012981711188331246,0.0,0.0,0.0,0.0,-0.000734672590624541,0.0013301409780979156,0.0005876580253243446,1.0002708435058594,0.0,0.0,0.0,-60.49821853637695,9.115986824035645,-6.613655090332031,10950.2978515625,0
1215.7970000000005,0.014243099838495255,-0.017867114394903183,0.0013998349895700812,0.0,0.0,0.0,0.0,0.00017190277867484838,0.004173560533672571,-0.0021645077504217625,1.0011281967163086,0.0,0.0,0.0,-60.60869216918945,9.136199951171875,-6.649590015411377,10970.2939453125,0
1225.6859999999997,0.014199864119291306,-0.017928780987858772,0.0014480146346613765,0.0,0.0,0.0,0.0,-0.0012055118568241596,0.0026884262915700674,0.001092104590497911,0.9990753531455994,0.0,0.0,0.0,-60.55109405517578,9.132467269897461,-6.647668838500977,10959.8681640625,0
1235.5640000000003,0.014183503575623035,-0.017915459349751472,0.0015289385337382555,0.0,0.0,0.0,0.0,-0.0008913518395274878,0.0007739667780697346,-0.0022046815138310194,0.9991267323493958,0.0,0.0,0.0,-60.66107177734375,9.142740249633789,-6.68839693069458,10979.775390625,0
1245.464,0.01413688249886036,-0.017977287992835045,0.0015825522132217884,0.0,0.0,0.0,0.0,0.0012551494874060154,-0.0017176992259919643,0.001286885584704578,0.9996122717857361,0.0,0.0,0.0,-60.603485107421875,9.137946128845215,-6.685108184814453,10969.3515625,0
1255.3379999999997,0.014129448682069778,-0.017991535365581512,0.0016531532164663076,0.0,0.0,0.0,0.0,0.002200519433245063,-0.000512142141815275,0.0001979090884560719,1.0019030570983887,0.0,0.0,0.0,-60.70148468017578,9.14335823059082,-6.695016860961914,10987.0888671875,0
1265.232,0.014736494049429893,-0.017021067440509796,-0.00015822640853002667,0.0,0.0,0.0,0.0,-0.002006883965805173,0.00215479196049273,0.000589375791605562,1.0006153583526611,0.0,0.0,0.0,-60.6721305847168,9.330829620361328,-6.809167861938477,10981.7763671875,0
1275.1010000000006,0.014659504406154156,-0.017017701640725136,-8.003826951608062e-05,0.0,0.0,0.0,0.0,0.0017498517408967018,-0.0034675232600420713,0.0004169946478214115,1.000167965888977,0.0,0.0,0.0,-60.7665901184082,9.346160888671875,-6.808255195617676,10998.873046875,0
1284.9930000000004,0.014696508646011353,-0.016901031136512756,-0.00013863669300917536,0.0,0.0,0.0,0.0,-0.002330862218514085,-0.0014485038118436933,0.0029973259661346674,1.0003279447555542,0.0,0.0,0.0,-60.72718048095703,9.358747482299805,-6.803959369659424,10991.740234375,0
1294.8700000000008,0.014653172343969345,-0.017009040340781212,-9.80838667601347e-05,0.0,0.0,0.0,0.0,0.0036785397678613663,0.0016478878678753972,0.002101327758282423,1.0001871585845947,0.0,0.0,0.0,-60.8079948425293,9.360984802246094,-6.78963041305542,11006.3681640625,0
1304.7669999999998,0.014635912142693996,-0.016971707344055176,-5.0012742576655e-05,0.0,0.0,0.0,0.0,0.00023936026263982058,2.1793424821225926e-05,0.00203311862424016,1.001999855041504,0.0,0.0,0.0,-60.77204132080078,9.349288940429688,-6.790796756744385,10999.859375,0
1314.6399999999994,0.01460008230060339,-0.01706613600254059,2.7210826374357566e-06,0.0,0.0,0.0,0.0,-0.002901840955018997,-0.000528996461071074,0.0004192436463199556,1.0010457038879395,0.0,0.0,0.0,-60.84577941894531,9.34691333770752,-6.779109954833984,11013.20703125,0
1324.536,0.014624044299125671,-0.016959045082330704,2.1709056454710662e-05,0.0,0.0,0.0,0.0,0.0009311021422035992,-0.0025723876897245646,-0.0017066141590476036,0.9998042583465576,0.0,0.0,0.0,-60.802799224853516,9.352761268615723,-6.773329257965088,11005.427734375,0
1334.4099999999999,0.014602643437683582,-0.017078859731554985,7.378797454293817e-05,0.0,0.0,0.0,0.0,0.0011207446223124862,0.0033480387646704912,0.0034383235033601522,0.9987080693244934,0.0,0.0,0.0,-60.877376556396484,9.346624374389648,-6.762009620666504,11018.9267578125,0
1344.3009999999995,0.014653082937002182,-0.016978153958916664,4.77110588690266e-05,0.0,0.0,0.0,0.0,-0.0028349950443953276,-0.0022864153143018484,-0.0021367755252867937,0.9971038699150085,0.0,0.0,0.0,-60.8360595703125,9.345608711242676,-6.767346382141113,11011.44921875,0
1354.1849999999995,0.014596989378333092,-0.017100324854254723,8.085882291197777e-05,0.0,0.0,0.0,0.0,0.003271428169682622,-0.005659560207277536,0.0018079233122989535,0.9991317987442017,0.0,0.0,0.0,-60.90318298339844,9.347875595092773,-6.745368957519531,11023.59765625,0
1364.071,0.014684922061860561,-0.016922051087021828,3.17715312121436e-05,0.0,0.0,0.0,0.0,-0.004405685234814882,-0.0005367102567106485,0.0008064081193879247,1.0010377168655396,0.0,0.0,0.0,-60.85942077636719,9.354682922363281,-6.733190536499023,11015.6767578125,0
1373.9480000000003,0.01463061198592186,-0.017056342214345932,5.518047692021355e-05,0.0,0.0,0.0,0.0,-0.0023562891874462366,-0.002116489689797163,0.0034712355118244886,0.9981897473335266,0.0,0.0,0.0,-60.92203140258789,9.356935501098633,-6.721170425415039,11027.0087890625,0
1383.853000000001,0.014687420800328255,-0.016953611746430397,2.0511164620984346e-05,0.0,0.0,0.0,0.0,0.0005345729296095669,0.0058469586074352264,0.0017358176410198212,0.9984716176986694,0.0,0.0,0.0,-60.869606018066406,9.369668960571289,-6.713573932647705,11017.51953125,0
1393.7180000000008,0.014647054485976696,-0.017020927742123604,7.821486360626295e-05,0.0,0.0,0.0,0.0,0.004272772930562496,-0.0001867180544650182,0.0001975673803826794,1.0005024671554565,0.0,0.0,0.0,-60.937320709228516,9.369645118713379,-6.717177867889404,11029.7763671875,0
1403.6200000000008,0.014696083031594753,-0.01693694479763508,4.906997855869122e-05,0.0,0.0,0.0,0.0,0.0005164632457308471,0.0006494909757748246,4.982754762750119e-05,1.0008152723312378,0.0,0.0,0.0,-60.89597702026367,9.370309829711914,-6.725979328155518,11022.29296875,0
1413.4979999999996,0.014639992266893387,-0.01706637814640999,7.727586489636451e-05,0.0,0.0,0.0,0.0,-0.0028338858392089605,-0.005002639722079039,0.0032275498379021883,0.9995823502540588,0.0,0.0,0.0,-60.95821762084961,9.365209579467773,-6.719606399536133,11033.55859375,0
1423.3829999999998,0.014673316851258278,-0.016989286988973618,7.94631996541284e-05,0.0,0.0,0.0,0.0,-0.0024028997868299484,0.0027410921175032854,0.0009334819042123854,0.9995803833007812,0.0,0.0,0.0,-60.907867431640625,9.377182006835938,-6.715646743774414,11024.4453125,0
1433.2700000000004,0.01461000181734562,-0.01708626188337803,0.0001190247930935584,0.0,0.0,0.0,0.0,4.098774661542848e-05,0.003200121922418475,0.0005874671041965485,0.9978693127632141,0.0,0.0,0.0,-60.965145111083984,9.380061149597168,-6.70796537399292,11034.8125,0
1443.1530000000002,0.014645234681665897,-0.017011260613799095,0.0001192752824863419,0.0,0.0,0.0,0.0,-0.0002441857650410384,-0.004120095167309046,0.0013130491133779287,1.0000584125518799,0.0,0.0,0.0,-60.918331146240234,9.386123657226562,-6.7143120765686035,11026.3388671875,0
1453.0300000000007,0.014628271572291851,-0.01708206906914711,0.00018959571025334299,0.0,0.0,0.0,0.0,0.00021986651699990034,0.0045866528525948524,-0.001840383862145245,0.9993892312049866,0.0,0.0,0.0,-60.98180389404297,9.396303176879883,-6.696206092834473,11037.828125,0
1462.9189999999999,0.014664629474282265,-0.01704350672662258,0.00017796152678783983,0.0,0.0,0.0,0.0,0.0015269983559846878,-0.0006828663754276931,-0.004624497145414352,0.9989497065544128,0.0,0.0,0.0,-60.94272232055664,9.402531623840332,-6.7136549949646,11030.75390625,0
1472.8029999999999,0.014620543457567692,-0.017115801572799683,0.0002411115274298936,0.0,0.0,0.0,0.0,0.0018711464945226908,-0.0001203440988319926,-0.0014749540714547038,0.9987115859985352,0.0,0.0,0.0,-61.00312805175781,9.402345657348633,-6.706624984741211,11041.6875,0
1482.688,0.014734790660440922,-0.01693159155547619,0.00017595595272723585,0.0,0.0,0.0,0.0,-0.0008737031021155417,0.0003037428541574627,0.0008315304294228554,0.9975495934486389,0.0,0.0,0.0,-60.951141357421875,9.421365737915039,-6.716924667358398,11032.2783203125,0
1492.5720000000001,0.014678701758384705,-0.017058175057172775,0.00020594974921550602,0.0,0.0,0.0,0.0,0.0031429175287485123,0.0040969462133944035,0.001047314959578216,0.998183012008667,0.0,0.0,0.0,-61.00992202758789,9.42078971862793,-6.702500820159912,11042.9169921875,0
1502.4580000000005,0.014715765602886677,-0.016994792968034744,0.00021344983542803675,0.0,0.0,0.0,0.0,-0.0008778830524533987,-0.0006550078978762031,1.635553599044215e-05,0.9990772604942322,0.0,0.0,0.0,-60.96567153930664,9.419776916503906,-6.715545654296875,11034.908203125,0
1512.3420000000006,0.014654064550995827,-0.01708744838833809,0.0002535854000598192,0.0,0.0,0.0,0.0,0.0014317273162305355,0.008800228126347065,-0.00016486053937114775,0.9990193247795105,0.0,0.0,0.0,-61.02277755737305,9.425372123718262,-6.699177265167236,11045.244140625,0
1522.2389999999996,0.014741575345396996,-0.016981588676571846,0.0001928938290802762,0.0,0.0,0.0,0.0,0.0034662915859371424,0.003638610942289233,-0.001602152013219893,0.9982438087463379,0.0,0.0,0.0,-60.97654342651367,9.438080787658691,-6.725334644317627,11036.8759765625,0
1532.1129999999994,0.014632095582783222,-0.01711701788008213,0.00019335738033987582,0.0,0.0,0.0,0.0,0.0006755460053682327,-0.0027802023105323315,-0.0027447412721812725,0.999779462814331,0.0,0.0,0.0,-61.027000427246094,9.427258491516113,-6.726156711578369,11046.0087890625,0
1541.996000000001,0.014689800329506397,-0.017032435163855553,0.00017052621114999056,0.0,0.0,0.0,0.0,0.002454183530062437,0.001541945501230657,-0.0007347004720941186,1.000288486480713,0.0,0.0,0.0,-60.96937942504883,9.421274185180664,-6.718946933746338,11035.5791015625,0
1551.8780000000006,0.014592193998396397,-0.017097413539886475,0.00020422319357749075,0.0,0.0,0.0,0.0,0.0018809984903782606,0.004666509572416544,0.000849819160066545,1.001726508140564,0.0,0.0,0.0,-61.02742385864258,9.415201187133789,-6.723511695861816,11046.0849609375,0
1561.7630000000008,0.014687308110296726,-0.01698124408721924,0.00013672448403667659,0.0,0.0,0.0,0.0,0.0002970105560962111,-0.003611820749938488,-0.0006629779818467796,0.9992130994796753,0.0,0.0,0.0,-60.968990325927734,9.410553932189941,-6.725915908813477,11035.5087890625,0
1571.648000000001,0.014660142362117767,-0.017065398395061493,0.00018182989151682705,0.0,0.0,0.0,0.0,0.0007006771047599614,0.001451566000469029,-4.179283860139549e-05,0.9979133009910583,0.0,0.0,0.0,-61.025733947753906,9.416910171508789,-6.707450866699219,11045.779296875,0
1581.5380000000005,0.014746053144335747,-0.016962487250566483,0.0001340581802651286,0.0,0.0,0.0,0.0,-0.002517066430300474,0.005621216259896755,0.00016176224744413048,0.9981033205986023,0.0,0.0,0.0,-60.977718353271484,9.429169654846191,-6.724611282348633,11037.087890625,0
1591.4210000000003,0.014673025347292423,-0.017094748094677925,0.00013650039909407496,0.0,0.0,0.0,0.0,0.00022258861281443387,0.0022761421278119087,-0.0006232578307390213,0.9984748959541321,0.0,0.0,0.0,-61.02669906616211,9.426755905151367,-6.723616600036621,11045.9541015625,0
1601.3019999999997,0.0147579750046134,-0.016978861764073372,9.849880734691396e-05,0.0,0.0,0.0,0.0,-0.0007203801651485264,0.0013214534847065806,-0.0004799276066478342,1.0021448135375977,0.0,0.0,0.0,-60.978553771972656,9.437849044799805,-6.739421367645264,11037.2392578125,0
1611.188,0.014708055183291435,-0.017048798501491547,0.00013140335795469582,0.0,0.0,0.0,0.0,-0.0003984985232818872,-0.002195026958361268,-0.0022989839781075716,1.0001329183578491,0.0,0.0,0.0,-61.03363800048828,9.442280769348145,-6.731382846832275,11047.2109375,0
1621.0769999999993,0.014789487235248089,-0.016959553584456444,9.082963515538722e-05,0.0,0.0,0.0,0.0,-0.004310515243560076,0.002141817007213831,0.0031409161165356636,0.9994580149650574,0.0,0.0,0.0,-60.988338470458984,9.459749221801758,-6.727667331695557,11039.0107421875,0
1630.955,0.014710407704114914,-0.01704137958586216,0.00010764147737063468,0.0,0.0,0.0,0.0,0.00156858388800174,0.0010895669693127275,-0.0017901433166116476,0.9984365701675415,0.0,0.0,0.0,-61.04138946533203,9.464296340942383,-6.726861000061035,11048.6123046875,0
1640.8400000000001,0.014769566245377064,-0.01694866083562374,0.00011037979129469022,0.0,0.0,0.0,0.0,0.0030479389242827892,-0.0019951460417360067,0.004024287685751915,0.999882698059082,0.0,0.0,0.0,-60.992164611816406,9.47149658203125,-6.734541893005371,11039.703125,0
1650.7250000000004,0.01469339057803154,-0.01707608252763748,0.0001083402312360704,0.0,0.0,0.0,0.0,0.000901530496776104,0.003501307452097535,0.0008086035959422588,0.9985527396202087,0.0,0.0,0.0,-61.04102325439453,9.467206954956055,-6.7124786376953125,11048.546875,0
1660.6149999999998,0.014783154241740704,-0.01697883941233158,6.962355837458745e-05,0.0,0.0,0.0,0.0,-0.0032175180967897177,0.002640083199366927,0.0021151057444512844,0.9979858994483948,0.0,0.0,0.0,-60.99101638793945,9.478459358215332,-6.72727632522583,11039.4951171875,0
1670.5,0.014727485366165638,-0.017029516398906708,0.00010069761628983542,0.0,0.0,0.0,0.0,0.00226083816960454,0.00010309348726877943,0.0011652883840724826,0.9989862442016602,0.0,0.0,0.0,-61.04450607299805,9.484774589538574,-6.729832172393799,11049.1767578125,0
1680.3829999999998,0.014812902547419071,-0.01695396564900875,6.599681364605203e-05,0.0,0.0,0.0,0.0,-0.003520902246236801,-0.002494140760973096,-0.0021258448250591755,0.9982773065567017,0.0,0.0,0.0,-60.99993896484375,9.491086959838867,-6.731849670410156,11041.111328125,0
1690.2720000000008,0.014764807187020779,-0.017061585560441017,7.245270535349846e-05,0.0,0.0,0.0,0.0,-0.0017571599455550313,0.0022368193604052067,0.0002899020619224757,1.0008506774902344,0.0,0.0,0.0,-61.04643249511719,9.49399185180664,-6.710651397705078,11049.525390625,0
1700.1460000000006,0.01485303696244955,-0.016974112018942833,4.359787271823734e-05,0.0,0.0,0.0,0.0,-0.0003996296727564186,0.006213833577930927,0.0012490036897361279,0.999752938747406,0.0,0.0,0.0,-60.99912643432617,9.505716323852539,-6.72755765914917,11040.9638671875,0
1710.0380000000005,0.014754590578377247,-0.017015162855386734,6.26110122539103e-05,0.0,0.0,0.0,0.0,-0.001899344497360289,0.0010787576902657747,-0.001135397469624877,0.9988680481910706,0.0,0.0,0.0,-61.05247497558594,9.499433517456055,-6.736152172088623,11050.619140625,0
1719.92,0.014840640127658844,-0.016941916197538376,3.6752375308424234e-05,0.0,0.0,0.0,0.0,-0.002956667449325323,0.0032484971452504396,-0.004000565502792597,1.0016204118728638,0.0,0.0,0.0,-61.00330352783203,9.507415771484375,-6.739098072052002,11041.71875,0
1729.8150000000005,0.014711660332977772,-0.016991091892123222,4.255936073604971e-05,0.0,0.0,0.0,0.0,0.0038142288103699684,0.0028567255940288305,-0.0008092020289041102,1.0012284517288208,0.0,0.0,0.0,-61.05998229980469,9.497416496276855,-6.747701644897461,11051.978515625,0
1739.6849999999995,0.014796994626522064,-0.01691291853785515,2.536753709136974e-05,0.0,0.0,0.0,0.0,0.00047598639503121376,-0.0005011004395782948,-0.0018693682504817843,1.0016543865203857,0.0,0.0,0.0,-61.012115478515625,9.49951457977295,-6.747915744781494,11043.314453125,0
1749.5740000000005,0.01472784299403429,-0.01702454686164856,2.4693430532352068e-05,0.0,0.0,0.0,0.0,-0.00204747193492949,0.0004062894149683416,-0.000555231817997992,0.9994878172874451,0.0,0.0,0.0,-61.0605354309082,9.4943208694458,-6.727537631988525,11052.078125,0
1759.451000000001,0.014788963831961155,-0.01696847379207611,4.346504283603281e-05,0.0,0.0,0.0,0.0,-0.00014812858717050403,0.0006803689757362008,-0.0006732973270118237,1.001473069190979,0.0,0.0,0.0,-61.010990142822266,9.49769401550293,-6.732288360595703,11043.111328125,0
1769.3430000000008,0.014718364924192429,-0.017067816108465195,4.911843643640168e-05,0.0,0.0,0.0,0.0,0.0016548989806324244,-0.0032595288939774036,-0.00018355943029746413,1.000801920890808,0.0,0.0,0.0,-61.05624771118164,9.490206718444824,-6.720173358917236,11051.302734375,0
1779.2199999999993,0.014831077307462692,-0.016956264153122902,1.7455096894991584e-05,0.0,0.0,0.0,0.0,0.00187130447011441,7.042376819299534e-05,0.0029899911023676395,0.9995357990264893,0.0,0.0,0.0,-60.99819564819336,9.484981536865234,-6.703036308288574,11040.794921875,0
1789.1149999999998,0.01476491242647171,-0.017000442370772362,4.9805312301032245e-05,0.0,0.0,0.0,0.0,-0.002777527552098036,0.0037952973507344723,0.00036742741940543056,0.9987999200820923,0.0,0.0,0.0,-61.050994873046875,9.48386287689209,-6.699658393859863,11050.3515625,0
1798.9920000000002,0.014866563491523266,-0.016893241554498672,4.247784454491921e-05,0.0,0.0,0.0,0.0,-0.0018852973589673638,-0.0019037266029044986,-0.0002603620814625174,0.9975102543830872,0.0,0.0,0.0,-61.001869201660156,9.501265525817871,-6.7083940505981445,11041.4599609375,0
1808.884,0.014766491949558258,-0.0170173030346632,2.745255005720537e-05,0.0,0.0,0.0,0.0,0.0011551276547834277,0.001592179061844945,0.0006245814147405326,0.9971149563789368,0.0,0.0,0.0,-61.0501594543457,9.488975524902344,-6.6880083084106445,11050.2001953125,0
1818.759,0.014873288571834564,-0.01690637692809105,1.0465866580489092e-05,0.0,0.0,0.0,0.0,0.0030857259407639503,-0.005490190349519253,-0.0022322097793221474,0.9962565302848816,0.0,0.0,0.0,-61.00284957885742,9.50467586517334,-6.697037220001221,11041.6376953125,0
1828.648000000001,0.014786791056394577,-0.016970237717032433,1.725436231936328e-05,0.0,0.0,0.0,0.0,-0.0010631871409714222,-0.002557341707870364,-0.0020982117857784033,0.9984170794487,0.0,0.0,0.0,-61.054168701171875,9.494519233703613,-6.678936958312988,11050.92578125,0
1838.5280000000002,0.014874055981636047,-0.01689174771308899,1.2997965313843451e-05,0.0,0.0,0.0,0.0,0.003075526561588049,-0.003090342041105032,-0.0018977870931848884,1.0016789436340332,0.0,0.0,0.0,-61.00576400756836,9.506543159484863,-6.677604675292969,11042.1640625,0
1848.4320000000007,0.014784472063183784,-0.016995437443256378,-8.729489309189375e-08,0.0,0.0,0.0,0.0,0.0006744712009094656,0.004686049185693264,0.0004926725523546338,0.9978377223014832,0.0,0.0,0.0,-61.05242156982422,9.493851661682129,-6.662827014923096,11050.609375,0
1858.299000000001,0.014890658669173717,-0.01687413826584816,-1.5606095985276625e-05,0.0,0.0,0.0,0.0,0.0033620893955230713,0.0022652584593743086,-0.0025213193148374557,0.9994004964828491,0.0,0.0,0.0,-61.001399993896484,9.508197784423828,-6.679525375366211,11041.375,0
1868.2029999999995,0.014789721928536892,-0.01697164587676525,-3.3091462682932615e-05,0.0,0.0,0.0,0.0,-0.0027800730895251036,-0.000929855857975781,-0.002274556551128626,0.9998863339424133,0.0,0.0,0.0,-61.048248291015625,9.488075256347656,-6.672945022583008,11049.8544921875,0
1878.0699999999997,0.014829768799245358,-0.016959700733423233,6.7432438299874775e-06,0.0,0.0,0.0,0.0,0.0007411233382299542,0.006024185102432966,0.0018393347272649407,0.9990625977516174,0.0,0.0,0.0,-60.9905891418457,9.488564491271973,-6.659022808074951,11039.41796875,0
1887.9699999999993,0.014768591150641441,-0.01698668673634529,3.7399138818727806e-05,0.0,0.0,0.0,0.0,0.003914663102477789,0.0003140490734949708,0.0006372735952027142,0.9966168999671936,0.0,0.0,0.0,-61.043636322021484,9.482983589172363,-6.667244911193848,11049.01953125,0
1897.8379999999997,0.014819842763245106,-0.016961168497800827,6.844333256594837e-05,0.0,0.0,0.0,0.0,0.0011508272727951407,0.0028832468669861555,0.0055532692931592464,0.9979835152626038,0.0,0.0,0.0,-60.992794036865234,9.4721097946167,-6.675329685211182,11039.8173828125,0
1907.7260000000006,0.014762040227651596,-0.01700979843735695,9.212059376295656e-05,0.0,0.0,0.0,0.0,0.005433409474790096,0.00046413339441642165,0.00012184423394501209,1.0006048679351807,0.0,0.0,0.0,-61.043304443359375,9.472282409667969,-6.674348831176758,11048.958984375,0
1917.6059999999998,0.014825205318629742,-0.01696637086570263,0.00011697126319631934,0.0,0.0,0.0,0.0,-0.0026995327789336443,-0.007793090771883726,0.000835099199321121,0.9998672604560852,0.0,0.0,0.0,-60.993587493896484,9.463967323303223,-6.673664569854736,11039.9609375,0
1927.4979999999996,0.014737852849066257,-0.017070692032575607,0.00011081185220973566,0.0,0.0,0.0,0.0,0.0009485020418651402,0.004801017697900534,0.000553223944734782,0.9982061386108398,0.0,0.0,0.0,-61.03910827636719,9.453335762023926,-6.644547462463379,11048.2001953125,0
1937.3770000000004,0.014832308515906334,-0.016983266919851303,0.00011091434134868905,0.0,0.0,0.0,0.0,-0.000993250054307282,-0.0054199122823774815,0.0013166406424716115,1.0004509687423706,0.0,0.0,0.0,-60.98051834106445,9.448163986206055,-6.640827178955078,11037.5947265625,0
1947.2759999999998,0.014731699600815773,-0.01708144322037697,0.00010031931014964357,0.0,0.0,0.0,0.0,0.005212147254496813,0.0022276947274804115,0.0013398198643699288,0.9998914003372192,0.0,0.0,0.0,-61.02574157714844,9.44119930267334,-6.615967273712158,11045.7802734375,0
1957.1419999999998,0.014819451607763767,-0.017000339925289154,0.00010980571096297354,0.0,0.0,0.0,0.0,-0.0017854449106380343,0.00015940071898512542,0.002119196578860283,0.9976443648338318,0.0,0.0,0.0,-60.9737434387207,9.443737030029297,-6.623869895935059,11036.369140625,0
1967.0370000000003,0.014692945405840874,-0.01703760400414467,0.00011805081157945096,0.0,0.0,0.0,0.0,-0.00022639903181698173,0.00010232766362605616,0.0009680101065896451,0.998386561870575,0.0,0.0,0.0,-61.025306701660156,9.439447402954102,-6.626155376434326,11045.7021484375,0
1976.9150000000009,0.014822456054389477,-0.016901878640055656,8.02201175247319e-05,0.0,0.0,0.0,0.0,0.002358936471864581,0.002103267004713416,0.0007030187989585102,0.9993148446083069,0.0,0.0,0.0,-60.97520446777344,9.46114444732666,-6.638834476470947,11036.6337890625,0
1986.8029999999999,0.014758042991161346,-0.01702810265123844,6.705840496579185e-05,0.0,0.0,0.0,0.0,-0.0006396519020199776,0.0026526544243097305,0.0037125058006495237,0.9989308714866638,0.0,0.0,0.0,-61.022830963134766,9.446453094482422,-6.628121376037598,11045.25390625,0
1996.6839999999993,0.014864195138216019,-0.016952291131019592,4.188972889096476e-05,0.0,0.0,0.0,0.0,5.2401170250959694e-05,0.0013344143517315388,-0.003642511088401079,0.9972416758537292,0.0,0.0,0.0,-60.96389389038086,9.44050407409668,-6.623932838439941,11034.5859375,0
2006.5720000000001,0.014766668900847435,-0.017037328332662582,3.117688902420923e-05,0.0,0.0,0.0,0.0,-0.0035765429493039846,0.0030800607055425644,-0.0009931832319125533,0.9987383484840393,0.0,0.0,0.0,-61.01230239868164,9.429390907287598,-6.622946262359619,11043.3486328125,0
2016.4500000000007,0.014886382967233658,-0.016909385100007057,4.314872057875618e-06,0.0,0.0,0.0,0.0,0.001511969487182796,-0.003911871463060379,0.002314932644367218,1.0006061792373657,0.0,0.0,0.0,-60.9611701965332,9.451966285705566,-6.639960765838623,11034.0927734375,0
2026.3469999999998,0.014831753447651863,-0.016993597149848938,1.812731170502957e-06,0.0,0.0,0.0,0.0,0.0003418264095671475,0.0036852590274065733,-0.0019432228291407228,0.998223066329956,0.0,0.0,0.0,-61.00617218017578,9.444352149963379,-6.620850086212158,11042.23828125,0
2036.2180000000008,0.014972404576838017,-0.01684548147022724,-4.677917604567483e-05,0.0,0.0,0.0,0.0,0.0019056893652305007,-0.0016806934727355838,-0.0014411997981369495,0.9985634684562683,0.0,0.0,0.0,-60.960289001464844,9.460528373718262,-6.647064685821533,11033.93359375,0
2046.112000000001,0.014879253692924976,-0.016919365152716637,-5.9160425735171884e-05,0.0,0.0,0.0,0.0,0.00321383704431355,0.0005029937019571662,0.0019141585798934102,0.9994311928749084,0.0,0.0,0.0,-61.01367950439453,9.445304870605469,-6.638531684875488,11043.59765625,0
2055.99,0.014965126290917397,-0.016849713400006294,-5.135598621563986e-05,0.0,0.0,0.0,0.0,-0.00379345309920609,0.0012038981076329947,-0.0003150578122586012,0.9991590976715088,0.0,0.0,0.0,-60.96659851074219,9.445241928100586,-6.64107608795166,11035.0751953125,0
2065.879000000001,0.014833207242190838,-0.016954002901911736,-9.06570567167364e-05,0.0,0.0,0.0,0.0,-0.0007033103029243648,-0.002978722332045436,0.0027300971560180187,1.0007764101028442,0.0,0.0,0.0,-61.01150131225586,9.431614875793457,-6.631833076477051,11043.2041015625,0
2075.76,0.014920028857886791,-0.016871556639671326,-7.70887709222734e-05,0.0,0.0,0.0,0.0,0.0019251202465966344,0.004779620096087456,-0.0006210660794749856,0.9984593391418457,0.0,0.0,0.0,-60.96352767944336,9.435775756835938,-6.635135173797607,11034.51953125,0
2085.6499999999996,0.014817438088357449,-0.016965435817837715,-0.00010166040010517463,0.0,0.0,0.0,0.0,-0.0011993723455816507,0.004468097351491451,-0.0028787124902009964,0.9991059303283691,0.0,0.0,0.0,-61.008209228515625,9.416592597961426,-6.642958164215088,11042.607421875,0
2095.526,0.014895201660692692,-0.01692258007824421,-9.126948862103745e-05,0.0,0.0,0.0,0.0,0.002263090806081891,-0.0010680505074560642,-0.002522133057937026,0.9973002076148987,0.0,0.0,0.0,-60.96780776977539,9.420831680297852,-6.664121627807617,11035.2939453125,0
2105.4220000000005,0.014843607321381569,-0.01699863187968731,-9.332351328339428e-05,0.0,0.0,0.0,0.0,0.003277259413152933,0.0062997364439070225,-2.087285611196421e-05,0.9982708692550659,0.0,0.0,0.0,-61.0125617980957,9.411086082458496,-6.664700984954834,11043.39453125,0
2115.3009999999995,0.014943755231797695,-0.016906173899769783,-9.254565520677716e-05,0.0,0.0,0.0,0.0,0.0005617020069621503,-0.002971550915390253,-0.0011350520653650165,0.999133825302124,0.0,0.0,0.0,-60.964115142822266,9.410364151000977,-6.690765380859375,11034.626953125,0
2125.1890000000003,0.014827827922999859,-0.01696828007698059,-0.00011157041444675997,0.0,0.0,0.0,0.0,-0.001116225030273199,-0.001417256542481482,0.000826850940939039,0.9975642561912537,0.0,0.0,0.0,-61.013004302978516,9.391020774841309,-6.681941509246826,11043.474609375,0
2135.0689999999995,0.014899192377924919,-0.016935309395194054,-9.65540311881341e-05,0.0,0.0,0.0,0.0,0.0010187653824687004,0.00020949913596268743,0.00016520291683264077,0.9985397458076477,0.0,0.0,0.0,-60.963348388671875,9.391037940979004,-6.6788763999938965,11034.4873046875,0
2144.9590000000007,0.014803716912865639,-0.016973331570625305,-9.858943667495623e-05,0.0,0.0,0.0,0.0,0.003070700215175748,0.0010616806102916598,-0.0013090840075165033,0.9997076392173767,0.0,0.0,0.0,-61.0113525390625,9.378583908081055,-6.675070762634277,11043.1767578125,0
2154.8410000000003,0.01489234622567892,-0.01690053753554821,-9.032966772792861e-05,0.0,0.0,0.0,0.0,-0.0002647766668815166,0.004766606725752354,-5.900737960473634e-06,0.9994964599609375,0.0,0.0,0.0,-60.9598388671875,9.380000114440918,-6.681728839874268,11033.8515625,0
2164.7270000000008,0.014828652143478394,-0.01693725772202015,-7.7773307566531e-05,0.0,0.0,0.0,0.0,0.002009314252063632,-0.0024998695589601994,0.0006956791621632874,0.9990478157997131,0.0,0.0,0.0,-61.01141357421875,9.37585163116455,-6.690814018249512,11043.1875,0
2174.608,0.014903627336025238,-0.016905471682548523,-6.414241943275556e-05,0.0,0.0,0.0,0.0,0.001777291065081954,0.003346225479617715,0.0005795854958705604,0.9984959959983826,0.0,0.0,0.0,-60.95992660522461,9.372430801391602,-6.683609485626221,11033.8681640625,0
2184.5,0.014776663854718208,-0.01694652996957302,-6.899369327584282e-05,0.0,0.0,0.0,0.0,0.00011702020856318995,-0.0032294068951159716,-0.001052694278769195,0.9975873827934265,0.0,0.0,0.0,-61.013248443603516,9.355974197387695,-6.686604022979736,11043.51953125,0
2194.3719999999994,0.014825978316366673,-0.016954222694039345,-3.486354762571864e-05,0.0,0.0,0.0,0.0,0.0015411245403811336,0.002635049866512418,-0.0022362384479492903,0.9980899095535278,0.0,0.0,0.0,-60.96968078613281,9.354206085205078,-6.6833271980285645,11035.6337890625,0
2204.264000000001,0.014747433364391327,-0.016989625990390778,-1.7147152902907692e-05,0.0,0.0,0.0,0.0,0.0005496683879755437,0.00633148942142725,0.0015142320189625025,0.9978412985801697,0.0,0.0,0.0,-61.022674560546875,9.349434852600098,-6.68992805480957,11045.2255859375,0
