timestamp,stateEstimate.x,stateEstimate.y,stateEstimate.z,controller.cmd_thrust,controller.cmd_roll,controller.cmd_pitch,controller.cmd_yaw,controller.r_roll,controller.r_pitch,controller.r_yaw,controller.accelz,controller.actuatorThrust,controller.roll,controller.pitch,controller.yaw,controller.rollRate,controller.pitchRate,controller.yawRate,controller.ctr_yaw
0.0,0.03133122995495796,-0.0352679081261158,0.0015627755783498287,0.0,0.0,0.0,0.0,0.0006176253664307296,0.001509317895397544,0.0008669273811392486,0.9993324279785156,0.0,0.0,0.0,-43.52727127075195,10.042684555053711,-4.189054489135742,7878.5224609375,0
9.869000000000597,0.03128320351243019,-0.035354163497686386,0.0016855308786034584,0.0,0.0,0.0,0.0,-0.0004895887686870992,-0.0025180161464959383,-0.002849167212843895,0.998912513256073,0.0,0.0,0.0,-43.48420715332031,10.031244277954102,-4.1691060066223145,7870.728515625,0
19.76599999999962,0.031366411596536636,-0.03524379804730415,0.0014841854572296143,0.0,0.0,0.0,0.0,0.0008402475505135953,-0.0013099462958052754,0.0042813969776034355,1.0013821125030518,0.0,0.0,0.0,-43.52619934082031,10.038871765136719,-4.177350044250488,7878.3291015625,0
29.63800000000083,0.03131664916872978,-0.03532968834042549,0.0016053555300459266,0.0,0.0,0.0,0.0,-0.0004308885254431516,0.002334753517061472,-0.00034250569297000766,0.9994797110557556,0.0,0.0,0.0,-43.484012603759766,10.02971363067627,-4.156254291534424,7870.693359375,0
39.52399999999943,0.03141358867287636,-0.035161327570676804,0.001357685192488134,0.0,0.0,0.0,0.0,0.0008513570064678788,-0.001545594190247357,0.0011648000217974186,0.9990251660346985,0.0,0.0,0.0,-43.52169418334961,10.05308723449707,-4.190010070800781,7877.51318359375,0
49.40899999999965,0.03136216476559639,-0.03524405509233475,0.0014792574802413583,0.0,0.0,0.0,0.0,0.002030559815466404,-0.0038052662275731564,0.001098108128644526,0.9993988871574402,0.0,0.0,0.0,-43.47908401489258,10.046651840209961,-4.171616554260254,7869.80078125,0
59.29500000000007,0.03143874928355217,-0.03508652746677399,0.001242397353053093,0.0,0.0,0.0,0.0,-0.0010050289565697312,0.0010292896768078208,0.004571994766592979,1.0009396076202393,0.0,0.0,0.0,-43.52041244506836,10.057469367980957,-4.182317733764648,7877.28125,0
69.18399999999929,0.0313846729695797,-0.035164687782526016,0.0013627242296934128,0.0,0.0,0.0,0.0,-0.0012015211395919323,-0.0002289949479745701,-0.0011542499996721745,0.9977385401725769,0.0,0.0,0.0,-43.476966857910156,10.053706169128418,-4.159477233886719,7869.41748046875,0
79.05999999999949,0.03146948665380478,-0.03504965826869011,0.0011587942717596889,0.0,0.0,0.0,0.0,-0.00030736063490621746,-0.006171856541186571,0.00017039172234945,0.9978671073913574,0.0,0.0,0.0,-43.516685485839844,10.060361862182617,-4.172869682312012,7876.6064453125,0
88.95600000000013,0.031417522579431534,-0.03512844070792198,0.0012764660641551018,0.0,0.0,0.0,0.0,-0.002944459905847907,0.003408885793760419,0.0024771704338490963,0.9982094168663025,0.0,0.0,0.0,-43.47447204589844,10.051092147827148,-4.148019790649414,7868.96533203125,0
98.83599999999933,0.03147900477051735,-0.03504940867424011,0.0011395994806662202,0.0,0.0,0.0,0.0,0.0007042603101581335,0.001583320670761168,0.0011355835013091564,1.000706434249878,0.0,0.0,0.0,-43.51237487792969,10.06382942199707,-4.1486101150512695,7875.826171875,0
108.73300000000017,0.03142926096916199,-0.0351303331553936,0.0012546493671834469,0.0,0.0,0.0,0.0,-0.002864645328372717,0.0003418667474761605,0.00135752372443676,1.0011751651763916,0.0,0.0,0.0,-43.469539642333984,10.053811073303223,-4.1463470458984375,7868.07373046875,0
118.60300000000097,0.03150584548711777,-0.03503475710749626,0.001088788965716958,0.0,0.0,0.0,0.0,0.0023903422988951206,-0.0022269554901868105,0.0033940512221306562,1.0010467767715454,0.0,0.0,0.0,-43.508209228515625,10.065094947814941,-4.1533708572387695,7875.072265625,0
128.5069999999996,0.03145947679877281,-0.035118330270051956,0.0012051700614392757,0.0,0.0,0.0,0.0,0.0029511540196835995,0.0029824930243194103,-0.0016470084665343165,0.9993586540222168,0.0,0.0,0.0,-43.46626281738281,10.055747985839844,-4.142726421356201,7867.47998046875,0
138.3680000000004,0.031553320586681366,-0.03497207909822464,0.000988928135484457,0.0,0.0,0.0,0.0,-0.002311916556209326,-0.0035657163243740797,-0.002375422278419137,0.9991410374641418,0.0,0.0,0.0,-43.504600524902344,10.069938659667969,-4.16441011428833,7874.4189453125,0
148.27299999999923,0.03150942176580429,-0.035053085535764694,0.0011056775692850351,0.0,0.0,0.0,0.0,1.366304559269338e-06,0.003939904738217592,-0.0015974570997059345,0.9996665120124817,0.0,0.0,0.0,-43.46240997314453,10.062390327453613,-4.143197536468506,7866.7822265625,0
158.13800000000083,0.03159356489777565,-0.03488871082663536,0.000869446957949549,0.0,0.0,0.0,0.0,-0.0029155972879379988,-0.0038007604889571667,4.251037535141222e-05,0.9990146160125732,0.0,0.0,0.0,-43.501556396484375,10.074005126953125,-4.174797058105469,7873.8681640625,0
168.03199999999924,0.03155054152011871,-0.0349644310772419,0.0009847951587289572,0.0,0.0,0.0,0.0,0.00045441658585332334,-0.002904510358348489,-0.000275581085588783,1.0010303258895874,0.0,0.0,0.0,-43.459320068359375,10.070738792419434,-4.153557300567627,7866.22314453125,0
177.91300000000047,0.03164271265268326,-0.03478468209505081,0.0006808722973801196,0.0,0.0,0.0,0.0,-0.0014148378977552056,0.00019094051094725728,-0.0014049399178475142,1.0017176866531372,0.0,0.0,0.0,-43.495635986328125,10.07561206817627,-4.162957191467285,7872.79638671875,0
187.79999999999927,0.03159613907337189,-0.03486024960875511,0.0007945222896523774,0.0,0.0,0.0,0.0,-0.0008158753626048565,0.0020335433073341846,0.004428301006555557,1.0003225803375244,0.0,0.0,0.0,-43.45347213745117,10.065511703491211,-4.1532673835754395,7865.16455078125,0
197.6810000000005,0.0316750630736351,-0.034691594541072845,0.000518552609719336,0.0,0.0,0.0,0.0,0.0019069993868470192,0.0030286158435046673,-0.0003921553725376725,0.9990276098251343,0.0,0.0,0.0,-43.48357009887695,10.076101303100586,-4.1685285568237305,7870.6123046875,0
207.57200000000012,0.03162911534309387,-0.03476700559258461,0.000631383853033185,0.0,0.0,0.0,0.0,-0.00047713544336147606,-0.001624816912226379,0.0010072378208860755,1.0005981922149658,0.0,0.0,0.0,-43.441768646240234,10.066195487976074,-4.1621809005737305,7863.04638671875,0
217.45000000000073,0.0316961444914341,-0.034708645194768906,0.0005067817983217537,0.0,0.0,0.0,0.0,0.0033394182100892067,-0.004999153781682253,-0.0026965709403157234,1.0000308752059937,0.0,0.0,0.0,-43.48301696777344,10.069250106811523,-4.155813217163086,7870.5126953125,0
227.34300000000076,0.031654417514801025,-0.034784991294145584,0.000619575206656009,0.0,0.0,0.0,0.0,0.002820689231157303,-0.0023716238792985678,-0.0004827912198379636,0.9999122619628906,0.0,0.0,0.0,-43.44209289550781,10.060656547546387,-4.143558025360107,7863.10498046875,0
237.22199999999975,0.0317104198038578,-0.0347248837351799,0.000516323430929333,0.0,0.0,0.0,0.0,-0.0007688295445404947,0.0023634671233594418,-0.0004182294069323689,0.9991753697395325,0.0,0.0,0.0,-43.48484420776367,10.066795349121094,-4.146133899688721,7870.84375,0
247.10800000000017,0.03167062997817993,-0.03480096533894539,0.0006294039776548743,0.0,0.0,0.0,0.0,-0.0003194131422787905,-0.002208460122346878,-6.630147254327312e-05,1.0001709461212158,0.0,0.0,0.0,-43.44302749633789,10.058292388916016,-4.142309665679932,7863.27490234375,0
256.996000000001,0.03172173723578453,-0.034726619720458984,0.0005032048211432993,0.0,0.0,0.0,0.0,0.0011879393132403493,-0.0017649616347625852,-0.0021554050035774708,1.0002330541610718,0.0,0.0,0.0,-43.484981536865234,10.0584077835083,-4.162839412689209,7870.8681640625,0
266.8760000000002,0.03168201819062233,-0.034803684800863266,0.0006160964840091765,0.0,0.0,0.0,0.0,0.0012237423798069358,-0.0036030353512614965,-0.0007664726581424475,0.9987596273422241,0.0,0.0,0.0,-43.44280242919922,10.045180320739746,-4.157087326049805,7863.23388671875,0
276.7530000000006,0.03176154941320419,-0.0346585288643837,0.0003991613630205393,0.0,0.0,0.0,0.0,-0.0008707237429916859,-0.0017268214141950011,0.002398350276052952,0.9979814887046814,0.0,0.0,0.0,-43.48068618774414,10.057748794555664,-4.17063045501709,7870.0908203125,0
286.65200000000004,0.03172196075320244,-0.03473470360040665,0.0005100527196191251,0.0,0.0,0.0,0.0,-0.0015341227408498526,-0.0015016517136245966,0.0017413705354556441,0.9978799223899841,0.0,0.0,0.0,-43.4370231628418,10.05201244354248,-4.152966022491455,7862.1875,0
296.52700000000004,0.031784914433956146,-0.03460957854986191,0.0003225447435397655,0.0,0.0,0.0,0.0,0.0024855744559317827,0.0029332612175494432,-0.0009037490235641599,1.0001028776168823,0.0,0.0,0.0,-43.472267150878906,10.06062126159668,-4.161949157714844,7868.56689453125,0
306.4210000000003,0.03174513950943947,-0.034684035927057266,0.00042953851516358554,0.0,0.0,0.0,0.0,-0.0020719158928841352,-0.009184803813695908,0.0020107801537960768,1.003007411956787,0.0,0.0,0.0,-43.43046951293945,10.051154136657715,-4.162622928619385,7861.001953125,0
316.2960000000003,0.03178887814283371,-0.034569721668958664,0.0002479259273968637,0.0,0.0,0.0,0.0,-0.0004868508840445429,-0.002060661558061838,-0.0024159839376807213,1.000306248664856,0.0,0.0,0.0,-43.472068786621094,10.04989242553711,-4.181129455566406,7868.53076171875,0
326.1859999999997,0.03174621984362602,-0.03464367240667343,0.0003568163956515491,0.0,0.0,0.0,0.0,0.004111134447157383,-0.0021755273919552565,0.002851676195859909,1.0006221532821655,0.0,0.0,0.0,-43.429439544677734,10.039641380310059,-4.154122829437256,7860.81494140625,0
336.0670000000009,0.03184327855706215,-0.03449791669845581,0.00011842057574540377,0.0,0.0,0.0,0.0,-0.0019524636445567012,0.00032286468194797635,-0.00035598393878899515,0.999873161315918,0.0,0.0,0.0,-43.465885162353516,10.044157028198242,-4.158442974090576,7867.41162109375,0
345.9549999999999,0.03180188313126564,-0.03457016870379448,0.0002276202430948615,0.0,0.0,0.0,0.0,-0.00010232355271000415,-0.0021068896166980267,-0.003626813180744648,1.0003055334091187,0.0,0.0,0.0,-43.425601959228516,10.034818649291992,-4.167486190795898,7860.12060546875,0
355.83100000000013,0.031872641295194626,-0.03448067605495453,4.6386376197915524e-05,0.0,0.0,0.0,0.0,0.00046841255971230567,-0.0025727569591253996,-0.0010428264504298568,0.9999830722808838,0.0,0.0,0.0,-43.469364166259766,10.034409523010254,-4.161214351654053,7868.0419921875,0
365.7360000000008,0.03183076158165932,-0.03455398976802826,0.0001546136918477714,0.0,0.0,0.0,0.0,-0.00044100251398049295,0.0011065051658079028,-0.0016794989351183176,0.9994069933891296,0.0,0.0,0.0,-43.4268684387207,10.027273178100586,-4.158129692077637,7860.349609375,0
375.60499999999956,0.03190334141254425,-0.03447140008211136,-1.9686024188558804e-06,0.0,0.0,0.0,0.0,-0.00015649395936634392,-0.0018773101037368178,0.001076987013220787,1.0008291006088257,0.0,0.0,0.0,-43.47051239013672,10.033804893493652,-4.1564812660217285,7868.24951171875,0
385.5010000000002,0.031862687319517136,-0.03454984724521637,0.00010543652024352923,0.0,0.0,0.0,0.0,-0.0031689873430877924,-0.0035399675834923983,-0.0007550145965069532,0.9996090531349182,0.0,0.0,0.0,-43.42751693725586,10.0186767578125,-4.154848098754883,7860.466796875,0
395.3729999999996,0.031952571123838425,-0.03441011905670166,-0.00017202015442308038,0.0,0.0,0.0,0.0,0.0004908581613563001,0.002698768163099885,0.0045578619465231895,0.9998332262039185,0.0,0.0,0.0,-43.467533111572266,10.023813247680664,-4.155233383178711,7867.7099609375,0
405.2669999999998,0.03191223740577698,-0.034488070756196976,-6.666766421403736e-05,0.0,0.0,0.0,0.0,0.001602260977961123,-0.003149742027744651,0.0013791664969176054,1.0008794069290161,0.0,0.0,0.0,-43.42436981201172,10.014871597290039,-4.147041320800781,7859.8974609375,0
415.1419999999998,0.03199183940887451,-0.034344382584095,-0.00028637092327699065,0.0,0.0,0.0,0.0,2.3249243895406835e-05,-0.001903747790493071,-0.0015905381878837943,0.999116063117981,0.0,0.0,0.0,-43.461551666259766,10.02375316619873,-4.165558338165283,7866.6279296875,0
425.03800000000047,0.03195487707853317,-0.034420162439346313,-0.00018083065515384078,0.0,0.0,0.0,0.0,-0.0002342065708944574,0.0011108267353847623,0.001414397032931447,0.9977190494537354,0.0,0.0,0.0,-43.41824722290039,10.015636444091797,-4.152100086212158,7858.7890625,0
434.90899999999965,0.03202952817082405,-0.034271880984306335,-0.00041156483348459005,0.0,0.0,0.0,0.0,-0.0016829713713377714,-0.005129116587340832,0.0032961315009742975,0.9994259476661682,0.0,0.0,0.0,-43.45764923095703,10.019351959228516,-4.196732044219971,7865.92138671875,0
444.8109999999997,0.03199310973286629,-0.03434543311595917,-0.0003093117265962064,0.0,0.0,0.0,0.0,0.0021033668890595436,0.006959971506148577,0.002614863682538271,1.0008032321929932,0.0,0.0,0.0,-43.41410827636719,10.015385627746582,-4.169453144073486,7858.0400390625,0
454.6820000000007,0.03201312944293022,-0.03426545858383179,-0.0004202012496534735,0.0,0.0,0.0,0.0,-0.0012618564069271088,0.0046520959585905075,0.0026964761782437563,1.0006381273269653,0.0,0.0,0.0,-43.4554557800293,10.009596824645996,-4.211015701293945,7865.52392578125,0
464.58400000000074,0.031974174082279205,-0.03433998301625252,-0.00031743667204864323,0.0,0.0,0.0,0.0,-0.0012326674768701196,-0.004295106045901775,-0.001477065496146679,0.9990780353546143,0.0,0.0,0.0,-43.41304016113281,10.001412391662598,-4.2121901512146,7857.8466796875,0
513.987000000001,0.03194580227136612,-0.034299399703741074,-0.00031512812711298466,0.0,0.0,0.0,0.0,-0.0009069846128113568,0.004296258091926575,0.0035250717774033546,0.9991344213485718,0.0,0.0,0.0,-43.449275970458984,10.006113052368164,-4.222314834594727,7864.4052734375,0
523.8850000000002,0.03190043568611145,-0.03437516465783119,-0.00020452175522223115,0.0,0.0,0.0,0.0,0.0005724069778807461,0.001330023747868836,-0.00342954252846539,0.9979343414306641,0.0,0.0,0.0,-43.40595626831055,9.997530937194824,-4.229400157928467,7856.56396484375,0
533.7649999999994,0.032008569687604904,-0.034243300557136536,-0.00048808444989845157,0.0,0.0,0.0,0.0,0.0013994661858305335,0.002557802712544799,-0.0004891927819699049,1.000645637512207,0.0,0.0,0.0,-43.445167541503906,10.001850128173828,-4.2400712966918945,7863.66162109375,0
543.652,0.03196204826235771,-0.0343204103410244,-0.000381769728846848,0.0,0.0,0.0,0.0,0.0005838733050040901,-0.00021688481501769274,0.003279763972386718,1.0012378692626953,0.0,0.0,0.0,-43.40364456176758,9.990056037902832,-4.22988748550415,7856.14599609375,0
553.5319999999992,0.03203791007399559,-0.034248821437358856,-0.0005222341860644519,0.0,0.0,0.0,0.0,0.0003108241071458906,0.0021700819488614798,-0.004594868514686823,1.0008105039596558,0.0,0.0,0.0,-43.447288513183594,9.9978609085083,-4.226577281951904,7864.04541015625,0
563.4179999999997,0.031992726027965546,-0.03432932123541832,-0.0004141034442000091,0.0,0.0,0.0,0.0,-0.0029791344422847033,-0.0021797369699925184,0.002011998789384961,0.9997288584709167,0.0,0.0,0.0,-43.40568923950195,9.992176055908203,-4.213038921356201,7856.51611328125,0
573.2999999999993,0.032026417553424835,-0.03429520130157471,-0.0004641065315809101,0.0,0.0,0.0,0.0,0.001263196929357946,0.010718701407313347,0.000471252336865291,0.9984248876571655,0.0,0.0,0.0,-43.44621658325195,9.99411678314209,-4.222617149353027,7863.8515625,0
583.1949999999997,0.031981173902750015,-0.03437935560941696,-0.00035408607800491154,0.0,0.0,0.0,0.0,0.00042994736577384174,0.004364677704870701,-0.0018952093087136745,1.000142216682434,0.0,0.0,0.0,-43.403778076171875,9.987568855285645,-4.220877170562744,7856.1708984375,0
593.0679999999993,0.03204185888171196,-0.03429794684052467,-0.0004653809010051191,0.0,0.0,0.0,0.0,-0.001806017360650003,-0.0010623638518154621,-0.00044143584091216326,1.0027722120285034,0.0,0.0,0.0,-43.44965362548828,9.997788429260254,-4.242730140686035,7864.4736328125,0
602.9609999999993,0.03199867904186249,-0.034380845725536346,-0.000354086107108742,0.0,0.0,0.0,0.0,-0.00010063566151075065,0.0049133324064314365,0.0020437310449779034,1.001932144165039,0.0,0.0,0.0,-43.40713119506836,9.996800422668457,-4.233288764953613,7856.77734375,0
612.8330000000005,0.03205988556146622,-0.034253913909196854,-0.0005235123098827899,0.0,0.0,0.0,0.0,-0.0014875557972118258,-0.002327974885702133,0.003769399831071496,1.0016200542449951,0.0,0.0,0.0,-43.44260787963867,10.004090309143066,-4.272929668426514,7863.19873046875,0
622.7289999999994,0.03201555460691452,-0.034335508942604065,-0.00040741654811426997,0.0,0.0,0.0,0.0,0.0005743911606259644,0.00531398830935359,0.00037972506834194064,0.9991665482521057,0.0,0.0,0.0,-43.399044036865234,10.007706642150879,-4.257135391235352,7855.3134765625,0
632.6059999999998,0.032036181539297104,-0.034239791333675385,-0.000511340273078531,0.0,0.0,0.0,0.0,0.0009766294388100505,-0.003985126037150621,0.0024471243377774954,1.0008162260055542,0.0,0.0,0.0,-43.44268798828125,10.012279510498047,-4.288459300994873,7863.21337890625,0
642.4950000000008,0.0319906584918499,-0.03431810438632965,-0.0003937461879104376,0.0,0.0,0.0,0.0,-0.002100385259836912,-0.007541665341705084,0.0003059201408177614,0.999872624874115,0.0,0.0,0.0,-43.398685455322266,10.008893013000488,-4.27630615234375,7855.24853515625,0
652.3790000000008,0.03199545294046402,-0.03426628187298775,-0.0004124655679333955,0.0,0.0,0.0,0.0,0.0007160340319387615,-0.004962440580129623,-0.0018383375136181712,1.0005918741226196,0.0,0.0,0.0,-43.44297790527344,10.012038230895996,-4.287319183349609,7863.265625,0
662.2700000000004,0.03194809332489967,-0.03434453904628754,-0.0002923033607657999,0.0,0.0,0.0,0.0,0.0017011028248816729,0.004542837385088205,0.00205051526427269,0.9980297088623047,0.0,0.0,0.0,-43.40118408203125,10.00715160369873,-4.26760721206665,7855.701171875,0
672.1440000000002,0.032024085521698,-0.034184616059064865,-0.0005834528710693121,0.0,0.0,0.0,0.0,-0.002000383799895644,-0.0022155186161398888,-0.0009620368364267051,0.9995134472846985,0.0,0.0,0.0,-43.4384880065918,10.00297737121582,-4.289046764373779,7862.45263671875,0
682.0409999999993,0.03197410702705383,-0.03426279500126839,-0.0004675203817896545,0.0,0.0,0.0,0.0,-0.001646383316256106,-0.004558497108519077,0.0040099890902638435,0.9999634027481079,0.0,0.0,0.0,-43.396263122558594,9.994277000427246,-4.279697418212891,7854.81005859375,0
691.9140000000007,0.031923141330480576,-0.034343015402555466,-0.00035141652915626764,0.0,0.0,0.0,0.0,0.0012295868946239352,-0.0033773095346987247,-0.0013198404340073466,0.9997653961181641,0.0,0.0,0.0,-43.353294372558594,9.99012279510498,-4.267704010009766,7847.03271484375,0
701.8080000000009,0.03186899423599243,-0.03442365303635597,-0.0002346959663555026,0.0,0.0,0.0,0.0,0.003358786692842841,0.0016039651818573475,-0.001979162683710456,1.001483678817749,0.0,0.0,0.0,-43.31106948852539,9.976696968078613,-4.252838134765625,7839.38916015625,0
711.6890000000003,0.031979478895664215,-0.03423997014760971,-0.0004853098071180284,0.0,0.0,0.0,0.0,-0.0031417778227478266,-0.004705025814473629,0.0007863044156692922,1.0004750490188599,0.0,0.0,0.0,-43.355743408203125,9.994812965393066,-4.269296646118164,7847.47607421875,0
721.5799999999999,0.03192346543073654,-0.0343160554766655,-0.00036685122177004814,0.0,0.0,0.0,0.0,-0.0013822022592648864,-0.0002743508666753769,0.0010037542087957263,1.0005743503570557,0.0,0.0,0.0,-43.313087463378906,9.987822532653809,-4.246535301208496,7839.7548828125,0
731.4500000000007,0.032005541026592255,-0.034193918108940125,-0.0005139411077834666,0.0,0.0,0.0,0.0,0.0015140371397137642,-0.005855634342879057,0.0005957784014753997,1.0005617141723633,0.0,0.0,0.0,-43.3600959777832,10.01026725769043,-4.243534088134766,7848.263671875,0
741.3420000000006,0.03195178136229515,-0.034267377108335495,-0.00039290153654292226,0.0,0.0,0.0,0.0,0.0002572125813458115,-0.0017754212021827698,0.0010044947266578674,1.0004311800003052,0.0,0.0,0.0,-43.317081451416016,10.001500129699707,-4.231855869293213,7840.4775390625,0
751.219000000001,0.03204040229320526,-0.0341486893594265,-0.0005671274848282337,0.0,0.0,0.0,0.0,-0.0019288621842861176,-0.0007545521366409957,0.0005215655546635389,1.001178503036499,0.0,0.0,0.0,-43.35979461669922,10.011837005615234,-4.226254940032959,7848.20947265625,0
761.1239999999998,0.03198879584670067,-0.03422132879495621,-0.0004444727092050016,0.0,0.0,0.0,0.0,0.0036534208338707685,0.00016367518401239067,0.002983003156259656,1.0011100769042969,0.0,0.0,0.0,-43.317623138427734,10.00452995300293,-4.218799591064453,7840.57568359375,0
770.9920000000002,0.03204420581459999,-0.03414016216993332,-0.0005486608715727925,0.0,0.0,0.0,0.0,0.0001359861489618197,0.003354213433340192,0.003255101852118969,0.9986715316772461,0.0,0.0,0.0,-43.362510681152344,10.002982139587402,-4.217611789703369,7848.701171875,0
780.8829999999998,0.03199143335223198,-0.03421257436275482,-0.00042379082879051566,0.0,0.0,0.0,0.0,6.9908924160699826e-06,-0.0023436094634234905,-0.0012510359520092607,0.9994281530380249,0.0,0.0,0.0,-43.320674896240234,9.99504280090332,-4.216804504394531,7841.1279296875,0
790.759,0.03201528266072273,-0.03421565145254135,-0.0004405116196721792,0.0,0.0,0.0,0.0,-0.0011647000210359693,-0.0031309814658015966,0.0015223720110952854,1.0005491971969604,0.0,0.0,0.0,-43.36872100830078,9.992335319519043,-4.198250770568848,7849.8251953125,0
800.6540000000005,0.03196316957473755,-0.03429326042532921,-0.00031672470504418015,0.0,0.0,0.0,0.0,0.0018224461236968637,-0.003108854405581951,-0.00028232624754309654,0.9997419714927673,0.0,0.0,0.0,-43.3253059387207,9.987833023071289,-4.19167423248291,7841.96630859375,0
810.5339999999997,0.03201914206147194,-0.03424766659736633,-0.0004352256073616445,0.0,0.0,0.0,0.0,0.000655623443890363,-0.003557348856702447,0.0031355181708931923,0.9995636940002441,0.0,0.0,0.0,-43.37071228027344,9.981036186218262,-4.174326419830322,7850.185546875,0
820.4210000000003,0.03196679800748825,-0.034332454204559326,-0.00031211209716275334,0.0,0.0,0.0,0.0,0.001744455425068736,-0.001900345552712679,0.0033491631038486958,1.0004634857177734,0.0,0.0,0.0,-43.327396392822266,9.971848487854004,-4.156872272491455,7842.3447265625,0
830.3050000000003,0.03206825256347656,-0.03420911356806755,-0.0005762739456258714,0.0,0.0,0.0,0.0,0.0013440148904919624,-0.004204540513455868,0.002948423381894827,1.0030796527862549,0.0,0.0,0.0,-43.37220764160156,9.973881721496582,-4.163584232330322,7850.45654296875,0
840.1900000000005,0.032016295939683914,-0.03429638594388962,-0.00045408483128994703,0.0,0.0,0.0,0.0,4.149557207711041e-05,0.002252288395538926,-0.00018827198073267937,1.002492904663086,0.0,0.0,0.0,-43.33028030395508,9.973036766052246,-4.1470537185668945,7842.86669921875,0
850.0660000000007,0.032111529260873795,-0.03412754833698273,-0.000721437914762646,0.0,0.0,0.0,0.0,-0.002856877399608493,-0.0025485041551291943,0.00039366702549159527,0.9991337656974792,0.0,0.0,0.0,-43.375953674316406,9.982444763183594,-4.169985294342041,7851.13427734375,0
859.9619999999995,0.03205994516611099,-0.034212566912174225,-0.0005952453939244151,0.0,0.0,0.0,0.0,-0.0008507665479555726,-0.0033303105738013983,5.290787521516904e-05,0.9995999336242676,0.0,0.0,0.0,-43.33405685424805,9.976468086242676,-4.155938625335693,7843.55029296875,0
869.8369999999995,0.03213836997747421,-0.03401632606983185,-0.0008996381075121462,0.0,0.0,0.0,0.0,0.0016717417165637016,0.00799519382417202,-0.0006546031800098717,1.0002946853637695,0.0,0.0,0.0,-43.3742561340332,9.980490684509277,-4.175756931304932,7850.82666015625,0
879.723,0.0320831835269928,-0.034097447991371155,-0.000775619235355407,0.0,0.0,0.0,0.0,-0.0031282962299883366,-0.002283038105815649,-0.002042705425992608,0.9975777864456177,0.0,0.0,0.0,-43.33341598510742,9.969367027282715,-4.174587249755859,7843.43408203125,0
889.6080000000002,0.032161325216293335,-0.033919427543878555,-0.0010384811321273446,0.0,0.0,0.0,0.0,0.0033398724626749754,-0.0016723810695111752,-0.0010204252321273088,1.0011640787124634,0.0,0.0,0.0,-43.37715530395508,9.986242294311523,-4.204570293426514,7851.3515625,0
899.5010000000002,0.03210250660777092,-0.033997487276792526,-0.000916582765057683,0.0,0.0,0.0,0.0,-0.0009476915001869202,-0.0018081393791362643,-0.0023443414829671383,1.0007554292678833,0.0,0.0,0.0,-43.335147857666016,9.973649978637695,-4.187290191650391,7843.748046875,0
909.3790000000008,0.03216202184557915,-0.03391007333993912,-0.0010475460439920425,0.0,0.0,0.0,0.0,-8.767666440689936e-05,-0.0016564697725698352,0.0003480564628262073,0.998277485370636,0.0,0.0,0.0,-43.38005828857422,9.982030868530273,-4.187333583831787,7851.87646484375,0
919.2729999999992,0.032104358077049255,-0.033986907452344894,-0.0009245277615264058,0.0,0.0,0.0,0.0,0.0008886322029866278,0.0009794554207473993,-0.001718084211461246,0.9977210164070129,0.0,0.0,0.0,-43.337425231933594,9.974379539489746,-4.1683149337768555,7844.16015625,0
929.1540000000005,0.032190047204494476,-0.03388797864317894,-0.0010822636540979147,0.0,0.0,0.0,0.0,-0.0012874624226242304,-0.004819247405976057,-0.0044397213496267796,1.0000910758972168,0.0,0.0,0.0,-43.382164001464844,9.990500450134277,-4.160642623901367,7852.2578125,0
939.0339999999997,0.03213664889335632,-0.033967938274145126,-0.0009615842718631029,0.0,0.0,0.0,0.0,0.0008675074786879122,0.005392848514020443,-0.002133453730493784,0.9996994137763977,0.0,0.0,0.0,-43.34028244018555,9.984103202819824,-4.151296138763428,7844.677734375,0
948.9150000000009,0.032205644994974136,-0.033914994448423386,-0.0010944926179945469,0.0,0.0,0.0,0.0,-0.00037464237539097667,0.0023903970140963793,0.00010879889305215329,0.9979717135429382,0.0,0.0,0.0,-43.38311767578125,9.984116554260254,-4.150637626647949,7852.43115234375,0
958.7990000000009,0.03215232118964195,-0.03399894759058952,-0.0009749670280143619,0.0,0.0,0.0,0.0,0.0019703744910657406,-0.0002622028987389058,-0.00041938640060834587,1.0009042024612427,0.0,0.0,0.0,-43.33974838256836,9.981414794921875,-4.145124435424805,7844.5810546875,0
968.6839999999993,0.03222121670842171,-0.03396883234381676,-0.0010361161548644304,0.0,0.0,0.0,0.0,0.002158193849027157,0.0010311193764209747,-0.0013503304217010736,0.999602735042572,0.0,0.0,0.0,-43.37706756591797,9.992780685424805,-4.127847671508789,7851.33544921875,0
978.5760000000009,0.032171569764614105,-0.03405354171991348,-0.0009161729831248522,0.0,0.0,0.0,0.0,0.0006519922171719372,-0.00019506415992509574,-0.00010548160935286433,0.998249888420105,0.0,0.0,0.0,-43.33454132080078,9.980942726135254,-4.119568347930908,7843.63818359375,0
988.4629999999997,0.03220102936029434,-0.03401889279484749,-0.0009726391290314496,0.0,0.0,0.0,0.0,0.001174427685327828,0.0028742796275764704,0.0013800188899040222,0.9994834065437317,0.0,0.0,0.0,-43.37308883666992,9.977498054504395,-4.126204967498779,7850.615234375,0
998.344000000001,0.03215125948190689,-0.034102726727724075,-0.000853723322506994,0.0,0.0,0.0,0.0,-0.0008133207447826862,-0.00560506246984005,9.478153515374288e-05,1.0003454685211182,0.0,0.0,0.0,-43.33124542236328,9.97203540802002,-4.124513626098633,7843.041015625,0
1008.2260000000006,0.03217843919992447,-0.03406193107366562,-0.0009097281727008522,0.0,0.0,0.0,0.0,0.0017505360301584005,0.003085801610723138,0.0022231959737837315,0.9988815188407898,0.0,0.0,0.0,-43.377376556396484,9.976137161254883,-4.118066787719727,7851.3916015625,0
1018.1180000000004,0.032128844410181046,-0.03414539992809296,-0.0007902288343757391,0.0,0.0,0.0,0.0,-0.0014674130361527205,-0.0024720551446080208,-0.0008664831984788179,0.9979029297828674,0.0,0.0,0.0,-43.33457946777344,9.967021942138672,-4.111910343170166,7843.64501953125,0
1027.9920000000002,0.03221159800887108,-0.033994514495134354,-0.0010118179488927126,0.0,0.0,0.0,0.0,-0.006084355525672436,0.0018161742482334375,0.0013360760640352964,0.9987854957580566,0.0,0.0,0.0,-43.378761291503906,9.981559753417969,-4.133737564086914,7851.64208984375,0
1037.8819999999996,0.032160673290491104,-0.03407547250390053,-0.0008950341143645346,0.0,0.0,0.0,0.0,0.00317608704790473,-0.0031537457834929228,-0.0017004854744300246,1.0006951093673706,0.0,0.0,0.0,-43.334800720214844,9.980379104614258,-4.117566108703613,7843.6845703125,0
1047.7620000000006,0.032236263155937195,-0.03393595665693283,-0.0010980938095599413,0.0,0.0,0.0,0.0,0.00254840892739594,0.0017961495323106647,-0.0012655520113185048,1.0000381469726562,0.0,0.0,0.0,-43.375732421875,9.98864459991455,-4.130148887634277,7851.09423828125,0
1057.6550000000007,0.03218558803200722,-0.0340152271091938,-0.0009810890769585967,0.0,0.0,0.0,0.0,-0.0017705558566376567,0.001715185004286468,-0.002306678332388401,0.9996540546417236,0.0,0.0,0.0,-43.33333206176758,9.975221633911133,-4.116193771362305,7843.4189453125,0
1067.5300000000007,0.03223937377333641,-0.03389351814985275,-0.001185479573905468,0.0,0.0,0.0,0.0,0.00017027894500643015,-0.002433642977848649,0.001519723329693079,1.0023548603057861,0.0,0.0,0.0,-43.3776741027832,9.981176376342773,-4.145630836486816,7851.4453125,0
1077.4159999999993,0.032185934484004974,-0.03397340700030327,-0.0010687659960240126,0.0,0.0,0.0,0.0,0.0031570286955684423,0.004166443832218647,-0.0011798201594501734,0.9990129470825195,0.0,0.0,0.0,-43.335105895996094,9.972005844116211,-4.1357951164245605,7843.7412109375,0
1087.304,0.032173313200473785,-0.03393806517124176,-0.0010722570586949587,0.0,0.0,0.0,0.0,0.0018651029095053673,0.0037472767289727926,0.005226703826338053,0.9992574453353882,0.0,0.0,0.0,-43.38029861450195,9.979415893554688,-4.15743350982666,7851.92041015625,0
1097.183000000001,0.032116349786520004,-0.03401719406247139,-0.000953091774135828,0.0,0.0,0.0,0.0,-0.0017937427619472146,0.0036484880838543177,-0.003543010912835598,1.0005571842193604,0.0,0.0,0.0,-43.33662796020508,9.962686538696289,-4.16878604888916,7844.015625,0
1107.0789999999997,0.03220508247613907,-0.03388959914445877,-0.0011475764913484454,0.0,0.0,0.0,0.0,-0.0014548933831974864,0.0015704331453889608,0.004067365545779467,0.9990853667259216,0.0,0.0,0.0,-43.382720947265625,9.976241111755371,-4.178743839263916,7852.35888671875,0
1116.960000000001,0.03215343877673149,-0.03396953269839287,-0.001028353231959045,0.0,0.0,0.0,0.0,-0.0012814042856916785,-0.0033328859135508537,0.0010877088643610477,0.9994251728057861,0.0,0.0,0.0,-43.339988708496094,9.969439506530762,-4.179555892944336,7844.625,0
1126.8379999999997,0.03224337473511696,-0.033844854682683945,-0.0012341707479208708,0.0,0.0,0.0,0.0,0.0012734010815620422,0.00172280368860811,-0.0004992919275537133,1.000240683555603,0.0,0.0,0.0,-43.38209533691406,9.986100196838379,-4.1761860847473145,7852.24560546875,0
1136.7240000000002,0.032192979007959366,-0.033925220370292664,-0.001115789171308279,0.0,0.0,0.0,0.0,-0.0005737535539083183,0.0028778635896742344,0.002038166392594576,0.9996079206466675,0.0,0.0,0.0,-43.339847564697266,9.978805541992188,-4.1714186668396,7844.5986328125,0
1146.6110000000008,0.03223554417490959,-0.03390749916434288,-0.0011631451779976487,0.0,0.0,0.0,0.0,-0.0011302063940092921,-0.0030033141374588013,0.0005284312064759433,1.0005109310150146,0.0,0.0,0.0,-43.38446807861328,9.987136840820312,-4.174746036529541,7852.6748046875,0
1156.4930000000004,0.032185204327106476,-0.033991195261478424,-0.0010442553320899606,0.0,0.0,0.0,0.0,4.57279429610935e-06,-0.0011415050830692053,0.002762372372671962,0.9988076686859131,0.0,0.0,0.0,-43.34193420410156,9.979990005493164,-4.157084941864014,7844.97705078125,0
1166.3799999999992,0.03226986527442932,-0.03386281430721283,-0.0012362402630969882,0.0,0.0,0.0,0.0,0.0005447703297249973,0.0015075232367962599,-0.0009091711835935712,0.9977781176567078,0.0,0.0,0.0,-43.38321304321289,9.9905424118042,-4.1612935066223145,7852.4482421875,0
1176.2630000000008,0.032221172004938126,-0.0339462086558342,-0.0011182543821632862,0.0,0.0,0.0,0.0,0.000427081948146224,0.0033522506710141897,0.0007969717844389379,1.0008131265640259,0.0,0.0,0.0,-43.34142303466797,9.976645469665527,-4.160314559936523,7844.8837890625,0
1186.1460000000006,0.03225652873516083,-0.033927809447050095,-0.0011507831513881683,0.0,0.0,0.0,0.0,-0.000898985075764358,-0.0007288079941645265,-7.409723366436083e-06,0.9997201561927795,0.0,0.0,0.0,-43.38723373413086,9.978278160095215,-4.1681952476501465,7853.17529296875,0
1196.0329999999994,0.03221169859170914,-0.034014515578746796,-0.0010324420873075724,0.0,0.0,0.0,0.0,0.0014993388904258609,0.0011528439354151487,-0.0012178634060546756,0.9983341097831726,0.0,0.0,0.0,-43.34503173828125,9.970243453979492,-4.161060333251953,7845.53759765625,0
1205.9159999999993,0.03226447477936745,-0.03393957391381264,-0.001171002397313714,0.0,0.0,0.0,0.0,-0.0010797760915011168,-0.004151119850575924,0.0018748787697404623,0.998623251914978,0.0,0.0,0.0,-43.384864807128906,9.973508834838867,-4.168419361114502,7852.7470703125,0
1215.8009999999995,0.03222165256738663,-0.034025657922029495,-0.0010549998842179775,0.0,0.0,0.0,0.0,0.0010706597240641713,-0.0028052544221282005,-0.0009740017703734338,0.9997141361236572,0.0,0.0,0.0,-43.3431282043457,9.970645904541016,-4.153440475463867,7845.1923828125,0
1225.6849999999995,0.03229646384716034,-0.03391091153025627,-0.0012645928654819727,0.0,0.0,0.0,0.0,-0.00014664842456113547,0.0007376099820248783,-0.003100514644756913,0.9996696710586548,0.0,0.0,0.0,-43.38771438598633,9.966752052307129,-4.1670732498168945,7853.26220703125,0
1235.5689999999995,0.032253239303827286,-0.033996373414993286,-0.0011514403158798814,0.0,0.0,0.0,0.0,0.0017172638326883316,0.004207557532936335,-0.002390570705756545,0.9994369745254517,0.0,0.0,0.0,-43.34526824951172,9.953332901000977,-4.161702632904053,7845.580078125,0
1245.4539999999997,0.03231293708086014,-0.03386417776346207,-0.001317217480391264,0.0,0.0,0.0,0.0,-0.0017796613974496722,-0.0046664816327393055,0.0015574635472148657,1.000231385231018,0.0,0.0,0.0,-43.38982009887695,9.96019458770752,-4.191497325897217,7853.6435546875,0
1255.3420000000006,0.03226523846387863,-0.033946361392736435,-0.001203484833240509,0.0,0.0,0.0,0.0,-0.0029874364845454693,-0.00025501512573100626,-0.0027178742457181215,0.9984230995178223,0.0,0.0,0.0,-43.346893310546875,9.948678016662598,-4.186131000518799,7845.8740234375,0
1265.2240000000002,0.032322175800800323,-0.03381054475903511,-0.0014043328119441867,0.0,0.0,0.0,0.0,0.0007390308892354369,-0.0016201542457565665,-0.00010285014286637306,0.999439537525177,0.0,0.0,0.0,-43.38679122924805,9.956953048706055,-4.208714485168457,7853.095703125,0
1275.116,0.03227153792977333,-0.03389103338122368,-0.0012917653657495975,0.0,0.0,0.0,0.0,-0.0009798461105674505,0.0002965361636597663,0.0025053825229406357,1.001466155052185,0.0,0.0,0.0,-43.344173431396484,9.947789192199707,-4.208828449249268,7845.3818359375,0
1284.9940000000006,0.03230934962630272,-0.03380609676241875,-0.001393847749568522,0.0,0.0,0.0,0.0,-0.0016830229433253407,-0.0031199785880744457,-0.0005886173457838595,0.9996110796928406,0.0,0.0,0.0,-43.383262634277344,9.958144187927246,-4.21514892578125,7852.45703125,0
1294.8790000000008,0.03225802257657051,-0.033888690173625946,-0.0012792735360562801,0.0,0.0,0.0,0.0,0.0021187386009842157,0.004514593631029129,0.0010864356299862266,1.001124382019043,0.0,0.0,0.0,-43.34017562866211,9.954089164733887,-4.198266506195068,7844.65771484375,0
1304.7620000000006,0.03225910663604736,-0.03383238613605499,-0.001330267870798707,0.0,0.0,0.0,0.0,0.000622211373411119,0.0022047278471291065,0.0012494417605921626,0.9986732602119446,0.0,0.0,0.0,-43.383888244628906,9.954490661621094,-4.2173848152160645,7852.5703125,0
1314.6470000000008,0.03220629319548607,-0.03391484543681145,-0.0012135975994169712,0.0,0.0,0.0,0.0,-0.0016683293506503105,0.002498969901353121,-0.001345901284366846,0.9996726512908936,0.0,0.0,0.0,-43.342201232910156,9.940301895141602,-4.218357563018799,7845.02490234375,0
1324.5319999999992,0.03219064325094223,-0.03390154987573624,-0.0011887858854606748,0.0,0.0,0.0,0.0,-0.00044536704081110656,6.065531124477275e-05,-6.909068179083988e-05,1.00131356716156,0.0,0.0,0.0,-43.385101318359375,9.946154594421387,-4.2418212890625,7852.78955078125,0
1334.4169999999995,0.03213707357645035,-0.033987436443567276,-0.0010702841682359576,0.0,0.0,0.0,0.0,-0.0012818390969187021,0.0018485488835722208,0.001957187196239829,0.9999902248382568,0.0,0.0,0.0,-43.34306716918945,9.935338973999023,-4.240725994110107,7845.18212890625,0
1344.3089999999993,0.032188840210437775,-0.033911388367414474,-0.0011813393794000149,0.0,0.0,0.0,0.0,-0.004040820058435202,-0.0016527556581422687,0.001799611491151154,0.9988821744918823,0.0,0.0,0.0,-43.377769470214844,9.946176528930664,-4.258181095123291,7851.46240234375,0
1354.1900000000005,0.03213529288768768,-0.03399452194571495,-0.0010614481288939714,0.0,0.0,0.0,0.0,0.0017198030836880207,-0.005655943416059017,-0.0018477393314242363,0.9977520704269409,0.0,0.0,0.0,-43.3355827331543,9.9442777633667,-4.2451581954956055,7843.8271484375,0
1364.0699999999997,0.03219302371144295,-0.03390449285507202,-0.00117126211989671,0.0,0.0,0.0,0.0,0.000847450050059706,0.005237430799752474,-0.0001821588957682252,0.9973846673965454,0.0,0.0,0.0,-43.377864837646484,9.961730003356934,-4.24748420715332,7851.47998046875,0
1373.9560000000001,0.03213942423462868,-0.033986806869506836,-0.0010528340935707092,0.0,0.0,0.0,0.0,-0.0004052921722177416,-0.003211704781278968,0.0012240387732163072,1.0003621578216553,0.0,0.0,0.0,-43.33533477783203,9.94801139831543,-4.245044708251953,7843.7822265625,0
1383.8400000000001,0.03223712369799614,-0.033849917352199554,-0.0012655503815039992,0.0,0.0,0.0,0.0,-0.0009959721937775612,0.0023609192576259375,-0.003983150236308575,1.0007469654083252,0.0,0.0,0.0,-43.375389099121094,9.968671798706055,-4.2437615394592285,7851.03173828125,0
1393.728000000001,0.032184720039367676,-0.03393297642469406,-0.001147570670582354,0.0,0.0,0.0,0.0,0.0007691630744375288,0.0006208260892890394,-0.0015431868378072977,1.0000046491622925,0.0,0.0,0.0,-43.33476257324219,9.960821151733398,-4.235946178436279,7843.67822265625,0
1403.6110000000008,0.03220800682902336,-0.033879686146974564,-0.0012017491972073913,0.0,0.0,0.0,0.0,-0.002993224887177348,-0.0049512190744280815,-0.0037632028106600046,1.0008642673492432,0.0,0.0,0.0,-43.380767822265625,9.963647842407227,-4.244206428527832,7852.00537109375,0
1413.4940000000006,0.03215493634343147,-0.033962566405534744,-0.0010816400172188878,0.0,0.0,0.0,0.0,-0.0025463742204010487,-0.007327126804739237,-0.00048447909648530185,1.002042531967163,0.0,0.0,0.0,-43.33924102783203,9.95927906036377,-4.24207067489624,7844.4892578125,0
1423.3870000000006,0.032216720283031464,-0.03392168506979942,-0.0011483527487143874,0.0,0.0,0.0,0.0,-0.0015291210729628801,0.0005228174850344658,0.00037851411616429687,1.0011521577835083,0.0,0.0,0.0,-43.38669204711914,9.972463607788086,-4.2225494384765625,7853.078125,0
1433.2669999999998,0.032163120806217194,-0.03400368615984917,-0.0010237953392788768,0.0,0.0,0.0,0.0,-0.000702107441611588,0.0025747616309672594,0.003501483239233494,0.9994779229164124,0.0,0.0,0.0,-43.344505310058594,9.96923828125,-4.2022247314453125,7845.44189453125,0
1443.1489999999994,0.03221829608082771,-0.033929042518138885,-0.0011014621704816818,0.0,0.0,0.0,0.0,-0.0019189429003745317,-0.00565605703741312,0.002150676678866148,0.9975494146347046,0.0,0.0,0.0,-43.38677215576172,9.98180103302002,-4.212366580963135,7853.09228515625,0
1453.0400000000009,0.03216513246297836,-0.03400939330458641,-0.0009750997996889055,0.0,0.0,0.0,0.0,0.001156738493591547,-3.4923719795187935e-05,-0.003087898250669241,0.9987708330154419,0.0,0.0,0.0,-43.343284606933594,9.980839729309082,-4.186983585357666,7845.220703125,0
1462.9220000000005,0.03210791200399399,-0.03409189358353615,-0.0008500814437866211,0.0,0.0,0.0,0.0,-0.00017280086467508227,-0.0029457518830895424,0.0005314032314345241,1.0004055500030518,0.0,0.0,0.0,-43.30134582519531,9.968196868896484,-4.177573204040527,7837.62939453125,0
1472.8019999999997,0.03204705938696861,-0.034175701439380646,-0.0007254425436258316,0.0,0.0,0.0,0.0,-0.00047290773363783956,-0.002515543717890978,-0.000996386050246656,1.0009474754333496,0.0,0.0,0.0,-43.25810241699219,9.960739135742188,-4.17451286315918,7829.802734375,0
1482.687,0.03198479115962982,-0.03426201641559601,-0.0005998966516926885,0.0,0.0,0.0,0.0,-0.0026787228416651487,-0.0014745541848242283,-0.0014682544860988855,0.9965285658836365,0.0,0.0,0.0,-43.21540069580078,9.948939323425293,-4.162683010101318,7822.07373046875,0
1492.5720000000001,0.031921420246362686,-0.034352269023656845,-0.00047427567187696695,0.0,0.0,0.0,0.0,0.0012264000251889229,-0.00020916340872645378,-0.002384358085691929,0.998198926448822,0.0,0.0,0.0,-43.17366409301758,9.940279960632324,-4.145105361938477,7814.51904296875,0
1502.4560000000001,0.031857337802648544,-0.034446150064468384,-0.00035028689308092,0.0,0.0,0.0,0.0,0.0002691645349841565,-0.002097802236676216,0.002763105556368828,0.9993932247161865,0.0,0.0,0.0,-43.131439208984375,9.930829048156738,-4.137468338012695,7806.87646484375,0
1512.3449999999993,0.03179263696074486,-0.034542035311460495,-0.00022723822621628642,0.0,0.0,0.0,0.0,0.00182718422729522,0.001945464638993144,0.002051358576864004,0.9977871775627136,0.0,0.0,0.0,-43.08916473388672,9.92579174041748,-4.1240763664245605,7799.224609375,0
1522.2270000000008,0.03172673285007477,-0.03463954105973244,-0.0001049750717356801,0.0,0.0,0.0,0.0,-0.0006882559973746538,-0.004372952040284872,0.0021180929616093636,0.9998763799667358,0.0,0.0,0.0,-43.04707336425781,9.915810585021973,-4.128811836242676,7791.60546875,0
1532.112000000001,0.03165974095463753,-0.03473999351263046,1.6270962078124285e-05,0.0,0.0,0.0,0.0,-0.0033186411019414663,-0.0029590551275759935,0.0014668063959106803,0.9997376799583435,0.0,0.0,0.0,-43.00487518310547,9.908474922180176,-4.110958576202393,7783.96826171875,0
1541.996000000001,0.03159121423959732,-0.03484354540705681,0.00013748626224696636,0.0,0.0,0.0,0.0,-0.0012869015336036682,-0.0026956384535878897,-0.0029392556753009558,0.9993855357170105,0.0,0.0,0.0,-42.96290588378906,9.908166885375977,-4.0898518562316895,7776.37109375,0
1551.8819999999996,0.03152213990688324,-0.03494873642921448,0.000259123626165092,0.0,0.0,0.0,0.0,0.0002510490012355149,-0.003166419919580221,0.00017923225823324174,0.9997516870498657,0.0,0.0,0.0,-42.9215202331543,9.9005765914917,-4.076777458190918,7768.880859375,0
1561.7659999999996,0.03145429491996765,-0.03505478799343109,0.0003810026100836694,0.0,0.0,0.0,0.0,0.002178337424993515,0.004430562257766724,0.0002929944603238255,0.9992845058441162,0.0,0.0,0.0,-42.87866973876953,9.887922286987305,-4.067859649658203,7761.12451171875,0
1571.6499999999996,0.03138727694749832,-0.035163622349500656,0.0005030384054407477,0.0,0.0,0.0,0.0,0.0004648383182939142,-0.0010555714834481478,0.0016531256260350347,0.997377336025238,0.0,0.0,0.0,-42.83600616455078,9.875575065612793,-4.0637736320495605,7753.40234375,0
1581.5419999999995,0.031320665031671524,-0.03527682274580002,0.0006245433469302952,0.0,0.0,0.0,0.0,-0.0037607585545629263,0.0018416156526654959,0.0009068979998119175,1.0011017322540283,0.0,0.0,0.0,-42.79441833496094,9.865257263183594,-4.046639442443848,7745.875,0
1591.42,0.03125454857945442,-0.035394418984651566,0.0007456926978193223,0.0,0.0,0.0,0.0,0.002206528792157769,0.0018337940564379096,-0.0009100004681386054,1.0008759498596191,0.0,0.0,0.0,-42.752445220947266,9.85991382598877,-4.044449329376221,7738.27734375,0
1601.308000000001,0.031187837943434715,-0.035516925156116486,0.0008680587052367628,0.0,0.0,0.0,0.0,0.0025794708635658026,0.004356084391474724,0.00017227226635441184,0.9992469549179077,0.0,0.0,0.0,-42.710304260253906,9.847352027893066,-4.0515265464782715,7730.64990234375,0
1611.1990000000005,0.031120674684643745,-0.0356445387005806,0.0009916319977492094,0.0,0.0,0.0,0.0,0.0022416003048419952,-0.006960552651435137,0.001336909830570221,0.9988200068473816,0.0,0.0,0.0,-42.66892623901367,9.833436012268066,-4.052537441253662,7723.1611328125,0
1621.085000000001,0.03105389140546322,-0.03577696904540062,0.0011150988284498453,0.0,0.0,0.0,0.0,0.0016303072916343808,-0.004149150103330612,-0.003586876904591918,0.9992928504943848,0.0,0.0,0.0,-42.627437591552734,9.833579063415527,-4.038954734802246,7715.6513671875,0
1630.960000000001,0.030987543985247612,-0.03591281920671463,0.0012380066327750683,0.0,0.0,0.0,0.0,0.00029424054082483053,0.004446804989129305,0.0008420483791269362,1.0017244815826416,0.0,0.0,0.0,-42.58665084838867,9.820219993591309,-4.031402587890625,7708.2685546875,0
1640.8469999999998,0.03092072159051895,-0.03605116531252861,0.00136134447529912,0.0,0.0,0.0,0.0,-0.002427329309284687,-0.0029879515059292316,0.0018936451524496078,1.0020458698272705,0.0,0.0,0.0,-42.545372009277344,9.810952186584473,-4.030880451202393,7700.79736328125,0
1650.7289999999994,0.030851241201162338,-0.03619186952710152,0.0014867293648421764,0.0,0.0,0.0,0.0,0.00121094670612365,0.003836515359580517,0.002086905762553215,0.9995856285095215,0.0,0.0,0.0,-42.503089904785156,9.804276466369629,-4.025735378265381,7693.1435546875,0
1660.6149999999998,0.030778752639889717,-0.03633489832282066,0.0016140571096912026,0.0,0.0,0.0,0.0,0.0011220070300623775,-0.00013350596418604255,0.0035472509916871786,0.9985339641571045,0.0,0.0,0.0,-42.46021270751953,9.791857719421387,-4.022994518280029,7685.3828125,0
1670.4969999999994,0.030704475939273834,-0.0364818274974823,0.0017415080219507217,0.0,0.0,0.0,0.0,-0.00034260773099958897,-0.0015727899735793471,-0.0014065151335671544,0.9996359348297119,0.0,0.0,0.0,-42.41888427734375,9.785492897033691,-4.016234874725342,7677.90234375,0
1680.393,0.030629483982920647,-0.036633092910051346,0.0018684687092900276,0.0,0.0,0.0,0.0,0.003445903304964304,4.532455568551086e-05,0.0008592048543505371,1.0004643201828003,0.0,0.0,0.0,-42.377620697021484,9.778241157531738,-3.9993982315063477,7670.43359375,0
1690.2659999999996,0.030554790049791336,-0.03678824007511139,0.0019957185722887516,0.0,0.0,0.0,0.0,0.0007939761271700263,0.001172096817754209,0.0023576202802360058,0.9990370869636536,0.0,0.0,0.0,-42.33623123168945,9.762686729431152,-3.988368511199951,7662.9423828125,0
1700.1509999999998,0.030480381101369858,-0.03694746643304825,0.002123330719769001,0.0,0.0,0.0,0.0,0.001386495539918542,0.0028257190715521574,0.0014726730296388268,0.9995923042297363,0.0,0.0,0.0,-42.29486846923828,9.749053001403809,-3.9912497997283936,7655.455078125,0
1710.0349999999999,0.0304058026522398,-0.03711124137043953,0.0022511985152959824,0.0,0.0,0.0,0.0,0.0006502480246126652,0.002061996376141906,0.0011684076162055135,0.9985249042510986,0.0,0.0,0.0,-42.25387191772461,9.734835624694824,-3.991643190383911,7648.03515625,0
1719.9220000000005,0.030330384150147438,-0.03727995231747627,0.0023789070546627045,0.0,0.0,0.0,0.0,0.001819746452383697,0.00520850345492363,-8.048924064496532e-05,1.0007520914077759,0.0,0.0,0.0,-42.2127799987793,9.727590560913086,-3.9807465076446533,7640.59716796875,0
1729.8050000000003,0.030253751203417778,-0.037452567368745804,0.0025062072090804577,0.0,0.0,0.0,0.0,-0.0004175232315901667,0.002034165430814028,-0.003062266856431961,1.0009958744049072,0.0,0.0,0.0,-42.17124557495117,9.716455459594727,-3.9842047691345215,7633.0791015625,0
1739.696,0.030176430940628052,-0.037628572434186935,0.002634515520185232,0.0,0.0,0.0,0.0,0.0029210823122411966,0.0009476192644797266,-0.0009629768901504576,0.9973220229148865,0.0,0.0,0.0,-42.130985260009766,9.709141731262207,-3.979492425918579,7625.79296875,0
1749.5750000000007,0.030098451301455498,-0.03780914470553398,0.0027633917052298784,0.0,0.0,0.0,0.0,-0.0016332680825144053,2.311370371899102e-05,0.002676899777725339,0.9990614652633667,0.0,0.0,0.0,-42.09028244018555,9.69809627532959,-3.980109930038452,7618.4248046875,0
1759.4670000000006,0.030019456520676613,-0.03799504041671753,0.002891303040087223,0.0,0.0,0.0,0.0,0.0005607513012364507,-0.0014634622493758798,-0.0011071320623159409,1.0010267496109009,0.0,0.0,0.0,-42.04934310913086,9.688241958618164,-3.9774365425109863,7611.01416015625,0
1769.3449999999993,0.029939230531454086,-0.038186028599739075,0.0030192756094038486,0.0,0.0,0.0,0.0,-0.00021716630726587027,0.0021996530704200268,-0.0018885956378653646,1.0000629425048828,0.0,0.0,0.0,-42.00910568237305,9.679329872131348,-3.9643523693084717,7603.73193359375,0
1779.2289999999994,0.02985762059688568,-0.03838144987821579,0.0031485436484217644,0.0,0.0,0.0,0.0,-0.001612199004739523,0.00027382391272112727,-0.004595163278281689,1.0002349615097046,0.0,0.0,0.0,-41.96725845336914,9.671565055847168,-3.9619147777557373,7596.15771484375,0
1789.1180000000004,0.029774190858006477,-0.038581181317567825,0.0032786941155791283,0.0,0.0,0.0,0.0,-0.0011271010152995586,0.00029203525627963245,-0.0014636031119152904,1.0008056163787842,0.0,0.0,0.0,-41.92718505859375,9.662750244140625,-3.9537758827209473,7588.90380859375,0
1799.0069999999996,0.029688198119401932,-0.03878479078412056,0.0034098445903509855,0.0,0.0,0.0,0.0,-0.0007506146794185042,-0.004467849154025316,-0.0015701367519795895,0.9992550611495972,0.0,0.0,0.0,-41.887020111083984,9.654637336730957,-3.9462695121765137,7581.634765625,0
1808.8889999999992,0.02959984540939331,-0.03899092227220535,0.0035418944898992777,0.0,0.0,0.0,0.0,-0.00026476752827875316,-0.001087023178115487,-0.00013130651495885104,0.998447597026825,0.0,0.0,0.0,-41.84545135498047,9.647778511047363,-3.929774761199951,7574.10986328125,0
1818.7720000000008,0.02950938232243061,-0.039199650287628174,0.0036736582405865192,0.0,0.0,0.0,0.0,0.0005955125670880079,-0.0010140464873984456,0.0022911205887794495,1.0000361204147339,0.0,0.0,0.0,-41.80483627319336,9.638754844665527,-3.9188432693481445,7566.7587890625,0
1828.6620000000003,0.029416535049676895,-0.03941231593489647,0.0038050359580665827,0.0,0.0,0.0,0.0,-0.0028908574022352695,-0.0023682850878685713,-0.0012923750327900052,1.000482201576233,0.0,0.0,0.0,-41.763648986816406,9.632283210754395,-3.907663345336914,7559.3037109375,0
1838.5429999999997,0.029321564361453056,-0.03962871432304382,0.003936940338462591,0.0,0.0,0.0,0.0,-0.002527892589569092,-0.0005564649472944438,0.0031903728377074003,0.998408854007721,0.0,0.0,0.0,-41.722904205322266,9.632011413574219,-3.9024181365966797,7551.9287109375,0
1848.4230000000007,0.029225284233689308,-0.03984792158007622,0.004069556947797537,0.0,0.0,0.0,0.0,-0.0018243148224428296,1.7147236576420255e-05,0.0008724863291718066,0.9991375803947449,0.0,0.0,0.0,-41.68128967285156,9.625602722167969,-3.890331506729126,7544.39697265625,0
1858.3269999999993,0.029128283262252808,-0.04007047042250633,0.0042021810077130795,0.0,0.0,0.0,0.0,0.0029257619753479958,-0.00339808058924973,0.0003586847451515496,0.9986583590507507,0.0,0.0,0.0,-41.63985061645508,9.623140335083008,-3.883002758026123,7536.89599609375,0
1868.1939999999995,0.02902953512966633,-0.040297769010066986,0.0043343245051801205,0.0,0.0,0.0,0.0,0.000689314620103687,0.00641613407060504,0.0006558654131367803,1.000279188156128,0.0,0.0,0.0,-41.5989990234375,9.608331680297852,-3.881061553955078,7529.5009765625,0
1878.0869999999995,0.03090667724609375,-0.03568684682250023,0.002459637587890029,0.0,0.0,0.0,0.0,0.0025211279280483723,-0.0008099126862362027,0.0005398252978920937,0.9985191226005554,0.0,0.0,0.0,-41.85847473144531,9.942399024963379,-4.105698585510254,7576.466796875,0
1887.9709999999995,0.03083517588675022,-0.03580685332417488,0.002605693880468607,0.0,0.0,0.0,0.0,-3.4497159049351467e-06,0.006380744744092226,0.002927771769464016,0.9975235462188721,0.0,0.0,0.0,-41.81818389892578,9.925169944763184,-4.104427814483643,7569.1748046875,0
1897.8539999999994,0.0311554167419672,-0.03535494953393936,0.001827640226110816,0.0,0.0,0.0,0.0,-0.0008993274532258511,0.00012657989282160997,-0.0006197596667334437,1.000327706336975,0.0,0.0,0.0,-42.04944610595703,9.936375617980957,-4.137722015380859,7611.03369140625,0
1907.7379999999994,0.031086407601833344,-0.03547264635562897,0.0019652799237519503,0.0,0.0,0.0,0.0,-0.000665568804834038,0.003721339162439108,0.002477188827469945,0.9984716176986694,0.0,0.0,0.0,-42.008949279785156,9.928167343139648,-4.125866413116455,7603.70361328125,0
1917.634,0.03143372759222984,-0.03495671972632408,0.0009618105250410736,0.0,0.0,0.0,0.0,9.048146603163332e-05,0.003354575950652361,-0.0004668882174883038,0.997874915599823,0.0,0.0,0.0,-42.20985412597656,9.942438125610352,-4.159445285797119,7640.06787109375,0
1927.5030000000006,0.03136710822582245,-0.03506775200366974,0.0010898795444518328,0.0,0.0,0.0,0.0,2.823326394718606e-05,-0.0070101055316627026,0.0020986406598240137,1.000308871269226,0.0,0.0,0.0,-42.16912841796875,9.929814338684082,-4.156357765197754,7632.69580078125,0
1937.393,0.03157951310276985,-0.034788601100444794,0.0005152127705514431,0.0,0.0,0.0,0.0,-0.0015613734722137451,-0.0017876190831884742,-0.004300776869058609,1.0000513792037964,0.0,0.0,0.0,-42.35281753540039,9.934914588928223,-4.168392181396484,7665.94384765625,0
1947.2749999999996,0.03151402622461319,-0.03489498794078827,0.0006389596383087337,0.0,0.0,0.0,0.0,-0.002474297536537051,0.002577228005975485,-0.0008532864740118384,1.000425934791565,0.0,0.0,0.0,-42.311767578125,9.930937767028809,-4.15647554397583,7658.51416015625,0
1957.161,0.03178883716464043,-0.03454505652189255,-2.672682239790447e-05,0.0,0.0,0.0,0.0,0.002800984075292945,0.003921521361917257,0.0038063209503889084,1.0018541812896729,0.0,0.0,0.0,-42.48067855834961,9.957626342773438,-4.165762901306152,7689.08740234375,0
1967.0380000000005,0.03172995150089264,-0.034647490829229355,9.636655158828944e-05,0.0,0.0,0.0,0.0,0.0024032818619161844,0.0032528506126254797,0.003139507956802845,1.0006766319274902,0.0,0.0,0.0,-42.43706130981445,9.954154014587402,-4.166196823120117,7681.19287109375,0
1976.933000000001,0.031988076865673065,-0.034302160143852234,-0.0005643172189593315,0.0,0.0,0.0,0.0,-0.0017513055354356766,0.0004162434197496623,0.0029702577739953995,1.0033915042877197,0.0,0.0,0.0,-42.579200744628906,9.973074913024902,-4.16888427734375,7706.919921875,0
1986.8189999999995,0.031935881823301315,-0.03440018743276596,-0.00044109090231359005,0.0,0.0,0.0,0.0,-0.001033723820000887,8.664830238558352e-05,0.004668318200856447,1.0012670755386353,0.0,0.0,0.0,-42.537567138671875,9.966931343078613,-4.168550968170166,7699.384765625,0
1996.7160000000003,0.03212441876530647,-0.03414718061685562,-0.0008935356163419783,0.0,0.0,0.0,0.0,0.0029703329782932997,-0.0004577321815304458,0.0008858606452122331,0.998357892036438,0.0,0.0,0.0,-42.66984558105469,9.989618301391602,-4.17861795425415,7723.3271484375,0
2006.585000000001,0.032074034214019775,-0.03424294665455818,-0.0007669765618629754,0.0,0.0,0.0,0.0,-0.0010823984630405903,0.003015776863321662,-0.001047053374350071,0.9988285899162292,0.0,0.0,0.0,-42.62730026245117,9.976648330688477,-4.171955585479736,7715.6259765625,0
2016.4709999999995,0.03225386142730713,-0.03396037220954895,-0.001246686209924519,0.0,0.0,0.0,0.0,-0.0020036366768181324,-0.00420084735378623,0.0014501039404422045,0.9983538389205933,0.0,0.0,0.0,-42.75483703613281,9.9940824508667,-4.206186771392822,7738.71044921875,0
2026.3469999999998,0.03220542147755623,-0.034051887691020966,-0.0011230373056605458,0.0,0.0,0.0,0.0,0.0008840015507303178,-0.006736013572663069,1.2599298315763008e-05,1.000266432762146,0.0,0.0,0.0,-42.71296691894531,9.989025115966797,-4.197790145874023,7731.1318359375,0
2036.2440000000006,0.032312605530023575,-0.03385313227772713,-0.0014729785034433007,0.0,0.0,0.0,0.0,-0.0006139152683317661,0.004472554195672274,-0.0017864832188934088,0.9983276724815369,0.0,0.0,0.0,-42.82963943481445,9.985870361328125,-4.2209086418151855,7752.25,0
2046.1170000000002,0.03226282447576523,-0.033942896872758865,-0.001351753482595086,0.0,0.0,0.0,0.0,-0.00029730162350460887,-0.002132757566869259,0.0024195907171815634,0.9990600347518921,0.0,0.0,0.0,-42.78692626953125,9.979454040527344,-4.225255012512207,7744.51904296875,0
2056.0190000000002,0.03227962180972099,-0.03383105993270874,-0.0014351507415995002,0.0,0.0,0.0,0.0,-0.002033058786764741,-0.001992985140532255,3.344325887155719e-05,0.9984553456306458,0.0,0.0,0.0,-42.895484924316406,9.992484092712402,-4.258516311645508,7764.16845703125,0
2065.8860000000004,0.03222443163394928,-0.03391308709979057,-0.0013123434036970139,0.0,0.0,0.0,0.0,-0.0025284152943640947,-0.0033189321402460337,-0.0024049265775829554,0.9963796734809875,0.0,0.0,0.0,-42.8525276184082,9.987359046936035,-4.2390851974487305,7756.3935546875,0
2075.7800000000007,0.0323820561170578,-0.03366352617740631,-0.0017071169568225741,0.0,0.0,0.0,0.0,0.0020317710004746914,0.001209296751767397,-0.0007385641802102327,0.9986336827278137,0.0,0.0,0.0,-42.95060729980469,10.009747505187988,-4.247176647186279,7774.1455078125,0
2085.6540000000005,0.03232807666063309,-0.03374257683753967,-0.0015879790298640728,0.0,0.0,0.0,0.0,-0.0018226775573566556,0.005174799356609583,0.002627173438668251,1.001400113105774,0.0,0.0,0.0,-42.907997131347656,9.996664047241211,-4.2497477531433105,7766.43359375,0
2095.553,0.03245144337415695,-0.03351711854338646,-0.001983333844691515,0.0,0.0,0.0,0.0,0.0010609698947519064,0.0034081479534506798,-0.0011338521726429462,1.0021613836288452,0.0,0.0,0.0,-43.00117492675781,10.001084327697754,-4.278985977172852,7783.2978515625,0
2105.4310000000005,0.032395489513874054,-0.03359581157565117,-0.001865263795480132,0.0,0.0,0.0,0.0,0.0006291832542046905,-0.00104636384639889,0.0002643961925059557,1.0010732412338257,0.0,0.0,0.0,-42.9604606628418,9.991223335266113,-4.2694196701049805,7775.9287109375,0
2115.3179999999993,0.03244378790259361,-0.03350764885544777,-0.0019567033741623163,0.0,0.0,0.0,0.0,-7.88358593126759e-05,-0.00616666441783309,0.001372162252664566,1.001110315322876,0.0,0.0,0.0,-43.055057525634766,9.99794864654541,-4.273097038269043,7793.05078125,0
2125.1939999999995,0.03238605335354805,-0.033584821969270706,-0.0018330554012209177,0.0,0.0,0.0,0.0,-0.00268358550965786,0.00018154937424696982,-5.033933121012524e-06,1.0010727643966675,0.0,0.0,0.0,-43.01265335083008,9.988414764404297,-4.258242130279541,7785.3759765625,0
2135.0859999999993,0.03248318284749985,-0.03344248607754707,-0.0020541069097816944,0.0,0.0,0.0,0.0,-0.005290468689054251,0.001990528078749776,0.001619803486391902,0.9986112713813782,0.0,0.0,0.0,-43.091617584228516,10.005475044250488,-4.263338565826416,7799.6689453125,0
2144.9629999999997,0.03242611512541771,-0.033518921583890915,-0.0019279031548649073,0.0,0.0,0.0,0.0,-0.0011876001954078674,-0.0011944161960855126,0.001062839524820447,0.997446596622467,0.0,0.0,0.0,-43.04951095581055,10.00052261352539,-4.250280857086182,7792.04638671875,0
2154.8559999999998,0.0324709489941597,-0.03345080092549324,-0.0020403447560966015,0.0,0.0,0.0,0.0,1.3406789548753295e-05,-0.0043103136122226715,-0.0009854414965957403,0.9989930987358093,0.0,0.0,0.0,-43.127586364746094,10.001264572143555,-4.257225513458252,7806.1796875,0
2164.732,0.03241365775465965,-0.03352539241313934,-0.0019174268236383796,0.0,0.0,0.0,0.0,-0.001722373883239925,0.0005407212302088737,-0.002461362397298217,1.0008658170700073,0.0,0.0,0.0,-43.08527374267578,9.993736267089844,-4.240716934204102,7798.5205078125,0
2174.633,0.032484594732522964,-0.03346826508641243,-0.002034488134086132,0.0,0.0,0.0,0.0,0.0010122174862772226,-0.005778283812105656,0.001458201208151877,1.0001420974731445,0.0,0.0,0.0,-43.158241271972656,10.003499031066895,-4.228675365447998,7811.72705078125,0
2184.501,0.032429326325654984,-0.033547963947057724,-0.0019107286352664232,0.0,0.0,0.0,0.0,0.004192624241113663,0.0017888350412249565,0.0012788655003532767,0.9992432594299316,0.0,0.0,0.0,-43.1148796081543,9.9999418258667,-4.207372188568115,7803.87939453125,0
2194.3950000000004,0.032513007521629333,-0.03342673182487488,-0.002082254970446229,0.0,0.0,0.0,0.0,0.0031031109392642975,0.0036390807945281267,0.0022171870805323124,0.9994800090789795,0.0,0.0,0.0,-43.18507766723633,10.001296043395996,-4.217953205108643,7816.58447265625,0
2204.2800000000007,0.032456476241350174,-0.03350544348359108,-0.001957294996827841,0.0,0.0,0.0,0.0,-0.00023294500715564936,-0.00013595350901596248,-0.001805837731808424,0.9981591701507568,0.0,0.0,0.0,-43.142677307128906,9.99454116821289,-4.216930389404297,7808.91064453125,0
2214.165000000001,0.03250255808234215,-0.033482734113931656,-0.0019925048109143972,0.0,0.0,0.0,0.0,-0.0012738428777083755,-0.004555888473987579,-0.0006005432223901153,0.9985736012458801,0.0,0.0,0.0,-43.21509552001953,9.998720169067383,-4.206560134887695,7822.01806640625,0
