timestamp,stateEstimate.x,stateEstimate.y,stateEstimate.z,controller.cmd_thrust,controller.cmd_roll,controller.cmd_pitch,controller.cmd_yaw,controller.r_roll,controller.r_pitch,controller.r_yaw,controller.accelz,controller.actuatorThrust,controller.roll,controller.pitch,controller.yaw,controller.rollRate,controller.pitchRate,controller.yawRate,controller.ctr_yaw
0.0,-0.00018370374164078385,-0.0001717243721941486,-0.00017463335825596005,0.0,0.0,0.0,0.0,0.0042804209515452385,-0.00010200105316471308,0.0013004835927858949,0.997024655342102,0.0,0.0,0.0,0.42118027806282043,10.195366859436035,2.1992456912994385,-76.23446655273438,0
9.881999999999607,-0.00022049820108804852,-0.00011852038733195513,-0.00011553429794730619,0.0,0.0,0.0,0.0,0.004790672101080418,0.005802325904369354,0.001026312354952097,0.9982177019119263,0.0,0.0,0.0,0.4297506511211395,10.213953971862793,2.1938326358795166,-77.78572845458984,0
19.76000000000022,-0.0002490839979145676,-0.00017184551688842475,-0.00011771551362471655,0.0,0.0,0.0,0.0,0.0013538225321099162,-0.0007224034634418786,0.004206320736557245,1.000504970550537,0.0,0.0,0.0,0.42978712916374207,10.19764518737793,2.17570424079895,-77.79232788085938,0
29.65899999999965,-0.00024663342628628016,-8.65942711243406e-05,-0.0001051819563144818,0.0,0.0,0.0,0.0,0.0016172155737876892,-0.0003375515225343406,-0.0013272829819470644,0.999904215335846,0.0,0.0,0.0,0.4400099515914917,10.233101844787598,2.1837825775146484,-79.64266967773438,0
39.52800000000025,-0.00027399795362725854,-0.000131122738821432,-0.00010610053141135722,0.0,0.0,0.0,0.0,0.0027423056308180094,-0.0019987141713500023,-0.0015877739060670137,0.9981966614723206,0.0,0.0,0.0,0.4392053186893463,10.220551490783691,2.1871025562286377,-79.49703216552734,0
49.41400000000067,-0.0002734375302679837,-4.8404879635199904e-05,-8.698269084561616e-05,0.0,0.0,0.0,0.0,-0.00026409313431940973,-0.002859062748029828,-0.0019225975265726447,0.9965435862541199,0.0,0.0,0.0,0.4543086290359497,10.251639366149902,2.201068878173828,-82.23076629638672,0
59.302999999999884,-0.000299435225315392,-8.567595796193928e-05,-8.978346886578947e-05,0.0,0.0,0.0,0.0,0.0010838434100151062,0.002509853569790721,-0.0015509056393057108,0.9972776770591736,0.0,0.0,0.0,0.4537939131259918,10.240203857421875,2.2063615322113037,-82.1375961303711,0
69.1939999999995,-0.00029698314028792083,-2.0672709069913253e-05,-8.072010678006336e-05,0.0,0.0,0.0,0.0,0.00024623051285743713,-0.002291800919920206,-0.0020841157529503107,0.9984760880470276,0.0,0.0,0.0,0.46698933839797974,10.268320083618164,2.2109086513519287,-84.52599334716797,0
79.07599999999911,-0.00031942338682711124,-5.294580842019059e-05,-8.64460234879516e-05,0.0,0.0,0.0,0.0,0.0008262082119472325,0.0009780946420505643,-0.0007657480891793966,0.9997379779815674,0.0,0.0,0.0,0.46615126729011536,10.259021759033203,2.209836721420288,-84.37430572509766,0
88.96899999999914,-0.00030089207575656474,3.92528272641357e-06,-9.827846952248365e-05,0.0,0.0,0.0,0.0,-0.003250593552365899,-0.002515180269256234,0.00022354173415806144,0.9980459809303284,0.0,0.0,0.0,0.47452816367149353,10.279285430908203,2.2169058322906494,-85.89053344726562,0
98.84799999999996,-0.00032027161796577275,-2.183375363529194e-05,-0.0001059982314473018,0.0,0.0,0.0,0.0,-0.003363313851878047,0.005219121929258108,0.0009653980378061533,0.9989166259765625,0.0,0.0,0.0,0.47376805543899536,10.27122974395752,2.2050838470458984,-85.75296020507812,0
108.72299999999996,-0.0003140581538900733,2.8476235456764698e-05,-0.00010972310701617971,0.0,0.0,0.0,0.0,0.0005548683111555874,-0.004615479614585638,-0.0005991983925923705,0.9987911581993103,0.0,0.0,0.0,0.4835670292377472,10.294483184814453,2.2082769870758057,-87.52660369873047,0
118.60000000000036,-0.0003328632446937263,9.274081094190478e-06,-0.0001190512630273588,0.0,0.0,0.0,0.0,-0.002798037137836218,0.004958828911185265,-0.00022362807067111135,1.0001046657562256,0.0,0.0,0.0,0.48230162262916565,10.285505294799805,2.214604139328003,-87.29754638671875,0
128.49099999999999,-0.00035181728890165687,-1.2128855814808048e-05,-0.00012843735748901963,0.0,0.0,0.0,0.0,-0.00036760562215931714,-0.004156600218266249,0.0016339109279215336,0.9973822236061096,0.0,0.0,0.0,0.48140594363212585,10.27851676940918,2.2026801109313965,-87.13542938232422,0
138.3670000000002,-0.00037053291453048587,-3.783485954045318e-05,-0.00013866170775145292,0.0,0.0,0.0,0.0,0.0035533392801880836,0.0008904243004508317,-5.745447924709879e-05,0.9992066025733948,0.0,0.0,0.0,0.48148754239082336,10.268872261047363,2.213013172149658,-87.15019989013672,0
148.27200000000084,-0.000387651874916628,-6.750063766958192e-05,-0.00014959624968469143,0.0,0.0,0.0,0.0,-0.001395904808305204,-0.0011219419538974762,0.0018993407720699906,1.0008922815322876,0.0,0.0,0.0,0.48131608963012695,10.25423812866211,2.2134177684783936,-87.1191635131836,0
158.14899999999943,-0.0004034498706459999,-0.00010087751434184611,-0.00015966928913258016,0.0,0.0,0.0,0.0,0.002932017669081688,0.0010488891275599599,0.0008173494134098291,1.0008797645568848,0.0,0.0,0.0,0.48202231526374817,10.250147819519043,2.2145678997039795,-87.24699401855469,0
168.03299999999945,-0.0004198001988697797,-0.00013732555089518428,-0.0001685059687588364,0.0,0.0,0.0,0.0,-0.00042196561116725206,0.000855154765304178,-0.000601456908043474,0.9996022582054138,0.0,0.0,0.0,0.4807732403278351,10.231761932373047,2.199659585952759,-87.02091217041016,0
177.91899999999987,-0.0002030309842666611,-0.0001920088689075783,1.8460385035723448e-05,0.0,0.0,0.0,0.0,-0.0021801188122481108,0.00195336458273232,0.0037877054419368505,1.0000133514404297,0.0,0.0,0.0,0.4597776234149933,10.228910446166992,2.2310421466827393,-83.22066497802734,0
187.80799999999908,-0.0002079763071378693,-0.00023281943867914379,1.9325001630932093e-05,0.0,0.0,0.0,0.0,-0.0013950272696092725,0.0025062321219593287,0.003800162812694907,1.00006103515625,0.0,0.0,0.0,0.45939141511917114,10.225301742553711,2.233131170272827,-83.1507568359375,0
197.6880000000001,-0.00016100014909170568,-0.00025165933766402304,6.923599721631035e-05,0.0,0.0,0.0,0.0,0.0031182286329567432,0.005419157911092043,0.0009535889839753509,0.9993792772293091,0.0,0.0,0.0,0.44074299931526184,10.221088409423828,2.227956533432007,-79.77536010742188,0
207.5689999999995,-0.00016616862558294088,-0.0002968347107525915,7.379220187431201e-05,0.0,0.0,0.0,0.0,-0.0016639360692352057,-0.0017260888125747442,-0.0009068773360922933,1.0005418062210083,0.0,0.0,0.0,0.44135692715644836,10.207655906677246,2.2195963859558105,-79.88648223876953,0
217.45499999999993,-0.00017436951748095453,-0.00030178221641108394,0.00011719978647306561,0.0,0.0,0.0,0.0,-0.0023672664538025856,-0.0003824031155090779,0.0017667176434770226,0.9991995692253113,0.0,0.0,0.0,0.41883936524391174,10.211278915405273,2.216519594192505,-75.81076049804688,0
227.34399999999914,-0.00018253868620377034,-0.00034934570430777967,0.00012514792615547776,0.0,0.0,0.0,0.0,-0.0004451595596037805,0.0014980027917772532,-0.00034683122066780925,0.9987103939056396,0.0,0.0,0.0,0.4184069037437439,10.205667495727539,2.221752882003784,-75.73249053955078,0
365.72899999999936,-0.00015159133181441575,-0.000191546103451401,-0.0002258462191093713,0.0,0.0,0.0,0.0,0.001937543274834752,0.0008317226893268526,-0.0049094706773757935,0.9967738389968872,0.0,0.0,0.0,0.3277832269668579,10.369715690612793,2.2718117237091064,-59.32941436767578,0
375.60499999999956,-0.00018458098929841071,-0.00017123506404459476,-0.00019458666793070734,0.0,0.0,0.0,0.0,-0.001530083129182458,0.00023841716756578535,0.0008849831065163016,0.9990155696868896,0.0,0.0,0.0,0.31165561079978943,10.36986255645752,2.2606558799743652,-56.41028594970703,0
385.4989999999998,-0.00017562235007062554,-0.00014857125643175095,-0.0002309153787791729,0.0,0.0,0.0,0.0,0.001816258649341762,3.95303031837102e-05,-0.0027300636284053326,1.0000776052474976,0.0,0.0,0.0,0.32888540625572205,10.372398376464844,2.271564245223999,-59.528907775878906,0
395.3700000000008,-0.00015977141447365284,-0.00014729014947079122,-0.00018912673112936318,0.0,0.0,0.0,0.0,8.59137435327284e-05,0.0018608536338433623,-0.0032557640224695206,0.9997334480285645,0.0,0.0,0.0,0.31167367100715637,10.362479209899902,2.2680530548095703,-56.413551330566406,0
405.2659999999996,-0.00019337997946422547,-0.00017140674754045904,-0.00013679247058462352,0.0,0.0,0.0,0.0,-0.00196924083866179,0.0008206262136809528,-0.003848486812785268,1.0001585483551025,0.0,0.0,0.0,0.32504987716674805,10.354029655456543,2.261752128601074,-58.83467102050781,0
415.1409999999996,-0.00014830018335487694,-0.00021039732382632792,-0.00010369777010055259,0.0,0.0,0.0,0.0,-0.0015020311111584306,-0.0005240185419097543,0.0006102943443693221,1.0001991987228394,0.0,0.0,0.0,0.3168676793575287,10.344672203063965,2.269132375717163,-57.35368347167969,0
425.03900000000067,-0.0001588646264281124,-0.00021231413120403886,-7.882146019255742e-05,0.0,0.0,0.0,0.0,0.0010178128723055124,-0.0009764511487446725,-0.0033743856474757195,0.9994650483131409,0.0,0.0,0.0,0.3315105438232422,10.337000846862793,2.262399435043335,-60.00407028198242,0
434.91899999999987,-0.00013833049160894006,-0.00022774990065954626,-4.267888652975671e-05,0.0,0.0,0.0,0.0,0.0014394983882084489,-0.0015192702412605286,-0.0014828722923994064,0.9984309673309326,0.0,0.0,0.0,0.3307340741157532,10.325582504272461,2.2628870010375977,-59.863525390625,0
444.8019999999997,-0.0001722460292512551,-0.00026282286853529513,1.6114105164888315e-05,0.0,0.0,0.0,0.0,0.0010491773718968034,0.004707790445536375,0.0031558906193822622,0.999919056892395,0.0,0.0,0.0,0.3460376262664795,10.312481880187988,2.251222848892212,-62.63349533081055,0
454.6779999999999,-0.00017607136396691203,-0.00026140452246181667,6.052527896827087e-05,0.0,0.0,0.0,0.0,-7.574991514047724e-07,-0.00017774813750293106,0.0002828134747687727,1.0017935037612915,0.0,0.0,0.0,0.33165523409843445,10.299851417541504,2.2348036766052246,-60.03025817871094,0
464.5730000000003,-0.00015534315025433898,-0.00023583123402204365,6.20069622527808e-05,0.0,0.0,0.0,0.0,0.00011155672837048769,0.007049859501421452,-0.00012212693400215358,1.000648856163025,0.0,0.0,0.0,0.34718751907348633,10.299487113952637,2.2405128479003906,-62.84163284301758,0
474.4480000000003,-0.00016205458086915314,-0.00024403429415542632,0.00010329860378988087,0.0,0.0,0.0,0.0,-0.0038197191897779703,-0.0016066300449892879,0.001099434564821422,1.0011250972747803,0.0,0.0,0.0,0.3394688069820404,10.290904998779297,2.227912187576294,-61.44452667236328,0
484.34200000000055,-9.146948286797851e-05,-0.00014244348858483136,6.365834997268394e-05,0.0,0.0,0.0,0.0,0.0012479134602472186,-0.0016465223161503673,0.005089145619422197,0.9987789392471313,0.0,0.0,0.0,0.35988670587539673,10.303582191467285,2.2418971061706543,-65.14020538330078,0
494.22400000000016,-0.00016076918109320104,-0.00018970553355757147,6.834596570115536e-05,0.0,0.0,0.0,0.0,-0.001951092155650258,0.00029171432834118605,0.000298009195830673,0.9993638396263123,0.0,0.0,0.0,0.34795838594436646,10.295001029968262,2.236785411834717,-62.98115921020508,0
504.1190000000006,-6.827326433267444e-05,-6.599493644898757e-05,-1.2026037438772619e-05,0.0,0.0,0.0,0.0,0.00018881044525187463,0.0008397498750127852,-0.00286294287070632,0.9981333017349243,0.0,0.0,0.0,0.3618132770061493,10.306814193725586,2.2524752616882324,-65.48892974853516,0
513.9860000000008,-9.69518514466472e-05,-0.00013989562285132706,-1.435857302567456e-05,0.0,0.0,0.0,0.0,-0.0032019447535276413,-0.005395732820034027,-0.002108421176671982,0.9997409582138062,0.0,0.0,0.0,0.35447630286216736,10.294719696044922,2.2591681480407715,-64.1609115600586,0
523.884,-2.4017350369831547e-05,-2.2100028218119405e-05,-7.44572898838669e-05,0.0,0.0,0.0,0.0,0.0011085440637543797,0.000649190740659833,0.0007069488056004047,0.9998810887336731,0.0,0.0,0.0,0.3697664439678192,10.314323425292969,2.287092924118042,-66.92845916748047,0
533.7630000000008,-4.7404006181750447e-05,-0.00012945022899657488,-9.500093437964097e-05,0.0,0.0,0.0,0.0,-0.0007039144984446466,-0.0007816977449692786,0.004068807233124971,0.9992727637290955,0.0,0.0,0.0,0.36197593808174133,10.296952247619629,2.2757835388183594,-65.51836395263672,0
543.6540000000005,-5.93049935559975e-06,-7.85330994403921e-05,-0.00013662366836797446,0.0,0.0,0.0,0.0,-0.001001151860691607,-0.0003409301571082324,-0.0006460943259298801,1.0003535747528076,0.0,0.0,0.0,0.3749476373195648,10.301397323608398,2.287449359893799,-67.86627197265625,0
553.5360000000001,-4.9685888370731845e-05,-0.00018459378043189645,-0.0001649960468057543,0.0,0.0,0.0,0.0,-0.001875908812507987,-0.00029136205557733774,0.0009490170632489026,0.9969021677970886,0.0,0.0,0.0,0.35937607288360596,10.291913032531738,2.2714040279388428,-65.04778289794922,0
563.4240000000009,-4.346825880929828e-05,-0.00018679832282941788,-0.00017635332187637687,0.0,0.0,0.0,0.0,0.0013271066127344966,0.004900916013866663,-0.0007046880782581866,0.9983809590339661,0.0,0.0,0.0,0.3735487759113312,10.292715072631836,2.2773823738098145,-67.61307525634766,0
573.3019999999997,-6.516356370411813e-05,-0.00018961017485707998,-0.0001533989852759987,0.0,0.0,0.0,0.0,-0.002834599930793047,-0.0016534763853996992,-0.0018336192006245255,0.9977535605430603,0.0,0.0,0.0,0.35647544264793396,10.28880786895752,2.2629218101501465,-64.52276611328125,0
583.1900000000005,-8.268817327916622e-05,-0.00021478100097738206,-0.00013272566138766706,0.0,0.0,0.0,0.0,-0.0002407432475592941,0.0009420347632840276,-0.0025329578202217817,0.9981052875518799,0.0,0.0,0.0,0.3693428635597229,10.290478706359863,2.2780556678771973,-66.85179138183594,0
593.0769999999993,-0.00011638029536698014,-0.0002009541349252686,-0.00010708296031225473,0.0,0.0,0.0,0.0,0.0011663396144285798,0.004965909756720066,-0.0028172710444778204,0.9995954632759094,0.0,0.0,0.0,0.35885369777679443,10.291682243347168,2.2727105617523193,-64.95323181152344,0
602.9609999999993,-0.00015536304272245616,-0.0002445794816594571,-5.688679448212497e-05,0.0,0.0,0.0,0.0,-0.0016937700565904379,0.0015028184279799461,0.0006259340443648398,1.0016679763793945,0.0,0.0,0.0,0.37117406725883484,10.282892227172852,2.2674543857574463,-67.18324279785156,0
612.8410000000003,-0.0001614001375855878,-0.0002465856377966702,-1.878608418337535e-05,0.0,0.0,0.0,0.0,-0.0010810209205374122,0.0006350718322210014,-0.0008689876412972808,0.9996671676635742,0.0,0.0,0.0,0.36153116822242737,10.285043716430664,2.2552294731140137,-65.4378662109375,0
622.7350000000006,-0.00016412690456490964,-0.0002519908593967557,-5.847668035130482e-06,0.0,0.0,0.0,0.0,0.0012178660836070776,0.0036054460797458887,-0.0008044039132073522,0.9977902770042419,0.0,0.0,0.0,0.3708246350288391,10.282059669494629,2.2621986865997314,-67.1199951171875,0
632.6100000000006,-0.00022088007244747132,-0.0002667490334715694,1.7053152987500653e-05,0.0,0.0,0.0,0.0,-9.233635501004755e-05,0.00029737240402027965,-0.0012979756575077772,1.0004724264144897,0.0,0.0,0.0,0.3572029769420624,10.281970024108887,2.244689464569092,-64.65445709228516,0
642.5059999999994,-0.00015020502905827016,-0.00015759510279167444,-3.851192377624102e-05,0.0,0.0,0.0,0.0,-0.004681740887463093,-0.008893662132322788,-0.002984049264341593,1.0006946325302124,0.0,0.0,0.0,0.374469518661499,10.298152923583984,2.262671947479248,-67.77973175048828,0
652.3780000000006,-0.00015578193415421993,-0.00019416942086536437,-1.3124548786436208e-05,0.0,0.0,0.0,0.0,8.925468864617869e-05,0.0006734699127264321,0.0003579017356969416,1.0013660192489624,0.0,0.0,0.0,0.36604925990104675,10.297636032104492,2.271573305130005,-66.25564575195312,0
662.2810000000009,-0.00011154776439070702,-0.00013525715621653944,-4.429148248163983e-05,0.0,0.0,0.0,0.0,-0.00010382090840721503,-0.002465729136019945,-0.0030822772532701492,1.0009552240371704,0.0,0.0,0.0,0.3824356198310852,10.306554794311523,2.2811615467071533,-69.22161102294922,0
672.1579999999994,-0.00011684125638566911,-0.0002469980390742421,-4.929342321702279e-05,0.0,0.0,0.0,0.0,0.0018978990847244859,-0.0015713069587945938,-0.00011892729526152834,0.9993844032287598,0.0,0.0,0.0,0.3707134425640106,10.294960021972656,2.2933764457702637,-67.09986877441406,0
682.0339999999997,-6.406947068171576e-05,-0.00016406543727498502,-8.153967064572498e-05,0.0,0.0,0.0,0.0,-0.0006817042594775558,0.00539412209764123,-0.00026125178555957973,0.9987499713897705,0.0,0.0,0.0,0.38757088780403137,10.299704551696777,2.302234172821045,-70.1511001586914,0
691.9179999999997,-9.481954475631937e-05,-0.00024616712471470237,-8.762306970311329e-05,0.0,0.0,0.0,0.0,0.003337513655424118,-0.0008371666190214455,-0.0007342103053815663,1.0016423463821411,0.0,0.0,0.0,0.3781774938106537,10.294239044189453,2.2904186248779297,-68.45088195800781,0
701.8089999999993,-5.976779357297346e-05,-0.00021721833036281168,-0.0001158973464043811,0.0,0.0,0.0,0.0,-0.0006625757669098675,0.0027959325816482306,-0.0005733983707614243,0.9996705055236816,0.0,0.0,0.0,0.3959883749485016,10.289469718933105,2.3043177127838135,-71.6746826171875,0
711.6890000000003,-0.0001562516117701307,-0.00020611597574315965,-0.00010278572153765708,0.0,0.0,0.0,0.0,-0.0009389411425217986,-0.005180098582059145,-0.0010205135913565755,0.9993287324905396,0.0,0.0,0.0,0.380342960357666,10.295080184936523,2.2849514484405518,-68.84283447265625,0
721.5730000000003,-0.00015444341988768429,-0.0002175711269956082,-9.74022041191347e-05,0.0,0.0,0.0,0.0,0.0021719879005104303,-0.001530556590296328,-0.0006314581260085106,0.9993069767951965,0.0,0.0,0.0,0.39149612188339233,10.295206069946289,2.289119005203247,-70.86157989501953,0
731.4650000000001,-0.00013781298184767365,-0.0002258927415823564,-5.39880056749098e-05,0.0,0.0,0.0,0.0,0.001584538840688765,-0.0007608226733282208,-0.001817333628423512,0.9985297322273254,0.0,0.0,0.0,0.3793720006942749,10.294352531433105,2.301502227783203,-68.66708374023438,0
741.3549999999996,-9.629473061067984e-05,-0.00016451298142783344,-7.327653293032199e-05,0.0,0.0,0.0,0.0,0.002600698499009013,0.005048954393714666,-0.0007368841907009482,1.000883936882019,0.0,0.0,0.0,0.3896106779575348,10.295522689819336,2.300370216369629,-70.52030181884766,0
751.2299999999996,-0.00011231953976675868,-0.0001877148897619918,-5.125015741214156e-05,0.0,0.0,0.0,0.0,-0.0019174822373315692,2.3914682969916612e-05,0.00019484921358525753,1.0004667043685913,0.0,0.0,0.0,0.37918907403945923,10.28617000579834,2.287923812866211,-68.63397216796875,0
761.1200000000008,-0.00010554153413977474,-0.00019466846424620599,-3.6698234907817096e-05,0.0,0.0,0.0,0.0,-0.0007497160695493221,0.0006326432339847088,-0.003246661275625229,0.9997833967208862,0.0,0.0,0.0,0.3891834318637848,10.28740119934082,2.2844252586364746,-70.4429702758789,0
771.0030000000006,-0.00012477744894567877,-0.00022913783323019743,-1.4315462976810522e-05,0.0,0.0,0.0,0.0,-0.0013632986228913069,-0.003540336387231946,0.005516958888620138,0.9986011385917664,0.0,0.0,0.0,0.3763723373413086,10.291062355041504,2.2816500663757324,-68.12413787841797,0
780.884,-7.036246097413823e-05,-0.00016655970830470324,-4.0571812860434875e-05,0.0,0.0,0.0,0.0,0.0010859299218282104,-0.005946244578808546,0.00017215583648066968,0.9997332096099854,0.0,0.0,0.0,0.39463481307029724,10.306082725524902,2.2968010902404785,-71.42967987060547,0
790.7669999999998,-8.89021175680682e-05,-0.0002028905728366226,-2.183571268687956e-05,0.0,0.0,0.0,0.0,0.0024269165005534887,0.0028079431504011154,-0.0005924367578700185,0.9996255040168762,0.0,0.0,0.0,0.38406476378440857,10.30296802520752,2.299750804901123,-69.51649475097656,0
800.6509999999998,-3.5170585761079565e-05,-0.0001474005402997136,-4.5350730943027884e-05,0.0,0.0,0.0,0.0,0.0011711294064298272,0.0005879573291167617,-0.000887529575265944,0.9988676309585571,0.0,0.0,0.0,0.3935123682022095,10.3117094039917,2.3085415363311768,-71.22652435302734,0
810.5429999999997,-8.208947838284075e-05,-0.00017678708536550403,-3.686901618493721e-05,0.0,0.0,0.0,0.0,-0.0013231843477115035,-0.0039139678701758385,0.0004203938879072666,0.9995301365852356,0.0,0.0,0.0,0.3839757442474365,10.309237480163574,2.286977767944336,-69.50038146972656,0
820.4300000000003,-6.914574623806402e-05,-0.0001911050349008292,-2.587307244539261e-05,0.0,0.0,0.0,0.0,-0.0012940409360453486,-0.002503856783732772,-0.002438591094687581,1.000304102897644,0.0,0.0,0.0,0.39747077226638794,10.309118270874023,2.2950475215911865,-71.94300079345703,0
830.3179999999993,-0.00014227436622604728,-0.00017474108608439565,-1.971301571757067e-06,0.0,0.0,0.0,0.0,-0.0008209640509448946,0.003623184049502015,-0.0004838294698856771,1.002219796180725,0.0,0.0,0.0,0.3816162645816803,10.316181182861328,2.279949426651001,-69.07330322265625,0
840.2019999999993,-8.438601071247831e-05,-0.0001230390917044133,-3.144269430777058e-05,0.0,0.0,0.0,0.0,0.002023356733843684,1.4712432857777458e-05,-0.0005902418633922935,0.9995079636573792,0.0,0.0,0.0,0.39050421118736267,10.32759952545166,2.2791407108306885,-70.68203735351562,0
850.0750000000007,-0.0001440919586457312,-0.0001775585551513359,-3.435343023738824e-05,0.0,0.0,0.0,0.0,0.000890065566636622,-0.0028493304271250963,-0.0033273911103606224,1.0005943775177002,0.0,0.0,0.0,0.3761839270591736,10.316967964172363,2.2665975093841553,-68.09004211425781,0
859.9670000000006,-8.978313417173922e-05,-0.00012068412615917623,-5.802447412861511e-05,0.0,0.0,0.0,0.0,0.0015688687562942505,-0.002554448088631034,-0.0018318381626158953,0.9996902942657471,0.0,0.0,0.0,0.38602301478385925,10.3280668258667,2.284984588623047,-69.87093353271484,0
869.848,-7.576709322165698e-05,-0.00019115096074528992,-4.534834442893043e-05,0.0,0.0,0.0,0.0,0.0018970462260767817,-0.003188307397067547,0.0014233276015147567,0.9986677765846252,0.0,0.0,0.0,0.370300829410553,10.313036918640137,2.2874066829681396,-67.02518463134766,0
879.7299999999996,1.6883030184544623e-05,-9.298570512328297e-05,-0.00011340331548126414,0.0,0.0,0.0,0.0,-0.00014441415260080248,-0.0020870177540928125,-7.715698302490637e-05,0.9984991550445557,0.0,0.0,0.0,0.3820740282535553,10.32849407196045,2.3082070350646973,-69.15615844726562,0
889.6200000000008,-4.189184255665168e-05,-0.00016824257909320295,-0.0001383948838338256,0.0,0.0,0.0,0.0,0.0017671753885224462,-0.006948314141482115,0.00033159443410113454,0.9985015988349915,0.0,0.0,0.0,0.37607455253601074,10.319193840026855,2.300100564956665,-68.07024383544922,0
899.5040000000008,2.7575712010730058e-05,-9.51354595599696e-05,-0.0001847784878918901,0.0,0.0,0.0,0.0,0.0008888744632713497,0.001993835438042879,0.001712108263745904,0.9973076581954956,0.0,0.0,0.0,0.39142102003097534,10.330984115600586,2.3260111808776855,-70.84798431396484,0
909.3940000000002,-9.68567928794073e-06,-0.0001761597377480939,-0.0002098868426401168,0.0,0.0,0.0,0.0,-0.0006612595170736313,-0.0028357524424791336,0.0037425528280436993,0.9995966553688049,0.0,0.0,0.0,0.37419137358665466,10.319762229919434,2.316073179244995,-67.72937774658203,0
919.2710000000006,2.206351564382203e-05,-0.00014688580995425582,-0.0002147483464796096,0.0,0.0,0.0,0.0,0.0022021103650331497,-0.0034051465336233377,-0.0019306391477584839,0.9995176196098328,0.0,0.0,0.0,0.38650816679000854,10.327766418457031,2.32038950920105,-69.958740234375,0
929.1589999999997,3.2847074180608615e-05,-0.00019430270185694098,-0.00021174691210035235,0.0,0.0,0.0,0.0,-0.0028401827439665794,-0.001894808141514659,-0.002122496021911502,0.999267041683197,0.0,0.0,0.0,0.37965187430381775,10.317944526672363,2.3146047592163086,-68.71774291992188,0
939.0380000000005,3.116978768957779e-05,-0.0002258282620459795,-0.0001931850129039958,0.0,0.0,0.0,0.0,-0.0007014606962911785,-0.0011692859698086977,0.0011664689518511295,0.9963678121566772,0.0,0.0,0.0,0.38909924030303955,10.315702438354492,2.320890426635742,-70.427734375,0
948.9210000000003,1.4062717127671931e-05,-0.00024758809013292193,-0.00018225458916276693,0.0,0.0,0.0,0.0,0.0023036845959722996,0.003438070183619857,-0.004410731606185436,0.9988349080085754,0.0,0.0,0.0,0.37245145440101624,10.314542770385742,2.2991933822631836,-67.41445922851562,0
958.8140000000003,4.862608875555452e-06,-0.0002716703456826508,-0.00014806965191382915,0.0,0.0,0.0,0.0,0.0004939614445902407,-0.00273736659437418,0.0006678386125713587,0.9979271292686462,0.0,0.0,0.0,0.3874093294143677,10.303567886352539,2.2822115421295166,-70.12185668945312,0
968.7080000000005,-8.69081195560284e-05,-0.00022197081125341356,-0.00012914332910440862,0.0,0.0,0.0,0.0,0.0012737942161038518,-5.3881900385022163e-05,3.91123685403727e-05,1.0004349946975708,0.0,0.0,0.0,0.3707883656024933,10.311666488647461,2.267925262451172,-67.11343383789062,0
978.5779999999995,-9.147069067694247e-05,-0.00023848380078561604,-0.00010864095384022221,0.0,0.0,0.0,0.0,0.0008771680295467377,0.003008877858519554,0.0016302032163366675,0.998375654220581,0.0,0.0,0.0,0.38441044092178345,10.310235977172852,2.2605082988739014,-69.57906341552734,0
988.4629999999997,-0.00011211579840164632,-0.00023223247262649238,-8.062455162871629e-05,0.0,0.0,0.0,0.0,0.0014270794345065951,0.0021866322495043278,-0.00035109659074805677,0.9984458684921265,0.0,0.0,0.0,0.3663100600242615,10.316384315490723,2.2553133964538574,-66.30284881591797,0
998.3500000000004,-0.00011358424671925604,-0.00023824888921808451,-6.076932913856581e-05,0.0,0.0,0.0,0.0,9.47963690123288e-06,-0.0020844631362706423,-0.0036698642652481794,1.0001908540725708,0.0,0.0,0.0,0.37436220049858093,10.31306266784668,2.2496540546417236,-67.76029968261719,0
1008.2299999999996,-0.00013767658674623817,-0.00024936484987847507,-4.1531089664204046e-05,0.0,0.0,0.0,0.0,0.0027820649556815624,0.006316316779702902,-0.002057276666164398,0.9991439580917358,0.0,0.0,0.0,0.36616483330726624,10.31188678741455,2.2433178424835205,-66.27656555175781,0
1018.1149999999998,-0.00015919578436296433,-0.0002700691402424127,3.5107918847643305e-06,0.0,0.0,0.0,0.0,-0.0006933329277671874,0.0012359089450910687,-2.760052120720502e-05,1.0000367164611816,0.0,0.0,0.0,0.3771844804286957,10.305587768554688,2.2273905277252197,-68.2711410522461,0
1027.9979999999996,-0.00017509132158011198,-0.00027250678976997733,3.742802073247731e-05,0.0,0.0,0.0,0.0,0.00379762495867908,-0.0036247875541448593,0.001628789003007114,0.9996028542518616,0.0,0.0,0.0,0.3653961718082428,10.310943603515625,2.2231943607330322,-66.13743591308594,0
1037.8979999999992,-9.67421437962912e-05,-0.00015438890841323882,-2.3431415684171952e-05,0.0,0.0,0.0,0.0,0.0015329936286434531,0.0014250826789066195,0.0014995563542470336,1.001462459564209,0.0,0.0,0.0,0.3746820092201233,10.326651573181152,2.2426164150238037,-67.81818389892578,0
1047.786,-0.00011850542796310037,-0.00018740326049737632,-1.0043886504718103e-05,0.0,0.0,0.0,0.0,0.0016819038428366184,-0.0009712738101370633,5.9680100093828514e-05,0.9993072152137756,0.0,0.0,0.0,0.36524683237075806,10.315986633300781,2.236124038696289,-66.11040496826172,0
1057.6530000000002,-6.44092942820862e-05,-9.560093167237937e-05,-4.562281537801027e-05,0.0,0.0,0.0,0.0,0.0009993663989007473,-0.0030936826951801777,-0.0008039386011660099,0.9978132843971252,0.0,0.0,0.0,0.3783957362174988,10.329984664916992,2.2528719902038574,-68.4903793334961,0
1067.5409999999993,-8.518830873072147e-05,-0.00014003401156514883,-3.8698643038515e-05,0.0,0.0,0.0,0.0,5.559133569477126e-06,-0.0033176597207784653,0.0010088293347507715,0.9984407424926758,0.0,0.0,0.0,0.3662354052066803,10.317780494689941,2.254801034927368,-66.28933715820312,0
1077.4300000000003,-2.1043546439614147e-05,-4.9852809752337635e-05,-9.877915726974607e-05,0.0,0.0,0.0,0.0,-0.000975191593170166,0.004532454069703817,0.0020907109137624502,1.00028395652771,0.0,0.0,0.0,0.380744069814682,10.3264799118042,2.266897678375244,-68.91543579101562,0
1087.3099999999995,-5.735042941523716e-05,-0.00010102568921865895,-0.00010801765165524557,0.0,0.0,0.0,0.0,0.000861590204294771,-0.003427461488172412,-0.0009130689431913197,1.0020833015441895,0.0,0.0,0.0,0.371867835521698,10.315302848815918,2.252305269241333,-67.3088150024414,0
1097.1970000000001,-8.100875857053325e-05,-0.00014683627523481846,-8.099285332718864e-05,0.0,0.0,0.0,0.0,0.0018916120752692223,0.0035040865186601877,0.0029921673703938723,1.0023717880249023,0.0,0.0,0.0,0.38266655802726746,10.302931785583496,2.2523326873779297,-69.2634048461914,0
1107.0769999999993,-0.00015373501810245216,-0.00017868552822619677,-8.632417302578688e-05,0.0,0.0,0.0,0.0,-0.00045530093484558165,0.004899450112134218,-0.0009104014607146382,1.000125765800476,0.0,0.0,0.0,0.37367770075798035,10.292583465576172,2.2214295864105225,-67.63640594482422,0
1116.9629999999997,-0.0001633498031878844,-0.00018771395843941718,-6.920357554918155e-05,0.0,0.0,0.0,0.0,-0.0013745736796408892,0.0017157061956822872,0.0012605817755684257,0.9985089302062988,0.0,0.0,0.0,0.37952154874801636,10.29360294342041,2.2137396335601807,-68.69415283203125,0
1126.8520000000008,-0.00013849639799445868,-0.00020671739184763283,-3.293936242698692e-05,0.0,0.0,0.0,0.0,0.0018861673306673765,0.0020807404071092606,-0.002466040663421154,0.9979580640792847,0.0,0.0,0.0,0.3702883720397949,10.294096946716309,2.211225986480713,-67.02293395996094,0
1136.7369999999992,-0.00016678644169587642,-0.00022891655680723488,1.3943940757599194e-05,0.0,0.0,0.0,0.0,0.00128344411496073,0.0008231875253841281,0.003037327202036977,1.0005184412002563,0.0,0.0,0.0,0.3826642632484436,10.284835815429688,2.21035099029541,-69.26298522949219,0
1146.6139999999996,-0.00017273654520977288,-0.00025898910826072097,3.994516737293452e-05,0.0,0.0,0.0,0.0,-0.00031958005274645984,-0.001958640990778804,0.0010358147555962205,0.9997245073318481,0.0,0.0,0.0,0.3820280134677887,10.275845527648926,2.212942600250244,-69.1478271484375,0
1156.5030000000006,-0.000163132295710966,-0.0002421469980617985,3.7812089431099594e-05,0.0,0.0,0.0,0.0,-0.0007221257546916604,-0.004137685988098383,0.0037110447883605957,1.0009584426879883,0.0,0.0,0.0,0.3905911147594452,10.278265953063965,2.223403215408325,-70.69776153564453,0
1166.384,-0.0001533546019345522,-0.0002121720608556643,5.817633791593835e-05,0.0,0.0,0.0,0.0,0.0023985207080841064,0.0012995494762435555,0.0018403662834316492,0.9975201487541199,0.0,0.0,0.0,0.37526074051856995,10.286322593688965,2.2220749855041504,-67.92293548583984,0
1176.2749999999996,-0.000120774086099118,-0.0001628772442927584,3.518607627484016e-05,0.0,0.0,0.0,0.0,-0.0006198151968419552,-0.0005561031284742057,-0.001252067624591291,0.99918532371521,0.0,0.0,0.0,0.3756261169910431,10.273650169372559,2.217184543609619,-67.98906707763672,0
1186.1540000000005,-0.0001370778918499127,-0.00019314821111038327,5.6764085456961766e-05,0.0,0.0,0.0,0.0,0.002480681985616684,0.006350092589855194,0.001990674063563347,0.9990551471710205,0.0,0.0,0.0,0.3612348735332489,10.265653610229492,2.208699941635132,-65.38423156738281,0
1196.0439999999999,-4.665601591113955e-05,-6.804958684369922e-05,-2.6166439056396484e-05,0.0,0.0,0.0,0.0,-0.000542522466275841,-0.0020793008152395487,-0.0017277688020840287,0.9981043338775635,0.0,0.0,0.0,0.374514102935791,10.283392906188965,2.2245757579803467,-67.78779602050781,0
1205.9359999999997,-8.754367445362732e-05,-0.00013940996723249555,-4.164292477071285e-05,0.0,0.0,0.0,0.0,0.0009368219180032611,0.0008611509692855179,-0.0015868177870288491,1.0004301071166992,0.0,0.0,0.0,0.36665719747543335,10.264165878295898,2.198955774307251,-66.36567687988281,0
1215.8140000000003,-8.83794782566838e-05,-0.00014467739674728364,-3.8555248465854675e-05,0.0,0.0,0.0,0.0,-0.0007201664266176522,0.0015564362984150648,0.0016784113831818104,0.9990965723991394,0.0,0.0,0.0,0.3776799142360687,10.26610279083252,2.207679033279419,-68.3608169555664,0
1225.7019999999993,-0.00011496178922243416,-0.0001464664819650352,-1.759762926667463e-05,0.0,0.0,0.0,0.0,2.2175334379426204e-05,-0.003971871919929981,-0.0009837058605626225,0.9997856616973877,0.0,0.0,0.0,0.36259567737579346,10.27090072631836,2.200150728225708,-65.63053894042969,0
1235.5849999999991,-4.036313475808129e-05,-4.760294177685864e-05,-8.993398660095409e-05,0.0,0.0,0.0,0.0,-0.00229073129594326,-0.0009726315038278699,-0.001886896789073944,0.9987090826034546,0.0,0.0,0.0,0.3734542727470398,10.284364700317383,2.221787929534912,-67.59596252441406,0
1245.4660000000003,-5.806500848848373e-05,-0.00010535964247537777,-9.630264685256407e-05,0.0,0.0,0.0,0.0,9.651455911807716e-05,0.0036222918424755335,-0.0008669678354635835,0.9986603856086731,0.0,0.0,0.0,0.36488470435142517,10.270886421203613,2.2212367057800293,-66.04486083984375,0
1255.348,-3.431282675592229e-05,-5.27284100826364e-05,-0.00010928745905403048,0.0,0.0,0.0,0.0,-0.0034912931732833385,-0.004635377787053585,0.0025501868221908808,0.9988018870353699,0.0,0.0,0.0,0.3752823770046234,10.28573226928711,2.2229807376861572,-67.92684936523438,0
1265.2430000000004,-6.381939601851627e-05,-7.304822065634653e-05,-0.00010709056368796155,0.0,0.0,0.0,0.0,0.00025308592012152076,0.0008198903524316847,-0.0011566751636564732,0.9992896318435669,0.0,0.0,0.0,0.3639899790287018,10.282259941101074,2.2161641120910645,-65.88290405273438,0
1275.116,-9.238487837137654e-05,-0.00011899801029358059,-8.348542905878276e-05,0.0,0.0,0.0,0.0,-0.0016863471828401089,0.0009502722532488406,0.002233348088338971,1.0008752346038818,0.0,0.0,0.0,0.37754976749420166,10.273337364196777,2.2182695865631104,-68.3372573852539,0
1285.018,-9.845574822975323e-05,-0.00015339982928708196,-7.284646562766284e-05,0.0,0.0,0.0,0.0,0.0006165342056192458,-0.004583562258630991,-0.0017830621218308806,1.0030367374420166,0.0,0.0,0.0,0.3633030652999878,10.26788330078125,2.2125632762908936,-65.75857543945312,0
1294.8960000000006,-0.00014788024418521672,-0.00021194666624069214,-7.005488441791385e-06,0.0,0.0,0.0,0.0,-0.00050375796854496,0.0056273736990988255,0.002380314050242305,1.0002449750900269,0.0,0.0,0.0,0.3764813542366028,10.258430480957031,2.229660987854004,-68.14387512207031,0
1304.7700000000004,-0.00019089084526058286,-0.00023056671489030123,8.206594429793768e-06,0.0,0.0,0.0,0.0,-0.004010429140180349,-0.0043872962705791,0.0009488716605119407,1.0000393390655518,0.0,0.0,0.0,0.3630882203578949,10.25954818725586,2.213803291320801,-65.71968841552734,0
1314.6630000000005,-0.00021258271590340883,-0.00024967369972728193,4.9031717935577035e-05,0.0,0.0,0.0,0.0,-8.287624950753525e-05,-0.0012763624545186758,-0.0006264764815568924,0.9991891384124756,0.0,0.0,0.0,0.37350547313690186,10.263078689575195,2.207369804382324,-67.60523986816406,0
1324.5339999999997,-0.00023604159650858492,-0.00026698681176640093,7.544790423708037e-05,0.0,0.0,0.0,0.0,-0.002711508423089981,-0.0005893309717066586,0.0007827319786883891,0.9979783892631531,0.0,0.0,0.0,0.3594210743904114,10.263152122497559,2.2044296264648438,-65.05592346191406,0
1334.4249999999993,-0.00018404117145109922,-0.0001981489040190354,3.833506707451306e-05,0.0,0.0,0.0,0.0,0.0015250162687152624,-2.754764182100189e-06,0.0006081752362661064,0.9976028800010681,0.0,0.0,0.0,0.36934196949005127,10.267526626586914,2.2064831256866455,-66.85163116455078,0
1344.3089999999993,-0.00020218500867486,-0.00024161700275726616,5.0444272346794605e-05,0.0,0.0,0.0,0.0,-0.0018654909217730165,-0.003220275277271867,-0.0007849931134842336,0.9997908473014832,0.0,0.0,0.0,0.3557959794998169,10.257357597351074,2.2015299797058105,-64.3997802734375,0
1354.1949999999997,-0.00012934721598867327,-0.0001301005540881306,-4.407797405292513e-06,0.0,0.0,0.0,0.0,-4.3884123442694545e-05,0.003976902458816767,0.0019263561116531491,0.9991409182548523,0.0,0.0,0.0,0.37080976366996765,10.27144718170166,2.223414659500122,-67.1173095703125,0
1364.0769999999993,-0.00016540611977688968,-0.00018651850405149162,-9.092609616345726e-06,0.0,0.0,0.0,0.0,-0.0018092250684276223,-0.0007787575596012175,0.002104532904922962,1.0000203847885132,0.0,0.0,0.0,0.3549840450286865,10.263588905334473,2.209653377532959,-64.25282287597656,0
1373.9770000000008,-0.00011025780986528844,-9.192511788569391e-05,-4.912795702693984e-05,0.0,0.0,0.0,0.0,0.0016728953924030066,-0.0002063754218397662,0.002095238771289587,1.0009838342666626,0.0,0.0,0.0,0.36970779299736023,10.281756401062012,2.223869562149048,-66.9178466796875,0
1383.8520000000008,-0.00010079315688926727,-0.00014847979764454067,-4.246092066750862e-05,0.0,0.0,0.0,0.0,0.0007529306458309293,-0.0068720499984920025,-0.0003321536350995302,0.9992347955703735,0.0,0.0,0.0,0.3599112033843994,10.265986442565918,2.220038890838623,-65.14464569091797,0
1393.7340000000004,-2.967064756376203e-05,-4.760184674523771e-05,-0.00011005830310750753,0.0,0.0,0.0,0.0,-0.0007708362536504865,-0.0057666730135679245,0.0014911844627931714,0.9975386261940002,0.0,0.0,0.0,0.37161290645599365,10.2762451171875,2.2455499172210693,-67.2626724243164,0
1403.6180000000004,-5.708514072466642e-05,-0.00010845017823157832,-0.00012381799751892686,0.0,0.0,0.0,0.0,-0.001628182828426361,0.004513066727668047,-0.0018812956986948848,0.9979623556137085,0.0,0.0,0.0,0.36112552881240845,10.26754379272461,2.256732940673828,-65.36444091796875,0
1413.5040000000008,-1.1004306543327402e-05,-3.925460623577237e-05,-0.0001694716338533908,0.0,0.0,0.0,0.0,-0.00034739854163490236,0.0011892365291714668,0.0024486088659614325,1.0012067556381226,0.0,0.0,0.0,0.3785454034805298,10.28222370147705,2.2524044513702393,-68.51746368408203,0
1423.3809999999994,-4.3599218770395964e-05,-7.488281698897481e-05,-0.00017967876920010895,0.0,0.0,0.0,0.0,0.0017680791206657887,0.0015046922490000725,0.003568788291886449,0.9991914629936218,0.0,0.0,0.0,0.3630707561969757,10.2760009765625,2.2460145950317383,-65.7165298461914,0
1433.2839999999997,-4.117136268178001e-05,-5.1927952881669626e-05,-0.00017208774806931615,0.0,0.0,0.0,0.0,-0.0011568074114620686,-0.004296670667827129,0.00041939373477362096,0.9999579191207886,0.0,0.0,0.0,0.38173311948776245,10.269164085388184,2.2515101432800293,-69.09445190429688,0
1443.1540000000005,-6.15280878264457e-05,-6.308940646704286e-05,-0.00016829838568810374,0.0,0.0,0.0,0.0,0.002959155710414052,8.581278962083161e-05,-0.001901716459542513,1.0003771781921387,0.0,0.0,0.0,0.3732812702655792,10.270268440246582,2.2462148666381836,-67.56465148925781,0
1453.0460000000003,-0.00010394123091828078,-9.578304889146239e-05,-0.000106647057691589,0.0,0.0,0.0,0.0,-0.001964326947927475,0.0016638024244457483,0.001493684365414083,0.9981217980384827,0.0,0.0,0.0,0.38653984665870667,10.261513710021973,2.2458276748657227,-69.9644775390625,0
1462.9300000000003,-9.54151400947012e-05,-0.00016680314729455858,-0.00010783632023958489,0.0,0.0,0.0,0.0,-0.0001197729870909825,0.0030240407213568687,-0.003252991707995534,0.9972529411315918,0.0,0.0,0.0,0.37823861837387085,10.249724388122559,2.2441999912261963,-68.4619369506836,0
1472.8109999999997,-0.00014831082080490887,-0.00021796983492095023,-3.6969591747038066e-05,0.0,0.0,0.0,0.0,0.00035095380735583603,0.00028683204436674714,-0.0038010715506970882,0.9981208443641663,0.0,0.0,0.0,0.38943061232566833,10.243301391601562,2.2330849170684814,-70.48771667480469,0
1482.696,-0.0001705253671389073,-0.00024282385129481554,-1.6220437828451395e-05,0.0,0.0,0.0,0.0,-0.00040856690611690283,0.0025810108054429293,-0.002376302843913436,1.0012996196746826,0.0,0.0,0.0,0.3706566393375397,10.237072944641113,2.218209743499756,-67.08958435058594,0
1492.5830000000005,-0.0001661386340856552,-0.0002247118973173201,-1.2898379281978123e-05,0.0,0.0,0.0,0.0,0.0016984011745080352,-0.005063316319137812,0.0040122224017977715,0.9993983507156372,0.0,0.0,0.0,0.38188645243644714,10.239893913269043,2.2171738147735596,-69.12220764160156,0
1502.4590000000007,-0.00019196933135390282,-0.0002443564007990062,8.238619557232596e-06,0.0,0.0,0.0,0.0,-0.0008810822037048638,0.0027870687190443277,0.0023950564209371805,1.000028133392334,0.0,0.0,0.0,0.3699921667575836,10.237929344177246,2.2304673194885254,-66.96932220458984,0
1512.366,-0.00020510210015345365,-0.00025591839221306145,3.175095480401069e-05,0.0,0.0,0.0,0.0,0.001498295459896326,0.00037175079341977835,7.958563946885988e-05,0.9995325207710266,0.0,0.0,0.0,0.37945714592933655,10.235811233520508,2.2219696044921875,-68.6824951171875,0
1522.232,-0.00018217465549241751,-0.00027914688689634204,7.430114055750892e-05,0.0,0.0,0.0,0.0,-0.00038371930713765323,-0.0012440963182598352,0.0029933496844023466,1.0028175115585327,0.0,0.0,0.0,0.36419862508773804,10.231598854064941,2.224501848220825,-65.92066955566406,0
1532.1219999999994,-0.00010421773913549259,-0.00015137263108044863,1.6361042071366683e-05,0.0,0.0,0.0,0.0,0.0010442347265779972,-0.0022844397462904453,0.0026994203217327595,0.999000072479248,0.0,0.0,0.0,0.38076043128967285,10.250692367553711,2.233935832977295,-68.91839599609375,0
1541.9969999999994,-0.00016517862968612462,-0.0001946915581356734,1.902543954201974e-05,0.0,0.0,0.0,0.0,0.00284494343213737,0.0006671170121990144,-0.0026578737888485193,0.9994526505470276,0.0,0.0,0.0,0.36802437901496887,10.244369506835938,2.2245306968688965,-66.6131362915039,0
1551.8889999999992,-0.00012573474668897688,-0.00016425568901468068,-2.7232934371568263e-05,0.0,0.0,0.0,0.0,0.0019054808653891087,0.003739567706361413,-0.000783684547059238,0.9989092350006104,0.0,0.0,0.0,0.3790145814418793,10.2494478225708,2.2345776557922363,-68.60238647460938,0
1561.7690000000002,-0.00012785747821908444,-0.00020519702229648829,-9.197585313813761e-06,0.0,0.0,0.0,0.0,-0.0007949367281980813,0.0038732627872377634,7.353458204306662e-05,0.998636782169342,0.0,0.0,0.0,0.37027686834335327,10.23941421508789,2.2317144870758057,-67.0208511352539,0
1571.6710000000003,-7.439622277161106e-05,-0.00012970449461136013,-5.887971929041669e-05,0.0,0.0,0.0,0.0,-0.0019368513021618128,-0.00247846357524395,-0.0003707219148054719,1.000124216079712,0.0,0.0,0.0,0.3781828284263611,10.250520706176758,2.244189977645874,-68.45184326171875,0
1581.536,-0.00011052143236156553,-0.00017524926806800067,-5.724941365770064e-05,0.0,0.0,0.0,0.0,0.0014840943040326238,0.007487816270440817,-0.0010107019916176796,0.998294472694397,0.0,0.0,0.0,0.367330402135849,10.246843338012695,2.2224225997924805,-66.4875259399414,0
1591.429,-7.874012226238847e-05,-0.00011871625611092895,-8.210401574615389e-05,0.0,0.0,0.0,0.0,0.0009068633080460131,0.003725218353793025,0.0015144618228077888,0.9977318048477173,0.0,0.0,0.0,0.37907665967941284,10.247635841369629,2.217710256576538,-68.6136245727539,0
1601.313,-0.00013288238551467657,-0.00016702315770089626,-8.600608998676762e-05,0.0,0.0,0.0,0.0,0.002474501496180892,0.0026507254224270582,-0.002446850063279271,0.9989773631095886,0.0,0.0,0.0,0.36392292380332947,10.24151611328125,2.1966500282287598,-65.87077331542969,0
1611.1980000000003,-0.00015647662803530693,-0.00022437531151808798,-8.893847552826628e-05,0.0,0.0,0.0,0.0,-0.0017191310180351138,0.0007709994097240269,-0.00041416430030949414,0.9983915090560913,0.0,0.0,0.0,0.36302122473716736,10.22880744934082,2.1953816413879395,-65.70755767822266,0
1621.0779999999995,-0.00014875545457471162,-0.0002302897337358445,-6.859751738375053e-05,0.0,0.0,0.0,0.0,-0.003042814088985324,-0.0020449236035346985,-6.66127962176688e-05,1.000832438468933,0.0,0.0,0.0,0.348466694355011,10.230731010437012,2.1846132278442383,-63.07316589355469,0
1630.9789999999994,-0.00011382119555491954,-0.0001869754632934928,-0.0001345394557574764,0.0,0.0,0.0,0.0,0.0009221112704835832,0.004307173192501068,0.001869233907200396,0.994169294834137,0.0,0.0,0.0,0.36054757237434387,10.242558479309082,2.188335657119751,-65.25983428955078,0
1640.857,-0.00012519443407654762,-0.00020400126231834292,-0.00011871943570440635,0.0,0.0,0.0,0.0,-0.0010292647639289498,-0.006663206499069929,0.0008271061815321445,0.9973412156105042,0.0,0.0,0.0,0.3543957769870758,10.245485305786133,2.18843674659729,-64.1463394165039,0
1650.741,-9.076559217646718e-05,-0.00013325050531420857,-0.00016464703367091715,0.0,0.0,0.0,0.0,7.769645890221e-05,-0.0018230160931125283,-0.004878721199929714,0.9981655478477478,0.0,0.0,0.0,0.36592209339141846,10.263039588928223,2.1944620609283447,-66.23262786865234,0
1660.6129999999994,-9.485827467869967e-05,-0.0001748621289152652,-0.00016419164603576064,0.0,0.0,0.0,0.0,-0.0014626436168327928,-0.002479119459167123,0.005194096360355616,0.9990671873092651,0.0,0.0,0.0,0.3573280870914459,10.253498077392578,2.205338716506958,-64.67709350585938,0
1670.5120000000006,-8.515156514476985e-05,-0.00012536405120044947,-0.00017573896911926568,0.0,0.0,0.0,0.0,-0.0013770990772172809,-0.00014450836169999093,-0.0003180276835337281,0.9999760389328003,0.0,0.0,0.0,0.370301216840744,10.266831398010254,2.2099671363830566,-67.02526092529297,0
1680.3889999999992,-9.456131374463439e-05,-0.00017295028374064714,-0.00017838347412180156,0.0,0.0,0.0,0.0,-0.00304469489492476,0.003090738318860531,-0.0001624466385692358,0.9981128573417664,0.0,0.0,0.0,0.3611263632774353,10.263961791992188,2.2058582305908203,-65.36459350585938,0
1690.2739999999994,-0.000120888689707499,-0.0001863173529272899,-0.00016545203106943518,0.0,0.0,0.0,0.0,-0.0005794916651211679,-0.00019456319569144398,-0.0014731349656358361,1.0005338191986084,0.0,0.0,0.0,0.3744758665561676,10.265503883361816,2.204005718231201,-67.78087615966797,0
1700.1540000000005,-0.0001255011884495616,-0.0001809241366572678,-0.00013799246517010033,0.0,0.0,0.0,0.0,-0.0008264845819212496,-0.002596505917608738,0.0007148621953092515,0.9997017979621887,0.0,0.0,0.0,0.3589542806148529,10.268309593200684,2.1991324424743652,-64.971435546875,0
1710.049000000001,-0.00014616400585509837,-0.00018737321079242975,-0.00013250584015622735,0.0,0.0,0.0,0.0,-0.0005975249223411083,0.0011818999191746116,-0.0021548261865973473,0.9987683892250061,0.0,0.0,0.0,0.36848512291908264,10.262775421142578,2.209392547607422,-66.69654083251953,0
1719.9220000000005,-0.00018266544793732464,-0.00018151706899516284,-0.00011216173152206466,0.0,0.0,0.0,0.0,0.0012310192687436938,0.003888271050527692,-0.0009236222831532359,1.0003275871276855,0.0,0.0,0.0,0.355857253074646,10.270615577697754,2.214357614517212,-64.41087341308594,0
1729.8140000000003,-0.00022811121016275138,-0.00020827515982091427,-7.15377027518116e-05,0.0,0.0,0.0,0.0,-0.0005137028056196868,0.0027032734360545874,0.0017292622942477465,0.998405396938324,0.0,0.0,0.0,0.3687511682510376,10.262899398803711,2.1951918601989746,-66.74469757080078,0
1739.691999999999,-0.00019126055121887475,-0.00022308471670839936,-3.061083407374099e-05,0.0,0.0,0.0,0.0,0.001285059959627688,0.004238184075802565,0.00014603852469008416,0.9989992380142212,0.0,0.0,0.0,0.3594835102558136,10.25671100616455,2.199751615524292,-65.06723022460938,0
1749.5869999999995,-0.00018414887017570436,-0.00019033384160138667,-4.339378938311711e-05,0.0,0.0,0.0,0.0,0.0002711946435738355,0.004282667301595211,0.0012371082557365298,1.0004615783691406,0.0,0.0,0.0,0.3716888427734375,10.254525184631348,2.1944515705108643,-67.27641296386719,0
1759.4609999999993,-0.00017355520685669035,-0.00019754545064643025,-6.179661795613356e-06,0.0,0.0,0.0,0.0,-0.0012199556222185493,-0.0008097483078017831,-0.0007809093804098666,0.9986843466758728,0.0,0.0,0.0,0.36346063017845154,10.253533363342285,2.191725730895996,-65.78709411621094,0
1769.3610000000008,-0.00012661534128710628,-0.00011017151700798422,-5.252860501059331e-05,0.0,0.0,0.0,0.0,-0.0007146673160605133,-0.0029161267448216677,-0.0024547670036554337,0.9986473321914673,0.0,0.0,0.0,0.3761400282382965,10.263834953308105,2.1971898078918457,-68.08209991455078,0
1779.2309999999998,-7.75160442572087e-05,-0.0001813670969568193,-3.0358929507201537e-05,0.0,0.0,0.0,0.0,0.0013668423052877188,-0.006466766353696585,-0.004671996459364891,0.9990122318267822,0.0,0.0,0.0,0.3660779297351837,10.256664276123047,2.2011730670928955,-66.26083374023438,0
1789.1290000000008,-2.2964381059864536e-05,-0.00010092700540553778,-9.087906801141798e-05,0.0,0.0,0.0,0.0,0.003102223388850689,-0.00045686980593018234,0.0022236339282244444,0.9999757409095764,0.0,0.0,0.0,0.3809049427509308,10.26398754119873,2.2190279960632324,-68.9445571899414,0
1798.9989999999998,-7.259915582835674e-05,-0.00015128045924939215,-9.578427852829918e-05,0.0,0.0,0.0,0.0,-0.0008141158614307642,0.002208732534199953,-0.002215656219050288,1.0002774000167847,0.0,0.0,0.0,0.37132951617240906,10.25448989868164,2.2166008949279785,-67.21137237548828,0
1808.8940000000002,-2.976377072627656e-05,-8.57599443406798e-05,-0.00014860802912153304,0.0,0.0,0.0,0.0,0.0006421052967198193,-0.0012207974214106798,-0.0052308072336018085,0.9992972612380981,0.0,0.0,0.0,0.3861144185066223,10.262443542480469,2.2240679264068604,-69.88748168945312,0
1818.7690000000002,-8.548654295736924e-05,-0.00011877012730110437,-0.0001506071275798604,0.0,0.0,0.0,0.0,0.004261269699782133,0.00353488652035594,0.0016953607555478811,0.998770534992218,0.0,0.0,0.0,0.3768959641456604,10.262024879455566,2.2131922245025635,-68.21891784667969,0
1828.6599999999999,-7.684748561587185e-05,-8.568177872803062e-05,-0.00016460353799629956,0.0,0.0,0.0,0.0,0.001385307521559298,0.0016317174304276705,-0.003079475834965706,0.9967254996299744,0.0,0.0,0.0,0.38853803277015686,10.26594352722168,2.210278034210205,-70.32616424560547,0
1838.5390000000007,-8.837534551275894e-05,-0.00013470443082042038,-0.00015722509124316275,0.0,0.0,0.0,0.0,-0.004199910443276167,-0.0020170542411506176,0.0029511586762964725,0.9974023699760437,0.0,0.0,0.0,0.3735748827457428,10.26179313659668,2.2024552822113037,-67.6177978515625,0
1848.4339999999993,-8.210216037696227e-05,-0.00010848364036064595,-0.00016718822007533163,0.0,0.0,0.0,0.0,-0.0013672569766640663,-0.0007483673398382962,-0.000437871553003788,0.9972367286682129,0.0,0.0,0.0,0.3840612769126892,10.266111373901367,2.1964950561523438,-69.51585388183594,0
1858.3070000000007,-8.790037827566266e-05,-0.00013955720351077616,-0.00015612691640853882,0.0,0.0,0.0,0.0,0.0012363627320155501,-0.0018319047521799803,-0.0014670531963929534,0.9984803199768066,0.0,0.0,0.0,0.3749994933605194,10.26446533203125,2.204479455947876,-67.87565612792969,0
1868.205,-8.071910997387022e-05,-0.00010722222941694781,-0.00016828224761411548,0.0,0.0,0.0,0.0,-0.0005973587394692004,0.0024287935812026262,-0.004857828374952078,1.0013704299926758,0.0,0.0,0.0,0.3873511254787445,10.269618034362793,2.201139211654663,-70.111328125,0
1878.08,-0.00016094250895548612,-0.00014364589878823608,-0.0001835221191868186,0.0,0.0,0.0,0.0,0.0007944659446366131,0.0029639487620443106,5.001415411243215e-05,1.0010192394256592,0.0,0.0,0.0,0.37754589319229126,10.260823249816895,2.1929266452789307,-68.33655548095703,0
1887.9689999999991,-0.00018812602502293885,-0.00016959676577243954,-0.0001728097122395411,0.0,0.0,0.0,0.0,0.001792347989976406,0.0030903674196451902,-0.004120498895645142,1.0003982782363892,0.0,0.0,0.0,0.38605964183807373,10.25545883178711,2.185917377471924,-69.8775634765625,0
1897.848,-0.00014794613525737077,-0.00019921343482565135,-0.00013912167923990637,0.0,0.0,0.0,0.0,-0.0019094052258878946,-0.0031681768596172333,0.0002339750644750893,0.9978504180908203,0.0,0.0,0.0,0.37526533007621765,10.25329875946045,2.1874067783355713,-67.92377471923828,0
1907.7440000000006,-0.0001937839697347954,-0.00023445764963980764,-8.900962711777538e-05,0.0,0.0,0.0,0.0,-0.00159302051179111,-0.007990110665559769,-0.0031247588340193033,0.999259352684021,0.0,0.0,0.0,0.38620468974113464,10.24921989440918,2.1944077014923096,-69.90381622314453,0
1917.616,-0.00017825655231717974,-0.0002405454870313406,-4.7251822252292186e-05,0.0,0.0,0.0,0.0,-0.0024436460807919502,-0.0006372226634994149,-0.0019507898250594735,0.9972597360610962,0.0,0.0,0.0,0.37560340762138367,10.251860618591309,2.2023983001708984,-67.9849624633789,0
1927.5169999999998,-0.00020471596508286893,-0.0002520460984669626,-1.2258136848686263e-05,0.0,0.0,0.0,0.0,-0.003105642506852746,-0.0015877920668572187,-0.001084218849427998,0.9974369406700134,0.0,0.0,0.0,0.3872602880001068,10.258573532104492,2.2098548412323,-70.09488677978516,0
1937.393,-0.0001866240199888125,-0.000278592313406989,2.5848306904663332e-05,0.0,0.0,0.0,0.0,-0.0019110087305307388,0.00379051361232996,0.0006447824998758733,1.0005298852920532,0.0,0.0,0.0,0.3768008053302765,10.260499954223633,2.215923547744751,-68.20169067382812,0
1947.2839999999997,-0.00020128976029809564,-0.0002819540968630463,4.735124093713239e-05,0.0,0.0,0.0,0.0,-0.0013730517821386456,0.002513797953724861,-0.0007901617791503668,0.9985064268112183,0.0,0.0,0.0,0.38637784123420715,10.267078399658203,2.205897092819214,-69.9351577758789,0
1957.161,-0.00020073840278200805,-0.0002940041304100305,8.783377415966243e-05,0.0,0.0,0.0,0.0,0.004108373075723648,-0.0006682116654701531,-0.0019344667671248317,1.000133991241455,0.0,0.0,0.0,0.3765639066696167,10.273836135864258,2.2025082111358643,-68.15882110595703,0
1967.0470000000005,-0.00017849556752480567,-0.0002656717842910439,6.243247480597347e-05,0.0,0.0,0.0,0.0,0.0020474314223974943,-0.002084298525005579,0.0014970037154853344,1.0017863512039185,0.0,0.0,0.0,0.3834345042705536,10.269438743591309,2.210054636001587,-69.40241241455078,0
1976.9249999999993,-0.00018896693654824048,-0.0003091863472945988,8.549368067178875e-05,0.0,0.0,0.0,0.0,-0.00016791360394563526,-0.007017666473984718,0.0007992380997166038,0.997697651386261,0.0,0.0,0.0,0.3837879002094269,10.25464153289795,2.2079250812530518,-69.46637725830078,0
1986.8189999999995,-0.00019056297605857253,-0.00029000508948229253,9.919246076606214e-05,0.0,0.0,0.0,0.0,0.0007013290305621922,0.0011791802244260907,-0.0021125166676938534,0.9982884526252747,0.0,0.0,0.0,0.3917163610458374,10.259057998657227,2.215104818344116,-70.90144348144531,0
1996.691999999999,-0.00021183374337852,-0.0003329252067487687,0.00012203583173686638,0.0,0.0,0.0,0.0,-0.0019735863897949457,0.0012606045929715037,-0.004059311933815479,0.9989749789237976,0.0,0.0,0.0,0.3837476074695587,10.254579544067383,2.216069221496582,-69.4590835571289,0
2006.5859999999993,-0.0001706464245216921,-0.0002667429216671735,7.882300997152925e-05,0.0,0.0,0.0,0.0,-0.0016341765876859426,0.002000542590394616,-0.0005163040477782488,0.9976433515548706,0.0,0.0,0.0,0.3902423679828644,10.270092010498047,2.2131576538085938,-70.6346435546875,0
2016.4619999999995,-0.00018465450557414442,-0.00032416480826213956,9.52339032664895e-05,0.0,0.0,0.0,0.0,-0.0010338161373510957,-0.0025801213923841715,-0.002507341792806983,0.9987624883651733,0.0,0.0,0.0,0.38106977939605713,10.268394470214844,2.2091634273529053,-68.9743881225586,0
2026.3559999999998,-0.0001184338252642192,-0.00024181327898986638,1.1147373697895091e-05,0.0,0.0,0.0,0.0,0.0007943839300423861,0.006022279616445303,0.00010961053339997306,0.9990283250808716,0.0,0.0,0.0,0.3923167288303375,10.283949851989746,2.2326183319091797,-71.0101089477539,0
2036.2350000000006,-0.00015200812777038664,-0.0002786795375868678,2.301081440236885e-05,0.0,0.0,0.0,0.0,-0.00288287247531116,0.0015516876010224223,0.0010585765121504664,0.9971241354942322,0.0,0.0,0.0,0.38303452730178833,10.281270980834961,2.2314000129699707,-69.33000946044922,0
2046.1270000000004,-6.440764263970777e-05,-0.00015317794168367982,-8.370960131287575e-05,0.0,0.0,0.0,0.0,0.0042718867771327496,0.005179957952350378,0.0002082167484331876,1.0001949071884155,0.0,0.0,0.0,0.39180049300193787,10.30987548828125,2.236778974533081,-70.91666412353516,0
2056.0030000000006,-0.00010592848411761224,-0.00018769864982459694,-8.403502579312772e-05,0.0,0.0,0.0,0.0,0.0003265867999289185,0.004349187947809696,-5.090346894576214e-05,0.9998077154159546,0.0,0.0,0.0,0.3841102421283722,10.306265830993652,2.2248270511627197,-69.52472686767578,0
2065.8940000000002,-3.975640720454976e-05,-5.361247167456895e-05,-0.00015192109276540577,0.0,0.0,0.0,0.0,-0.0006904193433001637,0.0012778957607224584,0.00047564131091348827,0.9997004866600037,0.0,0.0,0.0,0.39653143286705017,10.327513694763184,2.230863332748413,-71.77297973632812,0
2075.7700000000004,-8.383327804040164e-05,-0.00010482378274900839,-0.00016524939564988017,0.0,0.0,0.0,0.0,0.000944120401982218,-0.003049097955226898,5.0447924877516925e-05,1.000443458557129,0.0,0.0,0.0,0.3858514130115509,10.317985534667969,2.2161409854888916,-69.83987426757812,0
2085.661,-5.015741044189781e-05,-4.278340929886326e-05,-0.00022404045739676803,0.0,0.0,0.0,0.0,0.00011221703607589006,0.003932963591068983,0.00087516795611009,0.9974721670150757,0.0,0.0,0.0,0.3975544571876526,10.325048446655273,2.236217975616455,-71.9581527709961,0
2095.5390000000007,-6.624435627600178e-05,-0.00011390128202037886,-0.00024078447313513607,0.0,0.0,0.0,0.0,-0.0002167270431527868,0.001186476438306272,-0.00226750411093235,0.9992966651916504,0.0,0.0,0.0,0.3883568048477173,10.311115264892578,2.2287516593933105,-70.29335021972656,0
2105.429,-3.495465716696344e-05,-2.9138986064936034e-05,-0.00028393822140060365,0.0,0.0,0.0,0.0,-0.0005241442704573274,0.0002600506995804608,-0.0007195050711743534,0.9989498257637024,0.0,0.0,0.0,0.39664459228515625,10.322602272033691,2.228499412536621,-71.79345703125,0
2115.3160000000007,-4.701433499576524e-05,-6.565698276972398e-05,-0.00028662075055763125,0.0,0.0,0.0,0.0,0.0003540023462846875,-0.005731531418859959,0.0020098926033824682,0.9987048506736755,0.0,0.0,0.0,0.385982483625412,10.316640853881836,2.226219892501831,-69.86359405517578,0
2125.200999999999,-7.1063703217078e-05,-6.605543603654951e-05,-0.0002740857598837465,0.0,0.0,0.0,0.0,0.00019363216415513307,-0.0024148800875991583,0.0007627240847796202,0.9964035749435425,0.0,0.0,0.0,0.4009973406791687,10.314225196838379,2.244946002960205,-72.58131408691406,0
2135.0789999999997,-7.617494702572003e-05,-9.066090569831431e-05,-0.0002695655566640198,0.0,0.0,0.0,0.0,0.0016739161219447851,0.000465589837403968,-0.002216373337432742,0.9968386888504028,0.0,0.0,0.0,0.3914070427417755,10.311302185058594,2.2461295127868652,-70.84545135498047,0
2144.9660000000003,-0.00012432060611899942,-0.00013981039228383452,-0.00023729591339360923,0.0,0.0,0.0,0.0,0.0014762576902285218,0.0018448035698384047,0.001956535968929529,0.9971088171005249,0.0,0.0,0.0,0.40140247344970703,10.29687213897705,2.2465789318084717,-72.65464782714844,0
2154.848,-0.00011709514365065843,-0.00017249005031771958,-0.00023191671061795205,0.0,0.0,0.0,0.0,-0.0014955991646274924,0.00754907913506031,-0.002057350240647793,0.9999382495880127,0.0,0.0,0.0,0.3923669159412384,10.297253608703613,2.2499985694885254,-71.0191879272461,0
2164.7350000000006,-0.00018252970767207444,-0.00022765310131944716,-0.00016477891767863184,0.0,0.0,0.0,0.0,0.0009399700211361051,0.0012554958229884505,0.002688824199140072,0.9972106218338013,0.0,0.0,0.0,0.4033346474170685,10.2863187789917,2.2376933097839355,-73.0043716430664,0
2174.617,-0.00014442669635172933,-0.00021150281827431172,-0.00012258125934749842,0.0,0.0,0.0,0.0,-0.003095557214692235,-0.008031041361391544,-0.0010262697469443083,0.9990663528442383,0.0,0.0,0.0,0.39464911818504333,10.290458679199219,2.2257254123687744,-71.4322738647461,0
2184.5069999999996,-0.00015777918451931328,-0.00022103855735622346,-0.00011281505430815741,0.0,0.0,0.0,0.0,-0.002529516350477934,0.001574352034367621,0.004165284801274538,1.0008389949798584,0.0,0.0,0.0,0.40399718284606934,10.293548583984375,2.2428174018859863,-73.1242904663086,0
2194.3860000000004,-0.00020124547882005572,-0.00021267942793201655,-9.436446998734027e-05,0.0,0.0,0.0,0.0,-0.0005551206413656473,0.005822786130011082,0.0015811994671821594,1.0000373125076294,0.0,0.0,0.0,0.39051368832588196,10.297500610351562,2.2307653427124023,-70.68374633789062,0
2204.2710000000006,-0.0002064940781565383,-0.00021382016711868346,-9.350010077469051e-05,0.0,0.0,0.0,0.0,-0.000991640379652381,0.0023075260687619448,9.114442218560725e-05,0.9995415806770325,0.0,0.0,0.0,0.39891913533210754,10.296781539916992,2.222299814224243,-72.20516204833984,0
2214.156000000001,-0.00015475210966542363,-0.00022908797836862504,-5.2094397688051686e-05,0.0,0.0,0.0,0.0,0.0030527806375175714,0.003639385337010026,-0.0017561546992510557,1.0022618770599365,0.0,0.0,0.0,0.38747653365135193,10.297819137573242,2.2226946353912354,-70.13402557373047,0
2224.0419999999995,-0.0001575438946019858,-0.00023844491806812584,-4.595891005010344e-05,0.0,0.0,0.0,0.0,-0.0018107948126271367,-0.0005185725167393684,-0.0013752877712249756,0.9992313981056213,0.0,0.0,0.0,0.39419451355934143,10.28834056854248,2.214062452316284,-71.34998321533203,0
2233.9249999999993,-0.00014249591913539916,-0.0002789413556456566,-2.1762369215139188e-05,0.0,0.0,0.0,0.0,-0.0008227768121287227,-0.0003354088112246245,-0.0008819378563202918,1.0012484788894653,0.0,0.0,0.0,0.38516443967819214,10.285282135009766,2.2053990364074707,-69.71553039550781,0
