timestamp,stateEstimate.x,stateEstimate.y,stateEstimate.z,controller.cmd_thrust,controller.cmd_roll,controller.cmd_pitch,controller.cmd_yaw,controller.r_roll,controller.r_pitch,controller.r_yaw,controller.accelz,controller.actuatorThrust,controller.roll,controller.pitch,controller.yaw,controller.rollRate,controller.pitchRate,controller.yawRate,controller.ctr_yaw
0.0,-0.00015663710655644536,-0.00013416199362836778,-0.00010872767597902566,0.0,0.0,0.0,0.0,-0.003195276716724038,0.0010767930652946234,0.0032401233911514282,0.9991127848625183,0.0,0.0,0.0,0.30444055795669556,3.060164451599121,4.209306240081787,-55.10435104370117,0
9.912000000000262,-0.0001298214338021353,-0.0001531695743324235,-8.416737546212971e-05,0.0,0.0,0.0,0.0,0.0016326187178492546,0.0008104242151603103,-0.0010530222207307816,0.9980660676956177,0.0,0.0,0.0,0.30487146973609924,3.0596282482147217,4.205667495727539,-55.182342529296875,0
19.833999999998923,-0.00015517215069849044,-0.00015435436216648668,-0.00011245375935686752,0.0,0.0,0.0,0.0,-0.004417939577251673,-0.0029964863788336515,0.00247019762173295,1.002648115158081,0.0,0.0,0.0,0.3047056198120117,3.053426504135132,4.1923346519470215,-55.152320861816406,0
29.74200000000019,-0.000145906291436404,-0.00014454947086051106,-8.19535634946078e-05,0.0,0.0,0.0,0.0,-0.00047366053331643343,0.0035592506173998117,1.1536605597939342e-05,0.9995154142379761,0.0,0.0,0.0,0.30530819296836853,3.0570952892303467,4.194849491119385,-55.26138687133789,0
39.65400000000045,-0.0001664735609665513,-0.00014008308062329888,-0.00011512990749906749,0.0,0.0,0.0,0.0,0.001948738587088883,0.0019703563302755356,-0.0019332320662215352,1.0005197525024414,0.0,0.0,0.0,0.31267866492271423,3.0541460514068604,4.188337802886963,-56.595458984375,0
49.55999999999949,-0.00021754720364697278,-0.00015713954053353518,-0.00011392460146453232,0.0,0.0,0.0,0.0,-0.004635223187506199,0.0032344346400350332,0.001005267258733511,0.9996961355209351,0.0,0.0,0.0,0.3125026226043701,3.0500893592834473,4.169532299041748,-56.563594818115234,0
59.47999999999956,-0.00023736686853226274,-0.0001492982846684754,-0.00015195965534076095,0.0,0.0,0.0,0.0,0.0020083640702068806,0.0006950473180040717,0.002659904072061181,1.0001269578933716,0.0,0.0,0.0,0.30585649609565735,3.0606279373168945,4.171634674072266,-55.360633850097656,0
69.39799999999923,-0.00012995771248824894,-0.0001701453438727185,-7.999141234904528e-05,0.0,0.0,0.0,0.0,0.0018516547279432416,0.0031951365526765585,0.001984319183975458,0.9999374151229858,0.0,0.0,0.0,0.30448874831199646,3.05283260345459,4.1606035232543945,-55.11307144165039,0
79.3119999999999,-0.00013321018195711076,-0.00013362508616410196,-0.0001133019759436138,0.0,0.0,0.0,0.0,0.0005372790619730949,-0.003255574032664299,0.0007050619460642338,1.0027672052383423,0.0,0.0,0.0,0.30393320322036743,3.0457305908203125,4.14666223526001,-55.012516021728516,0
89.21399999999994,-0.00012645208335015923,-0.0001521768281236291,-9.146392403636128e-05,0.0,0.0,0.0,0.0,0.0002940744161605835,0.00597641384229064,-0.002145018195733428,1.0002293586730957,0.0,0.0,0.0,0.2937577962875366,3.0410408973693848,4.151544094085693,-53.170745849609375,0
99.14600000000064,-0.00014956845552660525,-0.00014792098954785615,-0.00010963552631437778,0.0,0.0,0.0,0.0,-0.0005820136284455657,-0.0047873444855213165,0.0007681703427806497,1.001197099685669,0.0,0.0,0.0,0.2874622941017151,3.047224760055542,4.145415306091309,-52.031246185302734,0
109.04299999999967,-0.00011806622933363542,-0.0001539282820886001,-7.323449972318485e-05,0.0,0.0,0.0,0.0,-0.00031176520860753953,-0.0018716724589467049,0.0030372138135135174,1.00202214717865,0.0,0.0,0.0,0.2875489592552185,3.0424118041992188,4.143642902374268,-52.046932220458984,0
118.96700000000055,-0.00017675176786724478,-0.0001676649844739586,-4.8703957872930914e-05,0.0,0.0,0.0,0.0,0.0008405653643421829,-0.0028716190718114376,0.001970527460798621,1.000321388244629,0.0,0.0,0.0,0.2820906937122345,3.0482378005981445,4.155179023742676,-51.05897521972656,0
128.8819999999996,-9.064729965757579e-05,-0.00022201432147994637,-5.501422492670827e-06,0.0,0.0,0.0,0.0,-0.00041714662802405655,0.0020816540345549583,0.0009651895961724222,1.000931739807129,0.0,0.0,0.0,0.27147722244262695,3.0411489009857178,4.175572395324707,-49.137916564941406,0
138.79500000000007,-0.00012921227607876062,-0.0002099737903336063,7.467041996278567e-06,0.0,0.0,0.0,0.0,-0.002369516296312213,-0.0027535678818821907,0.0042527648620307446,1.000967264175415,0.0,0.0,0.0,0.2720830738544464,3.0388238430023193,4.168961048126221,-49.247581481933594,0
148.70299999999952,-0.0001781792234396562,-0.00023108453024178743,2.2628915758104995e-05,0.0,0.0,0.0,0.0,-0.0035430395510047674,-0.0023370326962321997,0.0033526543993502855,1.0028735399246216,0.0,0.0,0.0,0.27267852425575256,3.0356531143188477,4.154551029205322,-49.355350494384766,0
158.61499999999978,-0.0001672332000453025,-0.00019636767683550715,-3.560328696039505e-05,0.0,0.0,0.0,0.0,0.00046464032493531704,-0.0045697507448494434,-0.0011996834073215723,0.9998728632926941,0.0,0.0,0.0,0.27261877059936523,3.0406901836395264,4.155351638793945,-49.34453582763672,0
168.52599999999984,-0.0001965189294423908,-0.0002074739895761013,-1.1459311281214468e-05,0.0,0.0,0.0,0.0,0.0007918897899799049,0.001706671086139977,-0.0019915555603802204,1.0000085830688477,0.0,0.0,0.0,0.26613739132881165,3.0386972427368164,4.170472145080566,-48.17140197753906,0
178.44800000000032,-0.0001827434462029487,-0.00016299998969770968,-6.373788346536458e-05,0.0,0.0,0.0,0.0,-0.0029605820309370756,0.006484926678240299,-0.0019436313305050135,1.000867247581482,0.0,0.0,0.0,0.26491492986679077,3.0313477516174316,4.159406661987305,-47.950130462646484,0
188.35199999999895,-0.00014391705917660147,-0.000167553560459055,-1.7597196347196586e-05,0.0,0.0,0.0,0.0,0.0002690081892069429,-0.0045455689541995525,0.004633511416614056,1.0024348497390747,0.0,0.0,0.0,0.26419293880462646,3.0304460525512695,4.15040922164917,-47.81945037841797,0
198.26900000000023,-0.00014620748697780073,-0.0001533769682282582,-5.6057164329104125e-05,0.0,0.0,0.0,0.0,-0.0018899335991591215,0.003044342389330268,0.0033621315378695726,0.9999338984489441,0.0,0.0,0.0,0.2606067955493927,3.034071683883667,4.156108379364014,-47.17034912109375,0
208.1910000000007,-7.184909918578342e-05,-0.0002007519651670009,-1.818592136260122e-05,0.0,0.0,0.0,0.0,-0.0007749848300591111,-0.0013505053939297795,0.000352265196852386,0.9992052912712097,0.0,0.0,0.0,0.26091063022613525,3.031668186187744,4.155639171600342,-47.225341796875,0
218.10100000000057,-7.356961577897891e-05,-0.00019022644846700132,-5.458160740090534e-05,0.0,0.0,0.0,0.0,-0.003101691836491227,-0.002825632691383362,-9.895022230921313e-05,1.0010865926742554,0.0,0.0,0.0,0.2554853558540344,3.039869546890259,4.160396575927734,-46.24335861206055,0
228.0079999999998,-0.00012333535414654762,-0.00017371382273267955,-2.97955448331777e-05,0.0,0.0,0.0,0.0,0.002479584189131856,-0.0006885298062115908,0.004344455897808075,0.9995964765548706,0.0,0.0,0.0,0.2556332051753998,3.0462169647216797,4.166061878204346,-46.270118713378906,0
237.92599999999948,-8.96061392268166e-05,-0.00013519628555513918,-0.0001129594529629685,0.0,0.0,0.0,0.0,0.00023048152797855437,-0.0048380824737250805,-0.0015498832799494267,0.9999365210533142,0.0,0.0,0.0,0.25635942816734314,3.045893907546997,4.166693210601807,-46.40156555175781,0
247.83499999999913,-0.00015298926155082881,-0.00014808021660428494,-0.00011263445776421577,0.0,0.0,0.0,0.0,0.00044323349720798433,-0.006818593945354223,-0.000117435549327638,0.9987200498580933,0.0,0.0,0.0,0.2549148499965668,3.0397887229919434,4.173852920532227,-46.14009475708008,0
257.7489999999998,-0.00012081007298547775,-9.157693421002477e-05,-0.00019313809752929956,0.0,0.0,0.0,0.0,-0.002540948800742626,0.00010401055624242872,-0.0022485628724098206,1.0014971494674683,0.0,0.0,0.0,0.2565264403820038,3.029193639755249,4.182180404663086,-46.431793212890625,0
267.66499999999905,-9.314386261394247e-05,-2.0088660676265135e-05,-0.00021571037359535694,0.0,0.0,0.0,0.0,-0.001687495387159288,-0.0018368636956438422,0.003513674484565854,1.0006276369094849,0.0,0.0,0.0,0.25645336508750916,3.025650978088379,4.17523717880249,-46.41856384277344,0
277.58200000000033,-0.00013845784997101873,-3.6436111258808523e-05,-0.00021712930174544454,0.0,0.0,0.0,0.0,0.0026184250600636005,-0.0027354478370398283,0.0010171449976041913,1.0000628232955933,0.0,0.0,0.0,0.25597232580184937,3.0287678241729736,4.18510103225708,-46.33150100708008,0
287.4930000000004,-0.00011487277515698224,1.0912571042354102e-06,-0.00024257796758320183,0.0,0.0,0.0,0.0,-0.0015669940039515495,0.002479569986462593,0.004001795779913664,0.9999335408210754,0.0,0.0,0.0,0.24982458353042603,3.0283687114715576,4.185303688049316,-45.218746185302734,0
297.40400000000045,-0.0001627300662221387,-1.4872772226226516e-05,-0.00024491531075909734,0.0,0.0,0.0,0.0,0.0017151185311377048,-0.0009827992180362344,-0.00016613244952168316,1.0013048648834229,0.0,0.0,0.0,0.2497764229774475,3.0233612060546875,4.177107334136963,-45.21002960205078,0
307.3269999999993,-0.00011975326196989045,-6.149000546429306e-05,-0.00020874099573120475,0.0,0.0,0.0,0.0,-0.0004230980121064931,-0.0015762749826535583,0.0003105169453192502,0.9991242289543152,0.0,0.0,0.0,0.262056827545166,3.0087945461273193,4.180288314819336,-47.43280792236328,0
317.2399999999998,-0.0001752746757119894,-8.446276478935033e-05,-0.0002080470439977944,0.0,0.0,0.0,0.0,-0.00045499339466914535,0.001149382907897234,-0.001000822288915515,0.9984076619148254,0.0,0.0,0.0,0.2622317373752594,3.008084774017334,4.181408882141113,-47.46446228027344,0
327.15099999999984,-8.751942368689924e-05,-7.374156848527491e-05,-0.0001814809365896508,0.0,0.0,0.0,0.0,0.0015700358198955655,0.0023903436958789825,0.0005245435168035328,1.00028395652771,0.0,0.0,0.0,0.25534138083457947,3.0119762420654297,4.180565357208252,-46.2172966003418,0
337.0609999999997,-0.00013679449330084026,-9.601553756510839e-05,-0.0001799993187887594,0.0,0.0,0.0,0.0,0.0004122840764466673,-0.0006749168387614191,-0.0014954503858461976,1.000736951828003,0.0,0.0,0.0,0.25611743330955505,3.005486488342285,4.179983139038086,-46.357765197753906,0
346.98599999999897,-9.697846689959988e-05,-0.0001102937530959025,-0.00015403311408590525,0.0,0.0,0.0,0.0,0.0008233846165239811,-0.007346107624471188,-0.0006653752061538398,0.9993311762809753,0.0,0.0,0.0,0.26554951071739197,3.004312515258789,4.175500869750977,-48.06498718261719,0
356.8870000000006,-0.00014792864385526627,-0.0001336855348199606,-0.0001499312202213332,0.0,0.0,0.0,0.0,-0.0025158284697681665,-0.0010097782360389829,-0.0013324891915544868,0.9991274476051331,0.0,0.0,0.0,0.26479676365852356,3.0050528049468994,4.178160667419434,-47.928741455078125,0
366.8040000000001,-3.6474688386078924e-05,-0.00015956633433233947,-0.0001236050302395597,0.0,0.0,0.0,0.0,-0.00026013958267867565,-0.001737538492307067,0.005047242622822523,0.9979379177093506,0.0,0.0,0.0,0.27317869663238525,3.0079076290130615,4.17738676071167,-49.445884704589844,0
376.72699999999895,-8.453387999907136e-05,-0.00018289810395799577,-0.00011947118036914617,0.0,0.0,0.0,0.0,-0.002283508190885186,0.000783212308306247,-0.0012584447395056486,1.0010348558425903,0.0,0.0,0.0,0.2738038897514343,3.00873064994812,4.173491477966309,-49.55904769897461,0
386.6319999999996,-7.357072900049388e-05,-0.00017657282296568155,-5.781095023849048e-05,0.0,0.0,0.0,0.0,0.0022716298699378967,0.006599235814064741,-6.549328099936247e-05,0.9999206066131592,0.0,0.0,0.0,0.26536256074905396,3.011824607849121,4.163547992706299,-48.031150817871094,0
396.54299999999967,-0.00012214145681355149,-0.00020011281594634056,-4.98678746225778e-05,0.0,0.0,0.0,0.0,-0.0037374175153672695,-0.0038744439370930195,-0.0019102265359833837,1.00299072265625,0.0,0.0,0.0,0.2661384046077728,3.007798910140991,4.14186429977417,-48.17158508300781,0
406.4589999999989,-8.119981794152409e-05,-0.00016962242079898715,-1.0642292181728408e-05,0.0,0.0,0.0,0.0,0.0004972395836375654,0.0032409902196377516,-0.00044241431169211864,0.9996467232704163,0.0,0.0,0.0,0.2743072211742401,3.019475221633911,4.140843868255615,-49.65015411376953,0
416.3719999999994,-0.00012700582738034427,-0.00019205419812351465,2.7410460461396724e-06,0.0,0.0,0.0,0.0,0.0034612480085343122,0.00015840957348700613,0.0013271706411615014,0.9992461204528809,0.0,0.0,0.0,0.2744113802909851,3.018228769302368,4.127488136291504,-49.669010162353516,0
426.2950000000001,-3.347140591358766e-05,-0.00016331920051015913,-5.122809852764476e-06,0.0,0.0,0.0,0.0,-0.0007390443352051079,-0.0013097902992740273,-0.0006737888907082379,0.9995480179786682,0.0,0.0,0.0,0.28138047456741333,3.0146853923797607,4.1358642578125,-50.93042755126953,0
436.2019999999993,-7.72115308791399e-05,-0.000185867611435242,6.2245990193332545e-06,0.0,0.0,0.0,0.0,-0.0019580484367907047,-0.0013469548430293798,0.0015235870378091931,0.9994341731071472,0.0,0.0,0.0,0.2817877233028412,3.0153396129608154,4.1387038230896,-51.00414276123047,0
446.1129999999994,-3.2911259040702134e-05,-0.00013102320372126997,-4.1427054384257644e-05,0.0,0.0,0.0,0.0,-0.001698081847280264,-0.0006905374466441572,-0.00028320751152932644,1.0011905431747437,0.0,0.0,0.0,0.2819153666496277,3.0161871910095215,4.13213586807251,-51.027244567871094,0
456.02599999999984,-7.628588355146348e-05,-0.00015311060997191817,-3.4062562917824835e-05,0.0,0.0,0.0,0.0,-0.0011013223556801677,-0.0010726515902206302,-0.00048475663061253726,1.002130389213562,0.0,0.0,0.0,0.2821924686431885,3.0186994075775146,4.143728733062744,-51.077396392822266,0
465.9429999999993,3.913897671736777e-05,-0.00010971422307193279,-0.00010433737770654261,0.0,0.0,0.0,0.0,0.0006074296543374658,-0.003211335279047489,0.0012712106108665466,0.9971607327461243,0.0,0.0,0.0,0.2729070782661438,3.035372018814087,4.152024269104004,-49.396724700927734,0
475.8580000000002,-2.77720027952455e-06,-0.00012826980673708022,-0.00010088764247484505,0.0,0.0,0.0,0.0,0.0010819946182891726,-0.004449117463082075,-0.0017643162282183766,0.9991229176521301,0.0,0.0,0.0,0.27304866909980774,3.0342936515808105,4.157141208648682,-49.42234802246094,0
485.78399999999965,2.6973445983458078e-06,-0.00010210598702542484,-0.00015686255937907845,0.0,0.0,0.0,0.0,-0.0015160654438659549,-0.0011272085830569267,-0.0026137882377952337,1.0030473470687866,0.0,0.0,0.0,0.2645120918750763,3.0388107299804688,4.179758548736572,-47.877220153808594,0
495.6939999999995,-3.8839229091536254e-05,-0.00011783448280766606,-0.0001587294536875561,0.0,0.0,0.0,0.0,0.0004880864580627531,0.0010798107832670212,-0.0018154536373913288,1.001795768737793,0.0,0.0,0.0,0.264187753200531,3.042384147644043,4.1764068603515625,-47.81850814819336,0
505.59699999999975,-6.261793168960139e-05,-7.342790195252746e-05,-0.00023423071252182126,0.0,0.0,0.0,0.0,-0.003088104072958231,-0.001160787302069366,0.003194864373654127,1.0013617277145386,0.0,0.0,0.0,0.2631305158138275,3.0405101776123047,4.174195766448975,-47.62714385986328,0
515.518,-2.00732010853244e-05,-8.589925710111856e-05,-0.0002074873773381114,0.0,0.0,0.0,0.0,0.0016711679054424167,0.004617638420313597,-0.000664679566398263,0.9979979395866394,0.0,0.0,0.0,0.2645852863788605,3.0406265258789062,4.180210590362549,-47.890464782714844,0
525.4239999999991,-8.278608584078029e-05,-0.00012045269249938428,-0.00019128664280287921,0.0,0.0,0.0,0.0,0.00261928653344512,-0.004493828862905502,-0.0007454037549905479,0.9998546242713928,0.0,0.0,0.0,0.2652018666267395,3.03405499458313,4.173277854919434,-48.00205993652344,0
535.3449999999993,-2.819202381942887e-05,-8.3858598372899e-05,-0.00013615164789371192,0.0,0.0,0.0,0.0,-0.0027918978594243526,0.0002317500184290111,0.00321740354411304,1.0004041194915771,0.0,0.0,0.0,0.2652261257171631,3.0263774394989014,4.175149917602539,-48.00645446777344,0
545.2610000000004,-0.00010289621422998607,-0.00011062895646318793,-9.501451131654903e-05,0.0,0.0,0.0,0.0,-0.00211186776868999,-0.004121991340070963,-0.0001280430005863309,1.0009537935256958,0.0,0.0,0.0,0.2656358480453491,3.025428533554077,4.164096832275391,-48.08061599731445,0
555.1739999999991,-1.5206224816211034e-05,-0.0001484077365603298,-5.464072819449939e-05,0.0,0.0,0.0,0.0,-0.0013806996867060661,-0.000558656407520175,-0.002929770853370428,1.0011602640151978,0.0,0.0,0.0,0.26581886410713196,3.0266575813293457,4.173359394073486,-48.11374282836914,0
565.0799999999999,-3.732326877070591e-05,-0.0001454132579965517,-6.973410199861974e-05,0.0,0.0,0.0,0.0,-4.4829816033598036e-05,-0.00241617183201015,-2.510657395760063e-05,0.9995719194412231,0.0,0.0,0.0,0.2751271426677704,3.034250020980835,4.175123691558838,-49.798561096191406,0
575.0059999999994,-6.437322736019269e-05,-0.00014842086238786578,-4.951540904585272e-05,0.0,0.0,0.0,0.0,0.0002914880169555545,0.00019705323211383075,0.0032680872827768326,0.9992672204971313,0.0,0.0,0.0,0.27440035343170166,3.0311853885650635,4.1701579093933105,-49.66700744628906,0
584.905999999999,-7.942538650240749e-05,-0.00014223484322428703,-7.575701602036133e-05,0.0,0.0,0.0,0.0,-8.302111382363364e-05,-0.0016832796391099691,-0.004909410607069731,0.9993374943733215,0.0,0.0,0.0,0.2758498787879944,3.0269124507904053,4.168576717376709,-49.92937469482422,0
594.8310000000001,-5.861244790139608e-05,-0.0001284985337406397,-3.538492092047818e-05,0.0,0.0,0.0,0.0,0.0013965110993012786,0.0033822329714894295,-0.002647320507094264,1.0025790929794312,0.0,0.0,0.0,0.2740894854068756,3.027127504348755,4.171494483947754,-49.610740661621094,0
604.7340000000004,-8.214663830585778e-05,-0.0001342442847089842,-5.340721327229403e-05,0.0,0.0,0.0,0.0,-0.0009293595212511718,-0.0025439749006181955,0.0018823941936716437,1.0016223192214966,0.0,0.0,0.0,0.2804504334926605,3.0265369415283203,4.173733234405518,-50.762081146240234,0
614.6640000000007,-4.607189475791529e-05,-0.00012689510185737163,-6.980890702834586e-06,0.0,0.0,0.0,0.0,-0.00013122613017912954,0.0015589012764394283,0.0040377299301326275,1.004860281944275,0.0,0.0,0.0,0.2808853089809418,3.0227227210998535,4.178697109222412,-50.84079360961914,0
624.5669999999991,-6.295217463048175e-05,-0.00012131502444390208,-2.499506445019506e-05,0.0,0.0,0.0,0.0,-0.001289170584641397,0.0012062995228916407,-0.0016661441186442971,1.0011193752288818,0.0,0.0,0.0,0.29297390580177307,3.026437520980835,4.180455207824707,-53.02885818481445,0
634.491,-7.087663834681734e-05,-0.00014233730325940996,2.3342638542089844e-06,0.0,0.0,0.0,0.0,-0.0019487529061734676,-0.001452355645596981,-0.003745146095752716,1.0001416206359863,0.0,0.0,0.0,0.2926207482814789,3.026829481124878,4.179952621459961,-52.964935302734375,0
644.3919999999998,-6.752234912710264e-05,-0.00013305374886840582,-3.648136043921113e-05,0.0,0.0,0.0,0.0,0.0012585048098117113,0.0011025752173736691,0.0008737149182707071,1.00081205368042,0.0,0.0,0.0,0.2916159927845001,3.024967908859253,4.187210559844971,-52.78307342529297,0
654.3189999999995,-1.9378940123715438e-05,-0.00018409722542855889,-9.718727596919052e-06,0.0,0.0,0.0,0.0,-0.002307804301381111,-0.0009693196043372154,0.002426971448585391,0.9995911717414856,0.0,0.0,0.0,0.29143163561820984,3.0226728916168213,4.184299468994141,-52.74970245361328,0
664.2219999999998,-6.061401290935464e-05,-0.00018850245396606624,6.209873390616849e-06,0.0,0.0,0.0,0.0,0.0010647460585460067,0.0034641858655959368,-0.0016702412394806743,0.9998186230659485,0.0,0.0,0.0,0.2824432849884033,3.0368432998657227,4.182731628417969,-51.12279510498047,0
674.1419999999998,-4.618666207534261e-05,-0.00020978717657271773,3.746729271369986e-05,0.0,0.0,0.0,0.0,-0.002086987253278494,-0.002937166951596737,-0.001220804639160633,0.9990019798278809,0.0,0.0,0.0,0.28103843331336975,3.0334033966064453,4.179364204406738,-50.86851501464844,0
684.0470000000005,-4.1404437070013955e-05,-0.00017845902766566724,-1.227313987328671e-06,0.0,0.0,0.0,0.0,0.003320484422147274,-0.0002885670692194253,-0.0003636106848716736,0.9999397397041321,0.0,0.0,0.0,0.28770819306373596,3.0399365425109863,4.185310363769531,-52.07575988769531,0
693.9809999999998,-7.972786988830194e-05,-0.00018059836293105036,2.1707461201003753e-05,0.0,0.0,0.0,0.0,-0.0013908280525356531,0.003310614265501499,-0.003072338877245784,1.0019701719284058,0.0,0.0,0.0,0.28749731183052063,3.0359389781951904,4.182300090789795,-52.03758239746094,0
703.8739999999998,-7.933935557957739e-05,-0.000158440598170273,-1.9252604033681564e-05,0.0,0.0,0.0,0.0,0.001895488821901381,-0.0007000282639637589,0.001350743928924203,1.0000152587890625,0.0,0.0,0.0,0.28652581572532654,3.033421516418457,4.172865867614746,-51.86174011230469,0
713.7960000000003,-8.696727309143171e-05,-0.0001565424317959696,1.6619134839856997e-05,0.0,0.0,0.0,0.0,0.0012327173026278615,-0.0022229303140193224,0.0005953582585789263,0.9983820915222168,0.0,0.0,0.0,0.27925214171409607,3.0262553691864014,4.167932510375977,-50.54519271850586,0
723.7119999999995,-8.827718556858599e-05,-0.00014193437527865171,-3.103187191300094e-05,0.0,0.0,0.0,0.0,-0.003737175138667226,0.002153183100745082,-0.004954025149345398,0.9993032217025757,0.0,0.0,0.0,0.27762430906295776,3.022279739379883,4.166494369506836,-50.250553131103516,0
733.625,-9.40506361075677e-05,-0.000163848846568726,-9.845919521467295e-06,0.0,0.0,0.0,0.0,0.0007198136881925166,-0.008081024512648582,-0.0005071863997727633,0.9996854066848755,0.0,0.0,0.0,0.275970458984375,3.0261669158935547,4.157095432281494,-49.95120620727539,0
743.5360000000001,-6.197449692990631e-05,-0.00012865709140896797,-0.00010273384395986795,0.0,0.0,0.0,0.0,-0.0005640840390697122,0.0005022413679398596,-2.5048987026821123e-06,1.000483512878418,0.0,0.0,0.0,0.28523683547973633,3.0310540199279785,4.177212238311768,-51.62843704223633,0
753.4599999999991,-9.685370969236828e-06,-0.0001706296461634338,-8.090012852335349e-05,0.0,0.0,0.0,0.0,-0.0005253501003608108,0.0019054528092965484,0.0033256900496780872,1.0006458759307861,0.0,0.0,0.0,0.28508108854293823,3.0284368991851807,4.182113170623779,-51.60024642944336,0
763.3600000000006,1.5166974662861321e-05,-9.863682498689741e-05,-0.00015166647790465504,0.0,0.0,0.0,0.0,0.0005764631205238402,0.005586858373135328,-0.0016661739209666848,1.0015219449996948,0.0,0.0,0.0,0.286122590303421,3.019989490509033,4.176895618438721,-51.788761138916016,0
773.2849999999999,-4.0617956983624026e-05,-9.33775445446372e-05,-0.0001471962168579921,0.0,0.0,0.0,0.0,-0.00011604673636611551,-0.002388834487646818,0.00421785656362772,0.9985364079475403,0.0,0.0,0.0,0.2855750620365143,3.018742799758911,4.162481784820557,-51.68965530395508,0
783.1869999999999,-9.608645632397383e-05,-0.00012220915232319385,-0.00015017874829936773,0.0,0.0,0.0,0.0,-0.00171999994199723,0.00026206206530332565,-0.0015857265098020434,1.0001121759414673,0.0,0.0,0.0,0.2963200509548187,3.018707036972046,4.16652250289917,-53.634517669677734,0
793.1129999999994,-9.48910201259423e-06,-0.00015533523401245475,-0.00011365777754690498,0.0,0.0,0.0,0.0,0.001152894808910787,-0.0001436750462744385,0.000883010623510927,1.0007424354553223,0.0,0.0,0.0,0.29545414447784424,3.0227208137512207,4.160426139831543,-53.477787017822266,0
803.012999999999,-6.834127816546243e-06,-0.00014088544412516057,-0.00017635243420954794,0.0,0.0,0.0,0.0,0.0011029138695448637,-0.001044013537466526,0.0006291954778134823,1.0010828971862793,0.0,0.0,0.0,0.3038325309753418,3.022127151489258,4.168189525604248,-54.99428939819336,0
812.9339999999993,-4.484607416088693e-05,-0.0001255791139556095,-0.0001577266666572541,0.0,0.0,0.0,0.0,-0.0035735589917749166,-0.0009567164815962315,0.0024630778934806585,1.0024116039276123,0.0,0.0,0.0,0.3026275038719177,3.0180840492248535,4.162806034088135,-54.77618408203125,0
822.8400000000001,-9.344676072942093e-05,-0.00013648676394950598,-0.00016293370572384447,0.0,0.0,0.0,0.0,-0.00022114069724921137,-0.0013658045791089535,0.0007069954299367964,0.9992899894714355,0.0,0.0,0.0,0.3125186264514923,3.0211293697357178,4.158634662628174,-56.56649398803711,0
832.7780000000002,-6.262934039114043e-05,-0.00014689115050714463,-0.00012757285730913281,0.0,0.0,0.0,0.0,0.0011790586868301034,-0.00039473921060562134,-0.00365127669647336,1.0000256299972534,0.0,0.0,0.0,0.30625420808792114,3.0216431617736816,4.177095890045166,-55.432621002197266,0
842.6720000000005,-0.00010486766404937953,-0.00015649711713194847,-0.00013870980183128268,0.0,0.0,0.0,0.0,-0.0004928444977849722,-0.0008036924409680068,-0.0004318177525419742,1.0027780532836914,0.0,0.0,0.0,0.31285613775253296,3.0205705165863037,4.176643371582031,-56.62757873535156,0
852.5889999999999,-5.825818152516149e-05,-0.00012585103104356676,-7.889007247285917e-05,0.0,0.0,0.0,0.0,-0.0003611279826145619,-0.001265448983758688,0.0012277559144422412,1.0000132322311401,0.0,0.0,0.0,0.3125395178794861,3.0214433670043945,4.1686553955078125,-56.57027053833008,0
862.4959999999992,-0.0001363836054224521,-0.0001895667373901233,-5.46135452168528e-05,0.0,0.0,0.0,0.0,-0.0004390178364701569,-0.0009520117309875786,-0.0011822485830634832,0.9989567995071411,0.0,0.0,0.0,0.3209453523159027,3.0140087604522705,4.170175552368164,-58.09174728393555,0
872.4220000000005,-5.647461875923909e-05,-0.00021692545851692557,-2.4373416636080947e-06,0.0,0.0,0.0,0.0,-0.00340567110106349,0.0008114486117847264,0.004471517633646727,0.9999715089797974,0.0,0.0,0.0,0.3213532865047455,3.009305477142334,4.171628952026367,-58.16558074951172,0
882.3230000000003,-0.0001071014630724676,-0.0002441767428535968,1.4208081893229974e-06,0.0,0.0,0.0,0.0,0.002066533314064145,0.0016518543707206845,-0.0013399259187281132,0.9985358715057373,0.0,0.0,0.0,0.33029744029045105,3.0134541988372803,4.176164150238037,-59.78449249267578,0
892.2520000000004,-0.00013389167725108564,-0.0002171340020140633,4.602834451361559e-05,0.0,0.0,0.0,0.0,-0.0019522993825376034,-0.0019717493560165167,-0.003827209584414959,0.997883141040802,0.0,0.0,0.0,0.3226432800292969,3.0184764862060547,4.173280239105225,-58.399070739746094,0
902.1569999999992,-0.0001134438207373023,-0.0001586011640029028,-1.9186136341886595e-05,0.0,0.0,0.0,0.0,0.0021223719231784344,0.002674154005944729,0.0027138213627040386,0.9993505477905273,0.0,0.0,0.0,0.33205583691596985,3.028691530227661,4.182074546813965,-60.10276794433594,0
912.0689999999995,-4.704376624431461e-05,-0.00018875396926887333,1.9681869162013754e-05,0.0,0.0,0.0,0.0,0.0009472662350162864,-0.0025725949089974165,0.0035333868581801653,1.0021257400512695,0.0,0.0,0.0,0.33256906270980835,3.0211334228515625,4.178055286407471,-60.19566345214844,0
921.9840000000004,-4.364329652162269e-05,-0.00015903753228485584,-2.878944178519305e-05,0.0,0.0,0.0,0.0,-0.0008996125543490052,-0.004355625249445438,0.000754806213080883,1.00238835811615,0.0,0.0,0.0,0.32624104619026184,3.024388074874878,4.182600498199463,-59.05027770996094,0
931.8940000000002,-4.91646169393789e-05,-0.0001474362361477688,2.204435077146627e-06,0.0,0.0,0.0,0.0,0.0011037597432732582,0.004577902611345053,0.002502663992345333,0.9991788864135742,0.0,0.0,0.0,0.32556217908859253,3.0209293365478516,4.188435077667236,-58.92740249633789,0
941.8099999999995,-1.580973548698239e-05,-0.00011671892571030185,-8.648046059533954e-05,0.0,0.0,0.0,0.0,-0.0018786840373650193,0.00032530512544326484,0.0010852075647562742,0.9985231161117554,0.0,0.0,0.0,0.33253011107444763,3.0208187103271484,4.191762924194336,-60.1886100769043,0
951.7260000000006,1.7099742763093673e-05,-0.00014263515186030418,-6.216238398337737e-05,0.0,0.0,0.0,0.0,-0.0008955145021900535,-0.0052389949560165405,-0.0022289191838353872,1.0003665685653687,0.0,0.0,0.0,0.33359307050704956,3.0208654403686523,4.18763542175293,-60.38100814819336,0
961.643,4.153387635597028e-05,-7.98320397734642e-05,-0.00013063182996120304,0.0,0.0,0.0,0.0,0.0014345997478812933,-0.001770879258401692,-0.0011238671140745282,0.9996118545532227,0.0,0.0,0.0,0.33318156003952026,3.016963243484497,4.188603401184082,-60.30652618408203,0
971.5609999999997,3.4299922845093533e-05,-0.00010235238733002916,-0.00012497330317273736,0.0,0.0,0.0,0.0,-0.0015124062774702907,-0.0009311184985563159,0.0016679360996931791,0.9995286464691162,0.0,0.0,0.0,0.3333256244659424,3.011585235595703,4.189395427703857,-60.332603454589844,0
981.4650000000001,1.9807186617981642e-05,-0.00011343549704179168,-0.00017362427024636418,0.0,0.0,0.0,0.0,-0.0010661600390449166,-0.005502577405422926,0.0038716758135706186,0.9993239045143127,0.0,0.0,0.0,0.34096768498420715,3.0089504718780518,4.195374488830566,-61.7158317565918,0
991.378999999999,3.967963948525721e-06,-8.22665388113819e-05,-0.00014936074148863554,0.0,0.0,0.0,0.0,-0.002147316699847579,-0.0029044405091553926,0.0032811257988214493,1.000712513923645,0.0,0.0,0.0,0.3419889807701111,3.0081586837768555,4.196484088897705,-61.90068054199219,0
1001.2929999999997,-5.273014903650619e-05,-0.00011746725795092061,-0.00014956951781641692,0.0,0.0,0.0,0.0,8.54680038173683e-05,0.0005598661955446005,0.00011656681454041973,1.0023075342178345,0.0,0.0,0.0,0.34326720237731934,3.0057592391967773,4.193477630615234,-62.13204574584961,0
1011.2039999999997,-0.00010152821050724015,-0.00013796755229122937,-0.0001524237304693088,0.0,0.0,0.0,0.0,-0.0027664373628795147,-0.003014103975147009,0.001463373308070004,1.0017417669296265,0.0,0.0,0.0,0.3437514901161194,3.0046043395996094,4.191193103790283,-62.21969985961914,0
1021.1180000000004,-0.00013249070616438985,-0.00013293854135554284,-0.00017066177679225802,0.0,0.0,0.0,0.0,-0.0017208250937983394,0.002714194357395172,0.00024155440041795373,1.000969648361206,0.0,0.0,0.0,0.336704283952713,3.0143322944641113,4.196029186248779,-60.94414520263672,0
1031.0329999999994,-9.27895016502589e-05,-0.00011566726607270539,-0.00011367043771315366,0.0,0.0,0.0,0.0,0.0012008780613541603,-0.006477063987404108,0.002530642319470644,0.9988100528717041,0.0,0.0,0.0,0.3368517756462097,3.013756275177002,4.191164016723633,-60.97084045410156,0
1040.9570000000003,-0.00015480203728657216,-0.0001303921890212223,-8.372400043299422e-05,0.0,0.0,0.0,0.0,6.158519681775942e-05,0.003623741213232279,-0.0028338131960481405,0.9991292357444763,0.0,0.0,0.0,0.3317970633506775,3.015967607498169,4.19166374206543,-60.055931091308594,0
1050.8600000000006,-7.057792390696704e-05,-0.00011915493087144569,-1.8869190171244554e-05,0.0,0.0,0.0,0.0,-0.002532785292714834,-0.00026477023493498564,-0.0004383905907161534,0.999949038028717,0.0,0.0,0.0,0.3307691514492035,3.01332426071167,4.172455787658691,-59.869873046875,0
1060.7749999999996,-0.0001163308261311613,-0.00012508753570728004,-7.51903257878439e-07,0.0,0.0,0.0,0.0,0.002961041172966361,0.0030759701039642096,-0.002298451494425535,1.0026475191116333,0.0,0.0,0.0,0.3301730751991272,3.0108747482299805,4.166187286376953,-59.76198196411133,0
1070.688,-0.00011368040577508509,-0.00014552712673321366,2.5116241886280477e-05,0.0,0.0,0.0,0.0,-0.001233367482200265,-7.54441789467819e-05,0.002449670573696494,0.9982488751411438,0.0,0.0,0.0,0.3234891891479492,3.0040273666381836,4.157304763793945,-58.55218505859375,0
1080.6080000000002,-0.00013874229625798762,-0.00013717891124542803,2.095447234751191e-05,0.0,0.0,0.0,0.0,0.0009160178015008569,-0.0009475586703047156,4.172402259428054e-05,0.9975173473358154,0.0,0.0,0.0,0.3151646554470062,3.011470317840576,4.1524176597595215,-57.04542922973633,0
1090.5169999999998,-0.00013664268772117794,-0.00016246431914623827,3.89796077797655e-05,0.0,0.0,0.0,0.0,0.003540211822837591,-0.003759507555514574,-0.00045160300214774907,1.000208854675293,0.0,0.0,0.0,0.3158557116985321,3.010246515274048,4.153077602386475,-57.170509338378906,0
1100.4429999999993,-0.00012378432438708842,-0.00013820714957546443,-1.792308466974646e-05,0.0,0.0,0.0,0.0,0.001912328996695578,0.0015343009727075696,-0.005219502840191126,0.9993942975997925,0.0,0.0,0.0,0.3230002820491791,3.005075454711914,4.157731533050537,-58.46369552612305,0
1110.342999999999,-6.056053098291159e-05,-0.00019037073070649058,9.61978093982907e-06,0.0,0.0,0.0,0.0,-0.0023652976378798485,-0.002281013410538435,0.0020755180157721043,1.0011793375015259,0.0,0.0,0.0,0.313750296831131,2.9928369522094727,4.162276268005371,-56.789424896240234,0
1120.2600000000002,-5.770312054664828e-05,-0.00016957415209617466,-3.5616882087197155e-05,0.0,0.0,0.0,0.0,-0.0019206420984119177,0.0018589029787108302,-0.003492978634312749,1.0019655227661133,0.0,0.0,0.0,0.3206794559955597,2.9993019104003906,4.170894145965576,-58.043617248535156,0
1130.1689999999999,-4.05426872021053e-05,-0.00019985309336334467,-1.2258125934749842e-05,0.0,0.0,0.0,0.0,-0.002126219915226102,-0.0012631418649107218,-0.0069607216864824295,1.0014023780822754,0.0,0.0,0.0,0.31337469816207886,2.99420166015625,4.178093910217285,-56.7214469909668,0
1140.0849999999991,-4.578708467306569e-05,-0.0001947258278960362,-5.120233618072234e-05,0.0,0.0,0.0,0.0,0.0007317552226595581,-0.0032899295911192894,-0.00022393807012122124,1.0011380910873413,0.0,0.0,0.0,0.3111839294433594,2.998100757598877,4.1642985343933105,-56.324913024902344,0
1149.9989999999998,-5.282936035655439e-05,-0.0001658800756558776,-1.3164553820388392e-05,0.0,0.0,0.0,0.0,0.003735983045771718,0.0021719408687204123,-0.0007796632708050311,0.9997841715812683,0.0,0.0,0.0,0.3117729723453522,2.998631000518799,4.165776252746582,-56.431522369384766,0
1159.911,-6.095205753808841e-05,-0.00015757951769046485,-5.097906614537351e-05,0.0,0.0,0.0,0.0,-0.002800728427246213,-0.0021556837018579245,-0.0029734536074101925,0.9999833703041077,0.0,0.0,0.0,0.3109703063964844,2.998495101928711,4.159924030303955,-56.28624725341797,0
1169.824999999999,-0.00011512812488945201,-0.00018071533122565597,-4.759707735502161e-05,0.0,0.0,0.0,0.0,-0.002233722247183323,-0.004428284242749214,0.003657423658296466,1.0004669427871704,0.0,0.0,0.0,0.3037097752094269,2.9976396560668945,4.158013820648193,-54.972068786621094,0
1179.7430000000004,-8.118716505123302e-05,-0.00014077841478865594,-0.00014202241436578333,0.0,0.0,0.0,0.0,0.0007094665779732168,0.00011557251127669588,0.0020044217817485332,0.9985934495925903,0.0,0.0,0.0,0.3120032250881195,3.011183023452759,4.1703410148620605,-56.47320556640625,0
1189.6530000000002,-3.362277857377194e-05,-0.0001231956121046096,-9.467595373280346e-05,0.0,0.0,0.0,0.0,0.0006933924159966409,-0.000873542099725455,-0.0005781849031336606,0.9968158602714539,0.0,0.0,0.0,0.31240206956863403,3.0114333629608154,4.168194770812988,-56.5453987121582,0
1199.5730000000003,-3.7753368815174326e-05,-0.00012019155838061124,-0.0001542506506666541,0.0,0.0,0.0,0.0,-9.906502236844972e-05,0.0007369681843556464,0.0014124063309282064,1.0002386569976807,0.0,0.0,0.0,0.32031750679016113,3.0169336795806885,4.17154598236084,-57.97810745239258,0
1209.4840000000004,-5.545278327190317e-05,-0.00012190958659630269,-0.00014260277384892106,0.0,0.0,0.0,0.0,0.0005001646932214499,-0.003343011951074004,-0.0005597838317044079,1.000640869140625,0.0,0.0,0.0,0.31969210505485535,3.0094430446624756,4.171648979187012,-57.864906311035156,0
1219.4040000000005,-9.789686009753495e-05,-0.00013771234080195427,-0.0001613016938790679,0.0,0.0,0.0,0.0,-7.486786489607766e-05,-0.0007023021462373435,0.0008464044076390564,0.9990006685256958,0.0,0.0,0.0,0.31935223937034607,3.001303195953369,4.168654918670654,-57.80339050292969,0
1229.3109999999997,-8.087109017651528e-05,-0.0001358165027340874,-0.0001339518348686397,0.0,0.0,0.0,0.0,0.0006223336094990373,-0.0035872794687747955,0.0013235177611932158,0.9993581771850586,0.0,0.0,0.0,0.31857138872146606,3.0000851154327393,4.1689043045043945,-57.66205596923828,0
1239.2279999999992,-0.0001127995565184392,-0.00013039977056905627,-0.00016076934116426855,0.0,0.0,0.0,0.0,-1.3958086128695868e-05,-0.004243885166943073,0.0017415463225916028,1.000848412513733,0.0,0.0,0.0,0.3289971351623535,2.9996016025543213,4.171877861022949,-59.549137115478516,0
1249.146999999999,-4.388250454212539e-05,-0.00010648986062733456,-0.0001088629214791581,0.0,0.0,0.0,0.0,0.0017591746291145682,0.0007964829565025866,-0.0013998547801747918,1.0015935897827148,0.0,0.0,0.0,0.32823050022125244,2.9966013431549072,4.179754734039307,-59.410377502441406,0
1259.0529999999999,-9.507554932497442e-05,-0.0001272831577807665,-0.00010969040158670396,0.0,0.0,0.0,0.0,0.0008817612542770803,-0.006402605213224888,-0.001230053254403174,0.9996188282966614,0.0,0.0,0.0,0.3278488218784332,2.988699197769165,4.177343368530273,-59.34129333496094,0
1268.9779999999992,-0.00011720765178324655,-0.00011860879749292508,-0.0001435105805285275,0.0,0.0,0.0,0.0,-0.0012964355992153287,-0.002959043951705098,0.001135717611759901,0.9975325465202332,0.0,0.0,0.0,0.3374146521091461,2.9992690086364746,4.188443660736084,-61.072723388671875,0
1278.8819999999996,-0.00016867599333636463,-0.00013819911691825837,-0.00014592395746149123,0.0,0.0,0.0,0.0,0.001127258175984025,0.00509285693988204,0.0016015167348086834,0.9975206851959229,0.0,0.0,0.0,0.33717215061187744,2.9978339672088623,4.191864013671875,-61.02883529663086,0
1288.7929999999997,-0.00019372373935766518,-0.00013550576113630086,-0.00018309008737560362,0.0,0.0,0.0,0.0,0.00239940476603806,-0.003959207329899073,0.0011469918536022305,0.999096691608429,0.0,0.0,0.0,0.32944539189338684,3.007723569869995,4.1875786781311035,-59.630271911621094,0
1298.7060000000001,-0.0002453702036291361,-0.00015602038183715194,-0.00019176244677510113,0.0,0.0,0.0,0.0,-0.0004129465960431844,-0.0009751875186339021,-0.00017391957226209342,0.998065710067749,0.0,0.0,0.0,0.3300870954990387,3.0002245903015137,4.190199851989746,-59.74641799926758,0
1308.625,-0.00026824389351531863,-0.00014396975166164339,-0.00023743002384435385,0.0,0.0,0.0,0.0,-0.00024764641420915723,-0.002309283474460244,0.0008567887125536799,0.998059093952179,0.0,0.0,0.0,0.3206065595149994,3.009425163269043,4.205373764038086,-58.030426025390625,0
1318.5329999999994,-0.00031929381657391787,-0.00016200897516682744,-0.0002524909796193242,0.0,0.0,0.0,0.0,-0.0019203278934583068,0.00028989085694774985,0.001855778507888317,0.9986534714698792,0.0,0.0,0.0,0.3201003074645996,3.016803026199341,4.206451892852783,-57.93878936767578,0
1328.449999999999,-0.000343475112458691,-0.00013992867025081068,-0.0002944519801530987,0.0,0.0,0.0,0.0,-0.002359071047976613,0.003142734756693244,-0.0013578016078099608,1.0021560192108154,0.0,0.0,0.0,0.32034432888031006,3.0215086936950684,4.201112270355225,-57.98295974731445,0
1338.366,-0.0003921347961295396,-0.0001555127528263256,-0.0003145408700220287,0.0,0.0,0.0,0.0,-0.0021078200079500675,-0.0011393724707886577,-0.005844584200531244,1.0009088516235352,0.0,0.0,0.0,0.3196558654308319,3.011732816696167,4.198946475982666,-57.85834884643555,0
1348.280999999999,-0.00041284767212346196,-0.00013037084136158228,-0.00035785615909844637,0.0,0.0,0.0,0.0,-0.0019977360498160124,-0.0004436576273292303,0.001261489000171423,0.9984998106956482,0.0,0.0,0.0,0.31958022713661194,3.0094246864318848,4.193486213684082,-57.84465408325195,0
1358.1890000000003,-0.00046027766074985266,-0.00014204977196641266,-0.00037863830220885575,0.0,0.0,0.0,0.0,-0.002152372384443879,-0.0022787745110690594,-0.002768959617242217,1.0011879205703735,0.0,0.0,0.0,0.31868311762809753,3.0059549808502197,4.194005012512207,-57.68227767944336,0
1368.1100000000006,-0.0004890954005531967,-0.00011548519250936806,-0.0004091002920176834,0.0,0.0,0.0,0.0,0.0004523976531345397,-0.001221047481521964,6.054107143427245e-05,1.0024627447128296,0.0,0.0,0.0,0.32854264974594116,3.02340030670166,4.209489345550537,-59.46687316894531,0
1378.0229999999992,-0.0005351967993192375,-0.0001236259995494038,-0.0004304894828237593,0.0,0.0,0.0,0.0,0.0013153569307178259,-0.000838125532027334,0.0010799774900078773,1.002026081085205,0.0,0.0,0.0,0.32796359062194824,3.0235445499420166,4.2113423347473145,-59.362060546875,0
1387.9320000000007,-0.0005573584348894656,-9.025351755553856e-05,-0.000462620664620772,0.0,0.0,0.0,0.0,-0.0003020420263055712,-0.0004087015404365957,-0.001133076730184257,1.0021027326583862,0.0,0.0,0.0,0.33648717403411865,3.0351197719573975,4.231732368469238,-60.90484619140625,0
1397.8469999999998,-0.0006045085610821843,-9.535118442727253e-05,-0.00048090514610521495,0.0,0.0,0.0,0.0,0.0005073995562270284,0.0017568753100931644,-0.0017330889822915196,0.9999605417251587,0.0,0.0,0.0,0.335927277803421,3.0264928340911865,4.224926948547363,-60.80350875854492,0
1407.762999999999,-0.000627455476205796,-5.6651981140021235e-05,-0.0005123467417433858,0.0,0.0,0.0,0.0,0.0009845091262832284,0.0009190097916871309,0.0023737226147204638,0.9995816349983215,0.0,0.0,0.0,0.32513803243637085,3.0416018962860107,4.225194931030273,-58.85063171386719,0
1417.6730000000007,-0.0006760609103366733,-5.603527097264305e-05,-0.000530312885530293,0.0,0.0,0.0,0.0,3.8563390262424946e-05,0.0016423898050561547,-0.0010097110643982887,0.9994370937347412,0.0,0.0,0.0,0.32590946555137634,3.0360348224639893,4.225969314575195,-58.99026107788086,0
1427.5859999999993,-0.0007065731333568692,-3.820595520664938e-05,-0.0005660591996274889,0.0,0.0,0.0,0.0,-0.004053708631545305,0.0003917009162250906,0.0030275064054876566,1.0007405281066895,0.0,0.0,0.0,0.3169075846672058,3.037259101867676,4.225613594055176,-57.360904693603516,0
1437.5010000000002,-0.0007567057618871331,-3.724009729921818e-05,-0.0005859457305632532,0.0,0.0,0.0,0.0,-0.0003680294321384281,-0.003137114690616727,-0.0027818975504487753,1.0008231401443481,0.0,0.0,0.0,0.31713244318962097,3.0420448780059814,4.212924957275391,-57.4015998840332,0
1447.414999999999,-0.0007886322564445436,-1.3238966857898049e-05,-0.0006182845099829137,0.0,0.0,0.0,0.0,-0.001016339287161827,0.0006791094783693552,-0.000440147501649335,0.9994009137153625,0.0,0.0,0.0,0.3253408968448639,3.0398142337799072,4.2233195304870605,-58.887351989746094,0
1457.3269999999993,-0.0008397643687203526,-1.1435756277933251e-05,-0.0006385642918758094,0.0,0.0,0.0,0.0,-0.0006839376292191446,-0.0047178324311971664,0.0034626855049282312,0.9990938305854797,0.0,0.0,0.0,0.32460200786590576,3.045300245285034,4.219242572784424,-58.75360870361328,0
1467.2530000000006,-0.0008921957341954112,-9.88172359939199e-06,-0.0006593770231120288,0.0,0.0,0.0,0.0,-7.675833330722526e-05,0.0023485992569476366,0.0033137688878923655,0.999156653881073,0.0,0.0,0.0,0.32358989119529724,3.047067642211914,4.225706100463867,-58.57041549682617,0
1477.1579999999994,-0.0009460095316171646,-9.089316336030606e-06,-0.0006809349870309234,0.0,0.0,0.0,0.0,-0.0014671683311462402,0.0010518220951780677,0.001444413443095982,1.00176203250885,0.0,0.0,0.0,0.3235420882701874,3.044956684112549,4.218960285186768,-58.561767578125,0
1487.0769999999993,-0.0010007611708715558,-8.86025827639969e-06,-0.0007026471430435777,0.0,0.0,0.0,0.0,-0.005305795464664698,-0.001104729133658111,-0.0015091253444552422,1.001357078552246,0.0,0.0,0.0,0.32352501153945923,3.0500199794769287,4.209442138671875,-58.55867385864258,0
1496.9840000000004,-0.00105681037530303,-9.220481842930894e-06,-0.0007231215131469071,0.0,0.0,0.0,0.0,-0.00059986807173118,0.0016650661127641797,-0.0009512347751297057,1.0020922422409058,0.0,0.0,0.0,0.3230398893356323,3.056880474090576,4.207596302032471,-58.470863342285156,0
1506.905999999999,-0.00011137825640616938,-0.00019506242824718356,-8.40668235468911e-06,0.0,0.0,0.0,0.0,-0.00024513123207725585,0.0006018198328092694,0.002153305336833,1.0007444620132446,0.0,0.0,0.0,0.3135862648487091,3.02360200881958,4.363010883331299,-56.759735107421875,0
1516.8179999999993,-0.0001284360623685643,-0.00020335038425400853,4.307325980335008e-06,0.0,0.0,0.0,0.0,-0.001135681988671422,0.001186101115308702,-0.0020568883046507835,1.000414490699768,0.0,0.0,0.0,0.31342464685440063,3.028402090072632,4.356971740722656,-56.7304801940918,0
1526.741,-7.03532641637139e-05,-0.0001671471691224724,7.452710997313261e-05,0.0,0.0,0.0,0.0,-0.0004602047265507281,0.001511931885033846,-0.003942109644412994,1.0017956495285034,0.0,0.0,0.0,0.3122466206550598,3.02382230758667,4.3521833419799805,-56.51726150512695,0
1536.637999999999,-8.706497465027496e-05,-0.0001765268825693056,9.239587234333158e-05,0.0,0.0,0.0,0.0,0.0011825661640614271,0.0031799818389117718,0.0006329517345875502,1.0001906156539917,0.0,0.0,0.0,0.3099674582481384,3.024383783340454,4.335904121398926,-56.10472869873047,0
1546.5650000000005,-0.00010074744204757735,-0.00019616349891293794,0.00010840866161743179,0.0,0.0,0.0,0.0,0.0017068131128326058,0.0028622013051062822,0.00033798752701841295,1.0004208087921143,0.0,0.0,0.0,0.30387169122695923,3.0269086360931396,4.31950569152832,-55.001380920410156,0
1556.4699999999993,-0.00012039356079185382,-0.0002111319190589711,0.00012787056039087474,0.0,0.0,0.0,0.0,0.0011097225360572338,0.0029708854854106903,-0.004671129398047924,1.003082513809204,0.0,0.0,0.0,0.30434587597846985,3.0149030685424805,4.309877872467041,-55.08721160888672,0
1566.3909999999996,-0.00016803047037683427,-0.00024148027296178043,0.0001390048855682835,0.0,0.0,0.0,0.0,0.0005982957081869245,0.0019831901881843805,0.0016573439352214336,1.0005227327346802,0.0,0.0,0.0,0.2957644760608673,3.0091981887817383,4.29473876953125,-53.533958435058594,0
1576.2980000000007,-0.00019101746147498488,-0.00026268739020451903,0.00016036232409533113,0.0,0.0,0.0,0.0,0.002716057002544403,-0.0021486766636371613,-0.0016709178453311324,0.9990540742874146,0.0,0.0,0.0,0.2951886057853699,3.0014429092407227,4.291042327880859,-53.42972946166992,0
1586.2250000000004,-0.0001733955868985504,-0.00027292847516946495,0.00020090646285098046,0.0,0.0,0.0,0.0,0.0028917875606566668,-0.0020185071043670177,0.0029723416082561016,1.000118613243103,0.0,0.0,0.0,0.2870514690876007,3.0037460327148438,4.299480438232422,-51.956886291503906,0
1596.1229999999996,-0.0001955699553946033,-0.00029797235038131475,0.00022463324421551079,0.0,0.0,0.0,0.0,-0.0005833014729432762,-0.004229195415973663,-0.005686857271939516,0.9994133114814758,0.0,0.0,0.0,0.28800877928733826,3.0010433197021484,4.302527904510498,-52.13016128540039,0
1606.0429999999997,-0.0001676568208495155,-0.0003256395866628736,0.00026549058384262025,0.0,0.0,0.0,0.0,1.0526047844905406e-05,0.001376389293000102,0.00203957362100482,1.001326322555542,0.0,0.0,0.0,0.27623745799064636,2.9981954097747803,4.320259094238281,-49.99953079223633,0
1615.949999999999,-0.00018980812455993146,-0.0003549734828993678,0.0002911498013418168,0.0,0.0,0.0,0.0,-0.0006727699073962867,0.0020393840968608856,0.0003613334847614169,1.0006073713302612,0.0,0.0,0.0,0.27478766441345215,3.000317096710205,4.315858364105225,-49.737117767333984,0
1625.8719999999994,-0.00020430563017725945,-0.000367291591828689,0.00033982357126660645,0.0,0.0,0.0,0.0,-0.001140835345722735,0.001375855295918882,0.002664238214492798,1.0022156238555908,0.0,0.0,0.0,0.2752108871936798,2.998976469039917,4.3144917488098145,-49.813716888427734,0
1635.777,-0.00022842480393592268,-0.0003958800225518644,0.00036974981776438653,0.0,0.0,0.0,0.0,0.0027157901786267757,-0.003784487722441554,-0.00048763793893158436,1.0020126104354858,0.0,0.0,0.0,0.27548256516456604,2.9897854328155518,4.303341865539551,-49.862892150878906,0
1645.7060000000001,-0.0002377000346314162,-0.0004029030678793788,0.0004428901302162558,0.0,0.0,0.0,0.0,0.0004198233364149928,-0.004609585274010897,0.0003124743525404483,1.0016422271728516,0.0,0.0,0.0,0.27538952231407166,2.99529767036438,4.305553436279297,-49.846046447753906,0
1655.6049999999996,-0.0002623898326419294,-0.00043067833757959306,0.0004805331991519779,0.0,0.0,0.0,0.0,0.0014029828598722816,-0.004899566527456045,0.0020926303695887327,0.9986360669136047,0.0,0.0,0.0,0.27482444047927856,2.989783525466919,4.309309005737305,-49.743770599365234,0
1665.5300000000007,-0.00026414086460135877,-0.0004571851168293506,0.0005486916634254158,0.0,0.0,0.0,0.0,-0.0008985560853034258,0.0014741473132744431,-0.0009113294072449207,0.999796986579895,0.0,0.0,0.0,0.26442986726760864,2.9888200759887695,4.333038330078125,-47.86233139038086,0
1675.432999999999,-0.0002822528767865151,-0.00048637925647199154,0.0005991849466226995,0.0,0.0,0.0,0.0,-0.0005234157433733344,-0.004041525535285473,0.0019506218377500772,1.0008817911148071,0.0,0.0,0.0,0.25668415427207947,2.9860544204711914,4.342365741729736,-46.46034240722656,0
1685.3590000000004,-5.44268696103245e-05,-0.0001988937146961689,-4.367730798549019e-05,0.0,0.0,0.0,0.0,-0.0009268460562452674,0.005980524234473705,0.0016582196112722158,0.9978265166282654,0.0,0.0,0.0,0.2661607265472412,3.0475175380706787,4.378988265991211,-48.175621032714844,0
1695.271999999999,-2.150253567378968e-05,-0.0001999103551497683,-1.2191104360681493e-05,0.0,0.0,0.0,0.0,0.0013296260731294751,-0.002102955710142851,-0.001317756250500679,1.0002473592758179,0.0,0.0,0.0,0.26677167415618896,3.044621229171753,4.380372047424316,-48.28620529174805,0
1705.187,2.570451897554449e-06,-0.0001723840832710266,-5.285795123199932e-05,0.0,0.0,0.0,0.0,-0.0022486767265945673,0.00082304299576208,0.005061072763055563,1.0005037784576416,0.0,0.0,0.0,0.28117799758911133,3.0436251163482666,4.369683742523193,-50.893775939941406,0
1715.0900000000001,-3.064591874135658e-05,-0.00010709365596994758,-1.9181728930561803e-05,0.0,0.0,0.0,0.0,0.0030763312242925167,-0.002633060794323683,0.0006066354108043015,0.998791515827179,0.0,0.0,0.0,0.28069692850112915,3.0361852645874023,4.37327766418457,-50.806705474853516,0
1725.0159999999996,-2.0640743969124742e-05,-0.00011853795876959339,-3.9053280488587916e-05,0.0,0.0,0.0,0.0,0.004993724636733532,-0.000955979514401406,0.00237861555069685,0.999866247177124,0.0,0.0,0.0,0.2941179871559143,3.0378129482269287,4.371341705322266,-53.23594284057617,0
1734.9159999999993,-2.25847506953869e-05,-0.00010626776202116162,-1.6440371837234125e-05,0.0,0.0,0.0,0.0,-0.0020408164709806442,-0.0018874474335461855,0.0029010081198066473,0.9990454912185669,0.0,0.0,0.0,0.29328933358192444,3.0239627361297607,4.3594279289245605,-53.0859489440918,0
1744.848,-1.8803937564371154e-05,-0.00011981459829257801,-3.0892166250851005e-05,0.0,0.0,0.0,0.0,-2.2550473659066483e-05,-0.0030608109664171934,0.001652565784752369,0.9994991421699524,0.0,0.0,0.0,0.29290494322776794,3.0166563987731934,4.366532802581787,-53.016380310058594,0
1754.7440000000006,-2.9293354600667953e-05,-9.520084131509066e-05,-3.945652224501828e-06,0.0,0.0,0.0,0.0,-0.002100981306284666,0.004658359568566084,-0.002095926320180297,1.0006183385849,0.0,0.0,0.0,0.293927401304245,3.011986017227173,4.368425369262695,-53.201446533203125,0
1764.6759999999995,-3.7655725463991985e-05,-0.00014853269385639578,-1.7836668121162802e-05,0.0,0.0,0.0,0.0,-0.002610778668895364,-0.00024172886332962662,6.71075249556452e-05,1.0010567903518677,0.0,0.0,0.0,0.304867148399353,3.009909152984619,4.357151031494141,-55.18156051635742,0
1774.5720000000001,-0.0001125078197219409,-0.0001738404534989968,-3.476475103525445e-05,0.0,0.0,0.0,0.0,0.002792906481772661,0.001984468661248684,-0.0047114696353673935,1.0003466606140137,0.0,0.0,0.0,0.29797354340553284,3.0034961700439453,4.339604377746582,-53.933807373046875,0
1784.4989999999998,-8.185098704416305e-05,-0.0001532533933641389,-7.409643876599148e-05,0.0,0.0,0.0,0.0,-0.000785558542702347,0.0038378029130399227,2.2148091375129297e-05,0.9984508752822876,0.0,0.0,0.0,0.30579590797424316,3.0099740028381348,4.341863632202148,-55.349666595458984,0
1794.4030000000002,-4.336694837547839e-05,-0.00012810240150429308,-3.457478669588454e-05,0.0,0.0,0.0,0.0,-0.0015308420406654477,-0.000801358837634325,0.002505652140825987,0.9997380971908569,0.0,0.0,0.0,0.30461737513542175,3.0005831718444824,4.331662654876709,-55.136356353759766,0
1804.3310000000001,-4.193895074422471e-05,-0.0001550891756778583,-5.085589873488061e-05,0.0,0.0,0.0,0.0,-0.002998489188030362,0.0007091750157997012,0.0013942255172878504,1.00163733959198,0.0,0.0,0.0,0.31675001978874207,3.0098612308502197,4.324007511138916,-57.33238220214844,0
1814.2379999999994,-2.2182985048857518e-05,-0.00010916335304500535,-2.662969200173393e-05,0.0,0.0,0.0,0.0,0.0011135436361655593,0.0021427881438285112,-0.002329801442101598,1.0003976821899414,0.0,0.0,0.0,0.31675001978874207,3.0098612308502197,4.324007511138916,-57.33238220214844,0
1824.152,-2.7492504159454256e-05,-0.00014924388960935175,-3.910448504029773e-05,0.0,0.0,0.0,0.0,0.0017672753892838955,-5.749415322497953e-06,-0.00014868591097183526,1.0007308721542358,0.0,0.0,0.0,0.3236495852470398,3.010709524154663,4.315875053405762,-58.58121871948242,0
1834.063,-1.1717354908569177e-07,-0.00015537826402578503,-3.7001078453613445e-05,0.0,0.0,0.0,0.0,-0.0008748633554205298,0.006531687453389168,-0.0013917048927396536,0.9996314644813538,0.0,0.0,0.0,0.3236495852470398,3.010709524154663,4.315875053405762,-58.58121871948242,0
1843.991,-4.174175955995452e-06,-0.0001885789242805913,-5.121476715430617e-05,0.0,0.0,0.0,0.0,-0.000809461111202836,-0.005260498728603125,-0.000765481498092413,0.9992154240608215,0.0,0.0,0.0,0.33203819394111633,3.0081241130828857,4.299139022827148,-60.09957504272461,0
1853.8979999999992,-3.349254257045686e-05,-0.00012434032396413386,-3.686319541884586e-05,0.0,0.0,0.0,0.0,0.003561425255611539,0.0026379311457276344,0.00035381928319111466,1.001323938369751,0.0,0.0,0.0,0.33203819394111633,3.0081241130828857,4.299139022827148,-60.09957504272461,0
1863.824999999999,2.9576844099210575e-05,-7.104862743290141e-05,-0.00011365443060640246,0.0,0.0,0.0,0.0,0.001292854780331254,0.00011087745224358514,0.0060362122021615505,1.0012127161026,0.0,0.0,0.0,0.33699724078178406,3.0182108879089355,4.303979396820068,-60.99717330932617,0
1873.7279999999992,4.831941987504251e-05,-0.00011840716615552083,-0.00011470232129795477,0.0,0.0,0.0,0.0,-0.0006180189084261656,-0.0037157395854592323,0.00013892610149923712,0.9997463226318359,0.0,0.0,0.0,0.3368109464645386,3.0152838230133057,4.309086799621582,-60.96345520019531,0
1883.6499999999996,2.6684836484491825e-05,-0.00015032610099297017,-0.00010955047036986798,0.0,0.0,0.0,0.0,0.0009987083030864596,0.005117655266076326,0.002288933377712965,1.000543475151062,0.0,0.0,0.0,0.34388381242752075,3.010880708694458,4.312650203704834,-62.24365234375,0
1893.5529999999999,2.7347015929990448e-05,-0.00015876181714702398,-9.182153735309839e-05,0.0,0.0,0.0,0.0,0.0004400088218972087,0.004201481584459543,-0.0015934010734781623,1.0005348920822144,0.0,0.0,0.0,0.34397023916244507,3.0103750228881836,4.308136940002441,-62.25929260253906,0
1903.4750000000004,6.769073661416769e-05,-0.00012211487046442926,-0.00014977130922488868,0.0,0.0,0.0,0.0,-0.0009027858613990247,-0.0022115346509963274,0.002061818726360798,1.0003775358200073,0.0,0.0,0.0,0.3508799076080322,3.020664930343628,4.300813674926758,-63.50996017456055,0
1913.378999999999,4.609311145031825e-05,-0.00015362733392976224,-0.00014996450045146048,0.0,0.0,0.0,0.0,-0.001274433801881969,-0.002795750042423606,0.0014752079732716084,1.0006052255630493,0.0,0.0,0.0,0.35167694091796875,3.0154807567596436,4.292011260986328,-63.65422058105469,0
1923.295,1.1142118637508247e-05,-0.00018756523786578327,-0.00012916181003674865,0.0,0.0,0.0,0.0,-0.00021808332530781627,0.0006692737224511802,0.00305112823843956,0.9997395873069763,0.0,0.0,0.0,0.3576907813549042,3.0102474689483643,4.286932468414307,-64.74274444580078,0
1933.1939999999995,-1.4384570931724738e-05,-0.00022176367929205298,-0.00012650631833821535,0.0,0.0,0.0,0.0,-0.0025741015560925007,0.0009255100158043206,-0.0026533626951277256,0.9988803863525391,0.0,0.0,0.0,0.35726287961006165,3.0080854892730713,4.286376476287842,-64.66529083251953,0
1943.1319999999996,-3.0009756301296875e-05,-0.00022257464297581464,-0.00013242708519101143,0.0,0.0,0.0,0.0,-0.0008177304989658296,0.00035697195562534034,-0.003617694368585944,1.0005254745483398,0.0,0.0,0.0,0.3628031313419342,3.0213327407836914,4.29429292678833,-65.66808319091797,0
1953.0249999999996,-5.774509918410331e-05,-0.0002549882046878338,-0.0001310486695729196,0.0,0.0,0.0,0.0,0.0012446093605831265,-0.003288471372798085,-0.004917267709970474,0.9998937845230103,0.0,0.0,0.0,0.36283960938453674,3.0222251415252686,4.290852069854736,-65.67469024658203,0
1962.9449999999997,-6.711635796818882e-05,-0.00022729810734745115,-0.0001411319535691291,0.0,0.0,0.0,0.0,-0.00012072096433257684,0.0010772472014650702,0.004581858403980732,0.9991109371185303,0.0,0.0,0.0,0.37015053629875183,3.049433469772339,4.299656867980957,-66.99797821044922,0
1972.8510000000006,-9.348375169793144e-05,-0.0002575461403466761,-0.00014087973977439106,0.0,0.0,0.0,0.0,-0.0006286216084845364,-0.0006759945536032319,-0.0005459042149595916,0.9994580745697021,0.0,0.0,0.0,0.36968398094177246,3.049840211868286,4.298161029815674,-66.91353607177734,0
1982.789999999999,-0.0001022374490275979,-0.00023719528689980507,-0.00015694914327468723,0.0,0.0,0.0,0.0,0.00030890837660990655,-1.606286969035864e-05,-0.001782186096534133,1.000518798828125,0.0,0.0,0.0,0.3620728850364685,3.073002815246582,4.306570529937744,-65.5359115600586,0
1992.6820000000007,-0.00012973774573765695,-0.0002636321005411446,-0.00015918347344268113,0.0,0.0,0.0,0.0,-0.0027371454052627087,0.0007366912323050201,0.0029100594110786915,1.0018430948257446,0.0,0.0,0.0,0.3626880645751953,3.072391986846924,4.299928665161133,-65.64726257324219,0
2002.6049999999996,-0.00010401388863101602,-0.0001932913000928238,-0.00021142723562661558,0.0,0.0,0.0,0.0,-0.0009672471205703914,0.0005268565146252513,-0.0014753176365047693,1.0004942417144775,0.0,0.0,0.0,0.3671873211860657,3.117619752883911,4.325493812561035,-66.46163940429688,0
2012.518,-0.00012802332639694214,-0.00020979616965632886,-0.00021670978458132595,0.0,0.0,0.0,0.0,0.0020126381423324347,-0.002623859327286482,-0.0025816208217293024,1.0019439458847046,0.0,0.0,0.0,0.36783528327941895,3.116576671600342,4.323666572570801,-66.57891082763672,0
2022.4349999999995,-0.00014312703569885343,-0.00018907459161709994,-0.00022211350733414292,0.0,0.0,0.0,0.0,-0.0019715451635420322,2.2613232431467623e-05,0.0015656582545489073,1.0002261400222778,0.0,0.0,0.0,0.35770878195762634,3.122462511062622,4.3246541023254395,-64.74600219726562,0
2032.333999999999,-0.0001684548333287239,-0.00019981742661911994,-0.0002254602441098541,0.0,0.0,0.0,0.0,0.002337257144972682,-0.0004740628646686673,0.0006555480067618191,0.9983470439910889,0.0,0.0,0.0,0.35758957266807556,3.1196837425231934,4.321662902832031,-64.72442626953125,0
2042.253999999999,-0.0001859323965618387,-0.00017192783707287163,-0.00022691905905958265,0.0,0.0,0.0,0.0,0.0013296965043991804,0.0027836868539452553,0.0003634295135270804,0.9990977644920349,0.0,0.0,0.0,0.3656574785709381,3.1346054077148438,4.3377838134765625,-66.18473052978516,0
2052.164999999999,-0.00021512102102860808,-0.00017875175399240106,-0.0002307524991920218,0.0,0.0,0.0,0.0,0.0019528066040948033,-0.0042442078702151775,0.0015847585164010525,1.0012463331222534,0.0,0.0,0.0,0.3654176592826843,3.1216049194335938,4.33267068862915,-66.14132690429688,0
2062.0859999999993,-0.0002296497841598466,-0.00015780742978677154,-0.0002495679073035717,0.0,0.0,0.0,0.0,0.0016995243495330215,-0.00256257108412683,-0.00314183603040874,1.0009979009628296,0.0,0.0,0.0,0.3571022152900696,3.123903274536133,4.344470977783203,-64.63621520996094,0
2071.9889999999996,-0.0002604873152449727,-0.000160159936058335,-0.0002541820867918432,0.0,0.0,0.0,0.0,-0.004885795060545206,-0.0007836860604584217,-0.00021230484708212316,0.9988350868225098,0.0,0.0,0.0,0.3572259247303009,3.1201863288879395,4.3535284996032715,-64.65860748291016,0
2081.9130000000005,-0.00030828348826617,-0.00012585536751430482,-0.00022410049859900028,0.0,0.0,0.0,0.0,-0.0005591175868175924,0.006100790109485388,-0.0016244857106357813,0.9978370666503906,0.0,0.0,0.0,0.3468458950519562,3.132446765899658,4.332210063934326,-62.7797966003418,0
2091.8189999999995,-0.0003414943639654666,-0.00012689507275354117,-0.00022615080524701625,0.0,0.0,0.0,0.0,-0.0002590274380054325,0.0008721451740711927,0.0034092494752258062,0.9999872446060181,0.0,0.0,0.0,0.3466853201389313,3.132554292678833,4.327400207519531,-62.750732421875,0
2101.7479999999996,-0.0003771004849113524,-0.00010304860188625753,-0.00025969563284888864,0.0,0.0,0.0,0.0,-0.0012303744442760944,0.0025174436159431934,-0.0007404630887322128,0.9994590878486633,0.0,0.0,0.0,0.35558462142944336,3.138807535171509,4.324171543121338,-64.36151885986328,0
2111.643,-0.0003771004849113524,-0.00010304860188625753,-0.00025969563284888864,0.0,0.0,0.0,0.0,0.0002779715578071773,0.0005051374319009483,0.0006714237970300019,1.0021140575408936,0.0,0.0,0.0,0.35558462142944336,3.138807535171509,4.324171543121338,-64.36151885986328,0
