timestamp,stateEstimate.x,stateEstimate.y,stateEstimate.z,controller.cmd_thrust,controller.cmd_roll,controller.cmd_pitch,controller.cmd_yaw,controller.r_roll,controller.r_pitch,controller.r_yaw,controller.accelz,controller.actuatorThrust,controller.roll,controller.pitch,controller.yaw,controller.rollRate,controller.pitchRate,controller.yawRate,controller.ctr_yaw
0.0,-0.019226064905524254,0.020798126235604286,-0.00015564401110168546,0.0,0.0,0.0,0.0,-0.0003225218679290265,0.0004192313936073333,-0.0012054182589054108,0.9998243451118469,0.0,0.0,0.0,-9.141852378845215,4.486166000366211,7.599457263946533,1654.693359375,0
9.897000000000844,-0.019180992618203163,0.020807800814509392,-0.00024772671167738736,0.0,0.0,0.0,0.0,0.0025787053164094687,0.006831434089690447,-0.0010186894796788692,1.0015360116958618,0.0,0.0,0.0,-9.140912055969238,4.487942695617676,7.603715896606445,1654.5233154296875,0
19.814000000000306,-0.019224241375923157,0.020852738991379738,-0.00020980248518753797,0.0,0.0,0.0,0.0,0.00014654334518127143,-0.001296634553000331,0.0005077552050352097,1.0000816583633423,0.0,0.0,0.0,-9.137816429138184,4.487855434417725,7.5827178955078125,1653.9630126953125,0
29.722999999999956,-0.019199509173631668,0.020851265639066696,-0.00027905250317417085,0.0,0.0,0.0,0.0,-0.0011090284679085016,-0.00014723563799634576,0.0017241868190467358,0.9991912841796875,0.0,0.0,0.0,-9.135351181030273,4.489472389221191,7.591157913208008,1653.5167236328125,0
39.65099999999984,-0.01922585442662239,0.020866090431809425,-0.0002524664450902492,0.0,0.0,0.0,0.0,0.002091231755912304,-0.0023195366375148296,-0.0017105418955907226,0.9991880655288696,0.0,0.0,0.0,-9.125129699707031,4.487056255340576,7.584629058837891,1651.6666259765625,0
49.548000000000684,-0.019206073135137558,0.020865250378847122,-0.00032166927121579647,0.0,0.0,0.0,0.0,-0.0008738721953704953,-0.0012085658963769674,0.0002304848312633112,0.9983985424041748,0.0,0.0,0.0,-9.126943588256836,4.4831085205078125,7.585704803466797,1651.9951171875,0
59.472999999999956,-0.01914597488939762,0.0208763275295496,-0.0002693739952519536,0.0,0.0,0.0,0.0,-0.00047545754932798445,0.0014493234921246767,-0.0004297442501410842,1.0000863075256348,0.0,0.0,0.0,-9.123594284057617,4.487974166870117,7.597478866577148,1651.388671875,0
69.37700000000041,-0.01911831833422184,0.02084934525191784,-0.0003628089325502515,0.0,0.0,0.0,0.0,-6.840154674137011e-05,-0.0027215462177991867,-0.001923582167364657,1.0012593269348145,0.0,0.0,0.0,-9.125279426574707,4.483259201049805,7.597869873046875,1651.69384765625,0
79.29199999999946,-0.01914907433092594,0.020834434777498245,-0.00036666911910288036,0.0,0.0,0.0,0.0,0.005042004399001598,-0.0018749912269413471,-0.0013031582348048687,0.9998689293861389,0.0,0.0,0.0,-9.117269515991211,4.479608058929443,7.601018905639648,1650.243896484375,0
89.19800000000032,-0.019130723550915718,0.020796632394194603,-0.0004609648312907666,0.0,0.0,0.0,0.0,-0.003159508341923356,-0.005667407531291246,0.002547510201111436,1.0000470876693726,0.0,0.0,0.0,-9.118301391601562,4.466989040374756,7.612443447113037,1650.4306640625,0
99.11399999999958,-0.01915127970278263,0.02090904675424099,-0.00038026078254915774,0.0,0.0,0.0,0.0,-0.002447759732604027,9.938536823028699e-05,0.0012143587227910757,0.9999608397483826,0.0,0.0,0.0,-9.11512565612793,4.499635219573975,7.616758346557617,1649.8558349609375,0
109.02100000000064,-0.019198758527636528,0.020811891183257103,-0.00040727006853558123,0.0,0.0,0.0,0.0,0.0023538926616311073,-0.005507434252649546,0.00392796890810132,0.998029887676239,0.0,0.0,0.0,-9.11616039276123,4.484966278076172,7.615176200866699,1650.0430908203125,0
118.94499999999971,-0.01921752281486988,0.020874062553048134,-0.0003570341505110264,0.0,0.0,0.0,0.0,-0.003813408315181732,0.002927577355876565,0.0035298664588481188,0.9979936480522156,0.0,0.0,0.0,-9.106200218200684,4.477717876434326,7.616520404815674,1648.2403564453125,0
128.85000000000036,-0.019249264150857925,0.02079598233103752,-0.00040390377398580313,0.0,0.0,0.0,0.0,0.0017289414536207914,0.0008745277882553637,-0.0011308521497994661,0.9987533688545227,0.0,0.0,0.0,-9.107504844665527,4.472132682800293,7.616091728210449,1648.4765625,0
138.76699999999983,-0.019200030714273453,0.02088451385498047,-0.00031982469954527915,0.0,0.0,0.0,0.0,-0.0017645457992330194,0.0008807016420178115,0.0009568458190187812,1.0000966787338257,0.0,0.0,0.0,-9.099013328552246,4.464101314544678,7.615358352661133,1646.939453125,0
148.6929999999993,-0.01922556944191456,0.02082701027393341,-0.0003673712781164795,0.0,0.0,0.0,0.0,-0.002071843482553959,-0.0001210083210025914,0.0009179352782666683,0.9991730451583862,0.0,0.0,0.0,-9.100300788879395,4.455082893371582,7.611266136169434,1647.172607421875,0
158.59200000000055,-0.019232550635933876,0.020884694531559944,-0.00031194157782010734,0.0,0.0,0.0,0.0,0.0014713959535583854,-0.0017258411971852183,-0.0007749949581921101,0.9998142123222351,0.0,0.0,0.0,-9.10227108001709,4.467377185821533,7.610992908477783,1647.5291748046875,0
168.50400000000081,-0.019227975979447365,0.02082006074488163,-0.00040554680163040757,0.0,0.0,0.0,0.0,-0.0005023026023991406,0.0002737885806709528,0.0023872200399637222,0.9994775652885437,0.0,0.0,0.0,-9.101170539855957,4.452271461486816,7.610118865966797,1647.3299560546875,0
178.41500000000087,-0.01919586770236492,0.020792890340089798,-0.00037503003841266036,0.0,0.0,0.0,0.0,-0.0034085731022059917,-0.0033301678486168385,-8.95586417755112e-05,0.9997904896736145,0.0,0.0,0.0,-9.113133430480957,4.449950695037842,7.622036457061768,1649.4952392578125,0
188.33300000000054,-0.019182907417416573,0.020760072395205498,-0.0004664607986342162,0.0,0.0,0.0,0.0,0.0004190310719422996,-0.0023454774636775255,-0.002010992495343089,0.9987999796867371,0.0,0.0,0.0,-9.111408233642578,4.449525356292725,7.63308572769165,1649.18310546875,0
198.2420000000002,-0.019182760268449783,0.020767416805028915,-0.0004362665640655905,0.0,0.0,0.0,0.0,-0.0018209677655249834,-0.005176826845854521,-0.0007512669544667006,1.0011818408966064,0.0,0.0,0.0,-9.124627113342285,4.453928470611572,7.6401824951171875,1651.57568359375,0
208.16200000000026,-0.019212007522583008,0.020713644102215767,-0.0004755326663143933,0.0,0.0,0.0,0.0,0.0009726407006382942,0.00012798394891433418,0.00021303680841811,1.000265121459961,0.0,0.0,0.0,-9.126137733459473,4.448534965515137,7.648083209991455,1651.8492431640625,0
218.0689999999995,-0.01914595626294613,0.0207643061876297,-0.0003967279626522213,0.0,0.0,0.0,0.0,0.001684243674390018,-0.0014523400459438562,0.0005301633500494063,0.9984243512153625,0.0,0.0,0.0,-9.140740394592285,4.458294868469238,7.653146743774414,1654.4923095703125,0
227.9860000000008,-0.01914861798286438,0.02071813866496086,-0.00046884751645848155,0.0,0.0,0.0,0.0,0.001973549136891961,0.004245704971253872,0.0025555661413818598,0.9987803101539612,0.0,0.0,0.0,-9.141484260559082,4.449926853179932,7.655023574829102,1654.626708984375,0
237.89500000000044,-0.019125519320368767,0.020763400942087173,-0.0004080671351402998,0.0,0.0,0.0,0.0,0.0009418980334885418,0.0008142221486195922,0.002331351861357689,0.9996155500411987,0.0,0.0,0.0,-9.152531623840332,4.458671569824219,7.649916648864746,1656.62646484375,0
247.80799999999908,-0.019136106595396996,0.02070068009197712,-0.00047382342745549977,0.0,0.0,0.0,0.0,-0.0011435718042775989,-0.002293849363923073,0.0005999903660267591,0.9998916387557983,0.0,0.0,0.0,-9.15241527557373,4.4485931396484375,7.644186019897461,1656.60546875,0
257.72299999999996,-0.019158940762281418,0.020730318501591682,-0.0004343312466517091,0.0,0.0,0.0,0.0,-0.002880383050069213,-0.0024657114408910275,0.002093671355396509,0.997860312461853,0.0,0.0,0.0,-9.163865089416504,4.460975170135498,7.648934841156006,1658.677734375,0
267.6360000000004,-0.019157469272613525,0.020689932629466057,-0.000512263854034245,0.0,0.0,0.0,0.0,0.0002620758896227926,0.00452088750898838,-0.00012545402569230646,0.9974852204322815,0.0,0.0,0.0,-9.164649963378906,4.46062707901001,7.652504920959473,1658.81982421875,0
277.54399999999987,-0.019150396808981895,0.020795609802007675,-0.00043591976282186806,0.0,0.0,0.0,0.0,-0.00036531698424369097,-0.003253515111282468,-0.0002858876541722566,0.9990389943122864,0.0,0.0,0.0,-9.15573787689209,4.458077430725098,7.641156196594238,1657.206787109375,0
287.4599999999991,-0.01915406994521618,0.020766708999872208,-0.0005022497498430312,0.0,0.0,0.0,0.0,0.0015205052914097905,0.004702539183199406,-0.003177359700202942,0.9982323050498962,0.0,0.0,0.0,-9.155460357666016,4.454855442047119,7.645869731903076,1657.156494140625,0
297.3739999999998,-0.019169528037309647,0.020825551822781563,-0.0004582253168337047,0.0,0.0,0.0,0.0,-0.0005695202271454036,-0.0012604499934241176,0.004324319306761026,0.998913049697876,0.0,0.0,0.0,-9.154513359069824,4.457091808319092,7.622981548309326,1656.985107421875,0
307.28299999999945,-0.019206389784812927,0.02078688144683838,-0.0004788336518686265,0.0,0.0,0.0,0.0,0.002845934359356761,0.00523285660892725,-0.00200646067969501,1.0000591278076172,0.0,0.0,0.0,-9.150663375854492,4.4481072425842285,7.615708827972412,1656.2882080078125,0
317.2019999999993,-0.019117478281259537,0.020797014236450195,-0.00041415836312808096,0.0,0.0,0.0,0.0,-0.0014942591078579426,-0.00576228741556406,0.0018401705892756581,1.0004308223724365,0.0,0.0,0.0,-9.162616729736328,4.449230194091797,7.614541530609131,1658.4517822265625,0
327.1090000000004,-0.0191488154232502,0.02075784280896187,-0.0004324904293753207,0.0,0.0,0.0,0.0,-0.0003797678218688816,-0.0012121349573135376,0.0022409390658140182,0.9998959302902222,0.0,0.0,0.0,-9.159951210021973,4.440334320068359,7.621644973754883,1657.969482421875,0
337.02900000000045,-0.019183747470378876,0.020737966522574425,-0.0004380621830932796,0.0,0.0,0.0,0.0,0.00031115702586248517,-0.002257752465084195,0.0024195571895688772,1.001159906387329,0.0,0.0,0.0,-9.149431228637695,4.4351372718811035,7.6145100593566895,1656.0653076171875,0
346.9329999999991,-0.019198058173060417,0.020733820274472237,-0.00047164675197564065,0.0,0.0,0.0,0.0,-0.00025963003281503916,0.0015898317797109485,-0.00032827857648953795,1.0023839473724365,0.0,0.0,0.0,-9.146831512451172,4.433251857757568,7.614165306091309,1655.5947265625,0
356.84000000000015,-0.019234996289014816,0.02071547694504261,-0.0004764162877108902,0.0,0.0,0.0,0.0,-0.0014778857585042715,-0.0053924438543617725,-0.0024210214614868164,0.9995145797729492,0.0,0.0,0.0,-9.138362884521484,4.428866863250732,7.6019287109375,1654.0618896484375,0
366.759,-0.019261157140135765,0.02071165293455124,-0.00050101347733289,0.0,0.0,0.0,0.0,-0.000942600192502141,0.0014340645866468549,-0.0009241221123374999,0.9974483251571655,0.0,0.0,0.0,-9.137262344360352,4.436709403991699,7.617131233215332,1653.8626708984375,0
376.6740000000009,-0.01930016279220581,0.020693808794021606,-0.0005068402970209718,0.0,0.0,0.0,0.0,0.001548899570479989,0.0015313642797991633,0.0015795461367815733,1.0000888109207153,0.0,0.0,0.0,-9.128100395202637,4.432499885559082,7.611051559448242,1652.2042236328125,0
386.5849999999991,-0.019336074590682983,0.02072189748287201,-0.0005036602960899472,0.0,0.0,0.0,0.0,-0.001055340631864965,0.0004847974923904985,0.0014466766733676195,0.9989757537841797,0.0,0.0,0.0,-9.129329681396484,4.441733360290527,7.598161220550537,1652.4268798828125,0
396.491,-0.01937686651945114,0.02070467546582222,-0.0005100751295685768,0.0,0.0,0.0,0.0,0.0001181690240628086,0.0029461372178047895,-0.0011767683317884803,0.9997935891151428,0.0,0.0,0.0,-9.119767189025879,4.44234037399292,7.591508388519287,1650.6959228515625,0
406.4279999999999,-0.01941605843603611,0.020734122022986412,-0.0005064281867817044,0.0,0.0,0.0,0.0,-0.0028394595719873905,0.004091099835932255,-0.0014212911482900381,1.0017768144607544,0.0,0.0,0.0,-9.123271942138672,4.455751895904541,7.579989910125732,1651.330322265625,0
416.3189999999995,-0.019465820863842964,0.020718811079859734,-0.0005123484297655523,0.0,0.0,0.0,0.0,0.0016269112238660455,-0.0058358218520879745,0.006031596567481756,0.9986799955368042,0.0,0.0,0.0,-9.113862991333008,4.461266040802002,7.571460247039795,1649.6273193359375,0
426.23699999999917,-0.01946520432829857,0.020737862214446068,-0.0005651992978528142,0.0,0.0,0.0,0.0,0.0019107407424598932,0.0016808815998956561,-0.0018173819407820702,0.9975283741950989,0.0,0.0,0.0,-9.111715316772461,4.476314544677734,7.598544597625732,1649.238525390625,0
436.14300000000003,-0.019508814439177513,0.02072489820420742,-0.0005758932093158364,0.0,0.0,0.0,0.0,-0.0009205756359733641,-0.0010880016488954425,-0.0013042098144069314,0.9974424242973328,0.0,0.0,0.0,-9.102544784545898,4.468077182769775,7.593191623687744,1647.57861328125,0
446.0679999999993,-0.019511640071868896,0.020741401240229607,-0.0006298482185229659,0.0,0.0,0.0,0.0,0.0011105077574029565,-0.0009323995909653604,0.0021649429108947515,1.0004050731658936,0.0,0.0,0.0,-9.106001853942871,4.478320598602295,7.6033244132995605,1648.204345703125,0
455.96899999999914,-0.01955576427280903,0.020730992779135704,-0.0006471059750765562,0.0,0.0,0.0,0.0,0.000691399269271642,-8.262880146503448e-05,0.0016084022354334593,1.0011563301086426,0.0,0.0,0.0,-9.096117973327637,4.468869686126709,7.600295543670654,1646.415283203125,0
465.88800000000083,-0.019603122025728226,0.02072092331945896,-0.0006633715238422155,0.0,0.0,0.0,0.0,-0.0020367850083857775,0.0016616842476651073,-0.0009037528652697802,1.0001400709152222,0.0,0.0,0.0,-9.08706283569336,4.464075088500977,7.590721607208252,1644.7764892578125,0
475.79299999999967,-0.019651878625154495,0.02071070857346058,-0.0006786753656342626,0.0,0.0,0.0,0.0,0.0004453820292837918,0.002067019697278738,-7.058147457428277e-05,1.0003876686096191,0.0,0.0,0.0,-9.078548431396484,4.463608264923096,7.576142311096191,1643.2353515625,0
485.71999999999935,-0.019684361293911934,0.020732441917061806,-0.0007060086354613304,0.0,0.0,0.0,0.0,-0.0002344708191230893,-0.00484709395095706,0.0018370773177593946,1.001230001449585,0.0,0.0,0.0,-9.087337493896484,4.471750736236572,7.5660481452941895,1644.826171875,0
495.6219999999994,-0.019734162837266922,0.020723644644021988,-0.0007206807495094836,0.0,0.0,0.0,0.0,0.0027322638779878616,0.0031828933861106634,-0.0008344952366314828,0.9997910857200623,0.0,0.0,0.0,-9.077607154846191,4.468056678771973,7.569151878356934,1643.06494140625,0
505.54099999999926,-0.01972883567214012,0.02070760540664196,-0.0008074443321675062,0.0,0.0,0.0,0.0,-0.0010868601966649294,-0.0030041944701224566,-0.000503079267218709,0.9989302754402161,0.0,0.0,0.0,-9.078657150268555,4.465816974639893,7.5720062255859375,1643.2548828125,0
515.4459999999999,-0.019777432084083557,0.020697280764579773,-0.0008269621757790446,0.0,0.0,0.0,0.0,0.0004167506122030318,-0.0008127042092382908,0.003527238965034485,1.000123143196106,0.0,0.0,0.0,-9.069369316101074,4.460213661193848,7.568737030029297,1641.573974609375,0
525.3729999999996,-0.019827816635370255,0.02068553864955902,-0.0008464638376608491,0.0,0.0,0.0,0.0,-0.002336029661819339,0.0019738073460757732,0.004000942688435316,0.9983232021331787,0.0,0.0,0.0,-9.0603666305542,4.452452659606934,7.558976173400879,1639.9443359375,0
535.2790000000005,-0.01988029293715954,0.020672226324677467,-0.0008662987384013832,0.0,0.0,0.0,0.0,0.0010170713067054749,-0.002736416645348072,0.0028746353927999735,0.9993486404418945,0.0,0.0,0.0,-9.051154136657715,4.451457500457764,7.5478196144104,1638.2767333984375,0
545.1970000000001,-0.019935373216867447,0.020657941699028015,-0.0008869649609550834,0.0,0.0,0.0,0.0,0.00031914946157485247,0.0021063832100480795,-0.00039125492912717164,1.000237226486206,0.0,0.0,0.0,-9.041642189025879,4.446524620056152,7.551270484924316,1636.55517578125,0
555.1029999999992,-0.01999274082481861,0.020643141120672226,-0.0009075962589122355,0.0,0.0,0.0,0.0,-0.0015183272771537304,-0.003438795916736126,-0.0013964258832857013,1.001479983329773,0.0,0.0,0.0,-9.032609939575195,4.4438652992248535,7.5446977615356445,1634.92041015625,0
565.0220000000008,-0.02005135640501976,0.02062782645225525,-0.0009271744638681412,0.0,0.0,0.0,0.0,-0.0022742007859051228,0.0003499851154629141,0.0017094477079808712,0.9986615777015686,0.0,0.0,0.0,-9.023810386657715,4.441788196563721,7.5451154708862305,1633.3275146484375,0
574.9290000000001,-0.01918855495750904,0.020608529448509216,-0.0001225034357048571,0.0,0.0,0.0,0.0,-0.0012444277526810765,0.0001081584850908257,-0.0005608337232843041,0.9982417821884155,0.0,0.0,0.0,-9.030912399291992,4.48535680770874,7.670059680938721,1634.613037109375,0
584.8400000000001,-0.01921183615922928,0.02059623971581459,-0.00010860071051865816,0.0,0.0,0.0,0.0,-0.0037496532313525677,-0.002363578649237752,-0.005489998497068882,0.9998990893363953,0.0,0.0,0.0,-9.02185344696045,4.480555057525635,7.6610822677612305,1632.973388671875,0
594.7639999999992,-0.019191540777683258,0.020614057779312134,-4.5941655116621405e-05,0.0,0.0,0.0,0.0,-0.0004233949875924736,-0.00025413563707843423,0.001924225129187107,0.9996011853218079,0.0,0.0,0.0,-9.049683570861816,4.494945526123047,7.6666765213012695,1638.0107421875,0
604.6679999999997,-0.019217828288674355,0.02060159668326378,-2.9760565666947514e-05,0.0,0.0,0.0,0.0,0.0024029274936765432,-0.00041138529195450246,-0.000434255285654217,0.9990668296813965,0.0,0.0,0.0,-9.039519309997559,4.49199914932251,7.666018009185791,1636.1708984375,0
614.5799999999999,-0.01923687569797039,0.020642274990677834,2.9330911274882965e-05,0.0,0.0,0.0,0.0,-0.001049756072461605,-0.0020183834712952375,0.005633006803691387,0.9992482662200928,0.0,0.0,0.0,-9.037485122680664,4.49584436416626,7.665860176086426,1635.8026123046875,0
624.4869999999992,-0.019268881529569626,0.020630236715078354,4.776428977493197e-05,0.0,0.0,0.0,0.0,0.0003909727092832327,0.0005578527925536036,0.0003839771670754999,1.0020396709442139,0.0,0.0,0.0,-9.02662467956543,4.489536762237549,7.670318603515625,1633.8370361328125,0
634.4150000000009,-0.019253047183156013,0.020637603476643562,8.929832256399095e-05,0.0,0.0,0.0,0.0,0.002832134021446109,-0.0011097085662186146,-0.001250102766789496,1.0009377002716064,0.0,0.0,0.0,-9.05317211151123,4.493521690368652,7.670393466949463,1638.64208984375,0
644.3130000000001,-0.019287575036287308,0.020624782890081406,0.00011183993774466217,0.0,0.0,0.0,0.0,8.404343680012971e-05,0.0008362364023923874,-0.0007830955437384546,1.0000770092010498,0.0,0.0,0.0,-9.044346809387207,4.482082366943359,7.659170150756836,1637.0447998046875,0
654.2379999999994,-0.019294513389468193,0.020645616576075554,0.00016657901869621128,0.0,0.0,0.0,0.0,-0.0013065156526863575,0.0018196934834122658,0.0020554140210151672,0.9983466863632202,0.0,0.0,0.0,-9.048802375793457,4.48729944229126,7.652044296264648,1637.8511962890625,0
664.1399999999994,-0.019331401214003563,0.020633596926927567,0.00019219102978240699,0.0,0.0,0.0,0.0,-0.0007046482060104609,0.0005038632662035525,-0.0027365474961698055,0.9972901940345764,0.0,0.0,0.0,-9.039783477783203,4.48502254486084,7.645366191864014,1636.21875,0
674.0599999999995,-0.019308773800730705,0.020622963085770607,0.00023528670135419816,0.0,0.0,0.0,0.0,-4.625183282769285e-05,0.0013045435771346092,0.0011739113833755255,0.9992809295654297,0.0,0.0,0.0,-9.06605052947998,4.484681129455566,7.656023979187012,1640.9732666015625,0
683.9709999999995,-0.01934611238539219,0.02060813270509243,0.000260421191342175,0.0,0.0,0.0,0.0,-0.002595658181235194,0.0008633292745798826,-0.002914922311902046,1.0005877017974854,0.0,0.0,0.0,-9.057099342346191,4.478636264801025,7.645849227905273,1639.3529052734375,0
693.884,-0.019362613558769226,0.02062474563717842,0.0003203068336006254,0.0,0.0,0.0,0.0,0.0005035868962295353,0.0008678477024659514,-0.0006597020546905696,1.0005367994308472,0.0,0.0,0.0,-9.05916976928711,4.49191427230835,7.6451287269592285,1639.7275390625,0
703.7929999999997,-0.01940227672457695,0.020610343664884567,0.0003499490849208087,0.0,0.0,0.0,0.0,-0.0002369391731917858,-0.0008610198856331408,0.003970073536038399,0.9989053010940552,0.0,0.0,0.0,-9.050762176513672,4.4872002601623535,7.6344523429870605,1638.2059326171875,0
713.7090000000007,-0.019420551136136055,0.020625721663236618,0.0004128680448047817,0.0,0.0,0.0,0.0,0.0028369235806167126,-0.0004822811170015484,0.0018950729863718152,0.9976478815078735,0.0,0.0,0.0,-9.059616088867188,4.503238201141357,7.637321472167969,1639.808349609375,0
723.6149999999998,-0.019461536779999733,0.020610513165593147,0.0004450246342457831,0.0,0.0,0.0,0.0,0.0017439438961446285,-0.001277588657103479,-0.0021044316235929728,1.0014036893844604,0.0,0.0,0.0,-9.050148963928223,4.494903564453125,7.629935264587402,1638.094970703125,0
733.5360000000001,-0.019473491236567497,0.020599115639925003,0.000503012677654624,0.0,0.0,0.0,0.0,-0.0013621964026242495,-0.002203290816396475,0.0004601135151460767,0.9999591708183289,0.0,0.0,0.0,-9.056661605834961,4.495087146759033,7.64120626449585,1639.273681640625,0
743.4429999999993,-0.01951185055077076,0.020581526681780815,0.0005384122487157583,0.0,0.0,0.0,0.0,0.002278192201629281,0.0007613278576172888,-0.002607407746836543,0.9990351796150208,0.0,0.0,0.0,-9.046854019165039,4.49263334274292,7.644608497619629,1637.49853515625,0
753.3760000000002,-0.019511761143803596,0.020563390105962753,0.0006054095574654639,0.0,0.0,0.0,0.0,0.0010392683325335383,-0.0008615752449259162,-0.0011691402178257704,0.998405396938324,0.0,0.0,0.0,-9.053521156311035,4.487724304199219,7.663381099700928,1638.705322265625,0
763.2669999999998,-0.019234538078308105,0.02093169465661049,-0.0002788771816994995,0.0,0.0,0.0,0.0,-0.0011717339511960745,0.0011754150036722422,-0.0015739621594548225,0.9978483319282532,0.0,0.0,0.0,-9.062003135681152,4.55558443069458,7.701930999755859,1640.2406005859375,0
773.1890000000003,-0.019213233143091202,0.020936856046319008,-0.0002440720854792744,0.0,0.0,0.0,0.0,0.0027065665926784277,0.00026271253591403365,0.0022964489180594683,0.9992938041687012,0.0,0.0,0.0,-9.068367004394531,4.560400009155273,7.696322917938232,1641.3924560546875,0
783.0910000000003,-0.01924062706530094,0.02089574746787548,-0.00026323142810724676,0.0,0.0,0.0,0.0,0.004489682614803314,0.0002570467768236995,0.0011354082962498069,0.9974484443664551,0.0,0.0,0.0,-9.074896812438965,4.5441765785217285,7.689679145812988,1642.5743408203125,0
793.0220000000008,-0.019238000735640526,0.020913174375891685,-0.00023693231923971325,0.0,0.0,0.0,0.0,0.0010492345318198204,0.005025894846767187,-0.0022414762061089277,0.9990714192390442,0.0,0.0,0.0,-9.06601619720459,4.528561115264893,7.677804470062256,1640.967041015625,0
802.9169999999995,-0.019290480762720108,0.02082756906747818,-0.00023291354591492563,0.0,0.0,0.0,0.0,0.0003920513263437897,0.0010001069167628884,-0.0016324755270034075,0.9989439249038696,0.0,0.0,0.0,-9.073003768920898,4.51584529876709,7.660966873168945,1642.231689453125,0
812.8420000000006,-0.019239339977502823,0.020775848999619484,-0.00021345615095924586,0.0,0.0,0.0,0.0,0.0022801074665039778,-0.0009673288441263139,0.004571354482322931,0.9996340274810791,0.0,0.0,0.0,-9.09249210357666,4.509088039398193,7.657222747802734,1645.759033203125,0
822.7430000000004,-0.019204311072826385,0.020799627527594566,-0.0002950557100120932,0.0,0.0,0.0,0.0,9.847718501987401e-06,-0.001436940860003233,-0.0002815189363900572,0.9988294839859009,0.0,0.0,0.0,-9.09253215789795,4.50499153137207,7.657005310058594,1645.766357421875,0
832.6630000000005,-0.019226986914873123,0.020817838609218597,-0.00027116219280287623,0.0,0.0,0.0,0.0,0.002278282307088375,0.005140345077961683,0.002408338477835059,0.9999457597732544,0.0,0.0,0.0,-9.110648155212402,4.50834321975708,7.651988506317139,1649.04541015625,0
842.5689999999995,-0.019171791151165962,0.02083558961749077,-0.0003895942645613104,0.0,0.0,0.0,0.0,-0.0016007653903216124,0.003262452082708478,-0.0062131923623383045,0.9995178580284119,0.0,0.0,0.0,-9.113682746887207,4.503489017486572,7.641072750091553,1649.5947265625,0
852.491,-0.01920650340616703,0.02090665139257908,-0.00035692594246938825,0.0,0.0,0.0,0.0,0.0021690144203603268,0.0038335411809384823,0.002529538469389081,0.9972493648529053,0.0,0.0,0.0,-9.11606502532959,4.507565498352051,7.624863147735596,1650.02587890625,0
862.3979999999992,-0.019198251888155937,0.020840046927332878,-0.00044596754014492035,0.0,0.0,0.0,0.0,-0.00025114722666330636,-0.0025885722134262323,-0.0017466344870626926,0.9980165362358093,0.0,0.0,0.0,-9.11535930633545,4.492722988128662,7.615149021148682,1649.8980712890625,0
872.3230000000003,-0.019140267744660378,0.020915620028972626,-0.0003828659246210009,0.0,0.0,0.0,0.0,-0.001898665796034038,-0.0038040061481297016,0.0002754138258751482,0.9998628497123718,0.0,0.0,0.0,-9.11296272277832,4.497476577758789,7.620635986328125,1649.4642333984375,0
882.2199999999993,-0.01912776380777359,0.020885633304715157,-0.0004645310982596129,0.0,0.0,0.0,0.0,0.0020833725575357676,0.00594233488664031,0.0004067450645379722,0.9982652068138123,0.0,0.0,0.0,-9.112191200256348,4.495631217956543,7.6277689933776855,1649.3245849609375,0
892.1450000000004,-0.019158605486154556,0.02095891907811165,-0.0004351756942924112,0.0,0.0,0.0,0.0,-0.001784719293937087,-0.0048215026035904884,0.0021158133167773485,0.9990010857582092,0.0,0.0,0.0,-9.113227844238281,4.4973907470703125,7.610177040100098,1649.5123291015625,0
902.0450000000001,-0.01918673701584339,0.02086731791496277,-0.0004906170070171356,0.0,0.0,0.0,0.0,-0.0022300768177956343,-0.006901576649397612,0.002381635829806328,1.0000604391098022,0.0,0.0,0.0,-9.113451957702637,4.491218090057373,7.6088995933532715,1649.552734375,0
911.9639999999999,-0.019177120178937912,0.020884167402982712,-0.0004672270442824811,0.0,0.0,0.0,0.0,0.0008666132343932986,0.0012085263151675463,0.0012595425359904766,1.0000052452087402,0.0,0.0,0.0,-9.128670692443848,4.497064590454102,7.622097015380859,1652.3074951171875,0
921.8709999999992,-0.0192329753190279,0.02079763263463974,-0.0004797497531399131,0.0,0.0,0.0,0.0,0.000666400883346796,-0.004464507568627596,-3.88828557333909e-05,0.9964472055435181,0.0,0.0,0.0,-9.128995895385742,4.478495121002197,7.6107611656188965,1652.3663330078125,0
931.7890000000007,-0.019262833520770073,0.020788058638572693,-0.0004970841109752655,0.0,0.0,0.0,0.0,0.0003414539387449622,0.0010414524003863335,-0.002008980605751276,0.9976538419723511,0.0,0.0,0.0,-9.120037078857422,4.473063945770264,7.605828762054443,1650.744873046875,0
941.6990000000005,-0.01929405704140663,0.020719999447464943,-0.0005397151107899845,0.0,0.0,0.0,0.0,-0.0011270184768363833,0.001993573270738125,-0.003946259152144194,0.9986435770988464,0.0,0.0,0.0,-9.120108604431152,4.459240913391113,7.594654560089111,1650.7578125,0
951.6139999999996,-0.019172172993421555,0.020806754007935524,-0.00041540819802321494,0.0,0.0,0.0,0.0,0.000365900486940518,-0.0019015258876606822,-0.0005056519876234233,0.9990689158439636,0.0,0.0,0.0,-9.119093894958496,4.47750997543335,7.610002040863037,1650.57421875,0
961.5429999999997,-0.01912073791027069,0.02082066982984543,-0.00037895297282375395,0.0,0.0,0.0,0.0,0.0010277387918904424,-0.0025869596283882856,-2.177346686949022e-05,0.999613881111145,0.0,0.0,0.0,-9.120595932006836,4.468212127685547,7.609023571014404,1650.8460693359375,0
971.4410000000007,-0.019148942083120346,0.020809421315789223,-0.00038942822720855474,0.0,0.0,0.0,0.0,-0.0014324099756777287,0.0029753069393336773,0.003893848042935133,0.9994798302650452,0.0,0.0,0.0,-9.111235618591309,4.462357044219971,7.607316493988037,1649.1517333984375,0
981.3490000000002,-0.01911134086549282,0.020845739170908928,-0.00039576151175424457,0.0,0.0,0.0,0.0,-0.00042529922211542726,-0.0009396836394444108,0.00030506608891300857,1.000619888305664,0.0,0.0,0.0,-9.1218900680542,4.468180179595947,7.60073184967041,1651.0802001953125,0
991.2639999999992,-0.019139064475893974,0.020834190770983696,-0.0004056429606862366,0.0,0.0,0.0,0.0,-0.00129891827236861,-0.0034225715789943933,0.0037163079250603914,1.0003489255905151,0.0,0.0,0.0,-9.11243724822998,4.458773136138916,7.5933518409729,1649.3692626953125,0
1001.1820000000007,-0.01906665973365307,0.02087835595011711,-0.0004279405693523586,0.0,0.0,0.0,0.0,-0.0049585746601223946,-0.0008280802867375314,-0.0012122576590627432,0.9988107085227966,0.0,0.0,0.0,-9.1107177734375,4.453307628631592,7.595327854156494,1649.05810546875,0
1011.0910000000003,-0.01908997632563114,0.020866941660642624,-0.0004380537138786167,0.0,0.0,0.0,0.0,0.0030049500055611134,0.00013588608999270946,-0.0014606659533455968,0.9979294538497925,0.0,0.0,0.0,-9.102204322814941,4.45499849319458,7.581674575805664,1647.5172119140625,0
1021.0010000000002,-0.019079525023698807,0.020875271409749985,-0.00041030955617316067,0.0,0.0,0.0,0.0,0.0017834599129855633,0.004865772556513548,-0.004890852142125368,1.0008307695388794,0.0,0.0,0.0,-9.115409851074219,4.451016902923584,7.581570148468018,1649.9072265625,0
1030.9120000000003,-0.01910306140780449,0.020863832905888557,-0.00041916646296158433,0.0,0.0,0.0,0.0,-0.0030441333074122667,0.006673718802630901,-0.001073090243153274,1.0010571479797363,0.0,0.0,0.0,-9.108120918273926,4.439408779144287,7.5669684410095215,1648.587890625,0
1040.825999999999,-0.01904967986047268,0.020850330591201782,-0.0004278747655916959,0.0,0.0,0.0,0.0,-0.0008490793406963348,-0.00023246349883265793,0.00022621851530857384,0.9989345669746399,0.0,0.0,0.0,-9.135059356689453,4.445857048034668,7.562031269073486,1653.4638671875,0
1050.7479999999996,-0.019072987139225006,0.0208382960408926,-0.00043542010826058686,0.0,0.0,0.0,0.0,0.0021167651284486055,-0.003091225866228342,0.0024738176725804806,0.998862087726593,0.0,0.0,0.0,-9.125699043273926,4.443106174468994,7.553335666656494,1651.7696533203125,0
1060.6550000000007,-0.019071634858846664,0.02087165229022503,-0.0003938231384381652,0.0,0.0,0.0,0.0,0.000590338371694088,-0.006040634121745825,4.137512223678641e-05,1.0004595518112183,0.0,0.0,0.0,-9.12722396850586,4.437691688537598,7.5503973960876465,1652.0457763671875,0
1070.566999999999,-0.01909814402461052,0.020860815420746803,-0.00039841423858888447,0.0,0.0,0.0,0.0,-0.0007489884737879038,0.004893109668046236,-0.003293188288807869,0.9986226558685303,0.0,0.0,0.0,-9.118165969848633,4.431697845458984,7.561253547668457,1650.40625,0
1080.4920000000002,-0.019047966226935387,0.020864853635430336,-0.00040472365799359977,0.0,0.0,0.0,0.0,-0.0009830305352807045,0.0059778946451842785,-0.00026755325961858034,0.9994742274284363,0.0,0.0,0.0,-9.128152847290039,4.436192512512207,7.560898780822754,1652.2138671875,0
1090.3909999999996,-0.019075430929660797,0.020852072164416313,-0.0004099643265362829,0.0,0.0,0.0,0.0,-0.001027034712024033,0.0016172351315617561,0.002115684561431408,1.0004379749298096,0.0,0.0,0.0,-9.118818283081055,4.433347702026367,7.548022270202637,1650.5240478515625,0
1100.3029999999999,-0.01908073015511036,0.02087152749300003,-0.00036645695217885077,0.0,0.0,0.0,0.0,0.002618392463773489,0.000645372667349875,0.0011636774288490415,1.0011204481124878,0.0,0.0,0.0,-9.129691123962402,4.4390106201171875,7.544915676116943,1652.4923095703125,0
1110.2160000000003,-0.01911091059446335,0.02085561864078045,-0.0003672652819659561,0.0,0.0,0.0,0.0,-0.0008267622324638069,-3.786934757954441e-05,0.0009225894464179873,0.9999960660934448,0.0,0.0,0.0,-9.120543479919434,4.434126853942871,7.541361331939697,1650.83642578125,0
1120.1280000000006,-0.01916605979204178,0.02086625248193741,-0.00036887542228214443,0.0,0.0,0.0,0.0,-0.0015725069679319859,-0.0032923270482569933,0.0028983077500015497,0.9994868636131287,0.0,0.0,0.0,-9.148354530334473,4.440957069396973,7.536397933959961,1655.8704833984375,0
1130.054,-0.019201787188649178,0.02085089683532715,-0.0003685006813611835,0.0,0.0,0.0,0.0,0.0011484361020848155,0.0007333817193284631,-0.00025403048493899405,0.999160885810852,0.0,0.0,0.0,-9.138431549072266,4.440084934234619,7.539848327636719,1654.07421875,0
1139.9560000000001,-0.019182397052645683,0.020876793190836906,-0.0003770195471588522,0.0,0.0,0.0,0.0,-0.002753819338977337,0.002536448882892728,-0.0012540370225906372,0.9989988207817078,0.0,0.0,0.0,-9.160158157348633,4.444859027862549,7.548800945281982,1658.0069580078125,0
1149.8680000000004,-0.01922004483640194,0.020862136036157608,-0.0003776168741751462,0.0,0.0,0.0,0.0,-0.0008739070617593825,-0.0015124992933124304,0.005024520680308342,1.000474452972412,0.0,0.0,0.0,-9.150873184204102,4.446021556854248,7.547279357910156,1656.3262939453125,0
1159.7829999999994,-0.0192217119038105,0.020822100341320038,-0.0003113761486019939,0.0,0.0,0.0,0.0,-0.0022672691848129034,-0.0007848285022191703,0.0032460764050483704,1.0003348588943481,0.0,0.0,0.0,-9.167892456054688,4.445981502532959,7.5542378425598145,1659.4066162109375,0
1169.6980000000003,-0.019270362332463264,0.02076038159430027,-0.00031798589043319225,0.0,0.0,0.0,0.0,-0.002088040579110384,-0.001529231434687972,0.000422870711190626,1.0006321668624878,0.0,0.0,0.0,-9.168204307556152,4.436735153198242,7.548252105712891,1659.4632568359375,0
1179.6180000000004,-0.01924128457903862,0.02078295312821865,-0.0002571056829765439,0.0,0.0,0.0,0.0,-0.0027711805887520313,0.0013986709527671337,-0.0002584409376140684,0.9997701644897461,0.0,0.0,0.0,-9.17843246459961,4.446470260620117,7.556382656097412,1661.3143310546875,0
1189.5190000000002,-0.019322410225868225,0.020689189434051514,-0.00022554193856194615,0.0,0.0,0.0,0.0,0.002836804371327162,-0.0015496716368943453,-0.0007475303718820214,0.9991591572761536,0.0,0.0,0.0,-9.178385734558105,4.434577941894531,7.5349202156066895,1661.30615234375,0
1199.4320000000007,-0.019292889162898064,0.020711448043584824,-0.00015793516649864614,0.0,0.0,0.0,0.0,0.00198497180826962,-0.0009274189360439777,-0.002522984752431512,0.9977518916130066,0.0,0.0,0.0,-9.186741828918457,4.436789035797119,7.546567916870117,1662.818603515625,0
1209.3449999999993,-0.019334718585014343,0.020648106932640076,-0.0001675401726970449,0.0,0.0,0.0,0.0,-0.001117298030294478,0.000870998075697571,0.0004681931168306619,0.998810887336731,0.0,0.0,0.0,-9.185651779174805,4.428066730499268,7.54854154586792,1662.6212158203125,0
1219.2579999999998,-0.01932050660252571,0.0206889808177948,-9.659848728915676e-05,0.0,0.0,0.0,0.0,0.0005649723461829126,-0.0020942408591508865,0.001240559620782733,1.0003526210784912,0.0,0.0,0.0,-9.194398880004883,4.447200298309326,7.546570301055908,1664.2044677734375,0
1229.1720000000005,-0.01925075799226761,0.02073240652680397,-0.00022054517467040569,0.0,0.0,0.0,0.0,-0.0034084590151906013,-0.00660641910508275,0.005421076901257038,0.9994911551475525,0.0,0.0,0.0,-9.192940711975098,4.459539890289307,7.557018280029297,1663.9405517578125,0
1239.0830000000005,-0.019163385033607483,0.020730694755911827,-0.00015258266648743302,0.0,0.0,0.0,0.0,0.0037124205846339464,0.002528775716200471,0.0010701577411964536,1.000974416732788,0.0,0.0,0.0,-9.2030668258667,4.473771572113037,7.586177825927734,1665.7734375,0
1248.9979999999996,-0.019124122336506844,0.020740723237395287,-0.0002461561234667897,0.0,0.0,0.0,0.0,0.0012641607318073511,-0.0015974976122379303,0.0018625729717314243,0.9984357953071594,0.0,0.0,0.0,-9.20181655883789,4.47398567199707,7.588137149810791,1665.5472412109375,0
1258.9079999999994,-0.01912878453731537,0.020768115296959877,-0.00019962941587436944,0.0,0.0,0.0,0.0,-0.0025763316079974174,0.0006923681357875466,-0.0034521378111094236,0.9995793700218201,0.0,0.0,0.0,-9.211219787597656,4.4755024909973145,7.591967582702637,1667.2491455078125,0
1268.821,-0.01908455230295658,0.020771443843841553,-0.00030734698520973325,0.0,0.0,0.0,0.0,-0.003023040248081088,-0.0011269673705101013,-0.0013812206452712417,1.0003794431686401,0.0,0.0,0.0,-9.202122688293457,4.470967769622803,7.585033893585205,1665.6025390625,0
1278.7340000000004,-0.019087620079517365,0.02079083025455475,-0.00027555448468774557,0.0,0.0,0.0,0.0,-0.0009101827745325863,0.002409597160294652,3.244877007091418e-06,1.000207781791687,0.0,0.0,0.0,-9.199801445007324,4.47968053817749,7.598822593688965,1665.182373046875,0
1288.6470000000008,-0.01905111037194729,0.020803455263376236,-0.0003729232703335583,0.0,0.0,0.0,0.0,7.10679596522823e-05,0.0018542001489549875,0.0006800410919822752,0.9969252347946167,0.0,0.0,0.0,-9.199970245361328,4.479199409484863,7.604867458343506,1665.212890625,0
1298.5650000000005,-0.019050391390919685,0.020785078406333923,-0.0003583958023227751,0.0,0.0,0.0,0.0,0.0001469525886932388,-0.0019098753109574318,0.007830748334527016,0.9955474138259888,0.0,0.0,0.0,-9.211153984069824,4.474765777587891,7.589788913726807,1667.2371826171875,0
1308.4719999999998,-0.019042950123548508,0.020765002816915512,-0.00043401954462751746,0.0,0.0,0.0,0.0,0.002799979178234935,-0.0009667759877629578,-0.002646966837346554,0.9988569617271423,0.0,0.0,0.0,-9.199782371520996,4.469240665435791,7.58954381942749,1665.1790771484375,0
1318.3850000000002,-0.019034411758184433,0.020775170996785164,-0.00041140103712677956,0.0,0.0,0.0,0.0,-0.000473242747830227,-0.005186293739825487,0.0002896208898164332,1.0009552240371704,0.0,0.0,0.0,-9.212308883666992,4.479652404785156,7.6039605140686035,1667.4461669921875,0
1328.2999999999993,-0.019085725769400597,0.02071233280003071,-0.00042665001819841564,0.0,0.0,0.0,0.0,0.0002704070648178458,0.004221952520310879,-0.0011275986908003688,1.0002336502075195,0.0,0.0,0.0,-9.211298942565918,4.472050189971924,7.602843284606934,1667.2635498046875,0
1338.2109999999993,-0.019115060567855835,0.020828677341341972,-0.0003708852455019951,0.0,0.0,0.0,0.0,-0.001338731381110847,-0.0010437860619276762,0.0017703409539535642,0.9986867904663086,0.0,0.0,0.0,-9.20799732208252,4.493106365203857,7.596092700958252,1666.6658935546875,0
1348.1239999999998,-0.019112873822450638,0.020805707201361656,-0.0004457531322259456,0.0,0.0,0.0,0.0,-0.00020976444648113102,0.00364723545499146,-0.0007680432754568756,1.0016505718231201,0.0,0.0,0.0,-9.196579933166504,4.490864276885986,7.594784259796143,1664.5992431640625,0
1358.0380000000005,-0.01908675581216812,0.020840339362621307,-0.00040216013439930975,0.0,0.0,0.0,0.0,0.003008671337738633,-0.004510681144893169,-0.003654358210042119,1.0014715194702148,0.0,0.0,0.0,-9.20811653137207,4.496729850769043,7.595428466796875,1666.6873779296875,0
1367.9500000000007,-0.019149892032146454,0.02072947658598423,-0.0004147525178268552,0.0,0.0,0.0,0.0,-0.00017224701878149062,-0.0013014316791668534,0.000537364452611655,1.000573754310608,0.0,0.0,0.0,-9.19966983795166,4.479691982269287,7.597833633422852,1665.158447265625,0
1377.875,-0.019204188138246536,0.020836863666772842,-0.0003642591764219105,0.0,0.0,0.0,0.0,-0.0035479108337312937,0.004077281802892685,0.0006406691973097622,0.9982202053070068,0.0,0.0,0.0,-9.189251899719238,4.470808982849121,7.601964473724365,1663.2728271484375,0
1387.7780000000002,-0.019260674715042114,0.020765891298651695,-0.0003645470133051276,0.0,0.0,0.0,0.0,0.0010797657305374742,0.00022562812955584377,0.0001940643705893308,0.9976195693016052,0.0,0.0,0.0,-9.189367294311523,4.457909107208252,7.586522102355957,1663.2939453125,0
1397.6990000000005,-0.01914115622639656,0.020769139751791954,-0.0002942433056887239,0.0,0.0,0.0,0.0,0.0006393775693140924,7.250394992297515e-05,0.0019071392016485333,1.0003035068511963,0.0,0.0,0.0,-9.199427604675293,4.463663101196289,7.597104072570801,1665.1146240234375,0
1407.6029999999992,-0.019158491864800453,0.02071753516793251,-0.00033183585037477314,0.0,0.0,0.0,0.0,0.0010015229927375913,0.0048945387825369835,0.0007234156946651638,0.9998482465744019,0.0,0.0,0.0,-9.197657585144043,4.456583499908447,7.589928150177002,1664.7943115234375,0
1417.5239999999994,-0.019161386415362358,0.020836232230067253,-0.0002539914275985211,0.0,0.0,0.0,0.0,-8.917432569433004e-05,0.0018145345384255052,0.0027167380321770906,0.9996886849403381,0.0,0.0,0.0,-9.18818473815918,4.442039966583252,7.574427604675293,1663.079833984375,0
1427.4349999999995,-0.01921091228723526,0.020761175081133842,-0.00025156978517770767,0.0,0.0,0.0,0.0,-9.427879558643326e-05,0.004212555009871721,0.0029391946736723185,1.0000290870666504,0.0,0.0,0.0,-9.186741828918457,4.428503513336182,7.56720495223999,1662.818603515625,0
1437.3469999999998,-0.01915246620774269,0.020757097750902176,-0.0001975899504031986,0.0,0.0,0.0,0.0,0.005964215379208326,-0.0015199127374216914,0.0008065741276368499,0.9987890720367432,0.0,0.0,0.0,-9.198488235473633,4.430296897888184,7.567511081695557,1664.94482421875,0
1447.2530000000006,-0.019123438745737076,0.020770175382494926,-0.0002632898685988039,0.0,0.0,0.0,0.0,0.0019353929674252868,0.0012243830133229494,0.00011028248991351575,0.9987597465515137,0.0,0.0,0.0,-9.199554443359375,4.417626857757568,7.570138931274414,1665.1375732421875,0
1457.1759999999995,-0.01912596821784973,0.020789431408047676,-0.00022300011187326163,0.0,0.0,0.0,0.0,0.0001091552185243927,-0.0016696883831173182,0.0015328304143622518,0.9980772137641907,0.0,0.0,0.0,-9.213713645935059,4.42537260055542,7.559959888458252,1667.700439453125,0
1467.0789999999997,-0.019075607880949974,0.02079586684703827,-0.00032187148462980986,0.0,0.0,0.0,0.0,0.0005138463457114995,0.003556272480636835,-5.11272119183559e-05,0.9990425705909729,0.0,0.0,0.0,-9.211688995361328,4.426214694976807,7.570231914520264,1667.333984375,0
1477.0,-0.019099365919828415,0.02078481763601303,-0.0003275482449680567,0.0,0.0,0.0,0.0,-0.00019941621576435864,-0.005134787410497665,0.0017562397988513112,1.0000190734863281,0.0,0.0,0.0,-9.202984809875488,4.416001319885254,7.549187660217285,1665.758544921875,0
1486.9040000000005,-0.019101735204458237,0.020767994225025177,-0.0003731278993654996,0.0,0.0,0.0,0.0,-7.646832818863913e-05,0.007310802116990089,0.0032658870331943035,1.0002633333206177,0.0,0.0,0.0,-9.200925827026367,4.4145708084106445,7.556877136230469,1665.385986328125,0
1496.83,-0.01916886307299137,0.020816607400774956,-0.00035261959419585764,0.0,0.0,0.0,0.0,-0.0018954179249703884,-0.001096304738894105,-0.0020424185786396265,1.0016958713531494,0.0,0.0,0.0,-9.209403991699219,4.422638416290283,7.539700508117676,1666.92041015625,0
1506.7299999999996,-0.019170409068465233,0.020814428105950356,-0.00039698980981484056,0.0,0.0,0.0,0.0,0.0012795503716915846,-0.002842180198058486,0.0034274316858500242,1.0003373622894287,0.0,0.0,0.0,-9.200763702392578,4.419618129730225,7.5286545753479,1665.356689453125,0
1516.6509999999998,-0.019182629883289337,0.02083844132721424,-0.00037086301017552614,0.0,0.0,0.0,0.0,-0.002005120040848851,0.001341004273854196,-0.0028750994242727757,0.9998604655265808,0.0,0.0,0.0,-9.210350036621094,4.4250006675720215,7.527872562408447,1667.0916748046875,0
1526.5599999999995,-0.019135311245918274,0.02088319882750511,-0.00046367617323994637,0.0,0.0,0.0,0.0,0.0025212778709828854,-0.004688273649662733,0.0012364194262772799,1.0000073909759521,0.0,0.0,0.0,-9.209716796875,4.4332170486450195,7.532052040100098,1666.9771728515625,0
1536.4840000000004,-0.01914665848016739,0.020907236263155937,-0.0004412356938701123,0.0,0.0,0.0,0.0,8.386213448829949e-05,-0.0012383845169097185,0.0003246502601541579,0.9982615113258362,0.0,0.0,0.0,-9.220492362976074,4.441052436828613,7.542853355407715,1668.927490234375,0
1546.3850000000002,-0.019153965637087822,0.020859498530626297,-0.0004948529531247914,0.0,0.0,0.0,0.0,-0.0010060706408694386,0.0028386234771460295,-0.002455244306474924,0.9974380731582642,0.0,0.0,0.0,-9.216877937316895,4.434560775756836,7.546539306640625,1668.2733154296875,0
1556.3019999999997,-0.019125018268823624,0.020889220759272575,-0.0004648665781132877,0.0,0.0,0.0,0.0,0.0007757717976346612,0.0028558559715747833,-0.000930183450691402,0.997490644454956,0.0,0.0,0.0,-9.213438987731934,4.447082996368408,7.545076847076416,1667.6507568359375,0
1566.2070000000003,-0.019165977835655212,0.020836545154452324,-0.00047188063035719097,0.0,0.0,0.0,0.0,0.0007561817765235901,-0.003088186029344797,-0.002907711314037442,0.9990918040275574,0.0,0.0,0.0,-9.212270736694336,4.430944919586182,7.530827522277832,1667.439453125,0
1576.1319999999996,-0.019098158925771713,0.0208906140178442,-0.00041821246850304306,0.0,0.0,0.0,0.0,0.00022080641065258533,0.00248650717549026,-0.002189238090068102,0.9989397525787354,0.0,0.0,0.0,-9.20373249053955,4.425749778747559,7.523891925811768,1665.89404296875,0
1586.0329999999994,-0.019149206578731537,0.020791981369256973,-0.0004279935674276203,0.0,0.0,0.0,0.0,0.003122064983472228,0.004654832649976015,0.00040047336369752884,0.9992759227752686,0.0,0.0,0.0,-9.20202350616455,4.407683372497559,7.512665271759033,1665.584716796875,0
1595.9619999999995,-0.01909784972667694,0.020818451419472694,-0.0003810821217484772,0.0,0.0,0.0,0.0,0.000357181066647172,0.00412387540563941,-0.007109997794032097,1.0000190734863281,0.0,0.0,0.0,-9.211581230163574,4.404872894287109,7.5077691078186035,1667.3145751953125,0
1605.8580000000002,-0.019074928015470505,0.020806943997740746,-0.0004547201388049871,0.0,0.0,0.0,0.0,0.0021549812518060207,0.000506418407894671,-0.002585416194051504,0.999318540096283,0.0,0.0,0.0,-9.21166706085205,4.4011101722717285,7.498072147369385,1667.3302001953125,0
1615.7829999999994,-0.019085202366113663,0.020885830745100975,-0.00041200805571861565,0.0,0.0,0.0,0.0,-0.001013177796266973,-0.0013443066272884607,-0.002848181640729308,1.0014389753341675,0.0,0.0,0.0,-9.202449798583984,4.395139217376709,7.47898006439209,1665.6617431640625,0
1625.688,-0.0190892331302166,0.020846597850322723,-0.00046527956146746874,0.0,0.0,0.0,0.0,-6.375562952598557e-05,0.0017597164260223508,-0.0033103874884545803,0.9999886155128479,0.0,0.0,0.0,-9.200393676757812,4.384782791137695,7.476768493652344,1665.2896728515625,0
1635.6139999999996,-0.019042689353227615,0.020858170464634895,-0.000423294841311872,0.0,0.0,0.0,0.0,-0.00035016200854443014,0.005126759875565767,-0.000498285808134824,0.9980309009552002,0.0,0.0,0.0,-9.210928916931152,4.38899564743042,7.4874773025512695,1667.196533203125,0
1645.509,-0.01910245232284069,0.020762629806995392,-0.0004171245382167399,0.0,0.0,0.0,0.0,0.0007930903811939061,-0.000501558999530971,3.47986351698637e-05,0.9983877539634705,0.0,0.0,0.0,-9.20178508758545,4.38606071472168,7.472113132476807,1665.5413818359375,0
1655.4349999999995,-0.019130611792206764,0.020886898040771484,-0.0003515451680868864,0.0,0.0,0.0,0.0,-0.0019929371774196625,0.0015188714023679495,0.00115914863999933,0.9988844990730286,0.0,0.0,0.0,-9.198416709899902,4.40521240234375,7.4590744972229,1664.9317626953125,0
1665.3369999999995,-0.01913687027990818,0.02081281505525112,-0.00041433569276705384,0.0,0.0,0.0,0.0,0.000815092062111944,-0.0005004570120945573,-0.0013606881257146597,0.9995306730270386,0.0,0.0,0.0,-9.19832992553711,4.398314476013184,7.454012870788574,1664.9158935546875,0
1675.2559999999994,-0.019133200868964195,0.020903676748275757,-0.00035536152427084744,0.0,0.0,0.0,0.0,-0.0033944060560315847,0.001514498726464808,0.0008867416181601584,0.9989883899688721,0.0,0.0,0.0,-9.189461708068848,4.3950700759887695,7.448689937591553,1663.310791015625,0
1685.1630000000005,-0.019140368327498436,0.020828332751989365,-0.00042441440746188164,0.0,0.0,0.0,0.0,-0.001708285417407751,0.0010432760464027524,-0.0002995571412611753,1.000325322151184,0.0,0.0,0.0,-9.189619064331055,4.39018440246582,7.457265853881836,1663.3392333984375,0
1695.0869999999995,-0.01910378970205784,0.020882010459899902,-0.00037076458102092147,0.0,0.0,0.0,0.0,-0.0010991632007062435,-0.001192935393191874,-0.0025296700187027454,0.9984715580940247,0.0,0.0,0.0,-9.180259704589844,4.386893272399902,7.444220542907715,1661.6451416015625,0
1704.9920000000002,-0.019111115485429764,0.020809857174754143,-0.00043271976755931973,0.0,0.0,0.0,0.0,0.0003577281313482672,0.001149395015090704,0.001887343474663794,1.0007950067520142,0.0,0.0,0.0,-9.171496391296387,4.386188507080078,7.43808650970459,1660.05908203125,0
1714.9120000000003,-0.019157247617840767,0.020890381187200546,-0.0003931657411158085,0.0,0.0,0.0,0.0,-0.0011295400327071548,-0.004728003405034542,0.001773310825228691,0.9983046054840088,0.0,0.0,0.0,-9.16190242767334,4.37656307220459,7.4284186363220215,1658.3226318359375,0
1724.8250000000007,-0.019238479435443878,0.02076626382768154,-0.00037447462091222405,0.0,0.0,0.0,0.0,0.0007134192856028676,-0.0009848797926679254,0.0005163880996406078,0.9995453953742981,0.0,0.0,0.0,-9.15944766998291,4.35530948638916,7.424027442932129,1657.878173828125,0
1734.7469999999994,-0.019153613597154617,0.020818984135985374,-0.0002972725487779826,0.0,0.0,0.0,0.0,-0.00041474009049125016,-0.006082853768020868,-0.0012847031466662884,1.0013017654418945,0.0,0.0,0.0,-9.155681610107422,4.364407062530518,7.4442524909973145,1657.1966552734375,0
1744.6419999999998,-0.019162148237228394,0.020766833797097206,-0.0003474259574431926,0.0,0.0,0.0,0.0,-0.0005855294293724,-0.0007933766464702785,-0.0006589505355805159,1.0007808208465576,0.0,0.0,0.0,-9.155632019042969,4.355924606323242,7.447551250457764,1657.187744140625,0
1754.5660000000007,-0.019087476655840874,0.02074762061238289,-0.00029697443824261427,0.0,0.0,0.0,0.0,0.0018608818063512444,-0.00013448447862174362,0.0006489338120445609,1.0004777908325195,0.0,0.0,0.0,-9.16855239868164,4.358302116394043,7.4592437744140625,1659.5262451171875,0
1764.4670000000006,-0.019101304933428764,0.020698707550764084,-0.0003384060983080417,0.0,0.0,0.0,0.0,-0.0015110964886844158,-0.002645831787958741,-0.0007044719532132149,0.9994480013847351,0.0,0.0,0.0,-9.169658660888672,4.346484184265137,7.466164588928223,1659.7264404296875,0
1774.3909999999996,-0.019098058342933655,0.020747635513544083,-0.0002757449692580849,0.0,0.0,0.0,0.0,1.9707602405105717e-05,0.0011206786148250103,0.005682989489287138,1.0010013580322266,0.0,0.0,0.0,-9.18235969543457,4.358619689941406,7.47001314163208,1662.0252685546875,0
1784.3009999999995,-0.019100084900856018,0.020728401839733124,-0.0003226240514777601,0.0,0.0,0.0,0.0,-0.0009914810070767999,-0.0002349664137000218,-0.004607829265296459,0.997667670249939,0.0,0.0,0.0,-9.179101943969727,4.350800514221191,7.465127944946289,1661.4356689453125,0
1794.2099999999991,-0.0190951656550169,0.020763179287314415,-0.0002651381946634501,0.0,0.0,0.0,0.0,0.002805927535519004,-0.0006733117043040693,0.0014106649905443192,0.9975735545158386,0.0,0.0,0.0,-9.19157886505127,4.364023685455322,7.465926647186279,1663.6939697265625,0
1804.1239999999998,-0.019085898995399475,0.020761817693710327,-0.00032114703208208084,0.0,0.0,0.0,0.0,-0.003979135770350695,-0.008696441538631916,0.001219715690240264,0.9990552663803101,0.0,0.0,0.0,-9.191413879394531,4.3585124015808105,7.461475372314453,1663.6641845703125,0
1814.0499999999993,-0.019116664305329323,0.02078571729362011,-0.00028865880449302495,0.0,0.0,0.0,0.0,0.002071669790893793,0.0018368457676842809,0.0033104585018008947,0.9989452958106995,0.0,0.0,0.0,-9.199654579162598,4.3662109375,7.469520568847656,1665.15576171875,0
1823.9529999999995,-0.0191152673214674,0.020783303305506706,-0.00033534917747601867,0.0,0.0,0.0,0.0,-0.004475811496376991,-0.0009726709686219692,0.00027287733973935246,0.99942547082901,0.0,0.0,0.0,-9.196382522583008,4.363638401031494,7.46639347076416,1664.5635986328125,0
1833.866,-0.01915627159178257,0.020768791437149048,-0.00032440575887449086,0.0,0.0,0.0,0.0,-6.299750566540752e-06,-0.004028688184916973,0.003722748951986432,0.998815655708313,0.0,0.0,0.0,-9.206440925598145,4.368013381958008,7.463655948638916,1666.3841552734375,0
1843.7839999999997,-0.019154295325279236,0.020762963220477104,-0.0003769972827285528,0.0,0.0,0.0,0.0,-0.001763165113516152,-0.0006057197460904717,-0.002076119417324662,1.0000554323196411,0.0,0.0,0.0,-9.205082893371582,4.367413520812988,7.467719078063965,1666.13818359375,0
1853.6839999999993,-0.019107040017843246,0.020796164870262146,-0.00031547952676191926,0.0,0.0,0.0,0.0,0.0001539366930956021,0.0012892535887658596,-0.00022720445122104138,1.0005689859390259,0.0,0.0,0.0,-9.217435836791992,4.384552955627441,7.465967178344727,1668.3741455078125,0
1863.6020000000008,-0.01913418062031269,0.02078397385776043,-0.0003251509042456746,0.0,0.0,0.0,0.0,0.0020177450496703386,-0.002058356301859021,0.0011692221742123365,1.0020197629928589,0.0,0.0,0.0,-9.216097831726074,4.37680196762085,7.46106481552124,1668.132080078125,0
1873.5130000000008,-0.019170809537172318,0.020762240514159203,-0.0003265253617428243,0.0,0.0,0.0,0.0,0.0009834135416895151,0.00460913497954607,0.0021894790697842836,0.999813973903656,0.0,0.0,0.0,-9.205219268798828,4.369760513305664,7.4583635330200195,1666.1629638671875,0
1883.4349999999995,-0.01919284649193287,0.02075258642435074,-0.00034732045605778694,0.0,0.0,0.0,0.0,-0.0005701445043087006,0.0038803895004093647,0.0032596380915492773,1.0009338855743408,0.0,0.0,0.0,-9.202323913574219,4.368258476257324,7.443070411682129,1665.638916015625,0
1893.3310000000001,-0.019172189757227898,0.02073635533452034,-0.0002955369418486953,0.0,0.0,0.0,0.0,-0.0035523821134120226,0.001594951725564897,0.0005181017913855612,0.9993706941604614,0.0,0.0,0.0,-9.213573455810547,4.376062393188477,7.45184326171875,1667.6751708984375,0
1903.2450000000008,-0.019193559885025024,0.020710136741399765,-0.0003139281761832535,0.0,0.0,0.0,0.0,0.00314331310801208,-0.00220120744779706,-0.001175789046101272,0.9989733695983887,0.0,0.0,0.0,-9.21152400970459,4.37797737121582,7.4390459060668945,1667.30419921875,0
1913.1579999999994,-0.01916683278977871,0.02078235149383545,-0.000235786268603988,0.0,0.0,0.0,0.0,0.0018372744088992476,0.0067987567745149136,-0.003371006576344371,0.9988104104995728,0.0,0.0,0.0,-9.202228546142578,4.371683597564697,7.443108558654785,1665.621826171875,0
1923.071,-0.01914967969059944,0.02078697457909584,-0.00030116006382741034,0.0,0.0,0.0,0.0,-0.0013147599529474974,0.002616160549223423,0.0010173988994210958,1.0000171661376953,0.0,0.0,0.0,-9.193408966064453,4.364272117614746,7.418022155761719,1664.0252685546875,0
1932.991,-0.01918068714439869,0.020764654502272606,-0.00028343734447844326,0.0,0.0,0.0,0.0,0.002510994905605912,-0.007079379633069038,0.003350309794768691,1.0016909837722778,0.0,0.0,0.0,-9.206036567687988,4.363641738891602,7.40258264541626,1666.3109130859375,0
1942.8979999999992,-0.019172033295035362,0.02075735293328762,-0.00033974158577620983,0.0,0.0,0.0,0.0,-0.0022139661014080048,-0.0008642245666123927,-0.0015546898357570171,1.0011008977890015,0.0,0.0,0.0,-9.20478343963623,4.366873741149902,7.4124226570129395,1666.0841064453125,0
1952.8179999999993,-0.019228946417570114,0.020825816318392754,-0.0002958470431622118,0.0,0.0,0.0,0.0,-0.0003873455571010709,-0.0020015889313071966,0.0023961272090673447,1.0011664628982544,0.0,0.0,0.0,-9.195981979370117,4.363775253295898,7.416965961456299,1664.4910888671875,0
1962.7289999999994,-0.019270600751042366,0.020769238471984863,-0.000302113126963377,0.0,0.0,0.0,0.0,0.0016854674322530627,0.000183011798071675,0.005033554043620825,0.9978476166725159,0.0,0.0,0.0,-9.196725845336914,4.358723163604736,7.416844844818115,1664.625732421875,0
1972.6509999999998,-0.01921001821756363,0.020843058824539185,-0.00021178231691010296,0.0,0.0,0.0,0.0,-4.9462989409221336e-05,-0.0029812417924404144,0.001997034065425396,0.9990294575691223,0.0,0.0,0.0,-9.186513900756836,4.352553367614746,7.409287929534912,1662.7774658203125,0
1982.557999999999,-0.01924353465437889,0.020782604813575745,-0.00022754700330551714,0.0,0.0,0.0,0.0,0.0006939326995052397,0.005925467237830162,0.002815025392919779,0.9987833499908447,0.0,0.0,0.0,-9.187750816345215,4.34049654006958,7.409782886505127,1663.0010986328125,0
1992.4689999999991,-0.019230278208851814,0.020736398175358772,-0.00019674570648930967,0.0,0.0,0.0,0.0,0.0033911450300365686,-0.0024437273386865854,0.0037613520398736,1.0009723901748657,0.0,0.0,0.0,-9.202258110046387,4.336203098297119,7.397520065307617,1665.6270751953125,0
2002.3729999999996,-0.01920732483267784,0.020720254629850388,-0.00028259839746169746,0.0,0.0,0.0,0.0,-0.0012094284174963832,0.001192637486383319,-0.0003040705341845751,1.0005792379379272,0.0,0.0,0.0,-9.201141357421875,4.325385093688965,7.407317638397217,1665.4249267578125,0
2012.3029999999999,-0.019169773906469345,0.020725702866911888,-0.00022361254377756268,0.0,0.0,0.0,0.0,-0.00023695007257629186,-0.000342580140568316,0.004962643142789602,1.000789999961853,0.0,0.0,0.0,-9.212952613830566,4.3368330001831055,7.411773204803467,1667.562744140625,0
2022.2019999999993,-0.019152164459228516,0.02070751041173935,-0.00029938851366750896,0.0,0.0,0.0,0.0,0.0008379003847949207,-0.0018386883893981576,0.001955467974767089,1.0001919269561768,0.0,0.0,0.0,-9.21060562133789,4.336607933044434,7.413319110870361,1667.1380615234375,0
2032.1260000000002,-0.019148945808410645,0.02073683775961399,-0.0002415162161923945,0.0,0.0,0.0,0.0,0.001798031385987997,0.005223916377872229,-0.0019459311151877046,1.002609372138977,0.0,0.0,0.0,-9.22089958190918,4.34183406829834,7.413125514984131,1669.001220703125,0
2042.027,-0.01911069266498089,0.020706012845039368,-0.0003508373338263482,0.0,0.0,0.0,0.0,-0.0006238499190658331,-0.004567342344671488,0.0007069839630275965,1.0018211603164673,0.0,0.0,0.0,-9.212882041931152,4.330271244049072,7.392928600311279,1667.550048828125,0
2051.9629999999997,-0.019110485911369324,0.020728152245283127,-0.0003044706245418638,0.0,0.0,0.0,0.0,-0.0025892937555909157,0.0008829025900922716,0.0017299129394814372,0.9992373585700989,0.0,0.0,0.0,-9.203818321228027,4.326427459716797,7.396549224853516,1665.9095458984375,0
2061.8500000000004,-0.019087892025709152,0.0206911638379097,-0.00039358591311611235,0.0,0.0,0.0,0.0,-0.002320486819371581,-0.002134714974090457,-0.000180444068973884,0.9987499117851257,0.0,0.0,0.0,-9.20295524597168,4.328835964202881,7.398705005645752,1665.7532958984375,0
2071.776,-0.019071685150265694,0.020717864856123924,-0.0003306171565782279,0.0,0.0,0.0,0.0,-2.7136222342960536e-05,0.0039607868529856205,0.0008595802937634289,1.0003036260604858,0.0,0.0,0.0,-9.221342086791992,4.338073253631592,7.40971565246582,1669.0811767578125,0
2081.6749999999993,-0.01905473694205284,0.020673181861639023,-0.0004131683090236038,0.0,0.0,0.0,0.0,-0.0026706825010478497,-0.0011958646355196834,0.00017818492779042572,0.9977150559425354,0.0,0.0,0.0,-9.217242240905762,4.3277587890625,7.4020819664001465,1668.3392333984375,0
2091.5969999999998,-0.01908881776034832,0.020733170211315155,-0.00036636635195463896,0.0,0.0,0.0,0.0,0.002998369513079524,0.0001833932619774714,0.0031688963063061237,0.9965498447418213,0.0,0.0,0.0,-9.207862854003906,4.324271202087402,7.4000067710876465,1666.6414794921875,0
2101.5020000000004,-0.019069503992795944,0.020723771303892136,-0.0004445517552085221,0.0,0.0,0.0,0.0,-8.881773101165891e-05,0.00010109685536008328,-0.0013830681564286351,0.9991534352302551,0.0,0.0,0.0,-9.205389976501465,4.314578533172607,7.39806604385376,1666.19384765625,0
2111.428,-0.019180722534656525,0.020837431773543358,-0.0004056628094986081,0.0,0.0,0.0,0.0,-0.002743793185800314,-0.005513132084161043,-0.0005352857406251132,1.0007513761520386,0.0,0.0,0.0,-9.196897506713867,4.311933994293213,7.393126487731934,1664.6568603515625,0
2121.3289999999997,-0.019182616844773293,0.020769208669662476,-0.0004881306958850473,0.0,0.0,0.0,0.0,-0.001803513034246862,-0.0026615001261234283,0.0008646930218674242,1.0000272989273071,0.0,0.0,0.0,-9.194034576416016,4.307063579559326,7.406096935272217,1664.1385498046875,0
2131.2430000000004,-0.01920195296406746,0.020802510902285576,-0.0004498663474805653,0.0,0.0,0.0,0.0,-0.0009923974284902215,-0.0019301616121083498,-0.0006440507713705301,0.9963217377662659,0.0,0.0,0.0,-9.200549125671387,4.321259021759033,7.408383846282959,1665.3177490234375,0
2141.152,-0.0191896203905344,0.020787518471479416,-0.0005324105150066316,0.0,0.0,0.0,0.0,-0.003760639112442732,0.001361010828986764,0.0027842822019010782,0.997471809387207,0.0,0.0,0.0,-9.191423416137695,4.31873893737793,7.408368110656738,1663.666015625,0
2151.0740000000005,-0.019195593893527985,0.02082732878625393,-0.0004933476448059082,0.0,0.0,0.0,0.0,0.0018086711643263698,0.0029539763927459717,-0.0010809865780174732,0.998728334903717,0.0,0.0,0.0,-9.197404861450195,4.335782527923584,7.406495571136475,1664.7486572265625,0
2160.983,-0.019278058782219887,0.02072947844862938,-0.000473157677333802,0.0,0.0,0.0,0.0,-0.003707295283675194,-0.004262073431164026,-0.0017579736886546016,0.9982103109359741,0.0,0.0,0.0,-9.195539474487305,4.313329696655273,7.393988609313965,1664.4110107421875,0
