timestamp,stateEstimate.x,stateEstimate.y,stateEstimate.z,controller.cmd_thrust,controller.cmd_roll,controller.cmd_pitch,controller.cmd_yaw,controller.r_roll,controller.r_pitch,controller.r_yaw,controller.accelz,controller.actuatorThrust,controller.roll,controller.pitch,controller.yaw,controller.rollRate,controller.pitchRate,controller.yawRate,controller.ctr_yaw
0.0,0.02412591315805912,0.0002597980492282659,-4.8814086767379194e-05,0.0,0.0,0.0,0.0,0.0012069824151694775,0.0008076060912571847,-0.0013541108928620815,1.0006846189498901,0.0,0.0,0.0,-10.581781387329102,2.6589791774749756,3.283703088760376,1915.323486328125,0
9.92699999999968,0.02410038374364376,0.0002311433054273948,-4.122072641621344e-05,0.0,0.0,0.0,0.0,0.001316942390985787,0.0017258544685319066,-0.004164119716733694,1.0016433000564575,0.0,0.0,0.0,-10.58034610748291,2.647096633911133,3.2800235748291016,1915.0635986328125,0
19.820999999999913,0.024088649079203606,0.00022842212638352066,-5.341226278687827e-05,0.0,0.0,0.0,0.0,0.0016689320327714086,0.002063281834125519,-0.0005115134408697486,1.0010340213775635,0.0,0.0,0.0,-10.56957721710205,2.646371364593506,3.272831916809082,1913.1146240234375,0
29.740999999999985,0.024077441543340683,0.00022527754481416196,-6.432803638745099e-05,0.0,0.0,0.0,0.0,0.0010259493719786406,0.0029824860394001007,0.001961575821042061,0.9994795322418213,0.0,0.0,0.0,-10.560759544372559,2.63908314704895,3.2742273807525635,1911.5184326171875,0
39.65700000000106,0.024226654320955276,0.00013354852853808552,9.18800196814118e-06,0.0,0.0,0.0,0.0,-0.0007732829544693232,0.0005660238093696535,-0.0014878188958391547,0.9999954104423523,0.0,0.0,0.0,-10.583199501037598,2.6228585243225098,3.315304756164551,1915.580078125,0
49.56999999999971,0.0242060087621212,0.00010828369704540819,1.917137524287682e-05,0.0,0.0,0.0,0.0,-0.0019926121458411217,-0.0007966007106006145,-0.0025708749890327454,1.0002802610397339,0.0,0.0,0.0,-10.581839561462402,2.6200523376464844,3.3124706745147705,1915.333984375,0
59.478000000000975,0.02420518919825554,0.0001229260815307498,4.485330646275543e-05,0.0,0.0,0.0,0.0,0.002288448391482234,0.0004665640590246767,-0.0014175187097862363,0.9994230270385742,0.0,0.0,0.0,-10.59816837310791,2.6256942749023438,3.311997890472412,1918.28955078125,0
69.40400000000045,0.024194467812776566,0.00010213088535238057,4.26562073698733e-05,0.0,0.0,0.0,0.0,-0.002539579989388585,-0.0032012818846851587,0.00017542351270094514,0.9994698762893677,0.0,0.0,0.0,-10.60720157623291,2.6263554096221924,3.3084757328033447,1919.924560546875,0
79.29900000000089,0.024189157411456108,9.12914692889899e-05,4.0491115214535967e-05,0.0,0.0,0.0,0.0,-0.0041350205428898335,-0.0004956339835189283,0.0027832938358187675,0.9997445940971375,0.0,0.0,0.0,-10.597530364990234,2.623013734817505,3.308936834335327,1918.1741943359375,0
89.22100000000137,0.02417861297726631,6.982889317441732e-05,3.557460513547994e-05,0.0,0.0,0.0,0.0,0.001150274882093072,-0.0005779446219094098,-0.0008704779902473092,0.9990062117576599,0.0,0.0,0.0,-10.576486587524414,2.630910873413086,3.301645040512085,1914.3651123046875,0
99.1260000000002,0.02417861297726631,6.982889317441732e-05,3.557460513547994e-05,0.0,0.0,0.0,0.0,0.003948001656681299,0.0014106481103226542,-0.00047334417467936873,0.9996447563171387,0.0,0.0,0.0,-10.576486587524414,2.630910873413086,3.301645040512085,1914.3651123046875,0
109.0510000000013,0.024144230410456657,7.300553261302412e-05,8.733454160392284e-05,0.0,0.0,0.0,0.0,-3.363039650139399e-05,-0.0034900642931461334,0.004239328671246767,1.001444935798645,0.0,0.0,0.0,-10.56578540802002,2.6281347274780273,3.2789628505706787,1912.4281005859375,0
118.95900000000074,0.024144230410456657,7.300553261302412e-05,8.733454160392284e-05,0.0,0.0,0.0,0.0,-0.0035335267893970013,-0.0011111943749710917,0.0010791964596137404,1.0009816884994507,0.0,0.0,0.0,-10.56578540802002,2.6281347274780273,3.2789628505706787,1912.4281005859375,0
128.8739999999998,0.02412932552397251,9.184435475617647e-05,0.00011823718523373827,0.0,0.0,0.0,0.0,0.0010770907392725348,0.003067683195695281,-0.000478249741718173,1.0004067420959473,0.0,0.0,0.0,-10.570858001708984,2.633908987045288,3.2698702812194824,1913.3463134765625,0
138.78000000000065,0.024122079834342003,7.813060801709071e-05,0.00012324514682404697,0.0,0.0,0.0,0.0,0.0024693745654076338,0.0016276526730507612,-0.004118188284337521,1.0007150173187256,0.0,0.0,0.0,-10.560283660888672,2.6324844360351562,3.269036293029785,1911.432373046875,0
148.70700000000033,0.02410631626844406,8.645317575428635e-05,0.00015831339987926185,0.0,0.0,0.0,0.0,-0.0011052011977881193,0.0005775734898634255,-0.00026320942561142147,0.9990381002426147,0.0,0.0,0.0,-10.561760902404785,2.6341264247894287,3.260981559753418,1911.6998291015625,0
158.60699999999997,0.02409789338707924,7.036866009002551e-05,0.00016639192472212017,0.0,0.0,0.0,0.0,-0.0015589086106047034,0.003431109944358468,0.0004818648158106953,1.000274658203125,0.0,0.0,0.0,-10.551581382751465,2.630457639694214,3.2528858184814453,1909.857177734375,0
168.52900000000045,0.024088717997074127,5.409144068835303e-05,0.0001742427994031459,0.0,0.0,0.0,0.0,0.0011137009132653475,-0.0038243327289819717,0.0029650963842868805,1.0011998414993286,0.0,0.0,0.0,-10.540693283081055,2.629049301147461,3.245817184448242,1907.8863525390625,0
178.4400000000005,0.024079803377389908,3.775805816985667e-05,0.00018197231111116707,0.0,0.0,0.0,0.0,-0.00017966559971682727,-0.004418386612087488,0.0009898701682686806,0.9992924928665161,0.0,0.0,0.0,-10.5289888381958,2.625079870223999,3.2538983821868896,1905.7679443359375,0
188.36599999999999,0.024112293496727943,0.00012077810970367864,0.0001301901793340221,0.0,0.0,0.0,0.0,-0.000779309484641999,0.00015932497626636177,-0.0012975933495908976,1.001956820487976,0.0,0.0,0.0,-10.533373832702637,2.663212537765503,3.2727413177490234,1906.5615234375,0
198.26000000000022,0.024106191471219063,9.062056051334366e-05,0.00013492123980540782,0.0,0.0,0.0,0.0,0.001309768995270133,0.003712762612849474,-0.0033531778026372194,1.0011123418807983,0.0,0.0,0.0,-10.55586051940918,2.6569936275482178,3.271258592605591,1910.6318359375,0
208.17699999999968,0.02413693629205227,0.00011272572737652808,9.337916708318517e-05,0.0,0.0,0.0,0.0,-0.0005392952007241547,-0.0024376714136451483,0.0012053849641233683,1.001475214958191,0.0,0.0,0.0,-10.568704605102539,2.6612749099731445,3.262197256088257,1912.95654296875,0
218.08400000000074,0.024158352985978127,0.00010342754831071943,0.00012248118582647294,0.0,0.0,0.0,0.0,0.0006504205521196127,0.0008058970561251044,0.001435767626389861,1.0000563859939575,0.0,0.0,0.0,-10.591355323791504,2.6649386882781982,3.268378973007202,1917.056396484375,0
228.0079999999998,0.02419157885015011,0.00016163110558409244,0.000101934936537873,0.0,0.0,0.0,0.0,0.003244398394599557,0.0019925141241401434,-0.0031472539994865656,1.000552773475647,0.0,0.0,0.0,-10.589079856872559,2.673025608062744,3.2696683406829834,1916.6444091796875,0
237.91799999999967,0.02418435551226139,0.00014986075984779745,0.0001143212357419543,0.0,0.0,0.0,0.0,0.000736701360438019,-0.0007649167673662305,9.950272215064615e-05,0.9993583559989929,0.0,0.0,0.0,-10.607595443725586,2.669602870941162,3.2634243965148926,1919.9959716796875,0
247.82999999999993,0.024190343916416168,0.0001423607609467581,0.00010328293865313753,0.0,0.0,0.0,0.0,-0.0021452244836837053,-0.002205635653808713,0.001825101557187736,0.9996281862258911,0.0,0.0,0.0,-10.613518714904785,2.6725759506225586,3.262465000152588,1921.068115234375,0
257.7420000000002,0.02418779581785202,0.0001380946341669187,0.00010615804785629734,0.0,0.0,0.0,0.0,-0.0003485189808998257,-0.0035966213326901197,-0.0012530360836535692,0.9998818635940552,0.0,0.0,0.0,-10.602424621582031,2.6717686653137207,3.260042667388916,1919.0599365234375,0
267.65800000000127,0.02420073375105858,0.0001781580358510837,9.96234521153383e-05,0.0,0.0,0.0,0.0,0.00010528415441513062,0.0012972248950973153,0.0017631921218708158,1.00094473361969,0.0,0.0,0.0,-10.598217964172363,2.677765130996704,3.266270637512207,1918.2987060546875,0
277.5619999999999,0.02419724129140377,0.0001760080485837534,0.00010169931192649528,0.0,0.0,0.0,0.0,-0.004847138188779354,-0.0024520892184227705,-0.00091309635899961,1.0017555952072144,0.0,0.0,0.0,-10.587347030639648,2.676104784011841,3.266313076019287,1916.330810546875,0
287.4880000000012,0.024226084351539612,0.00021926478075329214,5.887771476409398e-05,0.0,0.0,0.0,0.0,-0.004004357382655144,-0.002889071824029088,0.0020672844257205725,1.0001252889633179,0.0,0.0,0.0,-10.590181350708008,2.691039800643921,3.2765591144561768,1916.843994140625,0
297.38800000000083,0.02422459051012993,0.00021830678451806307,5.9494075685506687e-05,0.0,0.0,0.0,0.0,5.1088085456285626e-05,0.0021346257999539375,-0.0017980689881369472,0.998717725276947,0.0,0.0,0.0,-10.579323768615723,2.6982421875,3.2810895442962646,1914.878662109375,0
307.3109999999997,0.024231771007180214,0.00023629267525393516,4.7594960051355883e-05,0.0,0.0,0.0,0.0,0.0029721460305154324,-0.0006756923976354301,0.0024996232241392136,1.0005133152008057,0.0,0.0,0.0,-10.575611114501953,2.7089998722076416,3.2808678150177,1914.20654296875,0
317.21399999999994,0.02423001453280449,0.00023355237499345094,4.709158019977622e-05,0.0,0.0,0.0,0.0,0.0011409096186980605,-0.002990510081872344,0.0019315809477120638,1.0006704330444336,0.0,0.0,0.0,-10.564911842346191,2.7007927894592285,3.275357246398926,1912.27001953125,0
327.1419999999998,0.024218639358878136,0.00019807218632195145,5.1684979553101584e-05,0.0,0.0,0.0,0.0,-0.003153749741613865,0.002248043194413185,-0.003457611659541726,1.0003286600112915,0.0,0.0,0.0,-10.573564529418945,2.689032793045044,3.269585609436035,1913.8363037109375,0
337.0490000000009,0.024213388562202454,0.00019347429042682052,5.230081660556607e-05,0.0,0.0,0.0,0.0,-0.0019001461332663894,0.005030256696045399,0.001539137796498835,0.9985926747322083,0.0,0.0,0.0,-10.56322193145752,2.69220232963562,3.2757458686828613,1911.9642333984375,0
346.96200000000135,0.024204153567552567,0.00021419844415504485,6.873423990327865e-05,0.0,0.0,0.0,0.0,-7.000791083555669e-05,-0.0016530330758541822,0.0002527184842620045,0.9999744296073914,0.0,0.0,0.0,-10.562236785888672,2.7023661136627197,3.2631072998046875,1911.785888671875,0
356.8670000000002,0.024197828024625778,0.00021185324294492602,6.994385330472142e-05,0.0,0.0,0.0,0.0,0.004054993391036987,-0.002083977684378624,0.0023175920359790325,1.0010454654693604,0.0,0.0,0.0,-10.551071166992188,2.699084520339966,3.2517220973968506,1909.7647705078125,0
366.79399999999987,0.02418714202940464,0.00018688273848965764,6.612421566387638e-05,0.0,0.0,0.0,0.0,-0.0032791399862617254,0.0007816808065399528,0.0017940435791388154,1.002352237701416,0.0,0.0,0.0,-10.55119800567627,2.685396671295166,3.255716323852539,1909.7877197265625,0
376.6930000000011,0.0242167841643095,0.0001598852250026539,0.00010243198630632833,0.0,0.0,0.0,0.0,0.0010435045696794987,-0.0015346595318987966,-0.002724111545830965,1.0003621578216553,0.0,0.0,0.0,-10.571386337280273,2.6854248046875,3.2593958377838135,1913.44189453125,0
386.6149999999998,0.024208322167396545,0.00013585442502517253,0.0001014879162539728,0.0,0.0,0.0,0.0,0.0009286225540563464,-0.003763531567528844,0.0008110370254144073,1.000896692276001,0.0,0.0,0.0,-10.568680763244629,2.683420181274414,3.264533281326294,1912.9522705078125,0
396.52300000000105,0.024203455075621605,0.00013310977374203503,0.00010778907017083839,0.0,0.0,0.0,0.0,-0.0009492047247476876,0.002041479805484414,-0.0033282162621617317,1.0027775764465332,0.0,0.0,0.0,-10.559359550476074,2.683830738067627,3.2591958045959473,1911.26513671875,0
406.45300000000134,0.02419714443385601,0.00012012989463983104,0.00011107894533779472,0.0,0.0,0.0,0.0,-0.0021879877895116806,-0.0013359924778342247,-0.0005440942477434874,1.0017750263214111,0.0,0.0,0.0,-10.556556701660156,2.6759543418884277,3.2583720684051514,1910.7578125,0
416.34799999999996,0.02419714443385601,0.00012012989463983104,0.00011107894533779472,0.0,0.0,0.0,0.0,0.0013361397432163358,0.002789401449263096,0.0037015529815107584,1.0019415616989136,0.0,0.0,0.0,-10.556556701660156,2.6759543418884277,3.2583720684051514,1910.7578125,0
426.2659999999996,0.024192359298467636,0.0001227576722158119,0.0001248392218258232,0.0,0.0,0.0,0.0,-0.0009922318859025836,0.0021812289487570524,-0.0003488378715701401,1.0000940561294556,0.0,0.0,0.0,-10.54709243774414,2.6780357360839844,3.251760482788086,1909.0447998046875,0
436.1720000000005,0.024192359298467636,0.0001227576722158119,0.0001248392218258232,0.0,0.0,0.0,0.0,-2.874455640267115e-05,-0.0009220862993970513,0.0016731132054701447,0.9989607334136963,0.0,0.0,0.0,-10.54709243774414,2.6780357360839844,3.251760482788086,1909.0447998046875,0
446.09799999999996,0.0241871140897274,0.00011875066411448643,0.00013837849837727845,0.0,0.0,0.0,0.0,-0.0017076623626053333,0.0002620491723064333,0.0025591528974473476,0.9993658661842346,0.0,0.0,0.0,-10.535420417785645,2.67911434173584,3.242983818054199,1906.93212890625,0
456.0030000000006,0.024182254448533058,0.00011372436711098999,0.0001498085621278733,0.0,0.0,0.0,0.0,-0.0013021640479564667,-0.005546206142753363,0.0009525789064355195,0.9998326301574707,0.0,0.0,0.0,-10.525463104248047,2.680696487426758,3.2437946796417236,1905.1297607421875,0
465.9279999999999,0.024177050217986107,0.00010646926966728643,0.00016076923930086195,0.0,0.0,0.0,0.0,-0.0005184677429497242,0.004643989261239767,-0.0005693990970030427,0.9995922446250916,0.0,0.0,0.0,-10.514534950256348,2.685359239578247,3.2464611530303955,1903.151611328125,0
475.82800000000134,0.024170812219381332,9.726578718982637e-05,0.00017151320935226977,0.0,0.0,0.0,0.0,0.002319609047845006,0.002228066325187683,-0.00034221512032672763,1.0007059574127197,0.0,0.0,0.0,-10.503812789916992,2.6849687099456787,3.2554357051849365,1901.2109375,0
485.75,0.02421049028635025,0.00010839995229616761,6.483391916844994e-05,0.0,0.0,0.0,0.0,-0.0024428328033536673,0.001262635923922062,-0.0009721898823045194,0.9991827607154846,0.0,0.0,0.0,-10.513457298278809,2.6958250999450684,3.2586488723754883,1902.9566650390625,0
495.65099999999984,0.02420710399746895,0.00010145770647795871,6.679569196421653e-05,0.0,0.0,0.0,0.0,0.002532808342948556,0.0003380812704563141,-5.532999421120621e-05,0.9980360865592957,0.0,0.0,0.0,-10.503037452697754,2.683034658432007,3.249850273132324,1901.0706787109375,0
505.58200000000033,0.024213505908846855,0.0001745030313031748,7.43642813176848e-05,0.0,0.0,0.0,0.0,0.0007049685227684677,-0.003621491836383939,-3.5828383261105046e-05,1.0009052753448486,0.0,0.0,0.0,-10.512970924377441,2.7024991512298584,3.2419447898864746,1902.8687744140625,0
515.478000000001,0.02420966885983944,0.000175033972482197,7.468512194463983e-05,0.0,0.0,0.0,0.0,0.0033213691785931587,-0.0011518844403326511,0.0028109224513173103,1.0006599426269531,0.0,0.0,0.0,-10.502260208129883,2.696553945541382,3.251255750656128,1900.929931640625,0
525.4050000000007,0.024205103516578674,0.00021801181719638407,9.064652840606868e-05,0.0,0.0,0.0,0.0,-0.0018947251373901963,-0.0065117632038891315,-0.0020327584352344275,0.9986730217933655,0.0,0.0,0.0,-10.518214225769043,2.7137038707733154,3.253765344619751,1903.817626953125,0
535.3060000000005,0.024201061576604843,0.00022006992367096245,9.214624878950417e-05,0.0,0.0,0.0,0.0,-0.0014166152104735374,-0.0013554913457483053,-0.003037543036043644,0.9983307123184204,0.0,0.0,0.0,-10.506896018981934,2.7046961784362793,3.261934280395508,1901.76904296875,0
545.2300000000014,0.024198899045586586,0.0002458963717799634,9.14681440917775e-05,0.0,0.0,0.0,0.0,-0.005103826057165861,-0.0040503013879060745,0.0009274265030398965,1.0004879236221313,0.0,0.0,0.0,-10.517386436462402,2.719832181930542,3.259549617767334,1903.6678466796875,0
555.134,0.02419506199657917,0.00025096855824813247,9.063210745807737e-05,0.0,0.0,0.0,0.0,0.001588272862136364,-0.0018749163718894124,0.0010027639800682664,0.9994258284568787,0.0,0.0,0.0,-10.506830215454102,2.718458414077759,3.262263774871826,1901.7572021484375,0
565.0609999999997,0.024187995120882988,0.0002658827870618552,9.322430560132489e-05,0.0,0.0,0.0,0.0,0.0006861669244244695,0.0005492871860042214,0.001064404146745801,0.998192548751831,0.0,0.0,0.0,-10.5088529586792,2.7235519886016846,3.2585792541503906,1902.123291015625,0
574.9560000000001,0.024183938279747963,0.0002729463158175349,9.242802480002865e-05,0.0,0.0,0.0,0.0,-0.00028652188484556973,0.0028062656056135893,0.001281504868529737,0.9988652467727661,0.0,0.0,0.0,-10.49838924407959,2.7142093181610107,3.253864049911499,1900.2293701171875,0
584.8870000000006,0.024176830425858498,0.000286167865851894,8.862651156960055e-05,0.0,0.0,0.0,0.0,-0.0022277003154158592,0.00016688750474713743,0.0025939184706658125,1.0003376007080078,0.0,0.0,0.0,-10.512065887451172,2.7196030616760254,3.250856876373291,1902.704833984375,0
594.7830000000013,0.02417226880788803,0.00029223199817351997,8.521859854226932e-05,0.0,0.0,0.0,0.0,-0.0011528214672580361,-0.0012702065287157893,-0.0017516998341307044,1.0008909702301025,0.0,0.0,0.0,-10.501802444458008,2.713533639907837,3.2318673133850098,1900.84716796875,0
604.7039999999997,0.024166764691472054,0.00029825535602867603,8.218210859922692e-05,0.0,0.0,0.0,0.0,-0.0026663385797291994,-0.0016596544301137328,0.0033067394979298115,0.9984807372093201,0.0,0.0,0.0,-10.491196632385254,2.7124745845794678,3.2290868759155273,1898.927490234375,0
614.6090000000004,0.024160845205187798,0.0003055571287404746,7.963107054820284e-05,0.0,0.0,0.0,0.0,-0.0013098675990477204,0.0008254014537669718,0.002570393495261669,1.000543236732483,0.0,0.0,0.0,-10.480171203613281,2.715452194213867,3.2306625843048096,1896.931884765625,0
624.5240000000013,0.024117102846503258,0.0002789846039377153,0.00012165194493718445,0.0,0.0,0.0,0.0,0.0005744793452322483,-0.0019032158888876438,0.0002259349130326882,1.0001826286315918,0.0,0.0,0.0,-10.488221168518066,2.70019268989563,3.219167470932007,1898.388916015625,0
634.4350000000013,0.024107646197080612,0.0002831722085829824,0.00012262616655789316,0.0,0.0,0.0,0.0,-0.00028445746283978224,0.0016539616044610739,-0.000936661206651479,0.9999654293060303,0.0,0.0,0.0,-10.477812767028809,2.701667308807373,3.207202672958374,1896.5050048828125,0
644.3500000000004,0.024097604677081108,0.00028711286722682416,0.0001239044067915529,0.0,0.0,0.0,0.0,0.001939025823958218,-0.004894649609923363,0.0009080950985662639,0.9991378784179688,0.0,0.0,0.0,-10.467970848083496,2.701564311981201,3.214810371398926,1894.7237548828125,0
654.2610000000004,0.024087509140372276,0.00029236654518172145,0.00012507414794526994,0.0,0.0,0.0,0.0,0.0022933073341846466,0.004136625211685896,-0.00046263233525678515,1.001880407333374,0.0,0.0,0.0,-10.458067893981934,2.6994690895080566,3.212655782699585,1892.9310302734375,0
664.1750000000011,0.024076173081994057,0.00029876577900722623,0.00012599406181834638,0.0,0.0,0.0,0.0,-3.3349388104397804e-05,0.0033019573893398046,0.0021796543151140213,1.002479076385498,0.0,0.0,0.0,-10.447357177734375,2.6921162605285645,3.195801019668579,1890.9923095703125,0
674.0879999999997,0.024063026532530785,0.0003053592809010297,0.00012829256593249738,0.0,0.0,0.0,0.0,0.0027886570896953344,-0.0014424808323383331,0.0007049207924865186,1.0003374814987183,0.0,0.0,0.0,-10.43632984161377,2.6898324489593506,3.184391736984253,1888.9964599609375,0
684.0020000000004,0.024047601968050003,0.0003116060688626021,0.000132782879518345,0.0,0.0,0.0,0.0,0.0037007431965321302,0.0014852604363113642,-0.002578407758846879,1.0002530813217163,0.0,0.0,0.0,-10.426013946533203,2.695323944091797,3.1876220703125,1887.1292724609375,0
693.9140000000007,0.024165945127606392,0.00013880219194106758,0.00011237457511015236,0.0,0.0,0.0,0.0,-0.0031852759420871735,0.002439923118799925,-0.0036275777965784073,1.0019385814666748,0.0,0.0,0.0,-10.453208923339844,2.649968385696411,3.2134289741516113,1892.051513671875,0
703.8299999999999,0.024152331054210663,0.0001349644735455513,0.00011499281390570104,0.0,0.0,0.0,0.0,-2.8153410312370397e-05,0.002490169834345579,0.0008923711138777435,0.9994876384735107,0.0,0.0,0.0,-10.444429397583008,2.6494739055633545,3.204662799835205,1890.4625244140625,0
713.7489999999998,0.024159593507647514,0.00013491247955244035,0.00013978035713080317,0.0,0.0,0.0,0.0,-0.0038384879007935524,-0.0054120151326060295,0.003435657126829028,0.9988881945610046,0.0,0.0,0.0,-10.4841890335083,2.653813600540161,3.1990020275115967,1897.6590576171875,0
723.6530000000002,0.024130944162607193,0.0001266719336854294,0.00014841796655673534,0.0,0.0,0.0,0.0,0.0026585140731185675,-0.005661820061504841,-0.00023208641505334526,0.9997546076774597,0.0,0.0,0.0,-10.462004661560059,2.6506567001342773,3.2062535285949707,1893.6435546875,0
733.5780000000013,0.02412598393857479,0.00011146620818180963,0.0001399492466589436,0.0,0.0,0.0,0.0,-0.005164284724742174,0.0019019941100850701,-0.0017977046081796288,1.0004068613052368,0.0,0.0,0.0,-10.503925323486328,2.6483376026153564,3.206435203552246,1901.2313232421875,0
743.4800000000014,0.024090997874736786,9.546272485749796e-05,0.00014665948401670903,0.0,0.0,0.0,0.0,0.0019303449662402272,-0.002936158562079072,0.0006852408405393362,1.0008983612060547,0.0,0.0,0.0,-10.482747077941895,2.6554341316223145,3.202110767364502,1897.3980712890625,0
753.402,0.024090997874736786,9.546272485749796e-05,0.00014665948401670903,0.0,0.0,0.0,0.0,0.00023688763030804694,-0.0002467216399963945,-0.00268364604562521,1.0017931461334229,0.0,0.0,0.0,-10.482747077941895,2.6554341316223145,3.202110767364502,1897.3980712890625,0
763.3100000000013,0.024068430066108704,8.389648428419605e-05,0.0001520632504252717,0.0,0.0,0.0,0.0,-0.004069329705089331,0.00024771556491032243,-1.0564644071564544e-05,1.001975178718567,0.0,0.0,0.0,-10.47110652923584,2.657527208328247,3.2073473930358887,1895.291259765625,0
773.2300000000014,0.02404642105102539,7.301331788767129e-05,0.00015879810962360352,0.0,0.0,0.0,0.0,0.002310614101588726,-0.0038929081056267023,0.0008893017075024545,0.9997525811195374,0.0,0.0,0.0,-10.462101936340332,2.6568500995635986,3.1965174674987793,1893.6612548828125,0
783.1370000000006,0.024024130776524544,6.306880823103711e-05,0.00016721301653888077,0.0,0.0,0.0,0.0,-0.0032974237110465765,-0.0025750114582479,0.0003446277987677604,0.9971000552177429,0.0,0.0,0.0,-10.452791213989258,2.6585304737091064,3.193089246749878,1891.97607421875,0
793.0580000000009,0.02400180883705616,5.439971209852956e-05,0.0001756806595949456,0.0,0.0,0.0,0.0,8.045291906455532e-06,-0.002952084643766284,0.00041992863407358527,0.9992467761039734,0.0,0.0,0.0,-10.442817687988281,2.6585211753845215,3.1969823837280273,1890.1707763671875,0
802.9629999999997,0.023978915065526962,4.707501284428872e-05,0.00018214933515992016,0.0,0.0,0.0,0.0,-0.0003408315824344754,-0.00041869335109367967,0.0024125599302351475,1.0011882781982422,0.0,0.0,0.0,-10.43228530883789,2.6572208404541016,3.1967742443084717,1888.2645263671875,0
812.8810000000012,0.023955082520842552,4.0695653297007084e-05,0.00018769798043649644,0.0,0.0,0.0,0.0,0.00019438164599705487,-2.6477215214981697e-05,-0.0021100686863064766,1.000936508178711,0.0,0.0,0.0,-10.421049118041992,2.6511635780334473,3.2024877071380615,1886.2305908203125,0
822.7920000000013,0.023930450901389122,3.41142040269915e-05,0.0001941783557413146,0.0,0.0,0.0,0.0,-0.002475715009495616,-0.0023245878983289003,9.302263060817495e-05,1.0001550912857056,0.0,0.0,0.0,-10.41062068939209,2.646076202392578,3.2011849880218506,1884.3431396484375,0
832.7150000000001,0.023904956877231598,2.6822644940693863e-05,0.00020161083375569433,0.0,0.0,0.0,0.0,-0.0004137720097787678,6.01664069108665e-05,0.0027332687750458717,1.0002774000167847,0.0,0.0,0.0,-10.40047836303711,2.6478919982910156,3.2033519744873047,1882.507080078125,0
842.6110000000008,0.023878561332821846,1.83339088835055e-05,0.00020929209131281823,0.0,0.0,0.0,0.0,-0.00018322213145438582,-0.0005435717757791281,0.0017795991152524948,1.000360131263733,0.0,0.0,0.0,-10.390950202941895,2.6442816257476807,3.198552370071411,1880.78271484375,0
852.5400000000009,0.02385106310248375,8.108910151349846e-06,0.00021728371211793274,0.0,0.0,0.0,0.0,-0.001223684404976666,0.00334162637591362,-0.0010936683975160122,0.9999757409095764,0.0,0.0,0.0,-10.379362106323242,2.6393983364105225,3.195216178894043,1878.68505859375,0
862.4440000000013,0.023822259157896042,-3.28291116602486e-06,0.0002256308071082458,0.0,0.0,0.0,0.0,0.0012212982401251793,-0.0034015346318483353,-0.00217029033228755,0.998397946357727,0.0,0.0,0.0,-10.368849754333496,2.640564441680908,3.1910176277160645,1876.7825927734375,0
872.3730000000014,0.023792192339897156,-1.488288035034202e-05,0.00023384868109133095,0.0,0.0,0.0,0.0,-0.0011587176704779267,-0.0010050444398075342,0.0001837866730056703,1.0003269910812378,0.0,0.0,0.0,-10.35925006866455,2.6398956775665283,3.182978391647339,1875.0450439453125,0
882.2650000000012,0.02391090802848339,0.00015178314060904086,-0.00010970166476909071,0.0,0.0,0.0,0.0,0.0009067818173207343,-0.00013514046440832317,-0.003984867129474878,1.000417709350586,0.0,0.0,0.0,-10.388636589050293,2.672457218170166,3.2068898677825928,1880.36376953125,0
892.1859999999997,0.023885125294327736,0.00014660207671113312,-0.0001159658859251067,0.0,0.0,0.0,0.0,-0.0007430557743646204,-0.0020762705244123936,0.0009855577955022454,1.0006073713302612,0.0,0.0,0.0,-10.377946853637695,2.668853521347046,3.2020347118377686,1878.4290771484375,0
902.0900000000001,0.023873917758464813,0.0001698385749477893,-0.00016096921171993017,0.0,0.0,0.0,0.0,-6.308472075033933e-05,0.002824458060786128,0.002066111657768488,0.9997113943099976,0.0,0.0,0.0,-10.408622741699219,2.6739237308502197,3.202958345413208,1883.9814453125,0
912.0150000000012,0.023847226053476334,0.00016572015010751784,-0.00016821231110952795,0.0,0.0,0.0,0.0,0.001431619399227202,-0.0018090729136019945,-0.0005397716304287314,0.9981161952018738,0.0,0.0,0.0,-10.398367881774902,2.668675422668457,3.188230276107788,1882.125244140625,0
921.9179999999997,0.023830128833651543,0.00018384447321295738,-0.00019634411728475243,0.0,0.0,0.0,0.0,-0.0001376262225676328,-0.002949232468381524,-0.00196082959882915,0.9997381567955017,0.0,0.0,0.0,-10.423436164855957,2.6801905632019043,3.1909337043762207,1886.6627197265625,0
931.8469999999998,0.02380475215613842,0.00018090585945174098,-0.00020587000472005457,0.0,0.0,0.0,0.0,-0.00027202224009670317,0.0005238463054411113,-0.00160714250523597,0.9988671541213989,0.0,0.0,0.0,-10.411750793457031,2.6814043521881104,3.203273296356201,1884.547607421875,0
941.7440000000006,0.023791758343577385,0.00024047667102422565,-0.0002131767978426069,0.0,0.0,0.0,0.0,1.602609336259775e-05,-0.00328547740355134,0.0028862985782325268,0.9990799427032471,0.0,0.0,0.0,-10.422866821289062,2.6958322525024414,3.2055137157440186,1886.5596923828125,0
951.6670000000013,0.023767005652189255,0.00024196771846618503,-0.00022422411711886525,0.0,0.0,0.0,0.0,0.00025259150424972177,0.002882737433537841,-0.0011034850031137466,0.996892511844635,0.0,0.0,0.0,-10.412096977233887,2.692310094833374,3.2000389099121094,1884.6103515625,0
961.5740000000005,0.02413357049226761,0.00019095474272035062,7.911711145425215e-05,0.0,0.0,0.0,0.0,-0.0005058679380454123,-0.003426091279834509,0.0025136808399111032,0.9989467859268188,0.0,0.0,0.0,-10.458032608032227,2.6974937915802,3.2861385345458984,1892.9246826171875,0
971.491,0.024127967655658722,0.00019291162607260048,7.845831714803353e-05,0.0,0.0,0.0,0.0,0.0021990810055285692,0.006494359578937292,0.004095998127013445,1.0006226301193237,0.0,0.0,0.0,-10.447901725769043,2.695939302444458,3.2798306941986084,1891.0909423828125,0
981.3950000000004,0.024137942120432854,0.00021340131934266537,6.0680577007588e-05,0.0,0.0,0.0,0.0,-0.00244219065643847,0.0033125353511422873,-0.001980934292078018,1.0001287460327148,0.0,0.0,0.0,-10.45569133758545,2.697608470916748,3.2758078575134277,1892.5008544921875,0
991.3260000000009,0.024132339283823967,0.00021660503989551216,5.75386147829704e-05,0.0,0.0,0.0,0.0,-0.0005529439076781273,-0.0031072257552295923,0.0012135604629293084,1.001101016998291,0.0,0.0,0.0,-10.44499397277832,2.695070266723633,3.2661542892456055,1890.5645751953125,0
1001.2219999999998,0.024134289473295212,0.0002455523645039648,5.208723450778052e-05,0.0,0.0,0.0,0.0,0.002927384339272976,0.0027739806100726128,0.0003287185390945524,1.0010309219360352,0.0,0.0,0.0,-10.454473495483398,2.698071241378784,3.2533984184265137,1892.2803955078125,0
1011.1450000000004,0.024128228425979614,0.0002487031160853803,5.0482798542361706e-05,0.0,0.0,0.0,0.0,0.0004289918579161167,0.00010562627721810713,-0.002388044260442257,1.001574993133545,0.0,0.0,0.0,-10.443629264831543,2.6901819705963135,3.2420642375946045,1890.317626953125,0
1021.0510000000013,0.024127742275595665,0.00026118638925254345,4.307368726585992e-05,0.0,0.0,0.0,0.0,-0.0020539925899356604,0.00345112313516438,-0.001596573507413268,0.9997235536575317,0.0,0.0,0.0,-10.450504302978516,2.6923205852508545,3.236807107925415,1891.56201171875,0
1030.9770000000008,0.024121752008795738,0.0002630141389090568,4.280156645108946e-05,0.0,0.0,0.0,0.0,-0.00011828382412204519,0.0015177441528066993,-0.0014439005171880126,0.9995753169059753,0.0,0.0,0.0,-10.440016746520996,2.692949056625366,3.2270095348358154,1889.6639404296875,0
1040.8739999999998,0.024197638034820557,0.00017003502580337226,4.439982512849383e-05,0.0,0.0,0.0,0.0,0.002249181969091296,-0.001618911512196064,0.0005885619902983308,1.0004394054412842,0.0,0.0,0.0,-10.498629570007324,2.680148124694824,3.2360177040100098,1900.2728271484375,0
1050.795,0.024196157231926918,0.00017043833213392645,4.273857848602347e-05,0.0,0.0,0.0,0.0,0.0022621992975473404,0.0007487889961339533,-0.0003362922288943082,0.9992278814315796,0.0,0.0,0.0,-10.488277435302734,2.676326036453247,3.2302184104919434,1898.399169921875,0
1060.7129999999997,0.024181129410862923,0.0001389952376484871,4.3557764001889154e-05,0.0,0.0,0.0,0.0,-0.0012743177358061075,-0.002548251999542117,0.004794924985617399,0.9981973171234131,0.0,0.0,0.0,-10.503466606140137,2.664325475692749,3.228154182434082,1901.148193359375,0
1070.6230000000014,0.024180743843317032,0.00013796723214909434,4.110076042707078e-05,0.0,0.0,0.0,0.0,-0.0005492248455993831,0.001478755846619606,-0.004692926537245512,0.9989255666732788,0.0,0.0,0.0,-10.491634368896484,2.664743423461914,3.23266863822937,1899.0067138671875,0
1080.5290000000005,0.024188198149204254,0.000175297653186135,4.62141542811878e-05,0.0,0.0,0.0,0.0,0.0003431894292589277,-1.007141781883547e-05,0.0003088123630732298,0.9998363256454468,0.0,0.0,0.0,-10.498817443847656,2.670558452606201,3.2121775150299072,1900.306884765625,0
1090.4449999999997,0.024189578369259834,0.00017350667621940374,4.186877777101472e-05,0.0,0.0,0.0,0.0,-0.0011840908555313945,-5.0767106586135924e-05,0.0030775542836636305,0.9999188184738159,0.0,0.0,0.0,-10.488330841064453,2.670757532119751,3.2086548805236816,1898.40869140625,0
1100.357,0.024185530841350555,0.00014993072545621544,3.94997259718366e-05,0.0,0.0,0.0,0.0,-0.0006186487153172493,0.0020118397660553455,-0.0014344517840072513,0.9990746974945068,0.0,0.0,0.0,-10.491408348083496,2.670294761657715,3.209990978240967,1898.9659423828125,0
1110.2700000000004,0.024183310568332672,0.00014251380343921483,3.450358781265095e-05,0.0,0.0,0.0,0.0,-0.0006953080301173031,-0.0022270395420491695,0.0007318992866203189,0.9992161393165588,0.0,0.0,0.0,-10.482118606567383,2.6682841777801514,3.208495855331421,1897.2843017578125,0
1120.1810000000005,0.02419203706085682,0.00018166506197303534,1.3437102097668685e-05,0.0,0.0,0.0,0.0,0.002206307603046298,0.00022182239626999944,-0.0048241266049444675,1.00114107131958,0.0,0.0,0.0,-10.486774444580078,2.679856538772583,3.207353115081787,1898.127197265625,0
1130.0930000000008,0.024186812341213226,0.00017752399435266852,6.589494660147466e-06,0.0,0.0,0.0,0.0,0.0030261394567787647,-0.0023487822618335485,-0.0001463789667468518,1.001648187637329,0.0,0.0,0.0,-10.477256774902344,2.6760756969451904,3.2093355655670166,1896.404296875,0
1140.0060000000012,0.024192536249756813,0.00020166316244285554,-2.7797470465884544e-05,0.0,0.0,0.0,0.0,-0.0009420586284250021,0.006022296845912933,0.0021237616892904043,1.0013855695724487,0.0,0.0,0.0,-10.492097854614258,2.6811628341674805,3.214956045150757,1899.0906982421875,0
1149.9210000000003,0.024184007197618484,0.00020059614325873554,-3.418110281927511e-05,0.0,0.0,0.0,0.0,0.00021186565572861582,0.003976207226514816,-0.0030521685257554054,0.9997836351394653,0.0,0.0,0.0,-10.480988502502441,2.674454689025879,3.204949140548706,1897.0799560546875,0
1159.8330000000005,0.024161282926797867,0.00018106275820173323,-1.844793587224558e-05,0.0,0.0,0.0,0.0,0.0008220851887017488,0.0004729488573502749,-0.0006096163997426629,1.0001555681228638,0.0,0.0,0.0,-10.486922264099121,2.669107437133789,3.190207004547119,1898.15380859375,0
1169.746000000001,0.02414720691740513,0.00018008073675446212,-2.180881710955873e-05,0.0,0.0,0.0,0.0,0.001259840908460319,-0.00096112210303545,0.004555731080472469,1.0004572868347168,0.0,0.0,0.0,-10.4766845703125,2.662782907485962,3.184438943862915,1896.3006591796875,0
1179.6589999999997,0.024132633581757545,0.00022482185158878565,-4.401093065098394e-06,0.0,0.0,0.0,0.0,-0.0011768551776185632,0.0055233389139175415,-7.208890747278929e-05,0.9997692704200745,0.0,0.0,0.0,-10.481459617614746,2.6692447662353516,3.183104991912842,1897.1650390625,0
1189.5730000000003,0.024117395281791687,0.0002273368154419586,-6.1213622757350095e-06,0.0,0.0,0.0,0.0,-0.004981620702892542,0.002726093865931034,-0.0011319669429212809,0.9984681606292725,0.0,0.0,0.0,-10.470115661621094,2.666252613067627,3.1765270233154297,1895.11181640625,0
1199.4850000000006,0.02409432828426361,0.00020570121705532074,-1.2022551345580723e-05,0.0,0.0,0.0,0.0,0.0025222187396138906,0.0012308502336964011,-0.001231794711202383,0.998458743095398,0.0,0.0,0.0,-10.48275089263916,2.664997100830078,3.164201498031616,1897.398681640625,0
1209.398000000001,0.02407481148838997,0.00020596905960701406,-1.5538062143605202e-05,0.0,0.0,0.0,0.0,0.0010950107825919986,0.004531499929726124,-0.0011480505345389247,1.0001929998397827,0.0,0.0,0.0,-10.472999572753906,2.661233425140381,3.1629207134246826,1895.6337890625,0
1219.3150000000005,0.024050330743193626,0.00018811730842571706,-3.1019833841128275e-05,0.0,0.0,0.0,0.0,-0.002023512264713645,0.001914540771394968,-0.001594086061231792,1.000882863998413,0.0,0.0,0.0,-10.486665725708008,2.654158353805542,3.1455111503601074,1898.107421875,0
1229.2250000000004,0.02402781881392002,0.00018536338757257909,-3.5702494642464444e-05,0.0,0.0,0.0,0.0,0.0004126562853343785,-0.0005346840480342507,0.00036330995499156415,1.001373052597046,0.0,0.0,0.0,-10.476669311523438,2.6526706218719482,3.130207061767578,1896.2979736328125,0
1239.1470000000008,0.024227842688560486,0.00011846698907902464,9.67008454608731e-05,0.0,0.0,0.0,0.0,-0.0009072174434550107,-0.003914808388799429,0.00413841987028718,1.0003947019577026,0.0,0.0,0.0,-10.51656436920166,2.660231828689575,3.178518295288086,1903.5189208984375,0
1249.0529999999999,0.024215565994381905,0.00011309645196888596,9.949137893272564e-05,0.0,0.0,0.0,0.0,0.0010742602171376348,0.0032950264867395163,-0.0027593360282480717,0.9995842576026917,0.0,0.0,0.0,-10.504011154174805,2.65474271774292,3.181756019592285,1901.2469482421875,0
1258.9670000000006,0.02423674799501896,5.180511288926937e-05,6.672950985375792e-05,0.0,0.0,0.0,0.0,-0.0004549516597762704,-0.00022199632076080889,0.0008839540532790124,0.9971295595169067,0.0,0.0,0.0,-10.54053783416748,2.647256851196289,3.1825592517852783,1907.8582763671875,0
1268.8770000000004,0.024223068729043007,4.35290094173979e-05,6.648637645412236e-05,0.0,0.0,0.0,0.0,-0.0009711478487588465,0.002046080306172371,-0.0023452360183000565,0.9988787770271301,0.0,0.0,0.0,-10.529708862304688,2.6484038829803467,3.1760365962982178,1905.898193359375,0
1278.7900000000009,0.024188363924622536,3.723277768585831e-05,9.192703146254644e-05,0.0,0.0,0.0,0.0,-0.0012335426872596145,0.002036451594904065,-0.0011734669096767902,1.0006240606307983,0.0,0.0,0.0,-10.543181419372559,2.6473910808563232,3.1735148429870605,1908.3367919921875,0
1288.7039999999997,0.02420111373066902,0.00011529344919836149,7.884475053288043e-05,0.0,0.0,0.0,0.0,-0.003959714435040951,-0.0017995873931795359,-0.0021634974982589483,0.998940646648407,0.0,0.0,0.0,-10.549598693847656,2.664485454559326,3.16975736618042,1909.4984130859375,0
1298.6190000000006,0.02418585494160652,0.00010960242070723325,7.661993731744587e-05,0.0,0.0,0.0,0.0,-1.4968499272072222e-05,-0.002447919687256217,0.00015843567962292582,0.9987539052963257,0.0,0.0,0.0,-10.538825988769531,2.662360429763794,3.1619608402252197,1907.5484619140625,0
1308.5290000000005,0.024170666933059692,0.0001039160561049357,7.376051507890224e-05,0.0,0.0,0.0,0.0,0.0004646244633477181,-0.0014329993864521384,0.0029365362133830786,0.999238133430481,0.0,0.0,0.0,-10.528375625610352,2.663923740386963,3.1705377101898193,1905.6568603515625,0
1318.4440000000013,0.024162478744983673,0.00010368157381890342,5.675170541508123e-05,0.0,0.0,0.0,0.0,-0.0015739476075395942,-0.0005616219714283943,-0.0014907042495906353,0.9992563724517822,0.0,0.0,0.0,-10.539023399353027,2.6720399856567383,3.1809585094451904,1907.5841064453125,0
1328.357,0.02414669841527939,9.946966747520491e-05,5.1440314564388245e-05,0.0,0.0,0.0,0.0,0.0010389002272859216,-0.0018997704610228539,0.002153070643544197,0.9995830655097961,0.0,0.0,0.0,-10.528519630432129,2.669590711593628,3.1769156455993652,1905.6829833984375,0
1338.2700000000004,0.024130744859576225,9.545282955514267e-05,4.546430864138529e-05,0.0,0.0,0.0,0.0,-0.002831622725352645,-1.6106509065139107e-05,0.0003299457021057606,0.9989187717437744,0.0,0.0,0.0,-10.518105506896973,2.6650054454803467,3.175642967224121,1903.798095703125,0
1348.187,0.024099431931972504,0.00010148939327336848,8.449998131254688e-05,0.0,0.0,0.0,0.0,0.0018754962366074324,0.0010237937094643712,-0.002632969059050083,0.998508095741272,0.0,0.0,0.0,-10.515995025634766,2.6685121059417725,3.168602705001831,1903.4158935546875,0
1358.1050000000014,0.024082588031888008,9.6964678959921e-05,7.99499757704325e-05,0.0,0.0,0.0,0.0,-0.00020956306252628565,-0.005249636247754097,0.004492805805057287,0.9994869828224182,0.0,0.0,0.0,-10.505739212036133,2.6658761501312256,3.1724610328674316,1901.5595703125,0
1368.0100000000002,0.024064216762781143,0.00016769213834777474,0.00010807837679749355,0.0,0.0,0.0,0.0,-0.0016662606503814459,0.0012310491874814034,0.0012372804339975119,0.9991357922554016,0.0,0.0,0.0,-10.511913299560547,2.688156843185425,3.1741278171539307,1902.67724609375,0
1377.9320000000007,0.02404533512890339,0.00016805385530460626,0.00010410503455204889,0.0,0.0,0.0,0.0,-0.0013091632863506675,-7.517684571212158e-05,0.0037179971113801003,0.9990759491920471,0.0,0.0,0.0,-10.501631736755371,2.6879804134368896,3.1674234867095947,1900.816162109375,0
1387.8360000000011,0.02403913252055645,0.00017896050121635199,5.8187484683003277e-05,0.0,0.0,0.0,0.0,0.0006115889409556985,0.002045844681560993,-0.0031832782551646233,1.0018749237060547,0.0,0.0,0.0,-10.51465892791748,2.6950173377990723,3.173337697982788,1903.174072265625,0
1397.7740000000013,0.024021178483963013,0.00018166090012528002,5.006952414987609e-05,0.0,0.0,0.0,0.0,-0.0009115904103964567,-0.0031026077922433615,-0.00019768349011428654,1.000657558441162,0.0,0.0,0.0,-10.504292488098145,2.6904256343841553,3.1679046154022217,1901.2978515625,0
1407.6650000000009,0.02401037886738777,0.0001911391445901245,1.526294909126591e-05,0.0,0.0,0.0,0.0,-0.00023878760111983865,0.0015500822337344289,-0.004122825805097818,0.9981145262718201,0.0,0.0,0.0,-10.519323348999023,2.7031068801879883,3.163093090057373,1904.0185546875,0
1417.5840000000007,0.024157105013728142,8.826257544569671e-05,8.842335228109732e-05,0.0,0.0,0.0,0.0,0.0015200515044853091,4.100672958884388e-05,0.000483676150906831,0.998619019985199,0.0,0.0,0.0,-10.541060447692871,2.685314178466797,3.2085866928100586,1907.952880859375,0
1427.4899999999998,0.02417924627661705,0.00015498703578487039,6.306971044978127e-05,0.0,0.0,0.0,0.0,0.002436866518110037,0.0010881093330681324,-0.0015968483639881015,1.000136375427246,0.0,0.0,0.0,-10.551379203796387,2.705284833908081,3.212909698486328,1909.8206787109375,0
1437.4140000000007,0.024188486859202385,0.00010550496517680585,4.8017762310337275e-05,0.0,0.0,0.0,0.0,0.0025193197652697563,0.0005091310013085604,-0.001728201867081225,1.0013043880462646,0.0,0.0,0.0,-10.568795204162598,2.6991913318634033,3.2105393409729004,1912.972900390625,0
1447.3140000000003,0.024224715307354927,0.00015930902736727148,-3.5616055811260594e-06,0.0,0.0,0.0,0.0,-0.003968084696680307,-0.0006090855458751321,0.0008303443901240826,1.003206491470337,0.0,0.0,0.0,-10.564696311950684,2.705686330795288,3.2062652111053467,1912.2310791015625,0
1457.2399999999998,0.02421550638973713,0.0001581221295055002,-1.436855654901592e-05,0.0,0.0,0.0,0.0,-0.002300456166267395,-0.002860243199393153,-0.0010373000986874104,1.0032665729522705,0.0,0.0,0.0,-10.55429458618164,2.7080655097961426,3.2022783756256104,1910.348388671875,0
1467.1419999999998,0.024232370778918266,0.00019687115855049342,-5.10403115185909e-05,0.0,0.0,0.0,0.0,0.0006358358077704906,0.005122156348079443,-0.000287196395220235,0.9985336661338806,0.0,0.0,0.0,-10.56343936920166,2.714632749557495,3.2078983783721924,1912.00341796875,0
1477.0609999999997,0.02422131970524788,0.00019791803788393736,-5.883489939151332e-05,0.0,0.0,0.0,0.0,0.0026259319856762886,-0.000821371388155967,0.0014579141279682517,0.9983801245689392,0.0,0.0,0.0,-10.553787231445312,2.7152416706085205,3.198551654815674,1910.256591796875,0
1486.9680000000008,0.02419695258140564,0.0002068237226922065,-3.7954516301397234e-05,0.0,0.0,0.0,0.0,-0.0028451234102249146,-0.004312429111450911,0.0019319101702421904,1.0015462636947632,0.0,0.0,0.0,-10.552995681762695,2.7059712409973145,3.180567502975464,1910.11328125,0
1496.8909999999996,0.02418290451169014,0.00020736806618515402,-4.506653203861788e-05,0.0,0.0,0.0,0.0,-0.0010640255641192198,0.0020151287317276,-0.002522398019209504,1.0025612115859985,0.0,0.0,0.0,-10.542168617248535,2.7111408710479736,3.183609962463379,1908.153564453125,0
1506.7929999999997,0.02417975477874279,0.00023338575556408614,-7.24231795175001e-05,0.0,0.0,0.0,0.0,-0.0008952717180363834,-0.00024898696574382484,0.0008357305196113884,0.9987246990203857,0.0,0.0,0.0,-10.549775123596191,2.7191739082336426,3.1944870948791504,1909.5302734375,0
1516.7180000000008,0.024164699018001556,0.0002351898147026077,-7.834362622816116e-05,0.0,0.0,0.0,0.0,-0.0023626419715583324,0.0007860641926527023,-0.0021263149101287127,0.9999918937683105,0.0,0.0,0.0,-10.53879451751709,2.7203643321990967,3.1994056701660156,1907.5428466796875,0
1526.6200000000008,0.024156197905540466,0.0002554594830144197,-0.00010230624320684001,0.0,0.0,0.0,0.0,0.0012930062366649508,-0.00030510014039464295,-0.0013502557994797826,1.0018459558486938,0.0,0.0,0.0,-10.55219554901123,2.7247564792633057,3.1966285705566406,1909.9683837890625,0
1536.5370000000003,0.024140456691384315,0.0002597126876935363,-0.00010963412205455825,0.0,0.0,0.0,0.0,2.0249774024705403e-05,-0.00018516220734454691,-0.0004975420888513327,1.0004429817199707,0.0,0.0,0.0,-10.541166305541992,2.721637487411499,3.200324058532715,1907.9720458984375,0
1546.446,0.02410908229649067,0.0002399216900812462,-8.066148438956589e-05,0.0,0.0,0.0,0.0,-0.0012721281964331865,-0.005890778265893459,-0.0004990073502995074,1.0012494325637817,0.0,0.0,0.0,-10.5515718460083,2.707878351211548,3.189546823501587,1909.85546875,0
1556.3600000000006,0.024093056097626686,0.0002442159748170525,-8.268210513051599e-05,0.0,0.0,0.0,0.0,0.0008976499666459858,0.002666329964995384,-0.0021004793234169483,1.0014805793762207,0.0,0.0,0.0,-10.540249824523926,2.6970908641815186,3.194521188735962,1907.80615234375,0
1566.2749999999996,0.02406955324113369,0.0002589586947578937,-6.244801625143737e-05,0.0,0.0,0.0,0.0,-0.0014784429222345352,0.004337451886385679,0.0009520208113826811,1.0004048347473145,0.0,0.0,0.0,-10.539098739624023,2.697824478149414,3.1899077892303467,1907.5980224609375,0
1576.1949999999997,0.024238409474492073,0.00012625286763068289,2.9932787583675236e-05,0.0,0.0,0.0,0.0,-0.0013102040393278003,0.00047454191371798515,0.0009924779878929257,0.9981654286384583,0.0,0.0,0.0,-10.558634757995605,2.6807520389556885,3.2387545108795166,1911.1337890625,0
1586.107,0.024231428280472755,0.00015376291412394494,4.391302718431689e-05,0.0,0.0,0.0,0.0,0.005333108827471733,0.001397579675540328,-0.00574128283187747,0.9987263083457947,0.0,0.0,0.0,-10.56070327758789,2.686427116394043,3.233567953109741,1911.5084228515625,0
1596.027,0.02422264777123928,0.00010341229062760249,4.360373714007437e-05,0.0,0.0,0.0,0.0,-0.0013417410664260387,-0.0001055118627846241,-0.0005352578591555357,0.9986704587936401,0.0,0.0,0.0,-10.581141471862793,2.6758923530578613,3.2353780269622803,1915.20751953125,0
1605.924000000001,0.024163689464330673,8.594235987402499e-05,0.00010674481745809317,0.0,0.0,0.0,0.0,-0.00013951236905995756,-0.00019354672986082733,-0.0023022769019007683,1.000398874282837,0.0,0.0,0.0,-10.585975646972656,2.6736791133880615,3.218498706817627,1916.0826416015625,0
1615.844000000001,0.024157434701919556,5.652126492350362e-05,0.00011404046381358057,0.0,0.0,0.0,0.0,0.002408440224826336,0.00017922978440765291,-0.0008013879414647818,0.9991309642791748,0.0,0.0,0.0,-10.601980209350586,2.6722450256347656,3.218045473098755,1918.9796142578125,0
1625.7520000000004,0.02414429746568203,5.2689763833768666e-05,0.00012109825911466032,0.0,0.0,0.0,0.0,-0.0006522916373796761,0.004169303923845291,-0.0015444651944562793,0.9998830556869507,0.0,0.0,0.0,-10.590494155883789,2.6731181144714355,3.21146559715271,1916.900634765625,0
1635.6689999999999,0.02412460930645466,6.52112576062791e-05,0.00013882842904422432,0.0,0.0,0.0,0.0,-0.004570061806589365,0.0026194490492343903,-4.527675991994329e-05,1.0012305974960327,0.0,0.0,0.0,-10.608585357666016,2.677593946456909,3.209775924682617,1920.175048828125,0
1645.5879999999997,0.024109728634357452,8.451499161310494e-05,0.0001447349932277575,0.0,0.0,0.0,0.0,-0.0002589737996459007,-0.00024205843510571867,0.0023201678413897753,1.000663161277771,0.0,0.0,0.0,-10.612258911132812,2.6793763637542725,3.1964223384857178,1920.840087890625,0
1655.5,0.024092406034469604,8.118645928334445e-05,0.00015304483531508595,0.0,0.0,0.0,0.0,0.0006165308295749128,-0.0016274108784273267,-0.0009714419138617814,0.9987924695014954,0.0,0.0,0.0,-10.600966453552246,2.6818020343780518,3.19549822807312,1918.7960205078125,0
1665.4089999999997,0.024080490693449974,0.00010647800809238106,0.00015734496992081404,0.0,0.0,0.0,0.0,0.00043898590956814587,-0.004371355753391981,-0.0035562398843467236,0.9995545148849487,0.0,0.0,0.0,-10.603338241577148,2.685366153717041,3.1888911724090576,1919.225341796875,0
1675.3330000000005,0.02405654639005661,0.00010566721903160214,0.00016551266890019178,0.0,0.0,0.0,0.0,-0.0006016778643243015,0.0007720706635154784,0.0007722242153249681,1.0008443593978882,0.0,0.0,0.0,-10.594782829284668,2.6833431720733643,3.192347764968872,1917.6768798828125,0
1685.2399999999998,0.024068636819720268,0.0001828023960115388,0.00012441002763807774,0.0,0.0,0.0,0.0,0.002024798421189189,0.0028046483639627695,0.001162142725661397,1.0006887912750244,0.0,0.0,0.0,-10.59305477142334,2.698436975479126,3.186408281326294,1917.3641357421875,0
1695.157000000001,0.024042831733822823,0.00018591328989714384,0.00012923171743750572,0.0,0.0,0.0,0.0,-0.0021887016482651234,0.0001965159608516842,-0.0009527030633762479,1.0006422996520996,0.0,0.0,0.0,-10.583827018737793,2.698399782180786,3.1770172119140625,1915.693603515625,0
1705.0640000000003,0.024025071412324905,0.00020095682702958584,0.00011710876424331218,0.0,0.0,0.0,0.0,-0.0003049829101655632,0.0029423250816762447,0.0017240828601643443,0.9980259537696838,0.0,0.0,0.0,-10.582056999206543,2.709101438522339,3.1774070262908936,1915.373291015625,0
1714.978000000001,0.02399766631424427,0.00020436507475096732,0.00012162818165961653,0.0,0.0,0.0,0.0,-0.004157164599746466,-0.003793067531660199,0.002402867656201124,0.9994907379150391,0.0,0.0,0.0,-10.572632789611816,2.7070329189300537,3.169245719909668,1913.66748046875,0
1724.8919999999998,0.023989740759134293,0.00025601129163987935,8.801589865470305e-05,0.0,0.0,0.0,0.0,0.0007720417925156653,0.0024413999635726213,0.0034523908980190754,1.0007418394088745,0.0,0.0,0.0,-10.573802947998047,2.729260206222534,3.180633783340454,1913.87939453125,0
1734.8060000000005,0.023961469531059265,0.00026338122552260756,8.840327063808218e-05,0.0,0.0,0.0,0.0,-0.0033047569449990988,-0.0012712694006040692,-0.0007474845042452216,0.9992108345031738,0.0,0.0,0.0,-10.562455177307129,2.7265748977661133,3.1818830966949463,1911.825439453125,0
1744.7330000000002,0.02394873835146427,0.00031324048177339137,5.232007606537081e-05,0.0,0.0,0.0,0.0,-0.0010410352842882276,0.0022436941508203745,0.003843358950689435,0.9982492327690125,0.0,0.0,0.0,-10.557653427124023,2.747638702392578,3.1830484867095947,1910.9564208984375,0
1754.643,0.024186288937926292,0.00014798437769059092,0.0001675968524068594,0.0,0.0,0.0,0.0,-0.0026628337800502777,-0.0008043088018894196,-0.0018232756992802024,0.9981406331062317,0.0,0.0,0.0,-10.578974723815918,2.723299741744995,3.2586135864257812,1914.8155517578125,0
1764.550000000001,0.02418898604810238,0.00015080810408107936,0.00013966440747026354,0.0,0.0,0.0,0.0,0.0011575870448723435,0.0058529977686703205,-0.001327314181253314,0.9995448589324951,0.0,0.0,0.0,-10.58989429473877,2.7247555255889893,3.25591778755188,1916.7919921875,0
1774.4620000000014,0.02417474240064621,0.00015417597023770213,0.0001376155560137704,0.0,0.0,0.0,0.0,0.0005729947588406503,0.0002666143118403852,0.0007969254511408508,0.9991960525512695,0.0,0.0,0.0,-10.578665733337402,2.717655897140503,3.248722791671753,1914.759521484375,0
1784.3810000000012,0.024184823036193848,0.0002063565916614607,0.00011542438005562872,0.0,0.0,0.0,0.0,0.002472733613103628,0.0015368114691227674,-0.002830361481755972,0.9990661144256592,0.0,0.0,0.0,-10.589743614196777,2.7283194065093994,3.244157552719116,1916.7647705078125,0
1794.286,0.024169426411390305,0.0002111603826051578,0.00011033819464500993,0.0,0.0,0.0,0.0,-0.0011635991977527738,-0.00038111922913230956,-0.002253227401524782,1.0020886659622192,0.0,0.0,0.0,-10.579302787780762,2.723979949951172,3.239145040512085,1914.8748779296875,0
1804.205,0.024152323603630066,0.0001869482221081853,9.151419362751767e-05,0.0,0.0,0.0,0.0,0.0012960034655407071,-0.003522403771057725,-0.004682466387748718,0.9986730217933655,0.0,0.0,0.0,-10.586666107177734,2.7143821716308594,3.233024835586548,1916.2076416015625,0
1814.1100000000006,0.024133864790201187,0.00019079851335845888,8.599954162491485e-05,0.0,0.0,0.0,0.0,0.000804029346909374,-0.00293317181058228,0.0018283636309206486,0.9988633990287781,0.0,0.0,0.0,-10.57663345336914,2.7077698707580566,3.2267775535583496,1914.3917236328125,0
1824.0349999999999,0.024120807647705078,0.00018799507233779877,6.013226447976194e-05,0.0,0.0,0.0,0.0,0.001371447928249836,0.00019610408344306052,-0.003004246624186635,0.9988968968391418,0.0,0.0,0.0,-10.587668418884277,2.7078256607055664,3.227980613708496,1916.3890380859375,0
1833.9430000000011,0.024101201444864273,0.0001915202446980402,5.1726932724704966e-05,0.0,0.0,0.0,0.0,0.0009495560079813004,0.0011027209693565965,0.0009403855074197054,0.9994824528694153,0.0,0.0,0.0,-10.577381134033203,2.7086381912231445,3.2260358333587646,1914.5269775390625,0
1843.8600000000006,0.024085335433483124,0.00021960612502880394,3.820215351879597e-05,0.0,0.0,0.0,0.0,-0.0006710451561957598,0.0018022945150732994,-0.0037254078779369593,0.9993739724159241,0.0,0.0,0.0,-10.575448989868164,2.717158555984497,3.2238986492156982,1914.1771240234375,0
1853.7720000000008,0.024063926190137863,0.00022311933571472764,2.7692440198734403e-05,0.0,0.0,0.0,0.0,-0.0002410516026429832,-0.006025930400937796,0.000958923134021461,0.9995244741439819,0.0,0.0,0.0,-10.56590461730957,2.716449737548828,3.222524404525757,1912.44970703125,0
1863.6800000000003,0.024048184975981712,0.00021567230578511953,-1.1491823897813447e-05,0.0,0.0,0.0,0.0,0.0009640845819376409,-0.0021419592667371035,0.003897479735314846,0.9990417957305908,0.0,0.0,0.0,-10.575312614440918,2.7154698371887207,3.222707748413086,1914.1527099609375,0
1873.5900000000001,0.024025706574320793,0.00021913807722739875,-2.537857108109165e-05,0.0,0.0,0.0,0.0,0.0006011587684042752,0.0008438229560852051,-0.0018569742096588016,1.0003224611282349,0.0,0.0,0.0,-10.563998222351074,2.710505962371826,3.2219631671905518,1912.104736328125,0
1883.5020000000004,0.024001428857445717,0.0002018510567722842,-5.0783841288648546e-05,0.0,0.0,0.0,0.0,-0.00029139325488358736,0.0006255871849134564,0.0020009768195450306,1.0023036003112793,0.0,0.0,0.0,-10.554574012756348,2.707556962966919,3.216231107711792,1910.3988037109375,0
1893.42,0.023977266624569893,0.00020415315520949662,-6.525583739858121e-05,0.0,0.0,0.0,0.0,0.0019371978705748916,-0.0029449118301272392,0.0011494692880660295,1.0032907724380493,0.0,0.0,0.0,-10.543501853942871,2.704573631286621,3.2088422775268555,1908.394775390625,0
1903.3289999999997,0.023950627073645592,0.0002008566225413233,-8.156786498147994e-05,0.0,0.0,0.0,0.0,0.0002770733553916216,-0.006361247505992651,-0.00040388430352322757,1.0002410411834717,0.0,0.0,0.0,-10.539454460144043,2.6919407844543457,3.2057018280029297,1907.6622314453125,0
1913.2430000000004,0.023925065994262695,0.0002029989700531587,-9.130524995271116e-05,0.0,0.0,0.0,0.0,-0.0032182219438254833,0.00044708108180202544,0.0033894209191203117,0.9999969005584717,0.0,0.0,0.0,-10.529458045959473,2.689854860305786,3.216975688934326,1905.85302734375,0
1923.1599999999999,0.02390824817121029,0.0002467554877512157,-0.00011027212167391554,0.0,0.0,0.0,0.0,-5.840005906065926e-05,-0.002100733807310462,0.001329466700553894,1.001636266708374,0.0,0.0,0.0,-10.530698776245117,2.7023863792419434,3.2234079837799072,1906.0775146484375,0
1933.0750000000007,0.023881660774350166,0.00025319968699477613,-0.00012016867549391463,0.0,0.0,0.0,0.0,-0.0031539995688945055,-0.0008110534981824458,0.001861642929725349,0.9994608163833618,0.0,0.0,0.0,-10.519978523254395,2.705177068710327,3.215393304824829,1904.136962890625,0
1942.9800000000014,0.023853810504078865,0.0002591008087620139,-0.000129074469441548,0.0,0.0,0.0,0.0,-0.002705601742491126,0.0015697161434218287,-0.0020689198281615973,0.9990414977073669,0.0,0.0,0.0,-10.509443283081055,2.7056241035461426,3.214602470397949,1902.22998046875,0
1952.898000000001,0.023825328797101974,0.000263898225966841,-0.00013819950981996953,0.0,0.0,0.0,0.0,-0.0014508716994896531,0.001722903922200203,-2.41283887589816e-05,1.0015273094177246,0.0,0.0,0.0,-10.499099731445312,2.702526569366455,3.212372303009033,1900.3580322265625,0
1962.808000000001,0.02383778989315033,0.0003111790574621409,-0.0002244279021397233,0.0,0.0,0.0,0.0,-0.0013181413523852825,-0.0027765496633946896,-0.0008868607110343874,1.0018792152404785,0.0,0.0,0.0,-10.50792121887207,2.7230610847473145,3.220320224761963,1901.95458984375,0
1972.723,0.024183103814721107,0.00018173926218878478,5.819398211315274e-06,0.0,0.0,0.0,0.0,0.003822119440883398,0.00029417601763270795,0.0005194137338548899,1.0015746355056763,0.0,0.0,0.0,-10.527078628540039,2.699754238128662,3.2946183681488037,1905.422119140625,0
1982.6450000000004,0.024210479110479355,0.00022128228738438338,-3.944190757465549e-05,0.0,0.0,0.0,0.0,0.002581935375928879,-0.0021425127051770687,0.0013399679446592927,0.999350905418396,0.0,0.0,0.0,-10.533866882324219,2.708587408065796,3.295964241027832,1906.65087890625,0
1992.550000000001,0.024223648011684418,0.00021231474238447845,-2.6515857825870626e-05,0.0,0.0,0.0,0.0,-0.0008764804806560278,-0.0009662517695687711,0.0013623741688206792,0.9998531341552734,0.0,0.0,0.0,-10.559096336364746,2.7066211700439453,3.301295757293701,1911.2174072265625,0
2002.4620000000014,0.024197328835725784,0.00021732271125074476,-1.5908581190160476e-06,0.0,0.0,0.0,0.0,0.0020141650456935167,-0.00033422993146814406,0.0007383077754639089,1.0024443864822388,0.0,0.0,0.0,-10.566594123840332,2.7089197635650635,3.304199457168579,1912.5745849609375,0
2012.3739999999998,0.024191396310925484,0.00021965429186820984,-1.7226984709850512e-06,0.0,0.0,0.0,0.0,-0.0004412117414176464,-0.0025581056252121925,0.0017033587209880352,1.0013463497161865,0.0,0.0,0.0,-10.555670738220215,2.697550058364868,3.3006458282470703,1910.5972900390625,0
2022.2880000000005,0.024176573380827904,0.0002308007824467495,2.0527384549495764e-05,0.0,0.0,0.0,0.0,-0.00022323610028252006,-0.0013855432625859976,0.0009353888453915715,1.000899314880371,0.0,0.0,0.0,-10.553532600402832,2.697110414505005,3.3028979301452637,1910.21044921875,0
2032.2020000000011,0.02417062222957611,0.00023513533233199269,2.4715483959880657e-05,0.0,0.0,0.0,0.0,-0.000307426176732406,-0.0017700204625725746,0.002618013648316264,1.0008538961410522,0.0,0.0,0.0,-10.542802810668945,2.6986565589904785,3.3036441802978516,1908.2684326171875,0
2042.125,0.024129511788487434,0.00020748644601553679,8.743433136260137e-05,0.0,0.0,0.0,0.0,-0.0004999655648134649,-0.001326262135989964,0.0019958140328526497,1.0028507709503174,0.0,0.0,0.0,-10.551187515258789,2.6906960010528564,3.296151876449585,1909.7860107421875,0
2052.027,0.024118468165397644,0.00021022249711677432,9.829151531448588e-05,0.0,0.0,0.0,0.0,-0.00019013177370652556,-0.0029556495137512684,0.004356570076197386,1.0014206171035767,0.0,0.0,0.0,-10.539938926696777,2.691472053527832,3.2972798347473145,1907.75,0
2061.9400000000005,0.024088531732559204,0.00019562471425160766,0.0001496285985922441,0.0,0.0,0.0,0.0,0.00027682981453835964,-0.0016811254899948835,0.002284358022734523,1.0017356872558594,0.0,0.0,0.0,-10.527999877929688,2.687119245529175,3.2962818145751953,1905.5887451171875,0
2071.858,0.02407430298626423,0.0001997921208385378,0.00016711877833586186,0.0,0.0,0.0,0.0,8.122586586978287e-05,0.0055906884372234344,-0.0033340570516884327,1.0000747442245483,0.0,0.0,0.0,-10.517169952392578,2.6813552379608154,3.290630340576172,1903.6287841796875,0
2081.767,0.02407904900610447,0.0002526288735680282,0.00014413862663786858,0.0,0.0,0.0,0.0,0.0022422662004828453,-0.0029203062877058983,0.004408502019941807,0.9990198016166687,0.0,0.0,0.0,-10.522564888000488,2.6935462951660156,3.2799108028411865,1904.6051025390625,0
2091.6850000000013,0.024066541343927383,0.00026126563898287714,0.00015848716429900378,0.0,0.0,0.0,0.0,0.000999746029265225,-0.004072300624102354,0.0014704812783747911,0.9990358948707581,0.0,0.0,0.0,-10.511198043823242,2.6892712116241455,3.2871153354644775,1902.547607421875,0
2101.586000000001,0.024067189544439316,0.00029064028058201075,0.00013355135160963982,0.0,0.0,0.0,0.0,0.0021138491574674845,0.003954001702368259,-0.0016586375422775745,1.0004304647445679,0.0,0.0,0.0,-10.513955116271973,2.6942150592803955,3.2975540161132812,1903.046875,0
2111.5020000000004,0.02405593916773796,0.0003000828728545457,0.00014374223246704787,0.0,0.0,0.0,0.0,0.0012395402882248163,-0.0013845175271853805,4.61245836049784e-05,0.9997122287750244,0.0,0.0,0.0,-10.504973411560059,2.68981671333313,3.2827160358428955,1901.4210205078125,0
2121.411,0.02405531331896782,0.00031588648562319577,0.0001167309601441957,0.0,0.0,0.0,0.0,-0.0001524766703369096,-0.006505217403173447,-0.00013479383778758347,0.9981229901313782,0.0,0.0,0.0,-10.507673263549805,2.69008731842041,3.289552688598633,1901.9097900390625,0
2131.3230000000003,0.024044418707489967,0.00032560472027398646,0.00012310795136727393,0.0,0.0,0.0,0.0,0.0009803379653021693,0.002240633824840188,-0.001001500291749835,1.0000863075256348,0.0,0.0,0.0,-10.497029304504395,2.6904666423797607,3.3007917404174805,1899.983154296875,0
2141.247000000001,0.024038342759013176,0.0003367396129760891,0.00010148153523914516,0.0,0.0,0.0,0.0,-0.0012863827869296074,0.0013254070654511452,0.00010792054672492668,1.0007436275482178,0.0,0.0,0.0,-10.497170448303223,2.6905384063720703,3.30216121673584,1900.0087890625,0
