timestamp,stateEstimate.x,stateEstimate.y,stateEstimate.z,controller.cmd_thrust,controller.cmd_roll,controller.cmd_pitch,controller.cmd_yaw,controller.r_roll,controller.r_pitch,controller.r_yaw,controller.accelz,controller.actuatorThrust,controller.roll,controller.pitch,controller.yaw,controller.rollRate,controller.pitchRate,controller.yawRate,controller.ctr_yaw
0.0,-0.0002499031543266028,-0.00030913794762454927,0.00011463334521977231,0.0,0.0,0.0,0.0,-0.00272925803437829,-0.0039060853887349367,-0.000759446294978261,0.9989587068557739,0.0,0.0,0.0,0.1958473026752472,0.5478957295417786,4.824760437011719,-35.44874954223633,0
9.912000000000262,-0.00030341368983499706,-0.0003373054787516594,0.00012985692592337728,0.0,0.0,0.0,0.0,0.00018717386410571635,1.779350350261666e-05,-0.0013377534924075007,1.0005476474761963,0.0,0.0,0.0,0.19526317715644836,0.5574145317077637,4.825931549072266,-35.343021392822266,0
19.818999999999505,-0.0001452149444958195,-0.0003547879750840366,0.0002343564119655639,0.0,0.0,0.0,0.0,0.0026496085338294506,-0.004143131896853447,0.004392850212752819,1.0014287233352661,0.0,0.0,0.0,0.19547051191329956,0.5587543845176697,4.822091102600098,-35.380550384521484,0
29.73700000000099,-0.0001997598446905613,-0.00038304663030430675,0.000254633225267753,0.0,0.0,0.0,0.0,-0.001019882969558239,0.000995035283267498,0.0031837201677262783,1.0002415180206299,0.0,0.0,0.0,0.1965334415435791,0.5517409443855286,4.818881034851074,-35.572940826416016,0
39.64400000000023,-0.00021862215362489223,-0.0003764900320675224,0.0003100835019722581,0.0,0.0,0.0,0.0,-0.0010348201030865312,0.005294122267514467,0.0013919502962380648,0.999077320098877,0.0,0.0,0.0,0.19648902118206024,0.5505903959274292,4.806787490844727,-35.56490707397461,0
49.564000000000306,-0.0002787968551274389,-0.0004056446487084031,0.0003336010850034654,0.0,0.0,0.0,0.0,0.0018480727449059486,0.001032788073644042,0.0012608945835381746,0.9988344311714172,0.0,0.0,0.0,0.1954411417245865,0.5473793148994446,4.780881404876709,-35.3752326965332,0
59.47099999999955,-0.00022293475922197104,-0.00042083224980160594,0.00037356442771852016,0.0,0.0,0.0,0.0,0.00024514892720617354,-0.0005443259724415839,0.0009260047227144241,1.001794695854187,0.0,0.0,0.0,0.20463642477989197,0.5448562502861023,4.783849716186523,-37.03959655761719,0
69.38299999999981,-0.00028985366225242615,-0.00045158760622143745,0.0003982160706073046,0.0,0.0,0.0,0.0,0.00017136034148279577,0.0030175712890923023,-0.00029144968721084297,1.0004802942276,0.0,0.0,0.0,0.20453381538391113,0.5445072054862976,4.78226375579834,-37.021026611328125,0
79.29800000000068,-0.00028968058177269995,-0.0004555877239909023,0.000446066987933591,0.0,0.0,0.0,0.0,-0.00240700482390821,0.005482088774442673,-0.0014039831003174186,0.9993124604225159,0.0,0.0,0.0,0.20356374979019165,0.5433813333511353,4.77695369720459,-36.84544372558594,0
89.20600000000013,-0.0003642709052655846,-0.0004861817287746817,0.0004742454329971224,0.0,0.0,0.0,0.0,-0.0004460115742404014,-0.0024946988560259342,-0.006646460387855768,1.001068353652954,0.0,0.0,0.0,0.20152771472930908,0.5478300452232361,4.760527610778809,-36.47692108154297,0
99.11700000000019,-0.00037616639747284353,-0.0004800577007699758,0.0005308877443894744,0.0,0.0,0.0,0.0,-0.00044436281314119697,-0.003689933568239212,-0.0004948219284415245,1.000636339187622,0.0,0.0,0.0,0.20007343590259552,0.5521140098571777,4.752630710601807,-36.213687896728516,0
109.02700000000004,-0.0004567646828945726,-0.0005099094123579562,0.0005628613289445639,0.0,0.0,0.0,0.0,-0.001668903511017561,-0.0011339879129081964,0.0030609441455453634,1.0003913640975952,0.0,0.0,0.0,0.19926540553569794,0.5559271574020386,4.752049446105957,-36.06743240356445,0
118.9380000000001,-0.00037140381755307317,-0.0005165753536857665,0.0006154390284791589,0.0,0.0,0.0,0.0,-0.00040773116052150726,0.0031184381805360317,-0.0005902781267650425,1.0003716945648193,0.0,0.0,0.0,0.19905886054039001,0.5558509826660156,4.7491655349731445,-36.030052185058594,0
128.85100000000057,-0.0004536818596534431,-0.0005470100441016257,0.0006511873216368258,0.0,0.0,0.0,0.0,-0.0008968697511591017,0.0017937157535925508,0.0015181426424533129,1.001327395439148,0.0,0.0,0.0,0.1998901069164276,0.5521551370620728,4.739675521850586,-36.18050765991211,0
138.75900000000001,-0.0003795348748099059,-0.0005540784914046526,0.0007101429509930313,0.0,0.0,0.0,0.0,-0.001501670223660767,-0.001639609457924962,0.0019629932940006256,0.9991428852081299,0.0,0.0,0.0,0.19993077218532562,0.5532026886940002,4.730053901672363,-36.1878662109375,0
148.66500000000087,-0.00046105467481538653,-0.00058377516688779,0.000749958970118314,0.0,0.0,0.0,0.0,-0.00399641040712595,0.004328581504523754,-0.0023890065494924784,0.9991359710693359,0.0,0.0,0.0,0.2001114785671234,0.5563247799873352,4.721280574798584,-36.22057342529297,0
158.57899999999972,-0.00034959864569827914,-0.0006246234988793731,0.0008010794990696013,0.0,0.0,0.0,0.0,2.151967009922373e-06,0.0019070846028625965,0.0003322659758850932,0.9989843964576721,0.0,0.0,0.0,0.20499496161937714,0.5483898520469666,4.747631549835205,-37.1044921875,0
168.49099999999999,-0.00043054530397057533,-0.0006551287951879203,0.000841036788187921,0.0,0.0,0.0,0.0,0.0005908644525334239,0.002141012344509363,-0.0013655193615704775,1.0023396015167236,0.0,0.0,0.0,0.20442159473896027,0.5452077984809875,4.7319488525390625,-37.00071334838867,0
178.41200000000026,-0.00036074710078537464,-0.0006982187042012811,0.000895063451025635,0.0,0.0,0.0,0.0,-0.0008638554718345404,0.004974062088876963,-0.002436758251860738,1.0006434917449951,0.0,0.0,0.0,0.21087729930877686,0.5389883518218994,4.760765075683594,-38.169212341308594,0
188.3109999999997,-0.00020931937615387142,-0.00022579713549930602,-0.00016475336451549083,0.0,0.0,0.0,0.0,0.0009661113726906478,-0.0009879454737529159,-0.002195716369897127,1.0013363361358643,0.0,0.0,0.0,0.2057618498802185,0.6318521499633789,4.788689136505127,-37.24330139160156,0
198.22600000000057,-0.00013894232688471675,-0.00027714757015928626,-9.724834671942517e-05,0.0,0.0,0.0,0.0,0.00018819507386069745,0.0018546836217865348,-0.0003359238908160478,1.0005227327346802,0.0,0.0,0.0,0.21238985657691956,0.6231399178504944,4.805840015411377,-38.44298553466797,0
208.13600000000042,-0.00015942100435495377,-0.00017955356452148408,-0.0002045238361461088,0.0,0.0,0.0,0.0,-0.0008512705098837614,-0.004783044569194317,0.0006117020384408534,1.0022706985473633,0.0,0.0,0.0,0.211882084608078,0.6271572709083557,4.790377616882324,-38.35108184814453,0
218.05199999999968,-0.0001466198591515422,-0.00017568976909387857,-0.0001493168092565611,0.0,0.0,0.0,0.0,0.0015437824185937643,-1.781069727258e-06,0.002413003006950021,1.0013909339904785,0.0,0.0,0.0,0.21962903439998627,0.6295768618583679,4.808599472045898,-39.753292083740234,0
227.95700000000033,-0.00018397645908407867,-0.00010645786096574739,-0.0001901893992908299,0.0,0.0,0.0,0.0,-0.0014816682087257504,0.0004977388307452202,0.0004272385558579117,1.000915765762329,0.0,0.0,0.0,0.22039185464382172,0.6268268823623657,4.805138111114502,-39.89136505126953,0
237.8729999999996,-0.0001379411987727508,-0.00014495081268250942,-0.0001498945930507034,0.0,0.0,0.0,0.0,0.0021765832789242268,0.0008936068625189364,-0.00034045716165564954,1.0011950731277466,0.0,0.0,0.0,0.22597989439964294,0.6291107535362244,4.814865589141846,-40.902809143066406,0
247.78399999999965,-0.0001785883796401322,-7.18319570296444e-05,-0.00017681234749034047,0.0,0.0,0.0,0.0,-0.004134365823119879,0.000889100949279964,-0.0002648424415383488,1.0006842613220215,0.0,0.0,0.0,0.2256707400083542,0.6262052059173584,4.808034420013428,-40.84685134887695,0
257.6930000000011,-0.0001695776591077447,-0.00010104163084179163,-0.00014121865388005972,0.0,0.0,0.0,0.0,0.00201086001470685,0.0002206916396971792,-0.0014280697796493769,1.000409722328186,0.0,0.0,0.0,0.22481699287891388,0.6332825422286987,4.800314903259277,-40.692325592041016,0
267.59599999999955,-0.0002637558791320771,-0.00010827782534761354,-0.0001164192653959617,0.0,0.0,0.0,0.0,-0.0014819137286394835,-0.00195993366651237,0.0007194121135398746,0.998535692691803,0.0,0.0,0.0,0.2240532487630844,0.6280083656311035,4.792604923248291,-40.554080963134766,0
277.51900000000023,-0.0001663927687332034,-0.00015908278874121606,-5.69186158827506e-05,0.0,0.0,0.0,0.0,-0.000593958655372262,0.0006306134746409953,-0.0005700531182810664,0.9992438554763794,0.0,0.0,0.0,0.22334147989749908,0.6281717419624329,4.789893627166748,-40.425254821777344,0
287.41799999999967,-0.00020442137611098588,-0.00011125554738100618,-0.00010051550634671003,0.0,0.0,0.0,0.0,-0.0009110640385188162,0.002917906269431114,-0.0033511375077068806,0.9983658194541931,0.0,0.0,0.0,0.22261223196983337,0.6316931843757629,4.779125213623047,-40.29325866699219,0
297.33699999999953,-0.00019181706011295319,-0.00012254697503522038,-5.189471994526684e-05,0.0,0.0,0.0,0.0,0.0009239688515663147,0.0009073844412341714,0.0028398737777024508,0.999212384223938,0.0,0.0,0.0,0.22938308119773865,0.6330013871192932,4.783575057983398,-41.51879119873047,0
307.2420000000002,-0.0002410272863926366,-8.259131573140621e-05,-9.134580614045262e-05,0.0,0.0,0.0,0.0,0.003664168529212475,-0.005687099415808916,-0.00039983956958167255,1.0000540018081665,0.0,0.0,0.0,0.23023584485054016,0.6312153935432434,4.775792121887207,-41.67314910888672,0
317.16200000000026,-0.00023109483299776912,-0.00010416732402518392,-4.707937841885723e-05,0.0,0.0,0.0,0.0,0.0033196655567735434,0.0034184863325208426,0.0023744141217321157,0.999464213848114,0.0,0.0,0.0,0.22996282577514648,0.626645028591156,4.777605056762695,-41.62372970581055,0
327.0630000000001,-0.00025259717949666083,-3.328897582832724e-05,-0.0001270753564313054,0.0,0.0,0.0,0.0,-0.0009820983977988362,0.002900710329413414,0.0005568068590946496,1.0012600421905518,0.0,0.0,0.0,0.23041671514511108,0.6199110746383667,4.766971111297607,-41.70588302612305,0
336.9830000000002,-0.00016881275223568082,-0.00012524353223852813,-9.673662134446204e-05,0.0,0.0,0.0,0.0,-0.00039403699338436127,-0.011600594036281109,0.0013324030442163348,1.0015089511871338,0.0,0.0,0.0,0.2299727499485016,0.6155818104743958,4.751884937286377,-41.625526428222656,0
346.8860000000004,-0.00022630071907769889,-6.748273881385103e-05,-0.0001305409095948562,0.0,0.0,0.0,0.0,0.0018425526795908809,-0.0032688614446669817,-0.00018404042930342257,1.0025380849838257,0.0,0.0,0.0,0.22883592545986176,0.6117948293685913,4.760265827178955,-41.41975784301758,0
356.8060000000005,-0.00020643897005356848,-0.0001293348177568987,-0.00010164918057853356,0.0,0.0,0.0,0.0,-0.0008643973269499838,-0.0006424544844776392,0.00011179764260305092,1.0006213188171387,0.0,0.0,0.0,0.22861413657665253,0.6094974279403687,4.75860071182251,-41.37961196899414,0
366.70800000000054,-0.00022939761402085423,-5.299170152284205e-05,-0.00018833065405488014,0.0,0.0,0.0,0.0,-0.0017420408548787236,-0.0026758757885545492,-0.0007004551007412374,1.000540852546692,0.0,0.0,0.0,0.22803890705108643,0.6121770143508911,4.756218910217285,-41.27549743652344,0
376.6350000000002,-0.0001966465642908588,-8.276840526377782e-05,-0.0001452972792321816,0.0,0.0,0.0,0.0,0.0011342517100274563,-8.635559061076492e-05,-0.002503639319911599,0.9997667670249939,0.0,0.0,0.0,0.2339482605457306,0.6140562295913696,4.775137424468994,-42.34510040283203,0
386.53000000000065,-0.0002467725134920329,-4.166278813499957e-05,-0.00020985098672099411,0.0,0.0,0.0,0.0,-0.0037523461505770683,0.0001804173953132704,-0.0003913062682840973,1.0000110864639282,0.0,0.0,0.0,0.2323380559682846,0.6127146482467651,4.762388706207275,-42.05364990234375,0
396.4470000000001,-0.00020754430443048477,-0.0001129144147853367,-0.0001829664543038234,0.0,0.0,0.0,0.0,-0.0008304751827381551,-0.00030600916943512857,0.004058137070387602,0.999756395816803,0.0,0.0,0.0,0.23185372352600098,0.617835521697998,4.753826141357422,-41.96598434448242,0
406.3540000000012,-0.00025270969490520656,-5.329861232894473e-05,-0.00025242852279916406,0.0,0.0,0.0,0.0,0.0019021091284230351,0.0032772046979516745,-0.0007354285917244852,0.997856080532074,0.0,0.0,0.0,0.23222458362579346,0.6181853413581848,4.752011775970459,-42.03311538696289,0
416.27499999999964,-0.00020665964984800667,-8.343608351424336e-05,-0.00020906828285660595,0.0,0.0,0.0,0.0,-0.0031986190006136894,-0.0008758869953453541,0.0031757019460201263,1.001117467880249,0.0,0.0,0.0,0.23192709684371948,0.6133596897125244,4.740286827087402,-41.97926712036133,0
426.1740000000009,-0.00029138437821529806,-8.242895273724571e-05,-0.00024181397748179734,0.0,0.0,0.0,0.0,-0.00026831793366000056,-0.0013377285795286298,-0.0006705182604491711,1.0011956691741943,0.0,0.0,0.0,0.23155134916305542,0.6153562068939209,4.732246398925781,-41.911251068115234,0
436.09300000000076,-0.00018435536185279489,-0.00014047451259102672,-0.00019062396313529462,0.0,0.0,0.0,0.0,0.0016526340041309595,0.0020104420837014914,-0.002028555376455188,1.0038272142410278,0.0,0.0,0.0,0.23730424046516418,0.6099765300750732,4.756744384765625,-42.952537536621094,0
445.9970000000012,-0.0002602686872705817,-0.00010843620111700147,-0.000222713133553043,0.0,0.0,0.0,0.0,-0.0045119342394173145,0.002948144683614373,-0.005388694349676371,1.0024482011795044,0.0,0.0,0.0,0.236546590924263,0.6072673201560974,4.74940299987793,-42.815406799316406,0
455.90899999999965,-0.00017992116045206785,-0.0002012100158026442,-0.0001882304932223633,0.0,0.0,0.0,0.0,-0.0036496662069112062,-0.0014492503833025694,-0.004055728204548359,1.0005369186401367,0.0,0.0,0.0,0.23505280911922455,0.6172962784767151,4.739947319030762,-42.54502487182617,0
465.8199999999997,-0.0002508120669517666,-0.00016014027642086148,-0.00022220406390260905,0.0,0.0,0.0,0.0,-0.0022571280132979155,0.002023375127464533,-0.002380200894549489,1.000949501991272,0.0,0.0,0.0,0.23499910533428192,0.6216750144958496,4.743141174316406,-42.535308837890625,0
475.72999999999956,-0.0001670955098234117,-0.00024016195675358176,-0.000177443798747845,0.0,0.0,0.0,0.0,0.0024823106359690428,0.0024817935191094875,-0.0003202289226464927,1.002055048942566,0.0,0.0,0.0,0.24266615509986877,0.6155878901481628,4.767807483673096,-43.92305374145508,0
485.64300000000003,-0.00023885691189207137,-0.0002001790126087144,-0.00020798562036361545,0.0,0.0,0.0,0.0,-0.0034687009174376726,0.0008710164111107588,0.004410301335155964,1.0011833906173706,0.0,0.0,0.0,0.24217365682125092,0.6075584292411804,4.754650592803955,-43.83391189575195,0
495.5570000000007,-0.00021359295351430774,-0.0002140135911758989,-0.0001478615013184026,0.0,0.0,0.0,0.0,0.001278761075809598,0.0022344060707837343,-0.003951398190110922,1.0002919435501099,0.0,0.0,0.0,0.24944348633289337,0.6126705408096313,4.765103816986084,-45.1497688293457,0
505.46399999999994,-0.00023936282377690077,-0.00011673273547785357,-0.0002274831203976646,0.0,0.0,0.0,0.0,-0.0004647359892260283,-0.0020557448733597994,-0.0024944557808339596,0.9993789792060852,0.0,0.0,0.0,0.24880251288414001,0.6085727214813232,4.753782749176025,-45.03375244140625,0
515.3790000000008,-0.00020867442071903497,-0.00011807405098807067,-0.00016208531451411545,0.0,0.0,0.0,0.0,-0.0028462556656450033,0.0009641238139010966,-0.0005221291212365031,0.9992855191230774,0.0,0.0,0.0,0.24826140701770782,0.6114761233329773,4.752297401428223,-44.93580627441406,0
525.2929999999997,-0.0002570234937593341,-5.593738751485944e-05,-0.00022492777497973293,0.0,0.0,0.0,0.0,-0.002791914390400052,0.0005084712756797671,-0.0029965084977447987,1.0009630918502808,0.0,0.0,0.0,0.24825559556484222,0.6143139600753784,4.746819019317627,-44.93475341796875,0
535.2049999999999,-0.00017493210907559842,-0.00012288916332181543,-0.0001684165035840124,0.0,0.0,0.0,0.0,0.001125201815739274,0.0073969317600131035,-0.0009580632322467864,0.9996647834777832,0.0,0.0,0.0,0.2473715841770172,0.6187330484390259,4.74661922454834,-44.774749755859375,0
545.1139999999996,-0.00012139124737586826,-0.00012299683294259012,-0.00015260152576956898,0.0,0.0,0.0,0.0,0.0016257489332929254,0.0020128970500081778,-0.00035708548966795206,1.0008198022842407,0.0,0.0,0.0,0.2473880499601364,0.6152591705322266,4.725045680999756,-44.77772903442383,0
555.0190000000002,-0.00023317399609368294,-0.00014965770242270082,-0.0001405554503435269,0.0,0.0,0.0,0.0,-0.000798152934294194,0.001819760538637638,0.0002336312463739887,1.0011316537857056,0.0,0.0,0.0,0.24702289700508118,0.6135445833206177,4.710450172424316,-44.71163558959961,0
564.9320000000007,-4.291871300665662e-05,-0.00016621069516986609,-0.00011777009785873815,0.0,0.0,0.0,0.0,0.001688967109657824,0.0026013506576418877,-0.0009856214746832848,1.0000613927841187,0.0,0.0,0.0,0.24643094837665558,0.6071981191635132,4.736837387084961,-44.604488372802734,0
574.8430000000008,-0.00015072408132255077,-0.0001960272784344852,-0.00010272749204887077,0.0,0.0,0.0,0.0,-0.002402930986136198,-0.0007575580384582281,0.00055262865498662,1.000352382659912,0.0,0.0,0.0,0.24635660648345947,0.6045184135437012,4.7247843742370605,-44.591033935546875,0
584.7579999999998,-2.7206229788134806e-05,-9.050724474946037e-05,-0.00012618918844964355,0.0,0.0,0.0,0.0,0.00026157902902923524,0.005022612400352955,-0.0035116607323288918,1.0009080171585083,0.0,0.0,0.0,0.2466348558664322,0.6120699048042297,4.718513488769531,-44.64139938354492,0
594.6640000000007,-0.00013537716586142778,-0.00011480849934741855,-0.00011253076081629843,0.0,0.0,0.0,0.0,0.0010490911081433296,0.003373737446963787,0.0014677036087960005,1.000157117843628,0.0,0.0,0.0,0.24561598896980286,0.6127930879592896,4.709098815917969,-44.45698547363281,0
604.5830000000005,-7.857860327931121e-05,-8.671909017721191e-05,-0.0001148592637036927,0.0,0.0,0.0,0.0,0.00011172692029504105,0.003890777938067913,0.00027698566555045545,0.9996011257171631,0.0,0.0,0.0,0.24625355005264282,0.6109270453453064,4.698758602142334,-44.57238006591797,0
614.4899999999998,-0.00018761451065074652,-0.00010971345182042569,-0.00010120205843122676,0.0,0.0,0.0,0.0,-1.4936333172954619e-05,-0.0032925771083682775,-0.0003701978421304375,1.0017194747924805,0.0,0.0,0.0,0.24668078124523163,0.6095418334007263,4.685924053192139,-44.64971160888672,0
624.402,-0.00014563265722244978,-6.820996350143105e-05,-9.2821974249091e-05,0.0,0.0,0.0,0.0,0.0031111184507608414,-0.0011834729230031371,-0.0002692040288820863,1.0029296875,0.0,0.0,0.0,0.24567236006259918,0.6066693067550659,4.6845808029174805,-44.467185974121094,0
634.3130000000001,-0.00025943509535863996,-8.973061630968004e-05,-7.660875417059287e-05,0.0,0.0,0.0,0.0,-0.0010307776974514127,0.0039049540646374226,-0.0010700775310397148,0.9991456270217896,0.0,0.0,0.0,0.24560599029064178,0.6009954810142517,4.679096698760986,-44.45517349243164,0
644.2290000000012,-0.00011212991375941783,-0.00010007993114413694,-9.358430543215945e-05,0.0,0.0,0.0,0.0,-0.0017845331458374858,0.001532111898995936,0.001117092091590166,1.0013172626495361,0.0,0.0,0.0,0.24514751136302948,0.6003528237342834,4.669715881347656,-44.3721923828125,0
654.1319999999996,-0.00022309101768769324,-0.00012373775825835764,-7.809740054653957e-05,0.0,0.0,0.0,0.0,-0.00024455366656184196,0.001295118243433535,0.0024543970357626677,0.9995344877243042,0.0,0.0,0.0,0.244593545794487,0.6000943779945374,4.659307479858398,-44.271915435791016,0
664.0419999999995,-0.00011378645285731182,-0.00012982184125576168,-8.49156713229604e-05,0.0,0.0,0.0,0.0,-0.001049569807946682,0.00019399571465328336,3.008763087564148e-05,1.0006725788116455,0.0,0.0,0.0,0.24564501643180847,0.5959566235542297,4.650224685668945,-44.46223831176758,0
673.9539999999997,-0.00022218837693799287,-0.00015304303087759763,-6.993150600465015e-05,0.0,0.0,0.0,0.0,-0.0002793539024423808,0.002419340191408992,-0.00662155682221055,1.0024081468582153,0.0,0.0,0.0,0.24641069769859314,0.6013477444648743,4.641765117645264,-44.600826263427734,0
683.8720000000012,-7.697458931943402e-05,-0.00012163503561168909,-1.3673950888914987e-05,0.0,0.0,0.0,0.0,-0.002397625707089901,-0.0010708285262808204,-0.0023530619218945503,1.0004276037216187,0.0,0.0,0.0,0.2445947378873825,0.5986875295639038,4.664283752441406,-44.272132873535156,0
693.7759999999998,-0.0001820020843297243,-0.00014153847587294877,7.4283052526880056e-06,0.0,0.0,0.0,0.0,0.0009074117406271398,0.002170012565329671,-0.0011455806670710444,0.9998611807823181,0.0,0.0,0.0,0.24325260519981384,0.6068782210350037,4.664246559143066,-44.029205322265625,0
703.6910000000007,-0.0001276137336390093,-9.364069410366938e-05,9.647530418988026e-08,0.0,0.0,0.0,0.0,-0.0006116669392213225,0.0030345742125064135,-0.0007634733337908983,1.0007023811340332,0.0,0.0,0.0,0.24332685768604279,0.6023926734924316,4.65742301940918,-44.04264450073242,0
713.5990000000002,-0.0001541761012049392,-8.64176490722457e-06,-5.0218834076076746e-05,0.0,0.0,0.0,0.0,-0.0005367666599340737,-0.0023271965328603983,-0.0005623059114441276,1.0007590055465698,0.0,0.0,0.0,0.24284939467906952,0.6033445000648499,4.648244857788086,-43.95622253417969,0
723.509,-4.275306491763331e-05,-8.12390135251917e-05,-6.442364792746957e-07,0.0,0.0,0.0,0.0,-0.001245238701812923,-0.001841225428506732,0.0005038421950303018,1.0004950761795044,0.0,0.0,0.0,0.24237202107906342,0.6077563762664795,4.643407344818115,-43.869815826416016,0
733.4210000000003,-8.218592120101675e-05,-1.9662677004816942e-05,-3.528867819113657e-05,0.0,0.0,0.0,0.0,-0.0035372795537114143,-0.0011616909177973866,7.699173147557303e-05,1.0010069608688354,0.0,0.0,0.0,0.2427089661359787,0.6096188426017761,4.641546249389648,-43.93080520629883,0
743.3310000000001,-8.81431478774175e-05,-8.840487862471491e-05,-1.905562930915039e-05,0.0,0.0,0.0,0.0,0.0013056301977485418,0.005495837423950434,0.0031806102488189936,1.0010477304458618,0.0,0.0,0.0,0.24217632412910461,0.6163087487220764,4.641714096069336,-43.83439636230469,0
753.2489999999998,-9.54253991949372e-05,1.0942076187347993e-05,-9.056639828486368e-05,0.0,0.0,0.0,0.0,0.0017505711875855923,-0.004229399841278791,0.0005099466070532799,1.0004698038101196,0.0,0.0,0.0,0.24299103021621704,0.611828625202179,4.624180316925049,-43.98185729980469,0
763.1580000000013,-0.00010680837294785306,-1.8272989109391347e-05,-6.35826145298779e-05,0.0,0.0,0.0,0.0,0.00017814879538491368,-0.0026296868454664946,0.0022471356205642223,0.999072790145874,0.0,0.0,0.0,0.24248237907886505,0.6110436320304871,4.625494480133057,-43.889793395996094,0
773.0650000000005,-0.0001291046937694773,4.3236683268332854e-05,-0.00013451720587909222,0.0,0.0,0.0,0.0,-0.0019620233215391636,-0.0009525562636554241,-0.0026543124113231897,1.0010137557983398,0.0,0.0,0.0,0.2426452785730362,0.6082627177238464,4.622803211212158,-43.91927719116211,0
782.9799999999996,-9.068827785085887e-05,-4.667511166189797e-05,-0.00012365660222712904,0.0,0.0,0.0,0.0,0.0004463914083316922,0.0017531363992020488,0.001288515399210155,1.0000419616699219,0.0,0.0,0.0,0.2419566661119461,0.6074400544166565,4.627972602844238,-43.794639587402344,0
792.8950000000004,-0.0001528166321804747,-9.865519132290501e-06,-0.00014988485781941563,0.0,0.0,0.0,0.0,-0.0017514127539470792,0.0011209802469238639,-0.0008978319820016623,1.0011675357818604,0.0,0.0,0.0,0.24173188209533691,0.6032541394233704,4.62091588973999,-43.75395202636719,0
802.8009999999995,-4.694164454122074e-05,-5.970987331238575e-05,-0.00010170538007514551,0.0,0.0,0.0,0.0,0.0035797262098640203,-0.002704857848584652,-0.0015323531115427613,1.0016913414001465,0.0,0.0,0.0,0.2401588261127472,0.6022021174430847,4.619549751281738,-43.46922302246094,0
812.7160000000003,-9.083262557396665e-05,-2.369358298892621e-05,-0.00015148519014474005,0.0,0.0,0.0,0.0,-0.0009596653981134295,0.00025577808264642954,0.004910929128527641,1.0005621910095215,0.0,0.0,0.0,0.2402479648590088,0.5969752073287964,4.625767230987549,-43.48535919189453,0
822.6310000000012,-2.714750553423073e-05,-5.483283530338667e-05,-0.00010528074926696718,0.0,0.0,0.0,0.0,-0.0016632677288725972,0.0019204675918444991,0.0010153056355193257,0.9976519346237183,0.0,0.0,0.0,0.24099043011665344,0.5972726345062256,4.61953592300415,-43.61974334716797,0
832.5370000000003,-0.00010059729538625106,-6.828671757830307e-05,-0.00012990026152692735,0.0,0.0,0.0,0.0,0.0002698552852962166,-0.0014155169483274221,0.0005344254896044731,0.9991757869720459,0.0,0.0,0.0,0.23998776078224182,0.5985985398292542,4.6097259521484375,-43.438262939453125,0
842.4430000000011,-7.334183464990929e-05,-0.00014681543689221144,-0.00011309402907500044,0.0,0.0,0.0,0.0,-0.001585869467817247,-0.0010295201791450381,0.004038947634398937,1.0012201070785522,0.0,0.0,0.0,0.23986561596393585,0.6005487442016602,4.607176303863525,-43.41615295410156,0
852.3540000000012,-0.000134183545014821,-0.00012519372103270143,-0.00014963997818995267,0.0,0.0,0.0,0.0,0.00030263635562732816,-0.00036241457564756274,0.0008477448718622327,1.0008282661437988,0.0,0.0,0.0,0.23404046893119812,0.6120349764823914,4.616068363189697,-42.36178970336914,0
862.268,-0.00011242766049690545,-0.00014173494128044695,-0.00010674116492737085,0.0,0.0,0.0,0.0,-0.0008948762551881373,7.957761408761144e-05,0.0012679612264037132,1.00211763381958,0.0,0.0,0.0,0.23347130417823792,0.6090594530105591,4.611244201660156,-42.25876998901367,0
872.1790000000001,-0.00017095982911996543,-0.00010099294740939513,-0.00015858675760682672,0.0,0.0,0.0,0.0,-0.0003784059372264892,-0.0025872765108942986,-0.0008366645197384059,1.0026828050613403,0.0,0.0,0.0,0.23358312249183655,0.6163986325263977,4.604428768157959,-42.27900695800781,0
882.0900000000001,-8.652273390907794e-05,-0.00018136129074264318,-0.00012608180986717343,0.0,0.0,0.0,0.0,0.001847693813033402,0.0042804875411093235,-7.4506584496703e-05,1.0015946626663208,0.0,0.0,0.0,0.2325415164232254,0.6202338337898254,4.601624965667725,-42.090476989746094,0
891.9989999999998,-9.719241643324494e-05,-6.555303843924776e-05,-0.00020626212062779814,0.0,0.0,0.0,0.0,-0.0021487181074917316,0.0021033871453255415,-0.0026989670004695654,1.002327561378479,0.0,0.0,0.0,0.23203115165233612,0.6235944628715515,4.587022304534912,-41.99810028076172,0
901.9099999999999,-9.254459291696548e-05,-9.612279973225668e-05,-0.00017471880710218102,0.0,0.0,0.0,0.0,-0.00036582114989869297,-0.0010300587164238095,0.0008895784267224371,1.001246690750122,0.0,0.0,0.0,0.23080533742904663,0.6305550336837769,4.579679012298584,-41.776222229003906,0
911.8209999999999,-0.00012642922229133546,-1.253491882380331e-05,-0.0002346511755604297,0.0,0.0,0.0,0.0,0.0021706970874220133,0.007620748598128557,0.0015279903309419751,1.0012544393539429,0.0,0.0,0.0,0.23123779892921448,0.6351712942123413,4.578557968139648,-41.8545036315918,0
921.741,-3.4609041904332116e-05,-4.411241752677597e-05,-0.00017583134467713535,0.0,0.0,0.0,0.0,0.0017788358964025974,-0.006981572136282921,0.005409481003880501,1.0004948377609253,0.0,0.0,0.0,0.23073583841323853,0.6288770437240601,4.559769153594971,-41.76364517211914,0
931.643,-9.30301976040937e-05,-1.836398587329313e-05,-0.00022039737086743116,0.0,0.0,0.0,0.0,-0.0025307112373411655,0.0030105465557426214,0.0016407190123572946,0.999073326587677,0.0,0.0,0.0,0.2313682734966278,0.6251888275146484,4.563571929931641,-41.878116607666016,0
941.5619999999999,-3.192484291503206e-05,-0.0001360755122732371,-0.00020942820992786437,0.0,0.0,0.0,0.0,-0.0010263377334922552,0.0023966587614268064,1.6350377336493693e-05,0.9991317987442017,0.0,0.0,0.0,0.23769697546958923,0.6140189170837402,4.571988105773926,-43.023624420166016,0
951.4670000000006,-7.504720997530967e-05,-5.661161048919894e-05,-0.0002635525306686759,0.0,0.0,0.0,0.0,-0.003298209747299552,0.002208479680120945,-0.0024077394045889378,1.0026370286941528,0.0,0.0,0.0,0.23804296553134918,0.6136026382446289,4.563379287719727,-43.08625030517578,0
961.3850000000002,2.9662442102562636e-06,-0.00010396337165730074,-0.00021640218619722873,0.0,0.0,0.0,0.0,0.0007828222005628049,0.0034330207854509354,-8.652506221551448e-05,1.0002624988555908,0.0,0.0,0.0,0.23692092299461365,0.6151679754257202,4.541663646697998,-42.883155822753906,0
971.2929999999997,-5.382049857871607e-05,-5.53096724615898e-05,-0.0002584952744655311,0.0,0.0,0.0,0.0,-0.004659424070268869,-0.0002062114217551425,-0.002212917199358344,1.0015714168548584,0.0,0.0,0.0,0.23629921674728394,0.6106273531913757,4.5238728523254395,-42.7706298828125,0
981.2180000000008,-1.2730059097521007e-05,-0.00014259640011005104,-0.0002430711465422064,0.0,0.0,0.0,0.0,0.0014811574947088957,-0.002482092007994652,0.0015882778679952025,0.9993683099746704,0.0,0.0,0.0,0.23537985980510712,0.6174020767211914,4.520319938659668,-42.60422134399414,0
991.112000000001,-6.53671522741206e-05,-9.524823690298945e-05,-0.00029134578653611243,0.0,0.0,0.0,0.0,0.0007464643567800522,-0.0028625240083783865,0.0011775577440857887,0.9991489052772522,0.0,0.0,0.0,0.23564308881759644,0.6105891466140747,4.52414083480835,-42.65187072753906,0
1001.0320000000011,-0.0001227959874086082,-4.190500476397574e-05,-0.00024636814487166703,0.0,0.0,0.0,0.0,-0.0019598754588514566,0.004563392139971256,-0.0005053658969700336,0.9995052218437195,0.0,0.0,0.0,0.23596520721912384,0.6135894656181335,4.524884223937988,-42.71017074584961,0
1010.9340000000011,-0.0001728953793644905,1.919974420161452e-05,-0.0002999164571519941,0.0,0.0,0.0,0.0,0.0004413173592183739,-0.002709781751036644,0.001077930792234838,1.0004603862762451,0.0,0.0,0.0,0.23545262217521667,0.6199448704719543,4.513881206512451,-42.61738967895508,0
1020.8540000000012,-0.00014204175386112183,-1.5015414646768477e-05,-0.00026724295457825065,0.0,0.0,0.0,0.0,0.00044066872214898467,-0.0014515549410134554,-0.0017556294333189726,1.0000839233398438,0.0,0.0,0.0,0.23591744899749756,0.6193704605102539,4.512566089630127,-42.7015266418457,0
1030.7569999999996,-0.0001993805926758796,3.315936919534579e-05,-0.0003189930284861475,0.0,0.0,0.0,0.0,-0.0035320769529789686,0.002100263023748994,0.002754630520939827,0.9968364834785461,0.0,0.0,0.0,0.23553882539272308,0.6196924448013306,4.511056423187256,-42.63299560546875,0
1040.6730000000007,-0.00014603883028030396,-1.5445437384187244e-05,-0.00028939478215761483,0.0,0.0,0.0,0.0,-0.00028621466481126845,-0.0018934626132249832,-0.0006703734979964793,0.9973447918891907,0.0,0.0,0.0,0.23646444082260132,0.6301252841949463,4.504124641418457,-42.800533294677734,0
1050.5779999999995,-0.00024510384537279606,-1.2260508810868487e-05,-0.0003034153487533331,0.0,0.0,0.0,0.0,-0.0019836551509797573,0.0003835125535260886,-0.0017655933042988181,1.0006693601608276,0.0,0.0,0.0,0.23514315485954285,0.6283175945281982,4.505230903625488,-42.561378479003906,0
1060.4979999999996,-0.0001320473529631272,-6.631606811424717e-05,-0.0002594738616608083,0.0,0.0,0.0,0.0,-0.004074909724295139,0.0038297795690596104,0.0002212807594332844,1.0014079809188843,0.0,0.0,0.0,0.2340707778930664,0.63051438331604,4.497889041900635,-42.36727523803711,0
1070.3990000000013,-0.0002206241770181805,-6.243350071599707e-05,-0.0002844613045454025,0.0,0.0,0.0,0.0,-0.0008907053270377219,-0.002349658403545618,-0.0016994555480778217,1.0007489919662476,0.0,0.0,0.0,0.23387044668197632,0.6390361785888672,4.488234043121338,-42.331016540527344,0
1080.321,-4.4404987420421094e-05,-0.0001254132075700909,-0.00022082851501181722,0.0,0.0,0.0,0.0,-0.0016467961249873042,-0.002474706619977951,0.003393521998077631,0.9983105659484863,0.0,0.0,0.0,0.23338256776332855,0.6282207369804382,4.533383369445801,-42.242706298828125,0
1090.2219999999998,-0.00017016768106259406,-0.00014702831686008722,-0.00019455952860880643,0.0,0.0,0.0,0.0,-0.0013530324213206768,0.006620073691010475,0.0011365847894921899,0.9976738095283508,0.0,0.0,0.0,0.23364445567131042,0.6290193200111389,4.538049221038818,-42.29010772705078,0
1100.1440000000002,-9.517765283817425e-05,-0.00020751803822349757,-0.0001519128418294713,0.0,0.0,0.0,0.0,-7.345053745666519e-05,-0.0017783358925953507,-0.005744226276874542,0.9999600648880005,0.0,0.0,0.0,0.23317652940750122,0.633114755153656,4.521021366119385,-42.205413818359375,0
1110.0439999999999,-0.00014293687127064914,-0.00012341981346253306,-0.0001928798301378265,0.0,0.0,0.0,0.0,0.0008895337814465165,-0.00018400124099571258,-0.002979174954816699,1.0023151636123657,0.0,0.0,0.0,0.23110125958919525,0.6294034719467163,4.513110637664795,-41.82978820800781,0
1119.9680000000008,-1.4626291886088438e-05,-0.00017126392049249262,-0.0001301621668972075,0.0,0.0,0.0,0.0,-0.002685896586626768,0.00017352987197227776,0.0007762599852867424,1.000312089920044,0.0,0.0,0.0,0.22804296016693115,0.6198548674583435,4.543602466583252,-41.2762336730957,0
1129.8690000000006,-7.973007450345904e-05,-0.00014338563778437674,-0.00015709383296780288,0.0,0.0,0.0,0.0,-0.00035119071253575385,0.0015988271916285157,-0.000758161477278918,1.0013200044631958,0.0,0.0,0.0,0.22882084548473358,0.6239964962005615,4.54190731048584,-41.41702651977539,0
1139.791000000001,-1.9461436750134453e-05,-0.00016647615120746195,-0.00010364897025283426,0.0,0.0,0.0,0.0,-0.000805154035333544,-2.0377714463393204e-05,0.004383303690701723,1.0017026662826538,0.0,0.0,0.0,0.22807736694812775,0.62087082862854,4.532132625579834,-41.2824592590332,0
1149.6890000000003,-6.599422340514138e-05,-9.188157855533063e-05,-0.00013882135681342334,0.0,0.0,0.0,0.0,0.0012070152442902327,0.0013391103129833937,0.0036323850508779287,1.0014996528625488,0.0,0.0,0.0,0.22840909659862518,0.6192476153373718,4.52974271774292,-41.342498779296875,0
1159.6130000000012,-4.137447103857994e-05,-9.160731133306399e-05,-8.423584949923679e-05,0.0,0.0,0.0,0.0,-0.00045504377339966595,0.004255242645740509,-0.00569530064240098,1.0004204511642456,0.0,0.0,0.0,0.2288612425327301,0.6162504553794861,4.520887851715088,-41.42434310913086,0
1169.5130000000008,-7.078869384713471e-05,-1.4433679098146968e-05,-0.00014442490646615624,0.0,0.0,0.0,0.0,0.0006532651023007929,0.003520416561514139,-0.0020590145140886307,1.0015267133712769,0.0,0.0,0.0,0.22716271877288818,0.6174271106719971,4.514091968536377,-41.11690139770508,0
1179.4400000000005,-8.695080759935081e-05,-7.353671389864758e-05,-0.00012800836702808738,0.0,0.0,0.0,0.0,0.0010423396015539765,0.0023080087266862392,-0.0038976490031927824,0.9996719360351562,0.0,0.0,0.0,0.22677306830883026,0.614540696144104,4.500846862792969,-41.0463752746582,0
1189.3330000000005,-0.0001316088018938899,-2.000771746679675e-05,-0.00018460149294696748,0.0,0.0,0.0,0.0,0.0005230981623753905,-0.0013112642336636782,0.00016458677418995649,0.9986829161643982,0.0,0.0,0.0,0.22499564290046692,0.6080886125564575,4.492917537689209,-40.72466278076172,0
1199.2540000000008,-6.35579926893115e-05,-7.896591705502942e-05,-0.00014649769582320005,0.0,0.0,0.0,0.0,0.003376085078343749,-0.001307002967223525,-0.00015707431884948164,0.9987940192222595,0.0,0.0,0.0,0.22447703778743744,0.6078863739967346,4.49483060836792,-40.63079071044922,0
1209.1580000000013,-0.00011605839972617105,-1.1423249816289172e-05,-0.00020798566401936114,0.0,0.0,0.0,0.0,-0.0019338621059432626,0.0005237138248048723,0.003933729603886604,1.0003260374069214,0.0,0.0,0.0,0.22407947480678558,0.6028763651847839,4.489226341247559,-40.55883026123047,0
1219.0830000000005,-6.460657459683716e-05,-7.216374797280878e-05,-0.00018146930960938334,0.0,0.0,0.0,0.0,-0.0012585190124809742,0.0016072321450337768,-0.0006536843720823526,0.9992418885231018,0.0,0.0,0.0,0.22526656091213226,0.6086711883544922,4.486717224121094,-40.77369689941406,0
1228.9860000000008,-0.00011853418254759163,-2.179891635023523e-05,-0.0002396608324488625,0.0,0.0,0.0,0.0,0.003288773586973548,0.000653013470582664,-0.003204008098691702,1.0002727508544922,0.0,0.0,0.0,0.22386224567890167,0.6107781529426575,4.475597381591797,-40.519508361816406,0
1238.902,-5.9114241594215855e-05,-7.90319754742086e-05,-0.00021113677939865738,0.0,0.0,0.0,0.0,0.0009493954130448401,0.0006718455697409809,-0.0036588460206985474,1.0005050897598267,0.0,0.0,0.0,0.22389620542526245,0.6064230799674988,4.462313652038574,-40.525657653808594,0
1248.8009999999995,-0.00014942270354367793,-5.591666922555305e-05,-0.00022639297822024673,0.0,0.0,0.0,0.0,-0.002208694349974394,0.0039365822449326515,-0.0012186623644083738,1.0014995336532593,0.0,0.0,0.0,0.22354356944561005,0.606905996799469,4.4547247886657715,-40.46183395385742,0
1258.723,-0.00010511976870475337,-9.290571324527264e-05,-0.000189453101484105,0.0,0.0,0.0,0.0,-0.0007821671315468848,-0.005138314329087734,0.0009873461676761508,0.999555230140686,0.0,0.0,0.0,0.22300264239311218,0.6113463640213013,4.44834041595459,-40.363922119140625,0
1268.6229999999996,-0.00021676284086424857,-9.788679017219692e-05,-0.00018200276826974005,0.0,0.0,0.0,0.0,0.0037266090512275696,0.0016112743178382516,0.0013112862361595035,1.000651478767395,0.0,0.0,0.0,0.22350271046161652,0.6106047034263611,4.455436706542969,-40.45443344116211,0
1278.549000000001,-0.00015658211486879736,-9.124385542236269e-05,-0.00011512458877405152,0.0,0.0,0.0,0.0,0.00106328958645463,-0.0010113526368513703,-0.0005668203230015934,1.0017088651657104,0.0,0.0,0.0,0.22314561903476715,0.6062036752700806,4.448193073272705,-40.38980484008789,0
1288.4490000000005,-0.00021369487512856722,-4.855499355471693e-05,-0.00016769747890066355,0.0,0.0,0.0,0.0,-0.002119404962286353,0.0022803768515586853,-0.0003530487883836031,1.0003442764282227,0.0,0.0,0.0,0.22305673360824585,0.6046029329299927,4.445779800415039,-40.37371063232422,0
1298.3720000000012,-9.895228140521795e-05,-9.576603042660281e-05,-0.00010678568651201203,0.0,0.0,0.0,0.0,-0.0028826571069657803,-0.002131957095116377,-0.0016941390931606293,1.0006195306777954,0.0,0.0,0.0,0.2212522178888321,0.6007906198501587,4.465981483459473,-40.04709243774414,0
1308.268,-0.00013587596185971051,-2.866790055122692e-05,-0.00017745692457538098,0.0,0.0,0.0,0.0,-0.0015476023545488715,0.0026140701957046986,-0.001884919940494001,1.0024300813674927,0.0,0.0,0.0,0.22009988129138947,0.6058719158172607,4.467222690582275,-39.8385124206543,0
1318.188,-5.631372187053785e-05,-0.00012512369721662253,-0.00015274157340172678,0.0,0.0,0.0,0.0,0.0024180023465305567,0.0019259894033893943,0.002516307169571519,1.0005533695220947,0.0,0.0,0.0,0.21844756603240967,0.6055247783660889,4.460085868835449,-39.53944396972656,0
1328.0910000000003,-0.00012975404388271272,-9.530106763122603e-05,-0.00018299231305718422,0.0,0.0,0.0,0.0,-0.0006422265432775021,-0.0017349394038319588,0.0018999252934008837,1.0002164840698242,0.0,0.0,0.0,0.2192671000957489,0.6051564812660217,4.446467399597168,-39.68777847290039,0
1338.0030000000006,-9.895083348965272e-05,-0.00011975420784438029,-0.00013913791917730123,0.0,0.0,0.0,0.0,-5.213496842770837e-05,-0.000841831264551729,-0.000334153271978721,0.9991881251335144,0.0,0.0,0.0,0.2191329002380371,0.6020358800888062,4.43738317489624,-39.663490295410156,0
1347.9120000000003,-0.00016110851720441133,-5.057233283878304e-05,-0.00017115140508394688,0.0,0.0,0.0,0.0,-0.0034272170159965754,-0.001493055373430252,-0.0032928313594311476,0.9999666810035706,0.0,0.0,0.0,0.21830196678638458,0.5984534025192261,4.436880111694336,-39.51308822631836,0
1357.8250000000007,-5.162292654858902e-05,-6.334633508231491e-05,-0.00010148476576432586,0.0,0.0,0.0,0.0,0.0005916519439779222,0.0005944983568042517,0.00328613817691803,0.9991866946220398,0.0,0.0,0.0,0.2174508273601532,0.610662579536438,4.439980506896973,-39.35903549194336,0
1367.7360000000008,-9.752524783834815e-05,-1.304367742704926e-06,-0.00015731513849459589,0.0,0.0,0.0,0.0,-0.0010393128031864762,0.0018625216325744987,0.0028356434777379036,1.0004339218139648,0.0,0.0,0.0,0.21823789179325104,0.60614413022995,4.4346022605896,-39.50149154663086,0
1377.6560000000009,6.823048806836596e-06,-8.773586159804836e-05,-0.00012275537301320583,0.0,0.0,0.0,0.0,0.0033221065532416105,-0.001827897154726088,-0.0025006383657455444,0.9989723563194275,0.0,0.0,0.0,0.21928708255290985,0.6062023639678955,4.42221736907959,-39.69139862060547,0
1387.5609999999997,-8.115517266560346e-05,-7.975305197760463e-05,-0.00013805650814902037,0.0,0.0,0.0,0.0,-0.002240763744339347,0.001031022402457893,0.0016884591896086931,0.9987218976020813,0.0,0.0,0.0,0.21864882111549377,0.5989695191383362,4.418456554412842,-39.575870513916016,0
1397.4740000000002,-1.319983425673854e-06,-0.00013411484542302787,-9.835806849878281e-05,0.0,0.0,0.0,0.0,-0.001204902189783752,4.710631401394494e-05,0.0014712365809828043,1.0007030963897705,0.0,0.0,0.0,0.2192157804965973,0.6062767505645752,4.417510509490967,-39.67849349975586,0
1407.3790000000008,-7.829633250366896e-05,-9.765453432919458e-05,-0.00012129438982810825,0.0,0.0,0.0,0.0,-0.0036400286480784416,0.0020276473369449377,-0.0008897525840438902,1.000427484512329,0.0,0.0,0.0,0.21899576485157013,0.6040773391723633,4.41485071182251,-39.638671875,0
1417.2900000000009,-1.2290777704038192e-05,-0.00015229078417178243,-8.280370821012184e-05,0.0,0.0,0.0,0.0,0.0017296371515840292,0.0021888860501348972,-0.0015761504182592034,0.9989410042762756,0.0,0.0,0.0,0.21860042214393616,0.6077377200126648,4.407533168792725,-39.567115783691406,0
1427.201000000001,-8.461053221253678e-05,-0.00012259908544365317,-0.00011509577598189935,0.0,0.0,0.0,0.0,-0.001187438378110528,-0.004077543504536152,-0.0015990305691957474,0.9999966025352478,0.0,0.0,0.0,0.2181607335805893,0.603416919708252,4.401899337768555,-39.487525939941406,0
1437.1200000000008,-5.3667405154556036e-05,-0.00011058241216233,-5.845913983648643e-05,0.0,0.0,0.0,0.0,-0.0008979966514743865,-0.004877419676631689,-0.0004895676975138485,0.9999112486839294,0.0,0.0,0.0,0.2172839641571045,0.6021007299423218,4.402455806732178,-39.32883071899414,0
1447.0240000000013,-0.00012714622425846756,-7.821248436812311e-05,-8.91468080226332e-05,0.0,0.0,0.0,0.0,0.00016017447342164814,0.0012384316651150584,-0.001033238717354834,0.9991163015365601,0.0,0.0,0.0,0.2169976532459259,0.6013386845588684,4.407620429992676,-39.277008056640625,0
1456.934000000001,-0.00011880714009748772,-0.00012336696090642363,-6.107994704507291e-05,0.0,0.0,0.0,0.0,-0.0023426334373652935,-0.003909275867044926,-0.00037075363798066974,0.9970595240592957,0.0,0.0,0.0,0.21677543222904205,0.6044390201568604,4.401277542114258,-39.236785888671875,0
1466.8459999999995,-0.00014483154518529773,-3.173034201608971e-05,-0.00014895260392222553,0.0,0.0,0.0,0.0,-0.0016930336132645607,-0.0008673564880155027,-0.0007826883811503649,0.9995936155319214,0.0,0.0,0.0,0.21649883687496185,0.6076167821884155,4.400402545928955,-39.18672180175781,0
1476.7579999999998,-0.00015171823906712234,-7.235677912831306e-05,-0.00012840557610616088,0.0,0.0,0.0,0.0,0.0018189763650298119,-0.0007387868827208877,0.0021518038120120764,0.9996123313903809,0.0,0.0,0.0,0.2169215977191925,0.6094242334365845,4.3971452713012695,-39.263240814208984,0
1486.6679999999997,-0.00023595037055201828,-3.086694414378144e-05,-0.00019385828636586666,0.0,0.0,0.0,0.0,-0.002790343714877963,-0.002805954311043024,0.0024576608557254076,0.9999286532402039,0.0,0.0,0.0,0.21647246181964874,0.6073055863380432,4.389998912811279,-39.18194580078125,0
1496.5789999999997,-0.00022544040984939784,-8.500142575940117e-05,-0.00018104513583239168,0.0,0.0,0.0,0.0,0.002555130049586296,0.000365065032383427,0.0010610023746266961,1.0014934539794922,0.0,0.0,0.0,0.2163771688938141,0.6112537384033203,4.390425682067871,-39.164695739746094,0
1506.4920000000002,-0.00028254606877453625,-3.3327447454212233e-05,-0.000263165682554245,0.0,0.0,0.0,0.0,-0.001098511042073369,-0.000745546945836395,-0.0036208145320415497,1.0003188848495483,0.0,0.0,0.0,0.2166823446750641,0.6053533554077148,4.389186859130859,-39.21993637084961,0
1516.4060000000009,-0.00022589824220631272,-8.657728176331148e-05,-0.00023600809799972922,0.0,0.0,0.0,0.0,-0.005388819146901369,-0.005443400237709284,0.0018125416245311499,1.000725507736206,0.0,0.0,0.0,0.21544048190116882,0.6035548448562622,4.390499591827393,-38.99515914916992,0
1526.313,-0.00029248790815472603,-3.0776071071159095e-05,-0.0003041274903807789,0.0,0.0,0.0,0.0,0.0006699748919345438,0.0015289674047380686,0.00039851589826866984,1.0005683898925781,0.0,0.0,0.0,0.21563221514225006,0.6104614734649658,4.3975725173950195,-39.02985763549805,0
1536.2270000000008,-0.0001739680883474648,-5.383009192883037e-05,-0.00024604034842923284,0.0,0.0,0.0,0.0,0.00044547716970555484,0.0031078846659511328,8.045494178077206e-05,1.0020941495895386,0.0,0.0,0.0,0.21761775016784668,0.6016933917999268,4.427183628082275,-39.389244079589844,0
1546.1370000000006,-0.0002823106769938022,-2.9044351322227158e-05,-0.0002579463180154562,0.0,0.0,0.0,0.0,0.0016035606386139989,0.0028444111812859774,-0.002353579504415393,1.0003949403762817,0.0,0.0,0.0,0.21686454117298126,0.598173975944519,4.4168171882629395,-39.25291442871094,0
1556.0640000000003,-0.00026019744109362364,-6.590940756723285e-05,-0.00022838692530058324,0.0,0.0,0.0,0.0,-0.00235178554430604,0.002319597639143467,-0.003354356624186039,1.000831961631775,0.0,0.0,0.0,0.2165939211845398,0.5943753719329834,4.40940523147583,-39.20393371582031,0
1565.9619999999995,-0.0003608062397688627,-5.38838175998535e-05,-0.00025872502010315657,0.0,0.0,0.0,0.0,-0.0012420897837728262,-0.004459649324417114,0.00018412315694149584,1.0023373365402222,0.0,0.0,0.0,0.21496839821338654,0.5939953923225403,4.400094509124756,-38.909706115722656,0
1575.875,-0.00021092407405376434,-0.00011306813394185156,-0.00019441591575741768,0.0,0.0,0.0,0.0,0.00020614323148038238,-2.2356845875037834e-05,-0.004280042834579945,1.000689148902893,0.0,0.0,0.0,0.21802891790866852,0.5879863500595093,4.444666862487793,-39.46366500854492,0
1585.7800000000007,-0.00029363695648498833,-7.27877122699283e-05,-0.0002258130261907354,0.0,0.0,0.0,0.0,-0.0003418519045226276,0.007032137364149094,0.0025741441641002893,0.9993420839309692,0.0,0.0,0.0,0.21070939302444458,0.5978281497955322,4.448060035705566,-38.138816833496094,0
1595.6980000000003,-0.00018775144417304546,-0.00017793044389691204,-0.00019243739370722324,0.0,0.0,0.0,0.0,-0.0035246708430349827,0.0015959040028974414,0.000566754664760083,0.9998458623886108,0.0,0.0,0.0,0.2109973430633545,0.6000156998634338,4.435240268707275,-38.190940856933594,0
1605.6020000000008,-0.000236824358580634,-9.386944293510169e-05,-0.0002557570696808398,0.0,0.0,0.0,0.0,0.0007888121763244271,0.0014195648254826665,0.001034172368235886,0.9971539378166199,0.0,0.0,0.0,0.21135804057121277,0.6050435900688171,4.429920673370361,-38.2562255859375,0
1615.5300000000007,-0.0001517105265520513,-0.00018819175602402538,-0.00022784426982980222,0.0,0.0,0.0,0.0,0.0043810573406517506,-0.0028364560566842556,-0.0019506675889715552,0.99874347448349,0.0,0.0,0.0,0.21118596196174622,0.605713427066803,4.424190521240234,-38.22508239746094,0
1625.425000000001,-0.0002424936683382839,-0.00014526789891533554,-0.0002456935471855104,0.0,0.0,0.0,0.0,0.0011759672779589891,-0.0012045199982821941,0.0011624243343248963,1.0005974769592285,0.0,0.0,0.0,0.21156857907772064,0.5975833535194397,4.4314961433410645,-38.294334411621094,0
1635.3459999999995,-0.00018212266149930656,-0.00020864480757154524,-0.00021109665976837277,0.0,0.0,0.0,0.0,-0.0032784028444439173,-0.004890928044915199,0.0022032265551388264,1.0007202625274658,0.0,0.0,0.0,0.21190530061721802,0.5945573449134827,4.431596279144287,-38.35527801513672,0
1645.2489999999998,-0.0002628691727295518,-0.00017178263806272298,-0.00024736305931583047,0.0,0.0,0.0,0.0,1.6481479178764857e-05,0.0033883964642882347,0.003674873383715749,1.0011745691299438,0.0,0.0,0.0,0.2124156802892685,0.6008325815200806,4.442954063415527,-38.44765853881836,0
1655.1640000000007,-0.00018556475697550923,-0.00022864894708618522,-0.00020127612515352666,0.0,0.0,0.0,0.0,-0.0029651985969394445,-0.002895903307944536,0.00131122674793005,0.9988186955451965,0.0,0.0,0.0,0.2119992971420288,0.6026506423950195,4.437293529510498,-38.372291564941406,0
1665.0699999999997,-0.00025949484552256763,-0.00017852139717433602,-0.00024025150923989713,0.0,0.0,0.0,0.0,-0.0033108436036854982,3.192605436197482e-05,0.0022877315059304237,1.0002357959747314,0.0,0.0,0.0,0.21220286190509796,0.6104838848114014,4.433393478393555,-38.40913772583008,0
1674.9880000000012,-0.00026664556935429573,-0.00013635594223160297,-0.00017375731840729713,0.0,0.0,0.0,0.0,0.002307519316673279,0.0031231658067554235,0.0004205805016681552,0.9993880987167358,0.0,0.0,0.0,0.21294523775577545,0.6186755895614624,4.426063060760498,-38.54351043701172,0
1684.8919999999998,-0.00037952966522425413,-0.00012745436106342822,-0.00017604263848625124,0.0,0.0,0.0,0.0,0.0009516942081972957,-0.0013243252178654075,0.0025776687543839216,0.9994726777076721,0.0,0.0,0.0,0.21266917884349823,0.6156379580497742,4.415076732635498,-38.49354553222656,0
1694.8160000000007,-0.000297553779091686,-0.00012946130300406367,-9.781365952221677e-05,0.0,0.0,0.0,0.0,0.00047833772259764373,0.001168274087831378,0.0015176417073234916,1.000523328781128,0.0,0.0,0.0,0.213304802775383,0.6147225499153137,4.411750316619873,-38.60859298706055,0
1704.714,-0.00039437878876924515,-0.00010510117863304913,-0.00011310048284940422,0.0,0.0,0.0,0.0,-0.00021166951046325266,-0.0030667725950479507,0.0008780102361924946,1.0018651485443115,0.0,0.0,0.0,0.21222665905952454,0.613923192024231,4.407784461975098,-38.413448333740234,0
1714.6280000000006,-0.00027703476371243596,-0.00013482983922585845,-2.9431124858092517e-05,0.0,0.0,0.0,0.0,-0.005724831484258175,-0.004135108552873135,0.0003123281057924032,1.0018844604492188,0.0,0.0,0.0,0.21700236201286316,0.6091046929359436,4.446704864501953,-39.27785873413086,0
1724.536,-0.0003337307716719806,-6.881518493173644e-05,-8.221866301028058e-05,0.0,0.0,0.0,0.0,-0.0002792548621073365,0.004550167825073004,0.002013983204960823,1.0001357793807983,0.0,0.0,0.0,0.21674107015132904,0.6181946992874146,4.445964336395264,-39.23056411743164,0
1734.4570000000003,-0.0001918216294143349,-0.00020378778572194278,-4.242314025759697e-05,0.0,0.0,0.0,0.0,3.6626133805839345e-06,-0.0018255899194628,-0.0022477468010038137,0.9997605085372925,0.0,0.0,0.0,0.21799246966838837,0.5981427431106567,4.471804141998291,-39.457069396972656,0
1744.3590000000004,-0.0002582537417765707,-0.00018582674965728074,-9.769646567292511e-05,0.0,0.0,0.0,0.0,-0.0003480616142041981,-0.0005007912404835224,-0.0028394265100359917,0.9987926483154297,0.0,0.0,0.0,0.2177291363477707,0.6013292670249939,4.472143173217773,-39.40940475463867,0
1754.2700000000004,-0.00018761237151920795,-0.0002558514825068414,-5.424927803687751e-05,0.0,0.0,0.0,0.0,0.0006873362581245601,0.00016350773512385786,-0.00030861253617331386,1.0006029605865479,0.0,0.0,0.0,0.21771417558193207,0.599128246307373,4.469845294952393,-39.406700134277344,0
1764.1800000000003,-0.00020123389549553394,-0.0001094912804546766,-0.00014613097300752997,0.0,0.0,0.0,0.0,-0.0005873849731869996,-0.0004675995442084968,-0.0041046710684895515,1.002432107925415,0.0,0.0,0.0,0.21676208078861237,0.603400707244873,4.462507724761963,-39.23436737060547,0
1774.0969999999998,-0.00012945620983373374,-0.00016120921645779163,-9.766294533619657e-05,0.0,0.0,0.0,0.0,0.0012043059105053544,0.0028287889435887337,-0.002730441279709339,1.0010807514190674,0.0,0.0,0.0,0.2160312533378601,0.6020047664642334,4.461099147796631,-39.102088928222656,0
1784.0030000000006,-0.00013122476229909807,-3.9724814996588975e-05,-0.0002147209015674889,0.0,0.0,0.0,0.0,-0.0004643882275559008,-0.00014169253699947149,-0.0007689998601563275,0.9994544982910156,0.0,0.0,0.0,0.21501381695270538,0.6011443138122559,4.446768760681152,-38.91792678833008,0
1793.916000000001,-9.500108717475086e-05,-0.0001056203618645668,-0.00018876446119975299,0.0,0.0,0.0,0.0,-0.0009415160748176277,0.0004570903838612139,-0.0043025859631598,0.999087393283844,0.0,0.0,0.0,0.2140805721282959,0.6009342670440674,4.433542728424072,-38.7490119934082,0
1803.8250000000007,-0.00016524261445738375,-6.921028398210183e-05,-0.00024299464712385088,0.0,0.0,0.0,0.0,0.0003761203261092305,0.004893920384347439,0.0005085392622277141,0.9998947381973267,0.0,0.0,0.0,0.21184906363487244,0.607761025428772,4.42341423034668,-38.3451042175293,0
1813.741,-0.0001101828456739895,-0.00011645191261777654,-0.00020563710131682456,0.0,0.0,0.0,0.0,0.000632136594504118,-0.0012923524482175708,0.0008991286158561707,1.00067138671875,0.0,0.0,0.0,0.21110191941261292,0.6073214411735535,4.408779621124268,-38.209869384765625,0
1823.6470000000008,-0.00017721499898470938,-6.61908634356223e-05,-0.00026138804969377816,0.0,0.0,0.0,0.0,-0.0024123212788254023,0.003987742122262716,0.0007718193810433149,1.0007495880126953,0.0,0.0,0.0,0.2110871821641922,0.6044715642929077,4.406887054443359,-38.20719909667969,0
1833.559000000001,-0.00021992850815877318,-4.436401286511682e-05,-0.0002230625250376761,0.0,0.0,0.0,0.0,0.0003785942099057138,0.000751336629036814,0.0037675616331398487,0.9994019269943237,0.0,0.0,0.0,0.21009422838687897,0.6127803921699524,4.3874688148498535,-38.02747344970703,0
1843.4809999999998,-0.0002855524653568864,9.110543032875285e-06,-0.0002883208217099309,0.0,0.0,0.0,0.0,0.0015383217250928283,-0.0036841067485511303,-0.0012329908786341548,0.9997828006744385,0.0,0.0,0.0,0.2111966907978058,0.614187479019165,4.38386344909668,-38.22702407836914,0
1853.389000000001,-0.00022102880757302046,-5.277788659441285e-05,-0.0002563732268754393,0.0,0.0,0.0,0.0,0.0009748755255714059,-0.001128757488913834,0.0011804738314822316,0.9995992183685303,0.0,0.0,0.0,0.21069808304309845,0.6121388673782349,4.388685703277588,-38.13676834106445,0
1863.2919999999995,-0.00029944279231131077,-1.358954978059046e-05,-0.0003150011762045324,0.0,0.0,0.0,0.0,-0.0019005603389814496,0.0020665829069912434,0.005321521311998367,0.9992124438285828,0.0,0.0,0.0,0.2101573795080185,0.6087347865104675,4.378398418426514,-38.038902282714844,0
1873.2160000000003,-0.0002218075969722122,-6.329073221422732e-05,-0.00027457604301162064,0.0,0.0,0.0,0.0,0.0027267381083220243,-0.0007754509570077062,-0.0018292120657861233,0.9994480609893799,0.0,0.0,0.0,0.21083785593509674,0.6125066876411438,4.37147331237793,-38.162071228027344,0
1883.1170000000002,-0.00030300195794552565,-1.9522525690263137e-05,-0.000330277718603611,0.0,0.0,0.0,0.0,-0.000265331327682361,8.625078771729022e-05,0.0018223738297820091,0.9986653923988342,0.0,0.0,0.0,0.21038521826267242,0.6076532006263733,4.369584083557129,-38.08013916015625,0
1893.0349999999999,-0.00020465132547542453,-8.335173333762214e-05,-0.00029402985819615424,0.0,0.0,0.0,0.0,-0.0017288895323872566,0.007054878398776054,-0.0029976421501487494,1.000937819480896,0.0,0.0,0.0,0.2116408497095108,0.606559157371521,4.360593795776367,-38.30741500854492,0
1902.9390000000003,-0.0003186310641467571,-8.58237617649138e-05,-0.00031509518157690763,0.0,0.0,0.0,0.0,0.0009081286261789501,-0.001287452527321875,0.001784243038855493,1.0007717609405518,0.0,0.0,0.0,0.20976941287517548,0.6113145351409912,4.338673114776611,-37.96868133544922,0
1912.8549999999996,-0.0002420341334072873,-0.0001073011226253584,-0.00025925078080035746,0.0,0.0,0.0,0.0,0.0024593982379883528,0.00213746540248394,-0.005679139401763678,0.9990059733390808,0.0,0.0,0.0,0.20996195077896118,0.6126704812049866,4.336279392242432,-38.00353240966797,0
1922.759,-0.0003249057335779071,-4.46555350208655e-05,-0.00029802651260979474,0.0,0.0,0.0,0.0,-0.0008989485795609653,-0.000971054716501385,0.0014126788591966033,1.0001989603042603,0.0,0.0,0.0,0.20750680565834045,0.6098707914352417,4.328149795532227,-37.55914306640625,0
1932.6779999999999,-0.0002320191269973293,-8.719300967641175e-05,-0.00024589619715698063,0.0,0.0,0.0,0.0,-0.0007740097353234887,-0.001224574982188642,-0.0020083950366824865,1.0017898082733154,0.0,0.0,0.0,0.20772847533226013,0.6116968989372253,4.32670259475708,-37.59926986694336,0
1942.5810000000001,-0.0003375116502866149,-5.491781485034153e-05,-0.0002590016811154783,0.0,0.0,0.0,0.0,-0.001217335113324225,-0.0029759518802165985,0.000614154152572155,0.9999179244041443,0.0,0.0,0.0,0.2069304883480072,0.6132721900939941,4.331782817840576,-37.45482635498047,0
1952.5120000000006,-0.0002741974894888699,-4.296176484785974e-05,-0.00018759375961963087,0.0,0.0,0.0,0.0,0.0012780728284269571,0.00632109958678484,-0.004246803931891918,1.000091552734375,0.0,0.0,0.0,0.20715945959091187,0.6147472262382507,4.331925392150879,-37.49627685546875,0
1962.4120000000003,-0.00035697309067472816,1.4493632988887839e-05,-0.0002223190967924893,0.0,0.0,0.0,0.0,0.0006580345798283815,-0.0010004000505432487,-0.004354566335678101,1.0005749464035034,0.0,0.0,0.0,0.20563173294067383,0.6078968644142151,4.311350345611572,-37.219757080078125,0
1972.3250000000007,-0.00023696375137660652,-7.038618059596047e-05,-0.00017515491344965994,0.0,0.0,0.0,0.0,-0.0013969313586130738,0.0011654342524707317,0.003707107389345765,0.9996322393417358,0.0,0.0,0.0,0.20587104558944702,0.596104085445404,4.3457159996032715,-37.26306915283203,0
1982.2290000000012,-0.00030845063156448305,-4.9689180741552263e-05,-0.0002408615400781855,0.0,0.0,0.0,0.0,0.0016737495316192508,-0.001489278394728899,0.00200597639195621,0.9993293881416321,0.0,0.0,0.0,0.20726542174816132,0.5996142625808716,4.3462138175964355,-37.51545333862305,0
1992.143,-0.00014015514170750976,-0.00010917516920017079,-0.00016772434173617512,0.0,0.0,0.0,0.0,0.0019816895946860313,0.0046923477202653885,0.0005870246095582843,1.0002219676971436,0.0,0.0,0.0,0.2053699493408203,0.5879549980163574,4.387293338775635,-37.17237091064453,0
2002.0509999999995,-0.00023564898583572358,-8.061929111136124e-05,-0.00018647193792276084,0.0,0.0,0.0,0.0,-0.00021640564955305308,0.00249822367914021,0.003054439788684249,0.999801516532898,0.0,0.0,0.0,0.20514662563800812,0.5808018445968628,4.3750457763671875,-37.13195037841797,0
2011.9700000000012,-0.00015738618094474077,-0.00017361791105940938,-0.00015780399553477764,0.0,0.0,0.0,0.0,-0.0005237456643953919,-0.00015964728663675487,0.0037111653946340084,1.0003496408462524,0.0,0.0,0.0,0.20546264946460724,0.5788559913635254,4.367136478424072,-37.189151763916016,0
2021.871000000001,-0.00023873761529102921,-0.00013123433745931834,-0.00019165081903338432,0.0,0.0,0.0,0.0,-0.002316310303285718,-0.0011891208123415709,-0.0008446503197774291,0.999953031539917,0.0,0.0,0.0,0.20603182911872864,0.5766615867614746,4.362819671630859,-37.292171478271484,0
2031.7890000000007,-0.00014448032015934587,-0.00017213298997376114,-0.0001335092674707994,0.0,0.0,0.0,0.0,0.0011691401014104486,0.0016913730651140213,0.0009349872125312686,1.0025458335876465,0.0,0.0,0.0,0.20535016059875488,0.5827076435089111,4.3540191650390625,-37.16878890991211,0
2041.6930000000011,-0.00022115001047495753,-0.00013061521167401224,-0.00016883814532775432,0.0,0.0,0.0,0.0,-0.0008324962109327316,-0.0007671384955756366,-0.00011194653052370995,1.0006179809570312,0.0,0.0,0.0,0.20570108294487,0.5810971856117249,4.343387603759766,-37.23230743408203,0
2051.613000000001,-0.00016192824114114046,-0.00011673145490931347,-9.433142986381426e-05,0.0,0.0,0.0,0.0,-0.0014125778106972575,0.004124857950955629,0.002169194398447871,1.0004143714904785,0.0,0.0,0.0,0.20574215054512024,0.5806529521942139,4.343282222747803,-37.23973846435547,0
2061.5159999999996,-0.0002558993292041123,-0.00012855991371907294,-0.00012354171485640109,0.0,0.0,0.0,0.0,0.0002186014608014375,0.0028862415347248316,0.0012329471064731479,1.0000190734863281,0.0,0.0,0.0,0.20608113706111908,0.5827435851097107,4.334417343139648,-37.30109786987305,0
2071.4359999999997,-0.00017786597891245037,-0.0001215812299051322,-4.34695539297536e-05,0.0,0.0,0.0,0.0,-0.0024678653571754694,6.673377356491983e-05,0.0006017634877935052,1.0001928806304932,0.0,0.0,0.0,0.2059655636548996,0.5833324790000916,4.326206684112549,-37.28017807006836,0
2081.3369999999995,-0.0002118108095601201,-3.2487616408616304e-05,-0.0001225849409820512,0.0,0.0,0.0,0.0,-0.0016519359778612852,0.000791695318184793,0.0011125535238534212,0.9999659061431885,0.0,0.0,0.0,0.2056030035018921,0.5897564888000488,4.318326473236084,-37.21455383300781,0
2091.26,-0.00019133035675622523,-0.00010891832789639011,-0.00010330932855140418,0.0,0.0,0.0,0.0,-0.002774963853880763,-0.007710014469921589,-0.0004708200285676867,0.9999052882194519,0.0,0.0,0.0,0.21313762664794922,0.5845349431037903,4.3323564529418945,-38.578338623046875,0
2101.165000000001,-0.00023335662262979895,-2.1021516658947803e-05,-0.00017336216114927083,0.0,0.0,0.0,0.0,0.001961198402568698,0.0041608852334320545,0.0049692802131175995,0.9999276399612427,0.0,0.0,0.0,0.21338535845279694,0.591402530670166,4.346385478973389,-38.623172760009766,0
