timestamp,stateEstimate.x,stateEstimate.y,stateEstimate.z,controller.cmd_thrust,controller.cmd_roll,controller.cmd_pitch,controller.cmd_yaw,controller.r_roll,controller.r_pitch,controller.r_yaw,controller.accelz,controller.actuatorThrust,controller.roll,controller.pitch,controller.yaw,controller.rollRate,controller.pitchRate,controller.yawRate,controller.ctr_yaw
0.0,0.028945766389369965,0.010233515873551369,0.0002365721156820655,0.0,0.0,0.0,0.0,-0.0016219406388700008,0.003565537743270397,9.429339843336493e-05,0.9983680844306946,0.0,0.0,0.0,-18.051361083984375,2.72509765625,5.55039644241333,3267.33203125,0
9.911000000000058,0.028975017368793488,0.010227834805846214,0.00024193411809392273,0.0,0.0,0.0,0.0,-0.0010613148333504796,0.0009367374586872756,0.004884272813796997,0.997928261756897,0.0,0.0,0.0,-18.05117416381836,2.7204766273498535,5.551124572753906,3267.298583984375,0
19.83299999999872,0.028884295374155045,0.010178918950259686,0.0002902962442021817,0.0,0.0,0.0,0.0,0.002710566855967045,-0.006236276123672724,0.0025213148910552263,0.9995123147964478,0.0,0.0,0.0,-18.044939041137695,2.7101986408233643,5.536482810974121,3266.169677734375,0
29.732999999998356,0.028933662921190262,0.010183697566390038,0.0003114798746537417,0.0,0.0,0.0,0.0,0.0014343007933348417,0.0006828983896411955,0.001965611707419157,0.9995444416999817,0.0,0.0,0.0,-18.042795181274414,2.7094573974609375,5.566646575927734,3265.781982421875,0
39.643999999998414,0.028811655938625336,0.010072656907141209,0.0003860257857013494,0.0,0.0,0.0,0.0,-0.0001355380518361926,0.00336653646081686,0.0006597450119443238,1.000304102897644,0.0,0.0,0.0,-18.035140991210938,2.6834468841552734,5.5531415939331055,3264.396728515625,0
49.550999999999476,0.028914811089634895,0.010042733512818813,0.00041866872925311327,0.0,0.0,0.0,0.0,-0.0018031690269708633,-0.0018679096829146147,0.0010245739249512553,1.000815510749817,0.0,0.0,0.0,-18.03631591796875,2.6820147037506104,5.5684590339660645,3264.60888671875,0
59.466999999998734,0.0288497656583786,0.010026371106505394,0.0004633554781321436,0.0,0.0,0.0,0.0,-0.0010069964919239283,-0.00033783650724217296,-0.0012044254690408707,1.0008556842803955,0.0,0.0,0.0,-18.0355167388916,2.6785330772399902,5.5629963874816895,3264.46435546875,0
69.37699999999859,0.02886560559272766,0.010063394904136658,0.0005035364883951843,0.0,0.0,0.0,0.0,-0.0023459726944565773,0.00047777339932508767,-0.0015144128119572997,1.00103759765625,0.0,0.0,0.0,-18.03858757019043,2.689955472946167,5.571229934692383,3265.02001953125,0
79.28600000000006,0.02882198803126812,0.010065469890832901,0.0005305701633915305,0.0,0.0,0.0,0.0,0.0017997983377426863,0.0036907054018229246,0.003960365895181894,1.0008538961410522,0.0,0.0,0.0,-18.041797637939453,2.6815872192382812,5.561924457550049,3265.601318359375,0
89.1969999999983,0.028867335990071297,0.010085874237120152,0.0005778421182185411,0.0,0.0,0.0,0.0,0.0006077742436900735,-0.0028039980679750443,0.0005355484317988157,0.9997915029525757,0.0,0.0,0.0,-18.035886764526367,2.684687376022339,5.566739559173584,3264.531494140625,0
99.11599999999999,0.02882976084947586,0.010108252987265587,0.0006063951295800507,0.0,0.0,0.0,0.0,0.0011633450631052256,0.0037199649959802628,-0.0015930780209600925,1.0014454126358032,0.0,0.0,0.0,-18.031105041503906,2.6846606731414795,5.551756381988525,3263.665771484375,0
109.02799999999843,0.028888991102576256,0.010083208791911602,0.0006452066008932889,0.0,0.0,0.0,0.0,0.0013431143015623093,0.004047410096973181,-0.0019139144569635391,1.001707911491394,0.0,0.0,0.0,-18.031597137451172,2.6892073154449463,5.56636905670166,3263.755126953125,0
118.92900000000009,0.028930019587278366,0.010154603980481625,0.0005882662953808904,0.0,0.0,0.0,0.0,0.0007528125424869359,-0.003935853019356728,-0.0014745171647518873,0.9983038306236267,0.0,0.0,0.0,-18.030223846435547,2.6926445960998535,5.554690837860107,3263.50634765625,0
128.84399999999914,0.02892613224685192,0.01011734176427126,0.000599037273786962,0.0,0.0,0.0,0.0,-0.002527734963223338,0.0003337513189762831,7.907269173301756e-05,0.999534547328949,0.0,0.0,0.0,-18.030019760131836,2.6836798191070557,5.56062650680542,3263.4697265625,0
138.7549999999992,0.028955191373825073,0.010168755427002907,0.0005472450284287333,0.0,0.0,0.0,0.0,0.0034097854513674974,-0.0006337611121125519,-0.0010658648097887635,1.0005109310150146,0.0,0.0,0.0,-18.02345848083496,2.6960113048553467,5.566050052642822,3262.28173828125,0
148.66299999999865,0.02894643321633339,0.010144217871129513,0.0005532840150408447,0.0,0.0,0.0,0.0,-0.003042468335479498,0.0074416035786271095,-0.0003936394932679832,1.0002552270889282,0.0,0.0,0.0,-18.022924423217773,2.6903488636016846,5.571033477783203,3262.185302734375,0
158.57799999999952,0.028951510787010193,0.010172164998948574,0.0005224405322223902,0.0,0.0,0.0,0.0,-0.000866503338329494,-0.004412798676639795,0.0018891779473051429,0.99984210729599,0.0,0.0,0.0,-18.018203735351562,2.6907622814178467,5.560050964355469,3261.330810546875,0
168.48699999999917,0.028966713696718216,0.01010623574256897,0.0005143623566254973,0.0,0.0,0.0,0.0,-0.002561607863754034,-0.001157078193500638,-0.0023853210732340813,0.9999761581420898,0.0,0.0,0.0,-18.02370262145996,2.6885581016540527,5.568350791931152,3262.326171875,0
178.39799999999923,0.028950385749340057,0.010186460800468922,0.0004952285089530051,0.0,0.0,0.0,0.0,-0.00019277704996056855,-0.0033578139264136553,-0.003364534117281437,0.9995539784431458,0.0,0.0,0.0,-17.99774742126465,2.6964125633239746,5.56356954574585,3257.6279296875,0
188.30799999999908,0.028960946947336197,0.010131631046533585,0.00048667460214346647,0.0,0.0,0.0,0.0,0.00017434974142815918,-6.700700032524765e-05,-0.0016432286938652396,0.9991840124130249,0.0,0.0,0.0,-18.018932342529297,2.691521644592285,5.573267936706543,3261.462646484375,0
198.22399999999834,0.028970761224627495,0.010227015241980553,0.0004233792133163661,0.0,0.0,0.0,0.0,-7.807974179740995e-05,0.001835495582781732,-0.0007927645929157734,1.0003533363342285,0.0,0.0,0.0,-17.99524688720703,2.695058584213257,5.577854156494141,3257.17529296875,0
208.1279999999988,0.028983099386096,0.010157554410398006,0.0004088158893864602,0.0,0.0,0.0,0.0,8.635571430204436e-05,-0.0035518661607056856,-0.0006513598491437733,1.0006437301635742,0.0,0.0,0.0,-18.01578712463379,2.6876955032348633,5.588962078094482,3260.8935546875,0
218.03799999999865,0.02894013375043869,0.010214379988610744,0.00039718192419968545,0.0,0.0,0.0,0.0,0.0019249230390414596,0.0013003777712583542,-0.0009796422673389316,1.0002862215042114,0.0,0.0,0.0,-17.988683700561523,2.6853013038635254,5.587679386138916,3255.987548828125,0
227.95199999999932,0.028976168483495712,0.01014562975615263,0.0003907357167918235,0.0,0.0,0.0,0.0,-0.0018932248931378126,0.00026465728296898305,0.002853335114195943,1.0007044076919556,0.0,0.0,0.0,-18.010845184326172,2.6795547008514404,5.602174282073975,3259.9990234375,0
237.86199999999917,0.028945403173565865,0.010155894793570042,0.0003842307487502694,0.0,0.0,0.0,0.0,-0.0015644350787624717,0.0021907633636146784,-0.0012134283315390348,1.0005844831466675,0.0,0.0,0.0,-18.007061004638672,2.6762208938598633,5.595362186431885,3259.314208984375,0
247.77999999999884,0.0289484653621912,0.010166597552597523,0.00040047147194854915,0.0,0.0,0.0,0.0,-0.0019678918179124594,0.0009203074150718749,0.002582087880000472,1.001734733581543,0.0,0.0,0.0,-18.017738342285156,2.679948329925537,5.6030097007751465,3261.246826171875,0
257.6859999999997,0.028891783207654953,0.010128896683454514,0.00041676091495901346,0.0,0.0,0.0,0.0,0.0021034853998571634,-0.00018579151947051287,-4.676504249800928e-05,1.0007786750793457,0.0,0.0,0.0,-18.02117347717285,2.6745927333831787,5.597158432006836,3261.8681640625,0
267.59899999999834,0.028944365680217743,0.010095102712512016,0.0004349624505266547,0.0,0.0,0.0,0.0,-0.0017255363054573536,0.0045316340401768684,0.00017663095786701888,0.9976266622543335,0.0,0.0,0.0,-18.02484893798828,2.673964023590088,5.605426788330078,3262.53369140625,0
277.5069999999996,0.02887100912630558,0.010056043043732643,0.00048353843158110976,0.0,0.0,0.0,0.0,0.0008077536476776004,0.0022861729376018047,0.003060373477637768,0.9993200898170471,0.0,0.0,0.0,-18.02545928955078,2.6589927673339844,5.5851006507873535,3262.644287109375,0
287.42099999999846,0.02891959249973297,0.010036993771791458,0.0005128261400386691,0.0,0.0,0.0,0.0,0.00029313500272110105,-0.0022223847918212414,0.0023091426119208336,0.9994574785232544,0.0,0.0,0.0,-18.027189254760742,2.653393507003784,5.590236663818359,3262.95703125,0
297.3299999999999,0.028899846598505974,0.010063531808555126,0.0005130518111400306,0.0,0.0,0.0,0.0,0.0009241817169822752,-0.0014148608315736055,-0.0014515467919409275,0.9996963143348694,0.0,0.0,0.0,-18.020376205444336,2.653089761734009,5.576375484466553,3261.72412109375,0
307.2429999999986,0.028869647532701492,0.01008157804608345,0.0005343335797078907,0.0,0.0,0.0,0.0,0.0002623115433380008,-0.0020061424002051353,-0.0032350176479667425,0.999398410320282,0.0,0.0,0.0,-18.022037506103516,2.6517412662506104,5.576897621154785,3262.02490234375,0
317.146999999999,0.028862837702035904,0.010103918612003326,0.0005102488794364035,0.0,0.0,0.0,0.0,-0.0015205596573650837,-0.0008551383507438004,0.0030266945250332355,0.9988453388214111,0.0,0.0,0.0,-18.025039672851562,2.6559512615203857,5.574768543243408,3262.568115234375,0
327.0709999999999,0.028879957273602486,0.010095908306539059,0.0005313518922775984,0.0,0.0,0.0,0.0,0.0014217026764526963,0.0023443116806447506,6.172036228235811e-05,0.9999892711639404,0.0,0.0,0.0,-18.030925750732422,2.6572628021240234,5.587472915649414,3263.633544921875,0
336.97099999999955,0.028862066566944122,0.010128621943295002,0.000523679715115577,0.0,0.0,0.0,0.0,-0.0018744245171546936,-0.001264119171537459,-0.0003943907213397324,1.0010976791381836,0.0,0.0,0.0,-18.026262283325195,2.659813165664673,5.582564830780029,3262.789306640625,0
346.8809999999994,0.02892889454960823,0.01007674541324377,0.0005397857166826725,0.0,0.0,0.0,0.0,0.0021124640479683876,-0.0018340497044846416,0.005977266002446413,0.9998299479484558,0.0,0.0,0.0,-18.030763626098633,2.6519391536712646,5.597125053405762,3263.604248046875,0
356.78799999999865,0.028875458985567093,0.010082042776048183,0.0005768840201199055,0.0,0.0,0.0,0.0,0.0015528533840551972,0.0032646956387907267,-0.00021482376905623823,0.998049259185791,0.0,0.0,0.0,-18.027618408203125,2.643352508544922,5.585791110992432,3263.034912109375,0
366.7049999999999,0.02892308123409748,0.010036262683570385,0.0005937794339843094,0.0,0.0,0.0,0.0,0.0034456050489097834,0.002638018922880292,-0.004850822035223246,0.9999117851257324,0.0,0.0,0.0,-18.029003143310547,2.6341068744659424,5.604215621948242,3263.285400390625,0
376.61199999999917,0.02896473929286003,0.010118388570845127,0.0005290653789415956,0.0,0.0,0.0,0.0,-0.00038569109165109694,-0.0032525688875466585,0.00319953472353518,1.000589370727539,0.0,0.0,0.0,-18.02695655822754,2.6418299674987793,5.600632190704346,3262.9150390625,0
386.52499999999964,0.028945451602339745,0.010116037912666798,0.000536773819476366,0.0,0.0,0.0,0.0,0.002113885013386607,0.0029310835525393486,-0.00033676374005153775,1.0017518997192383,0.0,0.0,0.0,-18.03237533569336,2.645324230194092,5.594686985015869,3263.89599609375,0
396.4309999999987,0.02893332950770855,0.01014922559261322,0.0005283401696942747,0.0,0.0,0.0,0.0,-0.004068313166499138,0.000361037120455876,-0.003826390253379941,0.9996799230575562,0.0,0.0,0.0,-18.033212661743164,2.6515040397644043,5.594860076904297,3264.047119140625,0
406.35199999999895,0.02895376645028591,0.010104430839419365,0.0005297743482515216,0.0,0.0,0.0,0.0,-0.0016841338947415352,-0.002130508655682206,-0.004587611649185419,0.9991397857666016,0.0,0.0,0.0,-18.036483764648438,2.650515556335449,5.596335411071777,3264.639404296875,0
416.2509999999984,0.028927719220519066,0.010090806521475315,0.000522977439686656,0.0,0.0,0.0,0.0,0.0016441324260085821,0.00038434326415881515,-0.0005375472828745842,0.9978758692741394,0.0,0.0,0.0,-18.036806106567383,2.649073839187622,5.599705219268799,3264.69775390625,0
426.16799999999967,0.02893984690308571,0.010064566507935524,0.0005298782489262521,0.0,0.0,0.0,0.0,0.00033119271392934024,0.0008281099726445973,0.00019205253920517862,0.9977572560310364,0.0,0.0,0.0,-18.038455963134766,2.64495849609375,5.607057094573975,3264.996337890625,0
436.0729999999985,0.02892792969942093,0.010114948265254498,0.0005186513881199062,0.0,0.0,0.0,0.0,-0.0009391948697157204,9.098114969674498e-05,0.0015284911496564746,0.9978825449943542,0.0,0.0,0.0,-18.036788940429688,2.6501402854919434,5.5997443199157715,3264.694580078125,0
445.99199999999837,0.028943929821252823,0.010072584263980389,0.0005162195884622633,0.0,0.0,0.0,0.0,-0.0005926149897277355,7.555902266176417e-05,2.0433677491382696e-05,0.9985741972923279,0.0,0.0,0.0,-18.038084030151367,2.6397593021392822,5.606832027435303,3264.92919921875,0
455.89899999999943,0.02895776368677616,0.010136706754565239,0.00046909190132282674,0.0,0.0,0.0,0.0,0.003225053660571575,-0.0014755346346646547,0.0023399321362376213,0.9984314441680908,0.0,0.0,0.0,-18.03607177734375,2.6543517112731934,5.605646133422852,3264.56494140625,0
465.8139999999985,0.02896028943359852,0.010093926452100277,0.00045454426435753703,0.0,0.0,0.0,0.0,0.0015850308118388057,9.319547098129988e-05,0.0005014028283767402,1.0000712871551514,0.0,0.0,0.0,-18.038320541381836,2.644001007080078,5.608730792999268,3264.97216796875,0
475.72699999999895,0.028975224122405052,0.010192081332206726,0.0004148917505517602,0.0,0.0,0.0,0.0,-0.0014075154904276133,0.004802126437425613,-0.004213054198771715,0.9984046220779419,0.0,0.0,0.0,-18.03566551208496,2.6627185344696045,5.596940994262695,3264.4912109375,0
485.634,0.02898821234703064,0.010144189931452274,0.00039530053618364036,0.0,0.0,0.0,0.0,0.0020296266302466393,-0.002183163771405816,-0.003894836874678731,1.0002390146255493,0.0,0.0,0.0,-18.037933349609375,2.6468393802642822,5.604367256164551,3264.901611328125,0
495.53799999999865,0.02892267145216465,0.010131080634891987,0.0004245550080668181,0.0,0.0,0.0,0.0,-0.0005801623337902129,0.00017133828077930957,-0.0017231511883437634,1.0002590417861938,0.0,0.0,0.0,-18.032934188842773,2.643101930618286,5.5875654220581055,3263.9970703125,0
505.46199999999953,0.028961196541786194,0.01010268833488226,0.00042480448610149324,0.0,0.0,0.0,0.0,-0.00029902037931606174,0.00047370928223244846,0.002097496995702386,0.9999935030937195,0.0,0.0,0.0,-18.036624908447266,2.631929397583008,5.5924577713012695,3264.665283203125,0
515.366,0.028883235529065132,0.010063296183943748,0.0004650320624932647,0.0,0.0,0.0,0.0,0.0015175179578363895,0.0003354926302563399,0.0005977470427751541,1.0014625787734985,0.0,0.0,0.0,-18.03729820251465,2.6267852783203125,5.572726726531982,3264.786865234375,0
525.2779999999984,0.02888495661318302,0.010084605775773525,0.0004810117825400084,0.0,0.0,0.0,0.0,-0.0003061302122659981,-0.0012759860837832093,0.0029938314110040665,1.0004490613937378,0.0,0.0,0.0,-18.042972564697266,2.628767251968384,5.568809509277344,3265.814208984375,0
535.1819999999989,0.028835423290729523,0.010113837197422981,0.0004567307769320905,0.0,0.0,0.0,0.0,0.001992412144318223,0.004485075827687979,-0.00035258338903076947,0.9979919791221619,0.0,0.0,0.0,-18.026546478271484,2.621131658554077,5.565309047698975,3262.840576171875,0
545.0989999999983,0.02889270707964897,0.010105108842253685,0.0004804491181857884,0.0,0.0,0.0,0.0,-0.0010312112281098962,0.002438105409964919,0.00017206685151904821,0.999472975730896,0.0,0.0,0.0,-18.0494384765625,2.6267552375793457,5.576530933380127,3266.984375,0
555.0119999999988,0.028835242614150047,0.010144373401999474,0.000468865706352517,0.0,0.0,0.0,0.0,-0.002755702706053853,0.0030689146369695663,0.0005763641092926264,0.9991493821144104,0.0,0.0,0.0,-18.027236938476562,2.619147539138794,5.5563483238220215,3262.9658203125,0
564.9209999999985,0.0289101991802454,0.010127123445272446,0.0004947169800288975,0.0,0.0,0.0,0.0,-0.0009886359330266714,-0.00102234969381243,-0.003958900924772024,1.0002617835998535,0.0,0.0,0.0,-18.046443939208984,2.6232478618621826,5.573054790496826,3266.442138671875,0
574.8269999999993,0.028844499960541725,0.010133437812328339,0.0004812424012925476,0.0,0.0,0.0,0.0,0.0003452753880992532,-0.0020365251693874598,-0.0024681175127625465,0.9991077780723572,0.0,0.0,0.0,-18.03228187561035,2.623054265975952,5.556210517883301,3263.87890625,0
584.7399999999998,0.028907153755426407,0.010111751034855843,0.0005022205295972526,0.0,0.0,0.0,0.0,-0.00025608480791561306,0.0012090762611478567,-0.00033378860098309815,0.998205304145813,0.0,0.0,0.0,-18.054121017456055,2.626660108566284,5.5699076652526855,3267.83203125,0
594.652,0.028890766203403473,0.010157083161175251,0.00048436952056363225,0.0,0.0,0.0,0.0,0.00019170789164490998,-0.0024401871487498283,0.0036595212295651436,0.9995985627174377,0.0,0.0,0.0,-18.05661392211914,2.63310170173645,5.578627586364746,3268.282958984375,0
604.5619999999999,0.029012728482484818,0.01007422711700201,0.0004960910300724208,0.0,0.0,0.0,0.0,0.0016921086935326457,0.002572217956185341,0.003886415855959058,0.999895453453064,0.0,0.0,0.0,-18.063180923461914,2.629910469055176,5.609634876251221,3269.4716796875,0
614.473,0.029015395790338516,0.010111961513757706,0.0004591400211211294,0.0,0.0,0.0,0.0,0.0018814021022990346,0.001511709881015122,-0.004666728433221579,0.9987964630126953,0.0,0.0,0.0,-18.05887794494629,2.6361842155456543,5.598488807678223,3268.69287109375,0
624.3919999999998,0.028957657516002655,0.010134936310350895,0.00045944354496896267,0.0,0.0,0.0,0.0,0.000966752297244966,0.002652455121278763,-7.981112139532343e-05,0.9971383213996887,0.0,0.0,0.0,-18.06454849243164,2.6389410495758057,5.580436706542969,3269.718994140625,0
634.2929999999997,0.028911959379911423,0.010106817819178104,0.0004592078039422631,0.0,0.0,0.0,0.0,-0.0004320261359680444,0.0014007474528625607,-0.005303164478391409,0.9960320591926575,0.0,0.0,0.0,-18.065446853637695,2.6338000297546387,5.567729473114014,3269.881591796875,0
644.2029999999995,0.028897104784846306,0.010121213272213936,0.00046595046296715736,0.0,0.0,0.0,0.0,0.0025789672508835793,-0.0011865394189953804,-0.0008582435548305511,1.000718355178833,0.0,0.0,0.0,-18.068857192993164,2.637881278991699,5.561461448669434,3270.498779296875,0
654.1139999999996,0.028876828029751778,0.01016311813145876,0.00045287911780178547,0.0,0.0,0.0,0.0,-0.0027456297539174557,-0.0016556007321923971,-0.007891369983553886,1.003572702407837,0.0,0.0,0.0,-18.068208694458008,2.6387293338775635,5.548455238342285,3270.381591796875,0
664.027,0.028906136751174927,0.010148760862648487,0.0004583163536153734,0.0,0.0,0.0,0.0,-0.0023986883461475372,-0.0061392043717205524,0.0010926430113613605,1.0006461143493652,0.0,0.0,0.0,-18.0703125,2.635721445083618,5.5652384757995605,3270.7626953125,0
673.9359999999997,0.028866175562143326,0.010123245418071747,0.0004543151590041816,0.0,0.0,0.0,0.0,0.0017272384138777852,0.002126499777659774,0.0018849397310987115,0.9997091889381409,0.0,0.0,0.0,-18.069881439208984,2.6330177783966064,5.56569766998291,3270.684326171875,0
683.8469999999998,0.02889416180551052,0.010128733702003956,0.00047296672710217535,0.0,0.0,0.0,0.0,-0.0008831857703626156,0.0030639676842838526,0.0010462853824719787,1.000849723815918,0.0,0.0,0.0,-18.073307037353516,2.6372897624969482,5.576033115386963,3271.3046875,0
693.7579999999998,0.02890002727508545,0.010169066488742828,0.0004289055068511516,0.0,0.0,0.0,0.0,-4.9384234444005415e-06,0.0012901121517643332,-0.0016837024595588446,1.0028870105743408,0.0,0.0,0.0,-18.06900405883789,2.6303582191467285,5.560966968536377,3270.52587890625,0
703.6689999999999,0.028916796669363976,0.010155045427381992,0.00043182080844417214,0.0,0.0,0.0,0.0,-0.00013467363896779716,-0.0014334506122395396,-0.003168594092130661,1.000876784324646,0.0,0.0,0.0,-18.070363998413086,2.637779474258423,5.562605857849121,3270.771728515625,0
713.5849999999991,0.02891276590526104,0.010191607289016247,0.0003994887520093471,0.0,0.0,0.0,0.0,-0.0009635951137170196,0.002859253203496337,0.001461515319533646,1.000536322593689,0.0,0.0,0.0,-18.066709518432617,2.6426773071289062,5.555564880371094,3270.1103515625,0
723.491,0.02891242690384388,0.01018573623150587,0.0004023319634143263,0.0,0.0,0.0,0.0,-0.001645908341743052,-0.00022599648218601942,-0.004216494504362345,1.0007609128952026,0.0,0.0,0.0,-18.067623138427734,2.6343584060668945,5.565173149108887,3270.27587890625,0
733.4110000000001,0.028869321569800377,0.01020012702792883,0.0004186054866295308,0.0,0.0,0.0,0.0,0.0028063738718628883,-0.0005769342533312738,-0.002661679405719042,0.9983634948730469,0.0,0.0,0.0,-18.065814971923828,2.635823965072632,5.554526329040527,3269.948486328125,0
743.3130000000001,0.028915351256728172,0.010201639495790005,0.00044366743532009423,0.0,0.0,0.0,0.0,-0.0006308312877081335,-0.0015569532988592982,-0.0036387157160788774,1.001349687576294,0.0,0.0,0.0,-18.06922721862793,2.6339128017425537,5.563192844390869,3270.56591796875,0
753.2299999999996,0.028873680159449577,0.010198628529906273,0.0004551458405330777,0.0,0.0,0.0,0.0,0.0019115953473374248,-0.00303884269669652,-0.0029703446198254824,0.9993083477020264,0.0,0.0,0.0,-18.068754196166992,2.6330361366271973,5.546603202819824,3270.480712890625,0
763.1349999999984,0.028853949159383774,0.010177134536206722,0.0004502281080931425,0.0,0.0,0.0,0.0,0.002014081459492445,0.0006407793844118714,-0.00036465871380642056,0.9982574582099915,0.0,0.0,0.0,-18.062772750854492,2.6188881397247314,5.559015274047852,3269.397705078125,0
773.0559999999987,0.02882484160363674,0.010199856013059616,0.00045385301928035915,0.0,0.0,0.0,0.0,-0.001319405622780323,-0.0018669551936909556,-0.001229589805006981,0.9996452927589417,0.0,0.0,0.0,-18.060312271118164,2.620702028274536,5.563935279846191,3268.9521484375,0
782.9559999999983,0.028836801648139954,0.010230489075183868,0.00048005933058448136,0.0,0.0,0.0,0.0,-0.0007655596709810197,-0.0008259063470177352,-0.0006969275418668985,1.000227689743042,0.0,0.0,0.0,-18.057971954345703,2.619896411895752,5.571005821228027,3268.52880859375,0
792.8729999999996,0.02880372479557991,0.010231760330498219,0.00048163492465391755,0.0,0.0,0.0,0.0,-0.0012228710111230612,-0.0023347504902631044,-0.0011432761093601584,0.9997510313987732,0.0,0.0,0.0,-18.054656982421875,2.6211137771606445,5.56658411026001,3267.9287109375,0
802.7869999999984,0.028864359483122826,0.01016493234783411,0.00048137709381990135,0.0,0.0,0.0,0.0,-0.0013011428527534008,-0.0002088453184114769,0.0015823832945898175,0.9989603161811829,0.0,0.0,0.0,-18.05533218383789,2.6073503494262695,5.598325729370117,3268.05126953125,0
812.6969999999983,0.028840888291597366,0.010185524821281433,0.00047819275641813874,0.0,0.0,0.0,0.0,-0.00010194772767135873,-0.0022418752778321505,0.0038943535182625055,1.0003217458724976,0.0,0.0,0.0,-18.053693771362305,2.611208438873291,5.593142032623291,3267.754638671875,0
822.6079999999984,0.02894095703959465,0.010116242803633213,0.00048764943494461477,0.0,0.0,0.0,0.0,-0.0010497537441551685,-0.001357681700028479,-0.00042791388113982975,0.999925971031189,0.0,0.0,0.0,-18.054805755615234,2.6085569858551025,5.619234561920166,3267.955810546875,0
832.521999999999,0.028919797390699387,0.010150964371860027,0.0004898650804534554,0.0,0.0,0.0,0.0,0.0017297137528657913,0.00025683880085125566,0.0032565658912062645,1.0007013082504272,0.0,0.0,0.0,-18.05335235595703,2.612750768661499,5.611339092254639,3267.692626953125,0
842.4279999999999,0.028955623507499695,0.010108686983585358,0.0004924249951727688,0.0,0.0,0.0,0.0,0.001090853475034237,-5.1136732508894056e-05,-0.0005101999267935753,1.0000165700912476,0.0,0.0,0.0,-18.05558204650879,2.6045947074890137,5.6273651123046875,3268.096435546875,0
852.3419999999987,0.028960533440113068,0.0101519376039505,0.00046206742990761995,0.0,0.0,0.0,0.0,0.0031028306111693382,-0.0027675111778080463,0.00017662683967500925,0.9995077848434448,0.0,0.0,0.0,-18.049999237060547,2.610502243041992,5.621255874633789,3267.085693359375,0
862.2529999999988,0.02894359454512596,0.010117053985595703,0.00044816872105002403,0.0,0.0,0.0,0.0,0.0008232218096964061,-0.0017211816739290953,-0.002908575115725398,0.9989756345748901,0.0,0.0,0.0,-18.052146911621094,2.600938081741333,5.624405384063721,3267.474609375,0
872.164999999999,0.028917312622070312,0.010146275162696838,0.000454781053122133,0.0,0.0,0.0,0.0,-0.0013287336332723498,0.001689503900706768,0.0015315837226808071,0.9996470808982849,0.0,0.0,0.0,-18.05159568786621,2.59997296333313,5.622446537017822,3267.375,0
882.0729999999985,0.029001185670495033,0.010105595923960209,0.00047245676978491247,0.0,0.0,0.0,0.0,0.0002709557593334466,0.000627783709205687,-0.004382483195513487,0.9999412298202515,0.0,0.0,0.0,-18.055498123168945,2.5951716899871826,5.636783123016357,3268.081298828125,0
891.976999999999,0.02899511158466339,0.010138123296201229,0.0004529828147497028,0.0,0.0,0.0,0.0,-0.00223505194298923,-0.0021131099201738834,-0.00039462593849748373,0.998609185218811,0.0,0.0,0.0,-18.05084800720215,2.597590208053589,5.62930965423584,3267.239501953125,0
901.8959999999988,0.029045552015304565,0.010072126053273678,0.00044669414637610316,0.0,0.0,0.0,0.0,0.0005642737378366292,0.0024860971607267857,-0.0017162852454930544,0.9985663890838623,0.0,0.0,0.0,-18.053359985351562,2.586134910583496,5.6408305168151855,3267.694091796875,0
911.8079999999991,0.029043011367321014,0.01014383789151907,0.0004357174038887024,0.0,0.0,0.0,0.0,1.3860113540431485e-05,0.0014479103265330195,0.0008317105239257216,0.9980026483535767,0.0,0.0,0.0,-18.0482234954834,2.59967041015625,5.631591320037842,3266.764404296875,0
921.732,0.029001403599977493,0.010179306380450726,0.00044279202120378613,0.0,0.0,0.0,0.0,-0.0029333343263715506,-0.0052151987329125404,-0.0002205331256845966,1.0007706880569458,0.0,0.0,0.0,-18.056697845458984,2.599290132522583,5.616597652435303,3268.298095703125,0
931.637999999999,0.028958197683095932,0.010166910476982594,0.00045181193854659796,0.0,0.0,0.0,0.0,-0.00010933673911495134,0.0017000865191221237,0.0009645696845836937,1.000524878501892,0.0,0.0,0.0,-18.055482864379883,2.599022388458252,5.611185073852539,3268.07861328125,0
941.5429999999997,0.028943268582224846,0.010156973265111446,0.0004488010599743575,0.0,0.0,0.0,0.0,-0.0012003042502328753,-0.004692926071584225,-0.0003889446088578552,0.9992514848709106,0.0,0.0,0.0,-18.05879020690918,2.5937228202819824,5.612401008605957,3268.677001953125,0
951.4549999999999,0.02886868454515934,0.010109775699675083,0.0004908561822958291,0.0,0.0,0.0,0.0,-0.0015097711002454162,0.003036410314962268,-0.001027731574140489,1.000352144241333,0.0,0.0,0.0,-18.059364318847656,2.5875678062438965,5.601726531982422,3268.78076171875,0
961.3649999999998,0.02890070527791977,0.010121897794306278,0.0005193736869841814,0.0,0.0,0.0,0.0,-0.001683377893641591,3.0100725780357607e-05,-0.0015915961703285575,1.0005732774734497,0.0,0.0,0.0,-18.059589385986328,2.588956594467163,5.617895126342773,3268.8212890625,0
971.2739999999994,0.028876101598143578,0.010146720334887505,0.0005223372136242688,0.0,0.0,0.0,0.0,-0.0023546621669083834,0.0003344413999002427,0.0008263030904345214,0.999366283416748,0.0,0.0,0.0,-18.052932739257812,2.5927937030792236,5.615487575531006,3267.61669921875,0
981.1889999999985,0.02891477756202221,0.010131618939340115,0.0005430272431112826,0.0,0.0,0.0,0.0,0.0005806350382044911,-0.0003730246680788696,-0.0005093066138215363,1.0011374950408936,0.0,0.0,0.0,-18.052576065063477,2.590669870376587,5.6202592849731445,3267.55224609375,0
991.0959999999995,0.02889023721218109,0.010120146907866001,0.0005376158514991403,0.0,0.0,0.0,0.0,0.0010128774447366595,-0.0002697582822293043,0.001002663979306817,0.999614953994751,0.0,0.0,0.0,-18.050086975097656,2.5926623344421387,5.6183905601501465,3267.1015625,0
1001.0059999999994,0.028920968994498253,0.010106069035828114,0.0005603202152997255,0.0,0.0,0.0,0.0,-0.001936614396981895,0.0006479734438471496,-0.0031344639137387276,0.9988086819648743,0.0,0.0,0.0,-18.050355911254883,2.5875401496887207,5.619422435760498,3267.150634765625,0
1010.9189999999999,0.02890891581773758,0.010138258337974548,0.0005536247044801712,0.0,0.0,0.0,0.0,-0.002144969766959548,-0.0005035435315221548,0.001295731053687632,0.9987540245056152,0.0,0.0,0.0,-18.045654296875,2.5873048305511475,5.613771915435791,3266.299560546875,0
1020.8289999999997,0.028891339898109436,0.010120647959411144,0.0005572423688136041,0.0,0.0,0.0,0.0,0.0013919388875365257,-0.002639616606757045,-0.002314106561243534,0.9995425939559937,0.0,0.0,0.0,-18.050960540771484,2.5929737091064453,5.614987850189209,3267.259521484375,0
1030.7399999999998,0.02888709306716919,0.010173199698328972,0.0005402329843491316,0.0,0.0,0.0,0.0,-0.0016452433774247766,-0.0005037436494603753,0.004188880790024996,1.0020374059677124,0.0,0.0,0.0,-18.051677703857422,2.602186679840088,5.611446857452393,3267.3896484375,0
1040.655999999999,0.02890327200293541,0.010191951878368855,0.0005699219764210284,0.0,0.0,0.0,0.0,-3.416237814235501e-05,0.0011934967478737235,-0.002768034813925624,1.000246524810791,0.0,0.0,0.0,-18.052547454833984,2.6061582565307617,5.629126071929932,3267.546875,0
1050.5609999999997,0.028867598623037338,0.010189485736191273,0.0005760054918937385,0.0,0.0,0.0,0.0,-0.0006387281464412808,0.0018785418942570686,-0.003497823141515255,0.9984667897224426,0.0,0.0,0.0,-18.044965744018555,2.6061971187591553,5.6289143562316895,3266.1748046875,0
1060.476999999999,0.028836091980338097,0.010178735479712486,0.000583525572437793,0.0,0.0,0.0,0.0,-0.0034132127184420824,-3.573179856175557e-05,0.001754597295075655,0.9983709454536438,0.0,0.0,0.0,-18.05178451538086,2.6073195934295654,5.614922523498535,3267.408935546875,0
1070.384,0.028813796117901802,0.010194573551416397,0.0005738585605286062,0.0,0.0,0.0,0.0,-0.004482167307287455,0.0015537521103397012,-0.0008826145785860717,0.9994775652885437,0.0,0.0,0.0,-18.04578971862793,2.608525276184082,5.613204002380371,3266.32373046875,0
1080.3009999999995,0.028883300721645355,0.010143005289137363,0.0005891264881938696,0.0,0.0,0.0,0.0,0.0035126511938869953,0.003240166464820504,-0.0017730743857100606,1.0003840923309326,0.0,0.0,0.0,-18.048667907714844,2.6137473583221436,5.636921405792236,3266.844970703125,0
1090.214,0.02886456996202469,0.01018876489251852,0.0005817963974550366,0.0,0.0,0.0,0.0,0.0005090247141197324,-0.00273594306781888,0.00044619699474424124,1.0011001825332642,0.0,0.0,0.0,-18.04753875732422,2.61533784866333,5.622106552124023,3266.64013671875,0
1100.1129999999994,0.028912832960486412,0.010101007297635078,0.0005752891302108765,0.0,0.0,0.0,0.0,-0.0050077419728040695,0.000786630786024034,0.0030616149306297302,0.9991343021392822,0.0,0.0,0.0,-18.05144691467285,2.604060173034668,5.636828899383545,3267.34765625,0
1110.0329999999994,0.0289346594363451,0.010163147933781147,0.0005176232079975307,0.0,0.0,0.0,0.0,0.0019751349464058876,0.0058750007301568985,0.0029248010832816362,1.000110149383545,0.0,0.0,0.0,-18.047609329223633,2.616238832473755,5.626964092254639,3266.6533203125,0
1119.940999999999,0.028940007090568542,0.01005993876606226,0.00048557802801951766,0.0,0.0,0.0,0.0,-0.003142034634947777,0.001905701239593327,-0.0027759766671806574,1.0006027221679688,0.0,0.0,0.0,-18.04853057861328,2.5981078147888184,5.632998943328857,3266.820068359375,0
1129.8589999999986,0.028948554769158363,0.010120165534317493,0.00044326658826321363,0.0,0.0,0.0,0.0,0.0018777046352624893,0.0028047719970345497,-0.00019662512931972742,0.9999377131462097,0.0,0.0,0.0,-18.045419692993164,2.6088881492614746,5.6281914710998535,3266.256591796875,0
1139.762999999999,0.02900855988264084,0.010059858672320843,0.00044484224054031074,0.0,0.0,0.0,0.0,0.0016749623464420438,-0.002827611519023776,-0.0007790023228153586,1.0007797479629517,0.0,0.0,0.0,-18.048004150390625,2.5985217094421387,5.634464740753174,3266.724853515625,0
1149.6689999999999,0.029006490483880043,0.010104600340127945,0.0004151900648139417,0.0,0.0,0.0,0.0,0.0021342558320611715,-0.0010611281031742692,-0.002489847829565406,0.9997875094413757,0.0,0.0,0.0,-18.04323387145996,2.602020263671875,5.634372711181641,3265.861328125,0
1159.5819999999985,0.028964703902602196,0.010046793147921562,0.0003873808600474149,0.0,0.0,0.0,0.0,-0.0018885519821196795,-0.0002931412309408188,0.0037374303210526705,0.9988523125648499,0.0,0.0,0.0,-18.047943115234375,2.588107109069824,5.629581451416016,3266.71337890625,0
1169.4989999999998,0.028921140357851982,0.010039431974291801,0.0003937533183488995,0.0,0.0,0.0,0.0,-0.00018756352073978633,-0.001343800569884479,0.0018010801868513227,0.9993228316307068,0.0,0.0,0.0,-18.0477294921875,2.582361936569214,5.623769760131836,3266.675048828125,0
1179.4029999999984,0.028886666521430016,0.010029441677033901,0.00038911026786081493,0.0,0.0,0.0,0.0,0.002949227811768651,0.004229876212775707,-0.0024018583353608847,1.0002920627593994,0.0,0.0,0.0,-18.04812240600586,2.5834453105926514,5.622162342071533,3266.74609375,0
1189.3109999999997,0.028852248564362526,0.01003823708742857,0.0003822611179202795,0.0,0.0,0.0,0.0,-0.0021278830245137215,0.005580047145485878,-0.0022460997570306063,0.9990218281745911,0.0,0.0,0.0,-18.048160552978516,2.5823442935943604,5.611016273498535,3266.753173828125,0
1199.2199999999993,0.02887258492410183,0.010027021169662476,0.0003974114661104977,0.0,0.0,0.0,0.0,0.0007205286528915167,0.006628487724810839,-0.0010618794476613402,0.9998128414154053,0.0,0.0,0.0,-18.05048942565918,2.5830976963043213,5.60537052154541,3267.174560546875,0
1209.1359999999986,0.028846820816397667,0.010045702569186687,0.0003822627477347851,0.0,0.0,0.0,0.0,-0.00035364757059141994,-0.0037592328153550625,-0.003279339522123337,0.9999046921730042,0.0,0.0,0.0,-18.051881790161133,2.5872504711151123,5.590625286102295,3267.426513671875,0
1219.0469999999987,0.02889699675142765,0.01004072930663824,0.00040806937613524497,0.0,0.0,0.0,0.0,-0.0007586834253743291,0.004062031861394644,0.0017694925190880895,1.0007004737854004,0.0,0.0,0.0,-18.053974151611328,2.592966079711914,5.604835033416748,3267.804931640625,0
1228.955,0.02886737510561943,0.010053236037492752,0.0004018810286652297,0.0,0.0,0.0,0.0,0.004262792877852917,-0.0013901321217417717,0.0002756479079835117,0.998314380645752,0.0,0.0,0.0,-18.054677963256836,2.5937628746032715,5.5969061851501465,3267.932861328125,0
1238.8619999999992,0.028875721618533134,0.010097375139594078,0.0004389823297969997,0.0,0.0,0.0,0.0,-0.0010980020742863417,0.00037512253038585186,0.0011429146397858858,0.9991865158081055,0.0,0.0,0.0,-18.052778244018555,2.5898499488830566,5.601417064666748,3267.5888671875,0
1248.7799999999988,0.028846383094787598,0.010126115754246712,0.00043922432814724743,0.0,0.0,0.0,0.0,0.0016761015867814422,-0.0009709253790788352,0.0021841952111572027,1.0000488758087158,0.0,0.0,0.0,-18.04875373840332,2.583308219909668,5.584708213806152,3266.860107421875,0
1258.6819999999989,0.02886345051229,0.010145852342247963,0.00046747896703891456,0.0,0.0,0.0,0.0,-0.0002338698977837339,-0.0023964322172105312,0.00010567511344561353,0.998464047908783,0.0,0.0,0.0,-18.05443572998047,2.5884439945220947,5.598491668701172,3267.888916015625,0
1268.6009999999987,0.028832392767071724,0.010174260474741459,0.0004703870217781514,0.0,0.0,0.0,0.0,-0.0009502633474767208,-0.00047500277287326753,-0.0029782007914036512,0.9991000890731812,0.0,0.0,0.0,-18.05242919921875,2.591668128967285,5.5854949951171875,3267.525390625,0
1278.5079999999998,0.028878208249807358,0.010163737460970879,0.0004961463855579495,0.0,0.0,0.0,0.0,0.002221484202891588,-0.0019374629482626915,-0.00018293072935193777,0.9994559288024902,0.0,0.0,0.0,-18.059356689453125,2.5936877727508545,5.601952075958252,3268.779541015625,0
1288.4249999999993,0.028883609920740128,0.010204732418060303,0.00045087875332683325,0.0,0.0,0.0,0.0,-0.004343843553215265,-0.0031328490003943443,0.0009633643203414977,1.000367283821106,0.0,0.0,0.0,-18.056657791137695,2.596935987472534,5.5896992683410645,3268.290771484375,0
1298.3369999999995,0.028896600008010864,0.010198455303907394,0.0004628851020243019,0.0,0.0,0.0,0.0,0.0007083498639985919,-0.0015044554602354765,0.0004384743224363774,0.9982596039772034,0.0,0.0,0.0,-18.061933517456055,2.6003241539001465,5.600032329559326,3269.24609375,0
1308.253999999999,0.028895391151309013,0.010216793976724148,0.0004219077236484736,0.0,0.0,0.0,0.0,0.0008737611933611333,0.00423813983798027,-0.0017190335784107447,0.9999898076057434,0.0,0.0,0.0,-18.05874252319336,2.600510835647583,5.607586860656738,3268.66845703125,0
1318.155999999999,0.028924422338604927,0.01017877645790577,0.00042090288479812443,0.0,0.0,0.0,0.0,-0.0019147023558616638,-0.0032381087075918913,0.0014262899057939649,0.9991434216499329,0.0,0.0,0.0,-18.057405471801758,2.593916416168213,5.616898536682129,3268.42626953125,0
1328.0679999999993,0.028916796669363976,0.010200558230280876,0.0003901711606886238,0.0,0.0,0.0,0.0,0.0031122425571084023,0.0011040159733965993,-0.0031156090553849936,1.0009011030197144,0.0,0.0,0.0,-18.05470848083496,2.598525285720825,5.602169036865234,3267.93798828125,0
1337.9699999999993,0.028953684493899345,0.010144093073904514,0.0003822852740995586,0.0,0.0,0.0,0.0,-0.002236912027001381,-0.0018792350310832262,-0.0006673671887256205,0.9998453259468079,0.0,0.0,0.0,-18.055118560791016,2.58717679977417,5.6039018630981445,3268.012451171875,0
1347.8939999999984,0.02892666682600975,0.010154197923839092,0.00037802717997692525,0.0,0.0,0.0,0.0,-0.000993163324892521,-0.000881994201336056,-0.0006876869010739028,0.9999926686286926,0.0,0.0,0.0,-18.0496768951416,2.5930302143096924,5.6064019203186035,3267.02734375,0
1357.7959999999985,0.028932327404618263,0.010140053927898407,0.0003796515811700374,0.0,0.0,0.0,0.0,-0.002677077194675803,0.0008725524530746043,-0.0018519527511671185,0.9978451132774353,0.0,0.0,0.0,-18.05171012878418,2.588519811630249,5.6074090003967285,3267.3955078125,0
1367.7159999999985,0.028919028118252754,0.010173008777201176,0.00035864615347236395,0.0,0.0,0.0,0.0,0.002282209461554885,0.0009028479689732194,-0.0008978081168606877,0.9988410472869873,0.0,0.0,0.0,-18.04661750793457,2.5966250896453857,5.599285125732422,3266.473876953125,0
1377.6149999999998,0.028909118846058846,0.010186281055212021,0.00036375908530317247,0.0,0.0,0.0,0.0,-0.001514624455012381,-0.0023849501740187407,0.0008242857293225825,1.000988245010376,0.0,0.0,0.0,-18.05026626586914,2.6034393310546875,5.609182357788086,3267.134033203125,0
1387.5459999999985,0.02889118902385235,0.010205414146184921,0.0003384235897101462,0.0,0.0,0.0,0.0,-0.0004094606847502291,-0.004179590381681919,0.0040298509411513805,1.000304937362671,0.0,0.0,0.0,-18.04774284362793,2.6027047634124756,5.595842361450195,3266.67724609375,0
1397.440999999999,0.028900055214762688,0.01020902395248413,0.0003461987362243235,0.0,0.0,0.0,0.0,-0.001278806827031076,0.0023334843572229147,-0.0046495553106069565,0.9986910820007324,0.0,0.0,0.0,-18.051477432250977,2.602787494659424,5.603261470794678,3267.353271484375,0
1407.3499999999985,0.028876647353172302,0.010221093893051147,0.00032852988806553185,0.0,0.0,0.0,0.0,-0.0010362177854403853,-0.00245665549300611,-0.0040397923439741135,1.0007997751235962,0.0,0.0,0.0,-18.048322677612305,2.6070289611816406,5.592439651489258,3266.782470703125,0
1417.2639999999992,0.028862493112683296,0.010199940763413906,0.0003179413906764239,0.0,0.0,0.0,0.0,0.003117880318313837,-0.001648709992878139,-0.0007039438933134079,0.9992866516113281,0.0,0.0,0.0,-18.04776382446289,2.602443218231201,5.600825309753418,3266.681396484375,0
1427.1729999999989,0.02884393185377121,0.010217562317848206,0.0002933065698016435,0.0,0.0,0.0,0.0,-0.0011151446960866451,-0.003789595328271389,0.00026476060156710446,0.998616099357605,0.0,0.0,0.0,-18.04422950744629,2.602400302886963,5.606147289276123,3266.04150390625,0
1437.0789999999997,0.028891073539853096,0.010213080793619156,0.0003074802225455642,0.0,0.0,0.0,0.0,0.0004048735718242824,0.004484075121581554,0.00028670867322944105,0.9990569949150085,0.0,0.0,0.0,-18.045942306518555,2.603205680847168,5.613996982574463,3266.3515625,0
1446.9919999999984,0.028816450387239456,0.010152669623494148,0.00033503290615044534,0.0,0.0,0.0,0.0,-0.0018147769151255488,-0.0002604569308459759,0.0003962355840485543,0.9990127682685852,0.0,0.0,0.0,-18.043882369995117,2.589035987854004,5.605545520782471,3265.978515625,0
1456.9029999999984,0.02889508381485939,0.010112661868333817,0.00034974273876287043,0.0,0.0,0.0,0.0,-0.0009865104220807552,0.0022791908122599125,-0.004293937236070633,0.9985001087188721,0.0,0.0,0.0,-18.0454044342041,2.588611364364624,5.623429775238037,3266.25439453125,0
1466.821,0.028845934197306633,0.01009564008563757,0.000360203004674986,0.0,0.0,0.0,0.0,-0.0006054983823560178,-0.0027087852358818054,0.000839972635731101,1.0011998414993286,0.0,0.0,0.0,-18.044221878051758,2.5882656574249268,5.615113258361816,3266.0400390625,0
1476.723,0.02892274037003517,0.01009034551680088,0.0003937066940125078,0.0,0.0,0.0,0.0,0.0007661295239813626,0.0014333660947158933,-0.0023975532967597246,1.0016443729400635,0.0,0.0,0.0,-18.047452926635742,2.5899624824523926,5.637018203735352,3266.624755859375,0
1486.6359999999986,0.028884779661893845,0.01008022204041481,0.0004015395534224808,0.0,0.0,0.0,0.0,6.741943070665002e-05,0.001104446011595428,0.00039297956391237676,0.9997641444206238,0.0,0.0,0.0,-18.047687530517578,2.5834665298461914,5.632888317108154,3266.66748046875,0
1496.5519999999997,0.028858192265033722,0.010092069394886494,0.0004016634193249047,0.0,0.0,0.0,0.0,0.0020610361825674772,0.003991956356912851,-0.00022644124692305923,0.9990145564079285,0.0,0.0,0.0,-18.028871536254883,2.582542657852173,5.629615783691406,3263.261962890625,0
1506.4569999999985,0.028826676309108734,0.010134576819837093,0.0004174539935775101,0.0,0.0,0.0,0.0,-0.0014018185902386904,-0.003144130576401949,-0.0006902551394887269,0.9994277954101562,0.0,0.0,0.0,-18.025634765625,2.588099718093872,5.618269443511963,3262.676025390625,0
1516.3669999999984,0.02888564206659794,0.010101080872118473,0.0004469568084459752,0.0,0.0,0.0,0.0,0.0007988323923200369,-0.00036632188130170107,0.0011030385503545403,1.0007926225662231,0.0,0.0,0.0,-18.0294132232666,2.585988998413086,5.640890121459961,3263.359619140625,0
1526.2819999999992,0.028869258239865303,0.010142202489078045,0.0004488221020437777,0.0,0.0,0.0,0.0,-0.0008040350512601435,0.0014181933365762234,-0.0041027064435184,1.000003457069397,0.0,0.0,0.0,-18.029359817504883,2.591555595397949,5.627208232879639,3263.350341796875,0
1536.1889999999985,0.02888108603656292,0.01015664916485548,0.0004782483447343111,0.0,0.0,0.0,0.0,-0.001534587237983942,0.003552541136741638,-0.0006315062055364251,0.9991655945777893,0.0,0.0,0.0,-18.036388397216797,2.5928759574890137,5.630514621734619,3264.6220703125,0
1546.0999999999985,0.02887546829879284,0.010182123631238937,0.00045341558870859444,0.0,0.0,0.0,0.0,0.001503770356066525,0.00079967244528234,-0.0020290417596697807,1.002148985862732,0.0,0.0,0.0,-18.029674530029297,2.5952937602996826,5.615972995758057,3263.406982421875,0
1556.0119999999988,0.02890615537762642,0.01017285417765379,0.000476194778457284,0.0,0.0,0.0,0.0,0.0033480057027190924,0.0013793472899124026,-0.004130406770855188,1.000435471534729,0.0,0.0,0.0,-18.032245635986328,2.5925068855285645,5.626006126403809,3263.8720703125,0
1565.923999999999,0.02887689135968685,0.010190125554800034,0.00048626403440721333,0.0,0.0,0.0,0.0,0.0031539946794509888,-0.003063248237594962,0.0014749690890312195,1.0001882314682007,0.0,0.0,0.0,-18.031890869140625,2.5873305797576904,5.609986782073975,3263.808349609375,0
1575.8439999999991,0.028882121667265892,0.010229364968836308,0.00045393267646431923,0.0,0.0,0.0,0.0,-0.0006583419162780046,-0.0024980916641652584,0.0025637259241193533,1.0007884502410889,0.0,0.0,0.0,-18.042654037475586,2.5868613719940186,5.615175247192383,3265.756103515625,0
1585.7479999999996,0.02885538525879383,0.010248811915516853,0.0004591147881001234,0.0,0.0,0.0,0.0,-0.0018621929921209812,-0.0021080682054162025,0.0026162939611822367,1.0004085302352905,0.0,0.0,0.0,-18.024328231811523,2.5853683948516846,5.622756004333496,3262.439453125,0
1595.6569999999992,0.028927437961101532,0.010216082446277142,0.00044355529826134443,0.0,0.0,0.0,0.0,0.0004388734232634306,0.006756955292075872,-0.002228044206276536,0.9999865293502808,0.0,0.0,0.0,-18.03868293762207,2.58495831489563,5.651311874389648,3265.03759765625,0
1605.565999999999,0.028902197256684303,0.010233757086098194,0.00044830190017819405,0.0,0.0,0.0,0.0,-0.004285053350031376,-0.0031607160344719887,0.0014889640733599663,0.9987648129463196,0.0,0.0,0.0,-18.021120071411133,2.583291530609131,5.643902778625488,3261.858642578125,0
1615.4779999999992,0.02900964766740799,0.010302077978849411,0.0004309570067562163,0.0,0.0,0.0,0.0,0.0021587396040558815,-0.0036841118708252907,0.0009712597820907831,0.9985880851745605,0.0,0.0,0.0,-18.03904151916504,2.607438564300537,5.658689022064209,3265.1025390625,0
1625.3889999999992,0.02898808754980564,0.010322599671781063,0.000432475411798805,0.0,0.0,0.0,0.0,-0.0008598882122896612,-0.002918603830039501,-0.0028928734827786684,0.9968247413635254,0.0,0.0,0.0,-18.02005958557129,2.5969417095184326,5.664416313171387,3261.666748046875,0
1635.304,0.029050789773464203,0.010251332074403763,0.00038372926064766943,0.0,0.0,0.0,0.0,-0.0012723233085125685,0.00045694896834902465,-0.00025790129438973963,0.9978480339050293,0.0,0.0,0.0,-18.038679122924805,2.597137928009033,5.6821136474609375,3265.036865234375,0
1645.2129999999997,0.02902885526418686,0.010267835110425949,0.0003775812219828367,0.0,0.0,0.0,0.0,-0.0006966880755499005,-0.0017226975178346038,0.003121005604043603,0.9992026090621948,0.0,0.0,0.0,-18.020967483520508,2.5941240787506104,5.675309181213379,3261.8310546875,0
1655.1309999999994,0.02896912395954132,0.010201571509242058,0.00034573356970213354,0.0,0.0,0.0,0.0,-0.003661717986688018,-0.0005497119855135679,-0.003215614939108491,0.997090756893158,0.0,0.0,0.0,-18.040054321289062,2.5825154781341553,5.670590400695801,3265.28564453125,0
1665.0319999999992,0.028943518176674843,0.010214589536190033,0.0003346684970892966,0.0,0.0,0.0,0.0,0.0013514946913346648,-0.002682519145309925,0.00023384780797641724,0.9983158111572266,0.0,0.0,0.0,-18.023651123046875,2.586273431777954,5.667784690856934,3262.316650390625,0
1674.9429999999993,0.029002444818615913,0.010172437876462936,0.0003487519861664623,0.0,0.0,0.0,0.0,0.001381670474074781,0.005792902782559395,-0.0011248539667576551,1.0011498928070068,0.0,0.0,0.0,-18.042245864868164,2.5847978591918945,5.685535907745361,3265.68212890625,0
1684.8539999999994,0.028976840898394585,0.010181810706853867,0.000336723227519542,0.0,0.0,0.0,0.0,-0.0007048133993521333,-0.00421398039907217,-0.0035619360860437155,1.0012212991714478,0.0,0.0,0.0,-18.024658203125,2.5799312591552734,5.671708583831787,3262.499267578125,0
1694.7739999999994,0.02894767001271248,0.010126940906047821,0.00036884384462609887,0.0,0.0,0.0,0.0,-0.0018555962014943361,0.003392179263755679,-0.0010234899818897247,1.0012975931167603,0.0,0.0,0.0,-18.045682907104492,2.5732944011688232,5.673872470855713,3266.304443359375,0
1704.6749999999993,0.028920920565724373,0.010134967975318432,0.00036252004792913795,0.0,0.0,0.0,0.0,-8.498093666275963e-05,0.0013681744458153844,-0.0003935599816031754,1.0010089874267578,0.0,0.0,0.0,-18.029132843017578,2.574467897415161,5.670526027679443,3263.30908203125,0
1714.5879999999997,0.028892816975712776,0.010160484351217747,0.000401759723899886,0.0,0.0,0.0,0.0,0.0013364730402827263,0.0009499875013716519,0.0012606558157131076,1.0011829137802124,0.0,0.0,0.0,-18.051416397094727,2.5813021659851074,5.664248943328857,3267.342529296875,0
1724.4979999999996,0.02886337973177433,0.010170641355216503,0.00040174901369027793,0.0,0.0,0.0,0.0,-0.0007453899597749114,0.0024008399341255426,-0.00021579833992291242,0.9994688034057617,0.0,0.0,0.0,-18.03309440612793,2.5807106494903564,5.653717517852783,3264.02587890625,0
1734.4089999999997,0.028839880600571632,0.010075290687382221,0.0004833338607568294,0.0,0.0,0.0,0.0,-0.0009212959557771683,-0.00012875617539975792,0.0002083380240947008,0.9998763203620911,0.0,0.0,0.0,-18.046730041503906,2.5627024173736572,5.6589579582214355,3266.493896484375,0
1744.3189999999995,0.02880859375,0.010082821361720562,0.0004907365655526519,0.0,0.0,0.0,0.0,-5.859308294020593e-05,0.003844904713332653,-0.0019521581707522273,0.9992620944976807,0.0,0.0,0.0,-18.028594970703125,2.5598928928375244,5.639194488525391,3263.211669921875,0
1754.2309999999998,0.02887788414955139,0.010134436190128326,0.0005178622668609023,0.0,0.0,0.0,0.0,-0.00239188433624804,0.0038580140098929405,-0.0022604716941714287,0.9995442628860474,0.0,0.0,0.0,-18.045337677001953,2.571312189102173,5.6440935134887695,3266.241943359375,0
1764.1409999999996,0.028849594295024872,0.010144037194550037,0.0005259604076854885,0.0,0.0,0.0,0.0,-0.0010663322173058987,-0.002480332273989916,0.0009581732447259128,0.9986530542373657,0.0,0.0,0.0,-18.028093338012695,2.577925682067871,5.627450942993164,3263.12060546875,0
1774.054,0.028842056170105934,0.010099857114255428,0.0005736040184274316,0.0,0.0,0.0,0.0,-0.0023233448155224323,0.0007971960585564375,-0.0007116428459994495,1.0001684427261353,0.0,0.0,0.0,-18.04403305053711,2.570892333984375,5.622511386871338,3266.005615234375,0
1783.9629999999997,0.028813080862164497,0.010110452771186829,0.0005841042730025947,0.0,0.0,0.0,0.0,-0.00015646821702830493,0.0051854862831532955,-0.002721437718719244,1.0010449886322021,0.0,0.0,0.0,-18.026391983032227,2.567312479019165,5.617335796356201,3262.81298828125,0
1793.8809999999994,0.028868326917290688,0.01010861899703741,0.0005802182713523507,0.0,0.0,0.0,0.0,0.002658313838765025,-0.003816774347797036,0.004253862425684929,1.0001167058944702,0.0,0.0,0.0,-18.048112869262695,2.5768487453460693,5.620203495025635,3266.744140625,0
1803.7889999999989,0.028877055272459984,0.010094886645674706,0.0006010183715261519,0.0,0.0,0.0,0.0,-0.002920269500464201,-0.0005620596348308027,0.002216748660430312,0.9997614622116089,0.0,0.0,0.0,-18.04877471923828,2.565643310546875,5.621352195739746,3266.8642578125,0
1813.7059999999983,0.02887183055281639,0.010119445621967316,0.0005839737132191658,0.0,0.0,0.0,0.0,-0.0021329480223357677,0.000515874067787081,0.0014731194823980331,1.0002180337905884,0.0,0.0,0.0,-18.044940948486328,2.5678515434265137,5.6251373291015625,3266.169921875,0
1823.6089999999986,0.028898410499095917,0.010098382830619812,0.0006082315812818706,0.0,0.0,0.0,0.0,-0.001100180670619011,-0.0006898428546264768,-0.0008368640556000173,1.001376986503601,0.0,0.0,0.0,-18.05124282836914,2.570260524749756,5.624541282653809,3267.310791015625,0
1833.5249999999996,0.02885967120528221,0.010078338906168938,0.0006221490912139416,0.0,0.0,0.0,0.0,-0.0004930773284286261,-0.0012849398190155625,-0.0031482167541980743,0.9995805621147156,0.0,0.0,0.0,-18.051250457763672,2.565277338027954,5.620513916015625,3267.3125,0
1843.4439999999995,0.02888791635632515,0.010068881325423717,0.0006556307198479772,0.0,0.0,0.0,0.0,-0.0008017836953513324,0.003945177886635065,-0.0010207340819761157,0.9993106126785278,0.0,0.0,0.0,-18.058168411254883,2.5681004524230957,5.62156867980957,3268.564697265625,0
1853.3459999999995,0.028921663761138916,0.010134437121450901,0.0006015616236254573,0.0,0.0,0.0,0.0,0.0006344043067656457,-0.005426888819783926,0.0007043260266073048,0.9988012313842773,0.0,0.0,0.0,-18.052204132080078,2.5789437294006348,5.6091203689575195,3267.48486328125,0
1863.2519999999986,0.0289190374314785,0.010110601782798767,0.0006139155011624098,0.0,0.0,0.0,0.0,0.0007864626822993159,0.0017578741535544395,-0.000789407582487911,0.9989793300628662,0.0,0.0,0.0,-18.058589935302734,2.581371307373047,5.6122026443481445,3268.640869140625,0
1873.1719999999987,0.028946958482265472,0.010167645290493965,0.0005579726421274245,0.0,0.0,0.0,0.0,-0.0032316725701093674,-0.0017941613914445043,0.0018071179511025548,1.001766324043274,0.0,0.0,0.0,-18.051786422729492,2.5842199325561523,5.6171722412109375,3267.4091796875,0
1883.0739999999987,0.028950827196240425,0.010101270861923695,0.0005456300568766892,0.0,0.0,0.0,0.0,-0.002716123592108488,0.0027801755350083113,0.0019002825720235705,1.0013166666030884,0.0,0.0,0.0,-18.05096435546875,2.5738418102264404,5.62433385848999,3267.26025390625,0
1892.9899999999998,0.02900078147649765,0.010213984176516533,0.0004752437525894493,0.0,0.0,0.0,0.0,-0.0025929694529622793,0.0010697919642552733,-0.0018339304951950908,0.9989687204360962,0.0,0.0,0.0,-18.04684066772461,2.603788137435913,5.635400772094727,3266.51416015625,0
1902.8959999999988,0.028988372534513474,0.01014934666454792,0.00045338826021179557,0.0,0.0,0.0,0.0,-0.0004105878761038184,-0.001143627567216754,-0.0013455700827762485,1.0009604692459106,0.0,0.0,0.0,-18.047679901123047,2.598578929901123,5.644830703735352,3266.666259765625,0
1912.8139999999985,0.0290109571069479,0.010241316631436348,0.0004067073459737003,0.0,0.0,0.0,0.0,-0.0014845390105620027,0.0031302638817578554,-0.0007241279236041009,1.000382423400879,0.0,0.0,0.0,-18.03145980834961,2.598466634750366,5.633693695068359,3263.730224609375,0
1922.717999999999,0.028968844562768936,0.010216016322374344,0.00038784966454841197,0.0,0.0,0.0,0.0,-0.003250854555517435,-0.0022136173211038113,0.0028186023700982332,0.9999579191207886,0.0,0.0,0.0,-18.035982131958008,2.5875892639160156,5.625259876251221,3264.548583984375,0
1932.637999999999,0.02894100919365883,0.010216725058853626,0.0003713962505571544,0.0,0.0,0.0,0.0,0.0021482885349541903,-0.0017201522132381797,0.0008248225203715265,1.0000547170639038,0.0,0.0,0.0,-18.034252166748047,2.5863513946533203,5.625554084777832,3264.23583984375,0
1942.5409999999993,0.028999844565987587,0.010207489132881165,0.0003930184175260365,0.0,0.0,0.0,0.0,0.0033886556047946215,0.007008020766079426,-0.0038389540277421474,1.0006065368652344,0.0,0.0,0.0,-18.03993797302246,2.590318202972412,5.640397071838379,3265.2646484375,0
1952.458999999999,0.028962451964616776,0.010220224969089031,0.0003958744346164167,0.0,0.0,0.0,0.0,0.0009011630318127573,0.0035607407335191965,0.002181754680350423,1.0000799894332886,0.0,0.0,0.0,-18.03333282470703,2.583190441131592,5.624894618988037,3264.069091796875,0
1962.3649999999998,0.02898700349032879,0.010140839032828808,0.00037887427606619895,0.0,0.0,0.0,0.0,-0.0038551953621208668,-0.002466208767145872,0.0012001111172139645,1.0007269382476807,0.0,0.0,0.0,-18.03753662109375,2.569700002670288,5.632136821746826,3264.830078125,0
1972.286,0.028917063027620316,0.010117465630173683,0.0004145234706811607,0.0,0.0,0.0,0.0,-0.002014920813962817,-8.166237967088819e-05,-0.0016505350358784199,1.0004149675369263,0.0,0.0,0.0,-18.032018661499023,2.5561275482177734,5.620709419250488,3263.831298828125,0
1982.187,0.028914248570799828,0.010129631496965885,0.00043280949466861784,0.0,0.0,0.0,0.0,0.003797790501266718,-0.0008001259993761778,0.0011972832726314664,0.9994043707847595,0.0,0.0,0.0,-18.0368595123291,2.5701706409454346,5.637028694152832,3264.707763671875,0
1992.101999999999,0.028834238648414612,0.010085935704410076,0.00047445105155929923,0.0,0.0,0.0,0.0,-0.00401864992454648,-0.0006380416452884674,0.00011945387086598203,0.9994467496871948,0.0,0.0,0.0,-18.037738800048828,2.558060884475708,5.627811908721924,3264.86669921875,0
2002.0099999999984,0.02888283133506775,0.010083647444844246,0.0005106066819280386,0.0,0.0,0.0,0.0,0.0006663907552137971,7.997712236829102e-05,-0.0009764435235410929,0.9987489581108093,0.0,0.0,0.0,-18.042634963989258,2.5614280700683594,5.650635242462158,3265.7529296875,0
2011.9249999999993,0.028818529099225998,0.010081039741635323,0.0005476536462083459,0.0,0.0,0.0,0.0,-0.00284953392110765,0.00132858962751925,-0.0019879983738064766,1.0016828775405884,0.0,0.0,0.0,-18.032384872436523,2.56170654296875,5.646203517913818,3263.897705078125,0
2021.8289999999997,0.028866253793239594,0.010081091895699501,0.0005890208994969726,0.0,0.0,0.0,0.0,-0.003571336856111884,-0.0006116197910159826,0.0019369892543181777,1.0001205205917358,0.0,0.0,0.0,-18.036691665649414,2.5663723945617676,5.6584601402282715,3264.67724609375,0
2031.7459999999992,0.02885930798947811,0.010122799314558506,0.0005698156310245395,0.0,0.0,0.0,0.0,0.00010246170859318227,0.002730507403612137,-0.0025743127334862947,0.9994871020317078,0.0,0.0,0.0,-18.030744552612305,2.571582317352295,5.6565117835998535,3263.600830078125,0
2041.6499999999996,0.028809035196900368,0.010133056901395321,0.0005858626682311296,0.0,0.0,0.0,0.0,-0.004092987161129713,-0.005830275826156139,0.0020074823405593634,0.9989312291145325,0.0,0.0,0.0,-18.036550521850586,2.5712227821350098,5.644681453704834,3264.6513671875,0
2051.5679999999993,0.028797004371881485,0.010141711682081223,0.0005595464608632028,0.0,0.0,0.0,0.0,0.0020105091389268637,0.0027687917463481426,0.003827902255579829,1.0003705024719238,0.0,0.0,0.0,-18.035945892333984,2.580667018890381,5.6467156410217285,3264.5419921875,0
2061.4759999999987,0.02880282886326313,0.010126478970050812,0.0005788882845081389,0.0,0.0,0.0,0.0,-0.0010922459186986089,0.0005279273027554154,-0.002308452036231756,1.0006359815597534,0.0,0.0,0.0,-18.03951644897461,2.5781619548797607,5.653852939605713,3265.1884765625,0
2071.396999999999,0.02879614382982254,0.010140873491764069,0.0005454523488879204,0.0,0.0,0.0,0.0,0.002672602189704776,-0.003440667875111103,-0.001590102445334196,1.0003806352615356,0.0,0.0,0.0,-18.039108276367188,2.5830466747283936,5.644756317138672,3265.114501953125,0
2081.2929999999997,0.02889097109436989,0.010099074803292751,0.0005781206418760121,0.0,0.0,0.0,0.0,0.0010509942658245564,-0.0038922131061553955,-0.001038023387081921,1.0014058351516724,0.0,0.0,0.0,-18.045122146606445,2.5839128494262695,5.673317909240723,3266.203125,0
2091.2119999999995,0.028934229165315628,0.010190899483859539,0.000513885694090277,0.0,0.0,0.0,0.0,0.0009728494915179908,0.002415798371657729,0.0013208433520048857,0.9981594085693359,0.0,0.0,0.0,-18.03562355041504,2.602419376373291,5.6782546043396,3264.48388671875,0
2101.1219999999994,0.02896876446902752,0.01011071726679802,0.0005063268472440541,0.0,0.0,0.0,0.0,-0.0011790486751124263,-0.001170732663013041,-0.0005860544624738395,1.0003139972686768,0.0,0.0,0.0,-18.03827667236328,2.587066173553467,5.693323135375977,3264.964111328125,0
2111.0369999999984,0.028969470411539078,0.010166012682020664,0.0004876769089605659,0.0,0.0,0.0,0.0,-0.0005440058303065598,0.001032597734592855,0.0020308950915932655,1.0020192861557007,0.0,0.0,0.0,-18.02955436706543,2.5963587760925293,5.6922993659973145,3263.385009765625,0
2120.937,0.028944576159119606,0.010178040713071823,0.0004873912257608026,0.0,0.0,0.0,0.0,-0.0014789598062634468,-0.0034373472444713116,-0.0017479285597801208,1.0015285015106201,0.0,0.0,0.0,-18.012849807739258,2.5940499305725098,5.686184883117676,3260.36181640625,0
2130.8539999999994,0.0289375651627779,0.010218247771263123,0.0004726339248009026,0.0,0.0,0.0,0.0,-0.0034047761000692844,0.0039819772355258465,-0.0028308669570833445,0.9997122883796692,0.0,0.0,0.0,-18.00389862060547,2.595869779586792,5.681744575500488,3258.741455078125,0
2140.763999999999,0.02895396389067173,0.010173900052905083,0.0004791704413946718,0.0,0.0,0.0,0.0,-0.0003175259043928236,0.0025691834744066,0.0014290089020505548,0.99985671043396,0.0,0.0,0.0,-18.013660430908203,2.5942599773406982,5.6945037841796875,3260.508544921875,0
2150.6809999999987,0.028907494619488716,0.010123280808329582,0.0004901350475847721,0.0,0.0,0.0,0.0,-0.0021391548216342926,0.0017175409011542797,0.0002604727051220834,0.998663604259491,0.0,0.0,0.0,-18.013866424560547,2.587383985519409,5.686770439147949,3260.545654296875,0
2160.58,0.02890976145863533,0.010118287056684494,0.000507182499859482,0.0,0.0,0.0,0.0,-0.00036026042653247714,-0.002555252518504858,-0.006144577171653509,0.9984842538833618,0.0,0.0,0.0,-18.018980026245117,2.584587812423706,5.688321590423584,3261.47119140625,0
2170.5,0.02892822027206421,0.010191408917307854,0.000472604384412989,0.0,0.0,0.0,0.0,0.0009007590706460178,-0.0020541686099022627,-0.0003504699852783233,0.9984394907951355,0.0,0.0,0.0,-18.01313591003418,2.600754976272583,5.684878349304199,3260.41357421875,0
