timestamp,stateEstimate.x,stateEstimate.y,stateEstimate.z,controller.cmd_thrust,controller.cmd_roll,controller.cmd_pitch,controller.cmd_yaw,controller.r_roll,controller.r_pitch,controller.r_yaw,controller.accelz,controller.actuatorThrust,controller.roll,controller.pitch,controller.yaw,controller.rollRate,controller.pitchRate,controller.yawRate,controller.ctr_yaw
0.0,0.02417573146522045,0.00043693630141206086,0.00035195035161450505,0.0,0.0,0.0,0.0,-0.0008905979339033365,0.0057691349647939205,0.003592090681195259,1.0007894039154053,0.0,0.0,0.0,-5.216388702392578,2.2678112983703613,5.668485641479492,944.1767578125,0
9.906999999999243,0.024160631000995636,0.0005020240205340087,0.0003500258317217231,0.0,0.0,0.0,0.0,0.0007504613022319973,-0.0056292046792805195,-0.00018768281734082848,0.9998522996902466,0.0,0.0,0.0,-5.216352462768555,2.2837576866149902,5.659582138061523,944.1701049804688,0
19.823999999998705,0.024160631000995636,0.0005020240205340087,0.0003500258317217231,0.0,0.0,0.0,0.0,0.0011404510587453842,0.003923153039067984,-0.0035377121530473232,1.001042127609253,0.0,0.0,0.0,-5.216352462768555,2.2837576866149902,5.659582138061523,944.1701049804688,0
29.727999999999156,0.024114681407809258,0.000516752596013248,0.00032635845127515495,0.0,0.0,0.0,0.0,-0.0006520588649436831,-0.0017848482821136713,-0.0012949107913300395,0.9977525472640991,0.0,0.0,0.0,-5.221072673797607,2.2806289196014404,5.628273963928223,945.0244750976562,0
39.64599999999882,0.024114681407809258,0.000516752596013248,0.00032635845127515495,0.0,0.0,0.0,0.0,-0.0007047359831631184,-0.0026577082462608814,-0.003348813159391284,1.0005578994750977,0.0,0.0,0.0,-5.221072673797607,2.2806289196014404,5.628273963928223,945.0244750976562,0
49.54899999999907,0.024107694625854492,0.00047364275087602437,0.0003909661900252104,0.0,0.0,0.0,0.0,0.0016935985768213868,-0.0010914861923083663,-0.0008522006683051586,1.0012677907943726,0.0,0.0,0.0,-5.229274272918701,2.271592617034912,5.640138626098633,946.509033203125,0
59.47400000000016,0.024107694625854492,0.00047364275087602437,0.0003909661900252104,0.0,0.0,0.0,0.0,0.00166626728605479,0.00017565107555128634,0.002043537562713027,1.0008736848831177,0.0,0.0,0.0,-5.229274272918701,2.271592617034912,5.640138626098633,946.509033203125,0
69.37199999999939,0.024158338084816933,0.0004417597665451467,0.00044159131357446313,0.0,0.0,0.0,0.0,-0.00020472586038522422,0.0058556124567985535,0.003463983302935958,1.0003567934036255,0.0,0.0,0.0,-5.230624675750732,2.266866445541382,5.640048027038574,946.75341796875,0
79.29099999999926,0.02410917915403843,0.0004518047207966447,0.00044989556772634387,0.0,0.0,0.0,0.0,-0.00039996992563828826,-0.00648408243432641,0.00260953139513731,0.9996920228004456,0.0,0.0,0.0,-5.224921703338623,2.260129928588867,5.619105339050293,945.72119140625,0
89.19499999999971,0.024179115891456604,0.00043082109186798334,0.000497636036016047,0.0,0.0,0.0,0.0,-0.0004683996085077524,-0.0007600804092362523,0.0007082060910761356,0.9987192749977112,0.0,0.0,0.0,-5.233750820159912,2.258824110031128,5.637948989868164,947.3192749023438,0
99.11499999999978,0.024179115891456604,0.00043082109186798334,0.000497636036016047,0.0,0.0,0.0,0.0,-0.0005658461013808846,0.002432263456285,0.0008615126716904342,1.0005149841308594,0.0,0.0,0.0,-5.233750820159912,2.258824110031128,5.637948989868164,947.3192749023438,0
109.01699999999983,0.02418000064790249,0.00042011940968222916,0.0005466080037876964,0.0,0.0,0.0,0.0,-0.0010901299538090825,0.002284704241901636,-0.0018196826567873359,1.0006697177886963,0.0,0.0,0.0,-5.2376508712768555,2.251638412475586,5.6372785568237305,948.0252075195312,0
118.93999999999869,0.02418000064790249,0.00042011940968222916,0.0005466080037876964,0.0,0.0,0.0,0.0,0.002545369090512395,0.0005144545575603843,0.0004581832035910338,1.001174807548523,0.0,0.0,0.0,-5.2376508712768555,2.251638412475586,5.6372785568237305,948.0252075195312,0
128.84299999999894,0.02427683211863041,0.00047846289817243814,0.0004648241156246513,0.0,0.0,0.0,0.0,-0.0012844062875956297,0.000256426545092836,-0.0026515801437199116,1.0011372566223145,0.0,0.0,0.0,-5.241293430328369,2.276202440261841,5.631537914276123,948.6845092773438,0
138.7609999999986,0.024223091080784798,0.0004932988085784018,0.0004715424438472837,0.0,0.0,0.0,0.0,0.00195825076662004,0.0046642497181892395,0.0013624620623886585,1.001241683959961,0.0,0.0,0.0,-5.236459255218506,2.2758543491363525,5.627048492431641,947.8095703125,0
148.66599999999926,0.02428077533841133,0.000498253561090678,0.00042780835065059364,0.0,0.0,0.0,0.0,-0.0018745450070127845,-0.0006711202440783381,-9.061428863788024e-05,0.999089241027832,0.0,0.0,0.0,-5.239911079406738,2.277275562286377,5.616722106933594,948.434326171875,0
158.57799999999952,0.024230144917964935,0.0005121213034726679,0.00043180256034247577,0.0,0.0,0.0,0.0,-0.0014630892546847463,0.0005770149291492999,-0.0019869012758135796,0.9987061619758606,0.0,0.0,0.0,-5.235032081604004,2.2728781700134277,5.61552095413208,947.55126953125,0
168.48699999999917,0.024219488725066185,0.0005310542182996869,0.0003748389717657119,0.0,0.0,0.0,0.0,-0.000653784372843802,-0.0020190381910651922,-0.002146276645362377,0.9997005462646484,0.0,0.0,0.0,-5.239071369171143,2.2804646492004395,5.616733074188232,948.2824096679688,0
178.39999999999964,0.024165090173482895,0.0005435553030110896,0.00037239864468574524,0.0,0.0,0.0,0.0,0.005280029959976673,-0.0024091240484267473,0.0015856727259233594,1.0005803108215332,0.0,0.0,0.0,-5.2334442138671875,2.277386426925659,5.617197513580322,947.2637329101562,0
188.3089999999993,0.024107400327920914,0.0005721054039895535,0.0003766385780181736,0.0,0.0,0.0,0.0,0.0006788697792217135,0.0017133456422016025,0.0009849497582763433,0.9993458986282349,0.0,0.0,0.0,-5.23941707611084,2.2803027629852295,5.608104705810547,948.344970703125,0
198.21899999999914,0.024048279970884323,0.0005850654561072588,0.00037539892946369946,0.0,0.0,0.0,0.0,0.001759484177455306,0.0020371233113110065,-0.0001251785724889487,0.9989806413650513,0.0,0.0,0.0,-5.234508037567139,2.273547649383545,5.606320858001709,947.4564208984375,0
208.1319999999996,0.02423183247447014,0.0005060331313870847,0.0004129226435907185,0.0,0.0,0.0,0.0,-0.0014942808775231242,-0.008872305043041706,0.002380963182076812,1.0008946657180786,0.0,0.0,0.0,-5.240715503692627,2.2557663917541504,5.655721664428711,948.5799560546875,0
218.04899999999907,0.024184415116906166,0.0005164230242371559,0.0004133417387492955,0.0,0.0,0.0,0.0,0.004996597766876221,-0.00014441015082411468,0.004174626898020506,1.000661849975586,0.0,0.0,0.0,-5.2350172996521,2.2519989013671875,5.66058349609375,947.548583984375,0
227.95499999999993,0.024245116859674454,0.0004755952686537057,0.00042784985271282494,0.0,0.0,0.0,0.0,-0.00146246119402349,-0.0028713869396597147,-0.00572061724960804,0.9992505311965942,0.0,0.0,0.0,-5.2374796867370605,2.2431881427764893,5.682530879974365,947.9942626953125,0
237.86499999999978,0.024197224527597427,0.00048549784696660936,0.0004306720511522144,0.0,0.0,0.0,0.0,-0.0027687796391546726,-0.0007616880466230214,-0.0020108676981180906,0.9988354444503784,0.0,0.0,0.0,-5.233143329620361,2.2419769763946533,5.677370071411133,947.2093505859375,0
247.77499999999964,0.02419116348028183,0.0004933144664391875,0.00042362292879261076,0.0,0.0,0.0,0.0,0.001454137614928186,0.0029167067259550095,-0.0030884863808751106,1.0010497570037842,0.0,0.0,0.0,-5.228377342224121,2.241488218307495,5.683680534362793,946.3466186523438,0
257.6889999999985,0.02414119429886341,0.0005034834612160921,0.00042544628377072513,0.0,0.0,0.0,0.0,-0.0012977184960618615,-0.0007191298645921052,0.0021886625327169895,1.0024018287658691,0.0,0.0,0.0,-5.2240376472473145,2.243211269378662,5.67233419418335,945.5612182617188,0
267.60099999999875,0.024189582094550133,0.000497568806167692,0.000415172049542889,0.0,0.0,0.0,0.0,-8.08672029961599e-06,-0.0010032756254076958,0.0031939197797328234,1.0018717050552368,0.0,0.0,0.0,-5.2268171310424805,2.2447609901428223,5.668951511383057,946.0642700195312,0
277.5079999999998,0.02413860335946083,0.0005092452629469335,0.00041907161357812583,0.0,0.0,0.0,0.0,4.3828007619595155e-05,0.0028029014356434345,-0.00029617769178003073,1.000144600868225,0.0,0.0,0.0,-5.221199989318848,2.2427170276641846,5.661024570465088,945.047607421875,0
287.41799999999967,0.02422621101140976,0.000518893648404628,0.0004258236149325967,0.0,0.0,0.0,0.0,0.0009636660106480122,0.003845643950626254,0.0003170292475260794,0.9998147487640381,0.0,0.0,0.0,-5.229600429534912,2.244910478591919,5.674450397491455,946.5680541992188,0
297.3259999999991,0.02417214959859848,0.0005301832570694387,0.0004319542204029858,0.0,0.0,0.0,0.0,-5.329992563929409e-05,-0.0019559627398848534,-1.0503087651159149e-05,1.0008972883224487,0.0,0.0,0.0,-5.224625110626221,2.2355878353118896,5.657406330108643,945.6676025390625,0
307.2379999999994,0.024234367534518242,0.0005428032018244267,0.00044311952660791576,0.0,0.0,0.0,0.0,0.00042768550338223577,0.0010052846046164632,-0.004537926521152258,0.9975284934043884,0.0,0.0,0.0,-5.232982158660889,2.2377469539642334,5.671611785888672,947.18017578125,0
317.1459999999988,0.024180088192224503,0.0005533891962841153,0.0004499329661484808,0.0,0.0,0.0,0.0,0.0028631521854549646,-0.0007665387820452452,-0.004573991056531668,1.0000066757202148,0.0,0.0,0.0,-5.227663993835449,2.233963966369629,5.666795253753662,946.217529296875,0
327.0619999999999,0.024206919595599174,0.00047741649905219674,0.0005052683409303427,0.0,0.0,0.0,0.0,0.0019068146357312799,0.0035750768147408962,-0.000880623992998153,0.9990594387054443,0.0,0.0,0.0,-5.230223655700684,2.2272071838378906,5.657863140106201,946.680908203125,0
336.97099999999955,0.02415214665234089,0.00048458570381626487,0.0005142788286320865,0.0,0.0,0.0,0.0,0.0016652046469971538,0.0009427578770555556,-0.001113073667511344,0.9983248710632324,0.0,0.0,0.0,-5.224210739135742,2.227033853530884,5.6539387702941895,945.592529296875,0
346.8819999999996,0.02422110177576542,0.0004663216241169721,0.0005056628142483532,0.0,0.0,0.0,0.0,0.0031278773676604033,0.003575731534510851,0.0014660174492746592,1.0009456872940063,0.0,0.0,0.0,-5.226368427276611,2.227147102355957,5.650287628173828,945.9830932617188,0
356.79599999999846,0.024166764691472054,0.00047448455006815493,0.000511773454491049,0.0,0.0,0.0,0.0,-0.0013891346752643585,-0.0014754969161003828,-0.00027238691109232605,1.0009455680847168,0.0,0.0,0.0,-5.221862316131592,2.2234461307525635,5.637302398681641,945.16748046875,0
366.7019999999993,0.024192998185753822,0.0003950311220251024,0.0005286380182951689,0.0,0.0,0.0,0.0,0.001832423498854041,-0.00026017168420366943,0.0033320714719593525,0.9982923269271851,0.0,0.0,0.0,-5.225011825561523,2.2217674255371094,5.630444049835205,945.737548828125,0
376.616,0.024136779829859734,0.00039988249773159623,0.0005362674128264189,0.0,0.0,0.0,0.0,0.0035058525390923023,-0.0026121444534510374,-0.0018114085542038083,0.9991147518157959,0.0,0.0,0.0,-5.218842506408691,2.2184572219848633,5.624362945556641,944.620849609375,0
386.52499999999964,0.024195004254579544,0.0003681100206449628,0.0005573155940510333,0.0,0.0,0.0,0.0,-0.0011358869960531592,0.0018749585142359138,0.0007887852261774242,0.9995076060295105,0.0,0.0,0.0,-5.222214221954346,2.216334581375122,5.619702339172363,945.2311401367188,0
396.4349999999995,0.024137703701853752,0.0003724176494870335,0.0005644894554279745,0.0,0.0,0.0,0.0,-0.0009293016628362238,0.004416632931679487,0.0007430249825119972,1.000649333000183,0.0,0.0,0.0,-5.216681957244873,2.215009927749634,5.613267421722412,944.2297973632812,0
406.35099999999875,0.02409413829445839,0.00042684946674853563,0.0005638049333356321,0.0,0.0,0.0,0.0,0.0027615483850240707,0.001970181707292795,0.0002794913307297975,0.9983797669410706,0.0,0.0,0.0,-5.221124172210693,2.225719451904297,5.607784748077393,945.0338745117188,0
416.2579999999998,0.024088623002171516,0.0005588989006355405,0.0005240303580649197,0.0,0.0,0.0,0.0,0.0033713586162775755,0.0006616029422730207,0.00023182302538771182,1.0018845796585083,0.0,0.0,0.0,-5.22503662109375,2.256422996520996,5.608362674713135,945.741943359375,0
426.17199999999866,0.024243267253041267,0.0004478197661228478,0.0005622319877147675,0.0,0.0,0.0,0.0,0.0006639461498707533,-0.0011007101275026798,-0.00036677683237940073,0.9999322295188904,0.0,0.0,0.0,-5.22660493850708,2.2226877212524414,5.643348217010498,946.0258178710938,0
436.0839999999989,0.024228669703006744,0.0005256036529317498,0.0005402812967076898,0.0,0.0,0.0,0.0,8.215109846787527e-05,0.0017395253526046872,-0.001082366332411766,0.9998506903648376,0.0,0.0,0.0,-5.2343621253967285,2.2378523349761963,5.641884803771973,947.4299926757812,0
445.9939999999988,0.024228790774941444,0.00042969774222001433,0.0005152501398697495,0.0,0.0,0.0,0.0,-0.000641887541860342,-0.0024467017501592636,-0.0010783792240545154,1.000008463859558,0.0,0.0,0.0,-5.2293925285339355,2.231398820877075,5.62820291519165,946.5303955078125,0
455.90499999999884,0.024201758205890656,0.00046878194552846253,0.0004904029774479568,0.0,0.0,0.0,0.0,0.003167592454701662,0.004378532990813255,-0.003126863855868578,0.9998480677604675,0.0,0.0,0.0,-5.232203960418701,2.2366535663604736,5.631885528564453,947.039306640625,0
465.8139999999985,0.024257119745016098,0.00042108987690880895,0.0005009716842323542,0.0,0.0,0.0,0.0,0.0016681113047525287,0.002662664046511054,0.0003565061779227108,0.998720645904541,0.0,0.0,0.0,-5.227146625518799,2.243295431137085,5.62562894821167,946.1239013671875,0
475.73199999999997,0.02422984130680561,0.0004983778344467282,0.0004888782277703285,0.0,0.0,0.0,0.0,-0.000355653406586498,0.0020103445276618004,-0.0010106227127835155,0.9994310736656189,0.0,0.0,0.0,-5.228277206420898,2.2567451000213623,5.615597248077393,946.3285522460938,0
485.637999999999,0.024218430742621422,0.000420553726144135,0.00046622028457932174,0.0,0.0,0.0,0.0,0.0012533763656392694,0.0001643403375055641,0.0006026274641044438,1.0008997917175293,0.0,0.0,0.0,-5.222805976867676,2.2462854385375977,5.61159086227417,945.3382568359375,0
495.5529999999999,0.024177713319659233,0.0004524641262833029,0.00044686466571874917,0.0,0.0,0.0,0.0,-0.0006425079773180187,-0.0015821261331439018,-0.0014500031247735023,1.0008411407470703,0.0,0.0,0.0,-5.22725772857666,2.2493507862091064,5.610305309295654,946.1439819335938,0
505.4589999999989,0.024117980152368546,0.0004592539626173675,0.00044264193275012076,0.0,0.0,0.0,0.0,0.0021881628781557083,0.0011710209073498845,-0.0024307987187057734,1.0001237392425537,0.0,0.0,0.0,-5.222203731536865,2.2354094982147217,5.602832794189453,945.2293090820312,0
515.3679999999986,0.024047525599598885,0.0004898576298728585,0.0004607162263710052,0.0,0.0,0.0,0.0,-0.0020329966209828854,0.0007372436230070889,-0.0013290747301653028,1.0017472505569458,0.0,0.0,0.0,-5.22440767288208,2.2411537170410156,5.592705726623535,945.6281127929688,0
525.2799999999988,0.02415286749601364,0.00042253010906279087,0.0005060191033408046,0.0,0.0,0.0,0.0,-0.0012427333276718855,0.003227860201150179,0.002179220085963607,1.0016835927963257,0.0,0.0,0.0,-5.2198166847229,2.227548122406006,5.6284074783325195,944.7971801757812,0
535.1909999999989,0.024100352078676224,0.00045793683966621757,0.0005176639533601701,0.0,0.0,0.0,0.0,-0.0020317770540714264,0.0015853255754336715,-0.005385872442275286,1.0006228685379028,0.0,0.0,0.0,-5.223586559295654,2.2337939739227295,5.616934299468994,945.4795532226562,0
545.1029999999992,0.024127516895532608,0.00045519377454183996,0.0005533610237762332,0.0,0.0,0.0,0.0,0.003272073809057474,0.0026832541916519403,-0.00040841917507350445,0.9995259642601013,0.0,0.0,0.0,-5.217658996582031,2.229445457458496,5.605493068695068,944.4066772460938,0
555.0169999999998,0.02408100850880146,0.0004869980621151626,0.0005520607228390872,0.0,0.0,0.0,0.0,-0.00014883985568303615,-0.005683235824108124,-0.0012159491889178753,0.9995269775390625,0.0,0.0,0.0,-5.224263668060303,2.239431142807007,5.588421821594238,945.60205078125,0
564.9219999999987,0.02411266788840294,0.0004944283864460886,0.0005919770919717848,0.0,0.0,0.0,0.0,0.004134983755648136,-0.0005827622953802347,-0.00036867664312012494,1.000737190246582,0.0,0.0,0.0,-5.219387531280518,2.231670379638672,5.585206985473633,944.7195434570312,0
574.8400000000001,0.02406417578458786,0.0005230741226114333,0.0005897296941839159,0.0,0.0,0.0,0.0,-0.00037328616599552333,-0.0013028213288635015,-0.007404069881886244,1.0025187730789185,0.0,0.0,0.0,-5.225196838378906,2.2349467277526855,5.580358982086182,945.7710571289062,0
584.7529999999988,0.024198226630687714,0.00041975732892751694,0.0006127168308012187,0.0,0.0,0.0,0.0,0.0018656030297279358,6.626989488722757e-05,-0.0024720842484384775,1.0002659559249878,0.0,0.0,0.0,-5.226402759552002,2.2155284881591797,5.613481044769287,945.9892578125,0
594.6610000000001,0.024195682257413864,0.0004974534967914224,0.0005681805778294802,0.0,0.0,0.0,0.0,-0.0015237670158967376,-0.00539105199277401,-0.0007596835494041443,0.9989001154899597,0.0,0.0,0.0,-5.229339599609375,2.2281546592712402,5.609677791595459,946.5208740234375,0
604.5769999999993,0.024241244420409203,0.00043861259473487735,0.0005819144425913692,0.0,0.0,0.0,0.0,-0.0012854797532781959,-0.0031750742346048355,0.004560934379696846,0.9995369911193848,0.0,0.0,0.0,-5.223609447479248,2.2209582328796387,5.606688976287842,945.4837646484375,0
614.4849999999988,0.02421577461063862,0.0004848620155826211,0.0005532876821234822,0.0,0.0,0.0,0.0,0.004145603161305189,0.006854685954749584,-0.0005075508961454034,0.9996514320373535,0.0,0.0,0.0,-5.218912124633789,2.2175228595733643,5.605963230133057,944.633544921875,0
624.396999999999,0.024256516247987747,0.00042342080269008875,0.0005621117306873202,0.0,0.0,0.0,0.0,-0.0034379877615720034,-0.0006022819434292614,-0.0008380723302252591,1.0008108615875244,0.0,0.0,0.0,-5.21267032623291,2.2255337238311768,5.6003289222717285,943.503662109375,0
634.3089999999993,0.02428096905350685,0.0005500238039530814,0.0004904853994958103,0.0,0.0,0.0,0.0,0.0015540639869868755,0.001622980460524559,0.0025455171708017588,1.0011649131774902,0.0,0.0,0.0,-5.217504978179932,2.2447350025177,5.59208869934082,944.3788452148438,0
644.2129999999997,0.024271558970212936,0.00048202910693362355,0.00047543522669002414,0.0,0.0,0.0,0.0,0.000886410940438509,0.006756587885320187,-0.0011948251631110907,1.0012232065200806,0.0,0.0,0.0,-5.218902111053467,2.2309298515319824,5.591113567352295,944.6316528320312,0
654.1269999999986,0.024232173338532448,0.0005549653433263302,0.000469066493678838,0.0,0.0,0.0,0.0,0.0020949027966707945,-0.0031779331620782614,-4.472153523238376e-05,1.00026273727417,0.0,0.0,0.0,-5.220965385437012,2.242265462875366,5.580649375915527,945.0051879882812,0
664.0439999999999,0.024268556386232376,0.00048361546942032874,0.0004683028382714838,0.0,0.0,0.0,0.0,0.0006530447863042355,-0.0002429486921755597,-0.0014281836338341236,0.9998395442962646,0.0,0.0,0.0,-5.225512504577637,2.2271313667297363,5.576613903045654,945.828125,0
673.9429999999993,0.024259386584162712,0.0005666232318617404,0.0004230041231494397,0.0,0.0,0.0,0.0,-6.631667929468676e-05,6.157693132990971e-05,-0.0008087485330179334,0.9995421171188354,0.0,0.0,0.0,-5.2267656326293945,2.2362143993377686,5.573836326599121,946.0549926757812,0
683.8539999999994,0.024277927353978157,0.0004981825477443635,0.00041274834075011313,0.0,0.0,0.0,0.0,0.0008778652991168201,-0.001343470998108387,-0.0012706201523542404,1.0003520250320435,0.0,0.0,0.0,-5.231513023376465,2.2169270515441895,5.587979793548584,946.9142456054688,0
693.7649999999994,0.0242135152220726,0.0005089875194244087,0.00041100854286924005,0.0,0.0,0.0,0.0,-0.0008016678038984537,0.004580427892506123,-0.0022104522213339806,1.0016682147979736,0.0,0.0,0.0,-5.2322916984558105,2.216569185256958,5.581645965576172,947.05517578125,0
703.6819999999989,0.024260394275188446,0.0004720698343589902,0.00042203214252367616,0.0,0.0,0.0,0.0,0.0018039550632238388,-0.0040648640133440495,-0.0023096792865544558,1.0019623041152954,0.0,0.0,0.0,-5.234210968017578,2.208094358444214,5.595897197723389,947.4026489257812,0
713.5869999999995,0.024209870025515556,0.0005317525938153267,0.00042331923032179475,0.0,0.0,0.0,0.0,0.0006901625893078744,0.0025285943411290646,-0.0008750717388466001,0.9991466999053955,0.0,0.0,0.0,-5.236475944519043,2.2175984382629395,5.582345485687256,947.8126220703125,0
723.5049999999992,0.024238796904683113,0.00043847091728821397,0.00041109431185759604,0.0,0.0,0.0,0.0,-0.0003202860534656793,0.0035003586672246456,-0.0025617373175919056,0.9990378618240356,0.0,0.0,0.0,-5.231555461883545,2.2192211151123047,5.58094596862793,946.9219360351562,0
733.4099999999999,0.024200156331062317,0.0005124627496115863,0.00039888740866445005,0.0,0.0,0.0,0.0,0.0002416355418972671,-0.0001367876975564286,0.0011891300091519952,1.0000098943710327,0.0,0.0,0.0,-5.2367024421691895,2.2306346893310547,5.577969074249268,947.8535766601562,0
743.3319999999985,0.024200519546866417,0.000481073948321864,0.00040256825741380453,0.0,0.0,0.0,0.0,-0.0004948842688463628,-0.0023187482729554176,0.0013944575330242515,1.0009571313858032,0.0,0.0,0.0,-5.231815338134766,2.2315568923950195,5.574785232543945,946.9689331054688,0
753.2399999999998,0.024089302867650986,0.0005595227121375501,0.0003863215388264507,0.0,0.0,0.0,0.0,0.0020274792332202196,0.0005830100271850824,0.0001759583392413333,1.001011610031128,0.0,0.0,0.0,-5.229682445526123,2.243828773498535,5.549283981323242,946.5828857421875,0
763.146999999999,0.02422494627535343,0.0005208638613112271,0.0004117891367059201,0.0,0.0,0.0,0.0,-0.00200853543356061,0.0018065801123157144,-0.002513551153242588,1.0023860931396484,0.0,0.0,0.0,-5.229682445526123,2.243828773498535,5.549283981323242,946.5828857421875,0
773.0579999999991,0.024103088304400444,0.0005776998586952686,0.0004124736587982625,0.0,0.0,0.0,0.0,0.0010550834704190493,-0.003863082965835929,0.002208952559158206,1.0015548467636108,0.0,0.0,0.0,-5.228523254394531,2.251779556274414,5.54029655456543,946.3731079101562,0
782.973,0.024216780439019203,0.000521574285812676,0.0004241488641127944,0.0,0.0,0.0,0.0,-0.0024208282120525837,-0.0004802873881999403,-0.004916328005492687,1.0006991624832153,0.0,0.0,0.0,-5.228523254394531,2.251779556274414,5.54029655456543,946.3731079101562,0
792.8819999999996,0.02416367083787918,0.0005743777146562934,0.00041760411113500595,0.0,0.0,0.0,0.0,0.0009702923707664013,-0.0031164942774921656,-0.0009179651387967169,0.9993426203727722,0.0,0.0,0.0,-5.2358479499816895,2.2635397911071777,5.540095806121826,947.6989135742188,0
802.7989999999991,0.02422565594315529,0.0005332674481905997,0.00044380660983733833,0.0,0.0,0.0,0.0,0.0004632829804904759,0.002228111494332552,-0.0008952668868005276,0.9988699555397034,0.0,0.0,0.0,-5.23160982131958,2.258301019668579,5.534027099609375,946.9317016601562,0
812.7109999999993,0.02417435310781002,0.0005727011593990028,0.0004408311506267637,0.0,0.0,0.0,0.0,0.0017217884305864573,0.0006278514047153294,0.0007727596675977111,0.9991812705993652,0.0,0.0,0.0,-5.236176490783691,2.265218734741211,5.525135040283203,947.7583618164062,0
822.619999999999,0.024106314405798912,0.0005838462384417653,0.0004470195563044399,0.0,0.0,0.0,0.0,0.0006944367778487504,0.0004999117809347808,-0.00022150010045152158,1.0007915496826172,0.0,0.0,0.0,-5.230933666229248,2.267789602279663,5.515979766845703,946.8094482421875,0
832.5289999999986,0.02406209148466587,0.0006414606468752027,0.0004275476676411927,0.0,0.0,0.0,0.0,0.0022043264470994473,0.003189982147887349,0.0002451261680107564,1.000046730041504,0.0,0.0,0.0,-5.23831844329834,2.2685115337371826,5.506840705871582,948.1461181640625,0
842.4399999999987,0.024236077442765236,0.0005100264097563922,0.000471470964839682,0.0,0.0,0.0,0.0,-0.002880244515836239,0.0016898150788620114,0.0015379210235551,0.9997309446334839,0.0,0.0,0.0,-5.241752624511719,2.2327723503112793,5.551105976104736,948.7676391601562,0
852.351999999999,0.024205582216382027,0.0005835670745000243,0.0004590516327880323,0.0,0.0,0.0,0.0,0.0017673691036179662,-0.0025972139555960894,0.0016631967155262828,1.0005227327346802,0.0,0.0,0.0,-5.2450785636901855,2.250009298324585,5.544895172119141,949.36962890625,0
862.2559999999994,0.02426760457456112,0.0004933769232593477,0.0004583133850246668,0.0,0.0,0.0,0.0,0.0038423826918005943,-0.006057537626475096,0.0032216673716902733,0.999591588973999,0.0,0.0,0.0,-5.248013019561768,2.2302401065826416,5.565447807312012,949.9008178710938,0
872.1759999999995,0.024216987192630768,0.000530281919054687,0.0004605022259056568,0.0,0.0,0.0,0.0,-0.0032483094837516546,0.003405496710911393,-0.006843535695225,1.0005393028259277,0.0,0.0,0.0,-5.251903057098389,2.234692096710205,5.5707197189331055,950.6049194335938,0
882.0819999999985,0.024261027574539185,0.0004510801227297634,0.00045712379505857825,0.0,0.0,0.0,0.0,-0.0045188432559370995,-0.0014358869520947337,-0.0004324464243836701,0.9983929395675659,0.0,0.0,0.0,-5.24679708480835,2.22772479057312,5.570539951324463,949.6807250976562,0
891.9969999999994,0.02421131357550621,0.00047609576722607017,0.00045185728231444955,0.0,0.0,0.0,0.0,3.915009438060224e-05,-0.002312673721462488,4.4917356717633083e-05,0.9992395043373108,0.0,0.0,0.0,-5.247767925262451,2.2387325763702393,5.564349174499512,949.8564453125,0
901.896999999999,0.02424922026693821,0.00042019953252747655,0.0004574292397592217,0.0,0.0,0.0,0.0,-0.0018326580757275224,0.0013657105155289173,7.750481927359942e-06,1.0005673170089722,0.0,0.0,0.0,-5.243187427520752,2.241150379180908,5.557470321655273,949.02734375,0
911.8130000000001,0.02422270178794861,0.0005095048109069467,0.00043973096762783825,0.0,0.0,0.0,0.0,0.0015942648751661181,0.001519304933026433,-0.003594585694372654,1.0010381937026978,0.0,0.0,0.0,-5.24763298034668,2.257495880126953,5.560437202453613,949.83203125,0
921.7289999999994,0.02425665780901909,0.0004658905672840774,0.000449672486865893,0.0,0.0,0.0,0.0,-0.0005322729120962322,0.001106527168303728,0.0017178836278617382,0.9994329810142517,0.0,0.0,0.0,-5.249233245849609,2.2465431690216064,5.569009304046631,950.1216430664062,0
931.6399999999994,0.024210873991250992,0.0005321195349097252,0.0004466705722734332,0.0,0.0,0.0,0.0,-0.000267999479547143,-0.003288109553977847,0.0003891898668371141,0.9978615641593933,0.0,0.0,0.0,-5.253104209899902,2.2551729679107666,5.563046932220459,950.8223266601562,0
941.539999999999,0.024179473519325256,0.0005064507713541389,0.00044610598706640303,0.0,0.0,0.0,0.0,0.0023898661602288485,-0.0007747256895527244,-0.0025835505221039057,0.9993555545806885,0.0,0.0,0.0,-5.253139972686768,2.253516674041748,5.558140277862549,950.8287963867188,0
951.4619999999995,0.02412877231836319,0.000528578762896359,0.0004247823671903461,0.0,0.0,0.0,0.0,-0.0013123955577611923,-0.002446848666295409,0.0022426368668675423,1.0007758140563965,0.0,0.0,0.0,-5.25593900680542,2.256300449371338,5.563994884490967,951.33544921875,0
961.3619999999992,0.02420956641435623,0.0004969271249137819,0.0004501115472521633,0.0,0.0,0.0,0.0,0.0008789552375674248,0.0018213049042969942,-0.0013594619231298566,1.0008419752120972,0.0,0.0,0.0,-5.250816822052002,2.253580331802368,5.565296173095703,950.4082641601562,0
971.280999999999,0.024155495688319206,0.0005252741975709796,0.00043615532922558486,0.0,0.0,0.0,0.0,0.0019032959826290607,-0.00048558134585618973,-0.0018762752879410982,1.0005335807800293,0.0,0.0,0.0,-5.251150608062744,2.2587146759033203,5.567765712738037,950.4686889648438,0
981.1849999999995,0.024184955283999443,0.0004808202211279422,0.0004450411652214825,0.0,0.0,0.0,0.0,-0.001739057945087552,-0.0004267207405064255,-0.0013327921042218804,1.0011931657791138,0.0,0.0,0.0,-5.247185230255127,2.249829053878784,5.553267478942871,949.7509765625,0
991.1080000000002,0.024131475016474724,0.0005123866721987724,0.0004317358252592385,0.0,0.0,0.0,0.0,-0.0016291119391098619,0.002112730871886015,0.0056429775431752205,1.0000221729278564,0.0,0.0,0.0,-5.2426557540893555,2.2403900623321533,5.551931858062744,948.9310913085938,0
1001.0159999999996,0.0242258682847023,0.00045541994040831923,0.00045547386980615556,0.0,0.0,0.0,0.0,-0.0007016947492957115,0.00043692701729014516,0.002548354445025325,0.9995676875114441,0.0,0.0,0.0,-5.246596813201904,2.2336556911468506,5.569624423980713,949.6444702148438,0
1010.9309999999987,0.02419220469892025,0.0005469908937811852,0.00044185284059494734,0.0,0.0,0.0,0.0,0.002737694187089801,-0.0010934178717434406,-0.0005452391342259943,1.001006841659546,0.0,0.0,0.0,-5.2487335205078125,2.247082471847534,5.559467792510986,950.03125,0
1020.8339999999989,0.024248331785202026,0.0004841769696213305,0.00045104502351023257,0.0,0.0,0.0,0.0,0.0022535184398293495,0.0024484971072524786,-0.0003009734791703522,1.0006368160247803,0.0,0.0,0.0,-5.249713897705078,2.237180709838867,5.577737808227539,950.2086791992188,0
1030.7510000000002,0.024209039285779,0.00056197599042207,0.00044277156121097505,0.0,0.0,0.0,0.0,0.0028756579849869013,0.004083197098225355,-0.0018968740478157997,1.0009419918060303,0.0,0.0,0.0,-5.253228187561035,2.240609645843506,5.56511116027832,950.8447265625,0
1040.6599999999999,0.02424079179763794,0.0005296990275382996,0.0004585374263115227,0.0,0.0,0.0,0.0,0.0004390084068290889,0.00274118990637362,-0.0006721059326082468,1.0000272989273071,0.0,0.0,0.0,-5.246997356414795,2.2342498302459717,5.552983283996582,949.7169799804688,0
1050.5739999999987,0.024195298552513123,0.0005914800567552447,0.0004536537453532219,0.0,0.0,0.0,0.0,0.00031626998679712415,0.003284939331933856,-0.003217187011614442,1.0010244846343994,0.0,0.0,0.0,-5.2503485679626465,2.2383627891540527,5.549612522125244,950.323486328125,0
1060.476999999999,0.024207275360822678,0.0005274774739518762,0.00045243813656270504,0.0,0.0,0.0,0.0,-0.002221871865913272,-0.0020208319183439016,0.0017354680458083749,1.0006053447723389,0.0,0.0,0.0,-5.246052265167236,2.2320175170898438,5.530667781829834,949.5459594726562,0
1070.3919999999998,0.02416580356657505,0.0006024131434969604,0.00044498074566945434,0.0,0.0,0.0,0.0,0.0042830272577703,-0.0032978712115436792,-0.002224415773525834,1.000624418258667,0.0,0.0,0.0,-5.248566627502441,2.253218412399292,5.539109706878662,950.0009765625,0
1080.3019999999997,0.024204092100262642,0.0005201284657232463,0.00044378059101291,0.0,0.0,0.0,0.0,-0.0010036766761913896,-0.001693326747044921,0.00021405263396445662,1.0007174015045166,0.0,0.0,0.0,-5.243577003479004,2.2479631900787354,5.537144184112549,949.097900390625,0
1090.217999999999,0.024090895429253578,0.00060730439145118,0.0004444813239388168,0.0,0.0,0.0,0.0,0.0022665653377771378,0.00014645734336227179,-3.2770883990451694e-05,1.0010136365890503,0.0,0.0,0.0,-5.23970890045166,2.2527623176574707,5.5309906005859375,948.397705078125,0
1100.1260000000002,0.024197101593017578,0.0005277114105410874,0.0004453072906471789,0.0,0.0,0.0,0.0,-2.8104474040446803e-05,0.006070958450436592,-0.0011853676987811923,1.0022722482681274,0.0,0.0,0.0,-5.23970890045166,2.2527623176574707,5.5309906005859375,948.397705078125,0
1110.0329999999994,0.024089718237519264,0.0005993259255774319,0.0004351794777903706,0.0,0.0,0.0,0.0,0.00042554180254228413,-0.0008225335623137653,-0.0032401063945144415,1.0013903379440308,0.0,0.0,0.0,-5.2404465675354,2.255321741104126,5.521520137786865,948.53125,0
1119.9479999999985,0.024222351610660553,0.0004726491461042315,0.00042341204243712127,0.0,0.0,0.0,0.0,0.0024603107012808323,0.0013697758549824357,-0.0006030363729223609,0.9995648264884949,0.0,0.0,0.0,-5.2404465675354,2.255321741104126,5.521520137786865,948.53125,0
1129.8580000000002,0.024114372208714485,0.0005614543915726244,0.0004268935590516776,0.0,0.0,0.0,0.0,0.0015079813310876489,0.0010351528180763125,0.0045561231672763824,0.9995299577713013,0.0,0.0,0.0,-5.240969181060791,2.258289337158203,5.520687103271484,948.6257934570312,0
1139.7690000000002,0.024222806096076965,0.00046450059744529426,0.00042150268564000726,0.0,0.0,0.0,0.0,0.0017210961086675525,0.0032862063962966204,0.004313850775361061,1.0006741285324097,0.0,0.0,0.0,-5.240969181060791,2.258289337158203,5.520687103271484,948.6257934570312,0
1149.6899999999987,0.024129215627908707,0.0004668859764933586,0.000455708330264315,0.0,0.0,0.0,0.0,0.002751425374299288,0.003959241788834333,-0.00021752752945758402,0.9994063973426819,0.0,0.0,0.0,-5.243709087371826,2.25372314453125,5.502481937408447,949.121826171875,0
1159.5990000000002,0.024166425690054893,0.0004427723179105669,0.0004882924258708954,0.0,0.0,0.0,0.0,-0.0011064878199249506,-0.002430128399282694,0.003223459469154477,0.9990153908729553,0.0,0.0,0.0,-5.237353801727295,2.2509257793426514,5.492738723754883,947.9714965820312,0
1169.4959999999992,0.024092257022857666,0.00046465580817312,0.000513980514369905,0.0,0.0,0.0,0.0,-0.004125489387661219,0.0016486614476889372,-0.003275549039244652,0.9988781809806824,0.0,0.0,0.0,-5.242685794830322,2.252300500869751,5.480955600738525,948.9365844726562,0
1179.4159999999993,0.0242155771702528,0.0004034221055917442,0.0005575508112087846,0.0,0.0,0.0,0.0,-0.003820720361545682,-0.0023078988306224346,0.00255790539085865,1.0014287233352661,0.0,0.0,0.0,-5.2458295822143555,2.2415781021118164,5.511932373046875,949.5055541992188,0
1189.321,0.024172170087695122,0.000490552862174809,0.0005679409950971603,0.0,0.0,0.0,0.0,0.002115243813022971,-0.0004494264139793813,-0.0014046232681721449,1.0002647638320923,0.0,0.0,0.0,-5.254384517669678,2.2604031562805176,5.498063564300537,951.0540161132812,0
1199.235999999999,0.02423628605902195,0.00043267852743156254,0.0005942108109593391,0.0,0.0,0.0,0.0,0.002438746625557542,0.0008656805148348212,0.0030821363907307386,0.9995146989822388,0.0,0.0,0.0,-5.256509304046631,2.2535934448242188,5.520225524902344,951.4386596679688,0
1209.137999999999,0.024166734889149666,0.0004600098473019898,0.0006176918977871537,0.0,0.0,0.0,0.0,0.0008723636856302619,-0.004166888538748026,-0.0005591351073235273,1.0000914335250854,0.0,0.0,0.0,-5.260066509246826,2.2512319087982178,5.510462284088135,952.08251953125,0
1219.0609999999997,0.024192938581109047,0.00036651905975304544,0.0006226497353054583,0.0,0.0,0.0,0.0,0.00046970791299827397,-0.001982311252504587,0.0010307322954759002,1.0009654760360718,0.0,0.0,0.0,-5.254424095153809,2.2507083415985107,5.509364604949951,951.0612182617188,0
1228.9629999999997,0.02414964698255062,0.0004285495961084962,0.0006184218800626695,0.0,0.0,0.0,0.0,0.0027709263376891613,0.004886406008154154,-0.00041659260750748217,1.0029315948486328,0.0,0.0,0.0,-5.2594194412231445,2.2660748958587646,5.520246982574463,951.9653930664062,0
1238.878999999999,0.024155033752322197,0.00038581847911700606,0.0006360810366459191,0.0,0.0,0.0,0.0,-0.0029902015812695026,-0.003725226502865553,0.0006510583334602416,1.0022679567337036,0.0,0.0,0.0,-5.252659797668457,2.2536544799804688,5.509185791015625,950.7418823242188,0
1248.780999999999,0.02416101098060608,0.0005164020694792271,0.0005874279304407537,0.0,0.0,0.0,0.0,0.0004339610750321299,0.0020652564708143473,-0.0010567568242549896,1.0005967617034912,0.0,0.0,0.0,-5.2537946701049805,2.272865056991577,5.509322166442871,950.947265625,0
1258.705,0.024200133979320526,0.0004116176860406995,0.000584753230214119,0.0,0.0,0.0,0.0,-0.0027559020090848207,0.004062997177243233,0.001249302993528545,0.9987893104553223,0.0,0.0,0.0,-5.2480645179748535,2.259445905685425,5.502420425415039,949.91015625,0
1268.6080000000002,0.024195227771997452,0.0005328497500158846,0.000548158772289753,0.0,0.0,0.0,0.0,-0.0021927752532064915,0.0010154333431273699,0.00010777809075079858,0.9982340931892395,0.0,0.0,0.0,-5.248007774353027,2.2861390113830566,5.509160041809082,949.8997802734375,0
1278.5239999999994,0.02418123185634613,0.0004820727335754782,0.0005454327911138535,0.0,0.0,0.0,0.0,-0.002029418246820569,-0.001898120273835957,-0.00010734103852882981,0.9984329342842102,0.0,0.0,0.0,-5.2491326332092285,2.274174928665161,5.51373815536499,950.1034545898438,0
1288.4249999999993,0.02415969781577587,0.0005709247780032456,0.0005135198007337749,0.0,0.0,0.0,0.0,0.0030240744818001986,0.0016614898340776563,-0.008038721047341824,1.0000821352005005,0.0,0.0,0.0,-5.251750946044922,2.2863237857818604,5.513413906097412,950.5773315429688,0
1298.3580000000002,0.02420218102633953,0.0004583798872772604,0.0004952638992108405,0.0,0.0,0.0,0.0,0.0014400342479348183,-0.004938071593642235,0.0020373929291963577,0.9997924566268921,0.0,0.0,0.0,-5.253114223480225,2.2674126625061035,5.5335917472839355,950.8240966796875,0
1308.2489999999998,0.02416728064417839,0.000536002276930958,0.0004725684120785445,0.0,0.0,0.0,0.0,0.0036229253746569157,-0.005860289093106985,0.0014725964283570647,0.999071478843689,0.0,0.0,0.0,-5.254774570465088,2.2760050296783447,5.531230449676514,951.1246337890625,0
1318.1669999999995,0.024248799309134483,0.0004706706095021218,0.0004828188684768975,0.0,0.0,0.0,0.0,0.0011617067502811551,0.002325525041669607,-0.001326922094449401,0.9989991784095764,0.0,0.0,0.0,-5.255270004272461,2.2561075687408447,5.556481838226318,951.2142944335938,0
1328.071,0.02426333539187908,0.0006301224348135293,0.00042055960511788726,0.0,0.0,0.0,0.0,-0.0019236895022913814,-0.0029240387957543135,-0.001297296374104917,1.001924991607666,0.0,0.0,0.0,-5.2596306800842285,2.281562328338623,5.567943572998047,952.0036010742188,0
1337.9920000000002,0.024290937930345535,0.0005416787462309003,0.00039618724258616567,0.0,0.0,0.0,0.0,-0.0003883286553900689,0.0031576475594192743,-0.00027448320179246366,1.0026627779006958,0.0,0.0,0.0,-5.254595756530762,2.279942512512207,5.56199836730957,951.0923461914062,0
1347.8909999999996,0.02425212226808071,0.0005984794697724283,0.00036510819336399436,0.0,0.0,0.0,0.0,0.0013585931155830622,-0.00021327423746697605,-0.0015095877461135387,1.00087308883667,0.0,0.0,0.0,-5.260436534881592,2.2883756160736084,5.5702080726623535,952.1494750976562,0
1357.807999999999,0.024288319051265717,0.0005394641193561256,0.0003575016453396529,0.0,0.0,0.0,0.0,0.0008924009744077921,-0.0015089838998392224,-0.003010884625837207,1.001300573348999,0.0,0.0,0.0,-5.263624668121338,2.2751193046569824,5.5764546394348145,952.7265014648438,0
1367.7129999999997,0.02421712316572666,0.0005775847239419818,0.0003689060395117849,0.0,0.0,0.0,0.0,-0.0001882491196738556,-0.000552827026695013,-0.0009487015195190907,1.0002959966659546,0.0,0.0,0.0,-5.266862869262695,2.2760796546936035,5.571472644805908,953.312744140625,0
1377.643,0.02426586113870144,0.0005186480702832341,0.0003697255742736161,0.0,0.0,0.0,0.0,-0.0022849994711577892,0.0017898617079481483,0.0020251700188964605,1.0004340410232544,0.0,0.0,0.0,-5.267001152038574,2.2633142471313477,5.590198040008545,953.3377075195312,0
1387.5349999999999,0.02418665774166584,0.0005144121823832393,0.00038127435254864395,0.0,0.0,0.0,0.0,-0.0029411164578050375,-0.0007091707666404545,-0.00048237963346764445,1.000340223312378,0.0,0.0,0.0,-5.262261867523193,2.2651548385620117,5.588016510009766,952.4798583984375,0
1397.4539999999997,0.024119075387716293,0.000528413918800652,0.0003818926343228668,0.0,0.0,0.0,0.0,0.0034677141811698675,0.0014667290961369872,0.0010682236170396209,1.0017282962799072,0.0,0.0,0.0,-5.2569899559021,2.2555527687072754,5.578314304351807,951.525634765625,0
1407.357,0.024073351174592972,0.0006096793222241104,0.0003714367630891502,0.0,0.0,0.0,0.0,0.001027908525429666,-0.0009173622820526361,0.003313138848170638,1.002282977104187,0.0,0.0,0.0,-5.258291244506836,2.2699453830718994,5.5795979499816895,951.7611694335938,0
1417.2839999999997,0.024240732192993164,0.0004890602431260049,0.0004093516618013382,0.0,0.0,0.0,0.0,-0.0008435705676674843,0.00036679228651337326,-0.0033426987938582897,1.0004934072494507,0.0,0.0,0.0,-5.254027843475342,2.2346582412719727,5.637810230255127,950.989501953125,0
1427.179,0.024189118295907974,0.0005079719703644514,0.0004100712831132114,0.0,0.0,0.0,0.0,-0.0026057122740894556,0.0034458902664482594,-0.004843516740947962,1.001104712486267,0.0,0.0,0.0,-5.259101390838623,2.230320453643799,5.633775234222412,951.9077758789062,0
1437.101999999999,0.024249190464615822,0.0004543807590380311,0.0004271526704542339,0.0,0.0,0.0,0.0,0.0016929670237004757,-0.00019287237955722958,0.0027053423691540956,1.0016345977783203,0.0,0.0,0.0,-5.254543304443359,2.2323365211486816,5.629918098449707,951.082763671875,0
1447.0010000000002,0.024154042825102806,0.0005339534836821258,0.00044199309195391834,0.0,0.0,0.0,0.0,-0.0010678177932277322,0.004814158193767071,-0.0010835101129487157,1.0010594129562378,0.0,0.0,0.0,-5.253459453582764,2.2307820320129395,5.6087446212768555,950.8865356445312,0
1456.92,0.024264216423034668,0.0004783279146067798,0.00045351669541560113,0.0,0.0,0.0,0.0,-0.0022030731197446585,0.0037021723110228777,0.0007052421569824219,1.0008575916290283,0.0,0.0,0.0,-5.261079788208008,2.2234714031219482,5.625874042510986,952.265869140625,0
1466.8239999999987,0.02421218529343605,0.0005962417926639318,0.0004210264887660742,0.0,0.0,0.0,0.0,0.0033239894546568394,0.006504490971565247,0.002199455164372921,0.9994485974311829,0.0,0.0,0.0,-5.258152484893799,2.237802267074585,5.599020481109619,951.7360229492188,0
1476.7439999999988,0.02423502318561077,0.0005148506606929004,0.0003921110474038869,0.0,0.0,0.0,0.0,0.0019753878004848957,0.0027127882931381464,-0.003035244531929493,0.9999504089355469,0.0,0.0,0.0,-5.264073371887207,2.224839448928833,5.603298187255859,952.8077392578125,0
1486.646999999999,0.02417735382914543,0.0005720900371670723,0.00040421675657853484,0.0,0.0,0.0,0.0,0.002179777016863227,-0.0008234711131080985,0.00443478487432003,0.9990924596786499,0.0,0.0,0.0,-5.269346714019775,2.2300939559936523,5.588693141937256,953.7623291015625,0
1496.562,0.02423795312643051,0.0005324582452885807,0.00042469336767680943,0.0,0.0,0.0,0.0,0.00388897187076509,0.0026848106645047665,0.0037426508497446775,1.000812292098999,0.0,0.0,0.0,-5.263513565063477,2.218773603439331,5.5840864181518555,952.7063598632812,0
1506.4699999999993,0.024109961465001106,0.0004840322944801301,0.0005087119643576443,0.0,0.0,0.0,0.0,-0.00205397792160511,-0.002662256360054016,-0.0015505518531426787,0.9998178482055664,0.0,0.0,0.0,-5.266485691070557,2.2040133476257324,5.569387435913086,953.2444458007812,0
1516.3869999999988,0.024167925119400024,0.0004297828709241003,0.0005318569019436836,0.0,0.0,0.0,0.0,0.00020259461598470807,0.002533255610615015,0.004175092559307814,0.9990562796592712,0.0,0.0,0.0,-5.262068271636963,2.2007861137390137,5.5750627517700195,952.4447631835938,0
1526.2929999999997,0.024029182270169258,0.00037300039548426867,0.0006312400801107287,0.0,0.0,0.0,0.0,0.0012564243515953422,-0.007258138153702021,-0.001023667398840189,1.0005085468292236,0.0,0.0,0.0,-5.262878894805908,2.18974232673645,5.556142807006836,952.5914916992188,0
1536.2019999999993,0.02406126819550991,0.0003990416007582098,0.0006925485795363784,0.0,0.0,0.0,0.0,-0.0010764239123091102,0.0010081544751301408,0.0014479525852948427,0.99765944480896,0.0,0.0,0.0,-5.256964683532715,2.187429189682007,5.548996925354004,951.5210571289062,0
1546.1119999999992,0.024037083610892296,0.00047753393300808966,0.0006763656274415553,0.0,0.0,0.0,0.0,-0.0007738909916952252,-0.003055860986933112,-0.0017138044349849224,0.9986503720283508,0.0,0.0,0.0,-5.251570224761963,2.188296318054199,5.545831680297852,950.5446166992188,0
1556.0280000000002,0.024113863706588745,0.00039948438643477857,0.0007040600758045912,0.0,0.0,0.0,0.0,0.0012272318126633763,0.0008082243730314076,0.00038564964779652655,1.000135898590088,0.0,0.0,0.0,-5.252503395080566,2.1747829914093018,5.565897464752197,950.7135009765625,0
1565.9359999999997,0.024122953414916992,0.0004896691534668207,0.0006407757755368948,0.0,0.0,0.0,0.0,-0.0025192908942699432,0.004495269153267145,0.002654542913660407,1.0002734661102295,0.0,0.0,0.0,-5.2481794357299805,2.172018051147461,5.5610527992248535,949.930908203125,0
1575.8469999999998,0.02417534589767456,0.0003943501797039062,0.000645353808067739,0.0,0.0,0.0,0.0,0.00024056006805039942,-0.0020550640765577555,-0.0011195309925824404,1.00062096118927,0.0,0.0,0.0,-5.2477216720581055,2.1507575511932373,5.579992294311523,949.8480224609375,0
1585.7559999999994,0.02419334277510643,0.0005331934662535787,0.0005837478674948215,0.0,0.0,0.0,0.0,0.0010521664517000318,-0.004218882881104946,0.0018315415363758802,1.0011446475982666,0.0,0.0,0.0,-5.253485679626465,2.1725642681121826,5.5853962898254395,950.891357421875,0
1595.6709999999985,0.02420670911669731,0.0004201421688776463,0.0005642533069476485,0.0,0.0,0.0,0.0,-0.0004947481211274862,0.006660620681941509,-0.002065966371446848,1.0009150505065918,0.0,0.0,0.0,-5.246982574462891,2.1734189987182617,5.580250263214111,949.7142944335938,0
1605.5779999999995,0.02422933094203472,0.0005593526875600219,0.0004911865689791739,0.0,0.0,0.0,0.0,-0.003683326533064246,0.00014333604485727847,0.00033308909041807055,1.001767635345459,0.0,0.0,0.0,-5.2486891746521,2.195674419403076,5.5822062492370605,950.023193359375,0
1615.4889999999996,0.024281175807118416,0.00041573107591830194,0.00046194493188522756,0.0,0.0,0.0,0.0,0.0027099638245999813,0.0004359396989457309,-0.0007027400424703956,1.002756953239441,0.0,0.0,0.0,-5.244105339050293,2.1912972927093506,5.569820404052734,949.1935424804688,0
1625.3999999999996,0.024236038327217102,0.0004874056903645396,0.00045873448834754527,0.0,0.0,0.0,0.0,0.0030072948429733515,0.004066625144332647,0.001990994205698371,1.0023130178451538,0.0,0.0,0.0,-5.2450127601623535,2.207237482070923,5.564684867858887,949.3577880859375,0
1635.316999999999,0.02429511956870556,0.0003943995980080217,0.0004590062890201807,0.0,0.0,0.0,0.0,0.0012230678694322705,-0.0028619389049708843,-0.0003088655066676438,0.9998743534088135,0.0,0.0,0.0,-5.239910125732422,2.204566717147827,5.554805278778076,948.4341430664062,0
1645.2219999999998,0.024291371926665306,0.0005007432191632688,0.0004146706487517804,0.0,0.0,0.0,0.0,0.0008970351191237569,0.0006485081976279616,0.0010091235162690282,1.000801920890808,0.0,0.0,0.0,-5.240115165710449,2.213491916656494,5.550273895263672,948.4712524414062,0
1655.1419999999998,0.024283526465296745,0.00045961447176523507,0.00041385754593648016,0.0,0.0,0.0,0.0,0.001047915080562234,-0.0002399656514171511,0.003766760230064392,0.9992680549621582,0.0,0.0,0.0,-5.241321086883545,2.201815605163574,5.551189422607422,948.6895751953125,0
1665.0439999999999,0.024236023426055908,0.0005272040725685656,0.0004151488246861845,0.0,0.0,0.0,0.0,-0.0015187251847237349,-0.004125629086047411,-0.004067993722856045,0.9994584918022156,0.0,0.0,0.0,-5.247979640960693,2.2088496685028076,5.541505813598633,949.894775390625,0
1674.9650000000001,0.024264808744192123,0.0004802123876288533,0.0004210668848827481,0.0,0.0,0.0,0.0,0.001689415075816214,0.0018507562344893813,0.00034895702265203,1.0016729831695557,0.0,0.0,0.0,-5.251718044281006,2.2021236419677734,5.537632465362549,950.5714111328125,0
1684.866,0.02422168292105198,0.0005527814500965178,0.0004183020209893584,0.0,0.0,0.0,0.0,0.0004274149832781404,0.0008428537985309958,-0.0006106062210164964,0.9999659061431885,0.0,0.0,0.0,-5.25580358505249,2.2197179794311523,5.533623218536377,951.3109130859375,0
1694.786,0.02422424778342247,0.00045750715071335435,0.00039791350718587637,0.0,0.0,0.0,0.0,-0.0021917191334068775,0.0022156303748488426,0.0008984788437373936,0.9995505213737488,0.0,0.0,0.0,-5.250637054443359,2.2136430740356445,5.5196943283081055,950.375732421875,0
1704.691999999999,0.024165892973542213,0.00048251543194055557,0.00039287444087676704,0.0,0.0,0.0,0.0,-0.002163640921935439,0.0014527399325743318,0.000963742786552757,1.0025190114974976,0.0,0.0,0.0,-5.245911598205566,2.2131011486053467,5.5109405517578125,949.5203857421875,0
1714.6099999999988,0.024204464629292488,0.00041152225458063185,0.0003949216625187546,0.0,0.0,0.0,0.0,0.002611573552712798,0.0016188669251278043,-0.0002517337561585009,0.9996280074119568,0.0,0.0,0.0,-5.2398858070373535,2.209871292114258,5.508203983306885,948.4298095703125,0
1724.5169999999998,0.024172652512788773,0.0005159149877727032,0.00038116960786283016,0.0,0.0,0.0,0.0,0.0004796537396032363,0.0003451653174124658,0.003196953795850277,0.9995386004447937,0.0,0.0,0.0,-5.242243766784668,2.2280538082122803,5.498733043670654,948.8566284179688,0
1734.4309999999987,0.02419683337211609,0.00047760512097738683,0.00039468496106565,0.0,0.0,0.0,0.0,0.003211325267329812,0.002777497749775648,8.971784700406715e-05,0.9997346997261047,0.0,0.0,0.0,-5.236430644989014,2.226621627807617,5.500761985778809,947.8043212890625,0
1744.3400000000001,0.024147478863596916,0.0005593205569311976,0.000382090947823599,0.0,0.0,0.0,0.0,0.0008595925755798817,-0.0016783148748800159,-0.0004133106558583677,1.0001723766326904,0.0,0.0,0.0,-5.237668514251709,2.2332849502563477,5.48403263092041,948.0285034179688,0
1754.2529999999988,0.02421639859676361,0.0005203269538469613,0.00040592168807052076,0.0,0.0,0.0,0.0,-0.0026593583170324564,-0.0006364074652083218,0.0005832897732034326,0.9997243285179138,0.0,0.0,0.0,-5.232102394104004,2.224276542663574,5.482510566711426,947.0209350585938,0
1764.1589999999997,0.024156469851732254,0.0005635435227304697,0.0004046350659336895,0.0,0.0,0.0,0.0,0.002063922816887498,0.004080391023308039,0.00035436844336800277,0.9997531175613403,0.0,0.0,0.0,-5.233127593994141,2.227760076522827,5.472571849822998,947.2064819335938,0
1774.0810000000001,0.02418542094528675,0.0005095714586786926,0.0004117339849472046,0.0,0.0,0.0,0.0,-0.0006251632003113627,-0.0012124675558879972,-0.0034380473662167788,1.0004231929779053,0.0,0.0,0.0,-5.23380708694458,2.2174746990203857,5.477499961853027,947.3294677734375,0
1783.9889999999996,0.024087652564048767,0.0005025639547966421,0.0004440874035935849,0.0,0.0,0.0,0.0,0.0015454519307240844,0.00045415485510602593,0.0008087435853667557,0.9997607469558716,0.0,0.0,0.0,-5.237814903259277,2.2102344036102295,5.458085536956787,948.0548706054688,0
1793.8959999999988,0.02415124513208866,0.0004614017379935831,0.0004717827250715345,0.0,0.0,0.0,0.0,-0.0009299606317654252,0.0005988994380459189,-0.0005649802624247968,1.0003843307495117,0.0,0.0,0.0,-5.239060401916504,2.198531150817871,5.4776997566223145,948.2803955078125,0
1803.8069999999989,0.024109147489070892,0.0005073208594694734,0.0004503090458456427,0.0,0.0,0.0,0.0,0.0003096984582953155,-0.0015368873719125986,-0.005051501095294952,0.9996044635772705,0.0,0.0,0.0,-5.23500394821167,2.203279495239258,5.470371723175049,947.5462036132812,0
1813.7209999999995,0.024155162274837494,0.0004583140544127673,0.00046778665273450315,0.0,0.0,0.0,0.0,0.0026124294381588697,0.0007370181265287101,-0.0028895738068968058,1.0004523992538452,0.0,0.0,0.0,-5.238624095916748,2.1904008388519287,5.492753028869629,948.2014770507812,0
1823.6329999999998,0.02412109635770321,0.0005101547576487064,0.00043624432873912156,0.0,0.0,0.0,0.0,0.0003125814546365291,0.0034574700985103846,-0.0009530752431601286,0.9994296431541443,0.0,0.0,0.0,-5.240213394165039,2.1992368698120117,5.50696325302124,948.4891357421875,0
1833.5469999999987,0.024166783317923546,0.00045938417315483093,0.00045103937736712396,0.0,0.0,0.0,0.0,-0.0019294439116492867,0.0010409620590507984,0.0029594788793474436,0.9983916282653809,0.0,0.0,0.0,-5.236786365509033,2.1914491653442383,5.498814105987549,947.8687744140625,0
1843.4519999999993,0.024140434339642525,0.0005598221905529499,0.0004247599863447249,0.0,0.0,0.0,0.0,0.0006936462596058846,-0.0009571947739459574,-0.00045188533840700984,0.9985067248344421,0.0,0.0,0.0,-5.241024971008301,2.208200216293335,5.4887919425964355,948.635986328125,0
1853.369999999999,0.02423810213804245,0.000472240149974823,0.00043561708298511803,0.0,0.0,0.0,0.0,-0.0017034233314916492,-0.0019513270817697048,0.00014523777645081282,0.9986591339111328,0.0,0.0,0.0,-5.2360734939575195,2.210767984390259,5.491800308227539,947.73974609375,0
1863.2739999999994,0.024220455437898636,0.0005691758124157786,0.00039409237797372043,0.0,0.0,0.0,0.0,0.0024679196067154408,0.005473984405398369,-0.004367537796497345,1.0006264448165894,0.0,0.0,0.0,-5.236787796020508,2.2355458736419678,5.507876873016357,947.8690185546875,0
1873.187,0.024262968450784683,0.0005119392299093306,0.00039688218384981155,0.0,0.0,0.0,0.0,0.0024570892564952374,0.002887140028178692,0.0012826606398448348,0.9996767640113831,0.0,0.0,0.0,-5.241784572601318,2.221222400665283,5.516967296600342,948.7733764648438,0
1883.092999999999,0.024199986830353737,0.0005723347421735525,0.0003995863953605294,0.0,0.0,0.0,0.0,-0.0019557771738618612,-0.0062629301100969315,0.0017329769907519221,1.0005011558532715,0.0,0.0,0.0,-5.2417426109313965,2.2287180423736572,5.511468410491943,948.7658081054688,0
1893.009,0.024273166432976723,0.0004954578471370041,0.0004050357674714178,0.0,0.0,0.0,0.0,0.0046864962205290794,-0.004469020292162895,-0.00012299050285946578,1.0015860795974731,0.0,0.0,0.0,-5.244283199310303,2.208505630493164,5.528796195983887,949.2256469726562,0
1902.9209999999985,0.02421076036989689,0.0005547844339162111,0.00040820834692567587,0.0,0.0,0.0,0.0,0.0008167853229679167,0.00038884810055606067,0.0011240345193073153,0.9989558458328247,0.0,0.0,0.0,-5.238603115081787,2.2069754600524902,5.5384745597839355,948.1976318359375,0
1912.8279999999995,0.024265479296445847,0.0004961348604410887,0.00041844614315778017,0.0,0.0,0.0,0.0,-0.00628829887136817,-0.00197334005497396,0.002950102323666215,1.0010604858398438,0.0,0.0,0.0,-5.239251136779785,2.182630777359009,5.556066513061523,948.3148803710938,0
1922.741,0.024213863536715508,0.0005680620670318604,0.00041287578642368317,0.0,0.0,0.0,0.0,-6.315245627774857e-06,0.0008521832060068846,-0.002309115370735526,1.0009517669677734,0.0,0.0,0.0,-5.243145942687988,2.1907784938812256,5.553650379180908,949.0198364257812,0
1932.652,0.024274369701743126,0.0005062035634182394,0.0004248787881806493,0.0,0.0,0.0,0.0,-0.001179566839709878,-0.0012903690803796053,0.00292403157800436,0.998894214630127,0.0,0.0,0.0,-5.243201732635498,2.177415609359741,5.572762966156006,949.030029296875,0
1942.5609999999997,0.024211034178733826,0.000562380300834775,0.00043224188266322017,0.0,0.0,0.0,0.0,-0.0034430352970957756,-0.00042198505252599716,-0.0030870288610458374,0.998539924621582,0.0,0.0,0.0,-5.237233638763428,2.1749584674835205,5.570432662963867,947.94970703125,0
1952.4699999999993,0.024260109290480614,0.0004943854291923344,0.0004405844956636429,0.0,0.0,0.0,0.0,6.267467688303441e-05,0.002875107806175947,0.00011744679795810953,0.9991292953491211,0.0,0.0,0.0,-5.238941669464111,2.1590893268585205,5.58973503112793,948.2589111328125,0
1962.384,0.024201545864343643,0.0005457201623357832,0.0004403154016472399,0.0,0.0,0.0,0.0,-0.0016369615914300084,-0.005895156878978014,-0.0012224955717101693,0.9985259175300598,0.0,0.0,0.0,-5.240044116973877,2.1670825481414795,5.580565929412842,948.4584350585938,0
1972.2979999999989,0.024184539914131165,0.0005045054713264108,0.00043807565816678107,0.0,0.0,0.0,0.0,0.000367723434465006,0.002472272142767906,-0.001124747795984149,0.9987773299217224,0.0,0.0,0.0,-5.239842414855957,2.159522533416748,5.5903167724609375,948.4219360351562,0
1982.208999999999,0.024116678163409233,0.0005689547979272902,0.00042873373604379594,0.0,0.0,0.0,0.0,0.000164420111104846,-0.00032838655170053244,0.001093412167392671,1.000680685043335,0.0,0.0,0.0,-5.245730876922607,2.1597201824188232,5.585760116577148,949.4876708984375,0
1992.1139999999996,0.024137411266565323,0.0005286741070449352,0.0004370504757389426,0.0,0.0,0.0,0.0,0.0005526762688532472,-0.0031102721113711596,0.0029374200385063887,0.9996568560600281,0.0,0.0,0.0,-5.2397260665893555,2.1560840606689453,5.578525543212891,948.4008178710938,0
2002.0280000000002,0.024081885814666748,0.0005774542805738747,0.0004223886935506016,0.0,0.0,0.0,0.0,-0.0017079194076359272,-0.005479227285832167,0.0025310569908469915,1.0002901554107666,0.0,0.0,0.0,-5.243147850036621,2.1619865894317627,5.57841157913208,949.0201416015625,0
2011.9429999999993,0.024180633947253227,0.0005041200784035027,0.0004408281238283962,0.0,0.0,0.0,0.0,0.0015926649793982506,0.0005716498708352447,0.003929369617253542,0.9994891881942749,0.0,0.0,0.0,-5.237607479095459,2.1615471839904785,5.579862594604492,948.0174560546875,0
2021.8549999999996,0.024076389148831367,0.00048417100333608687,0.0004762620374094695,0.0,0.0,0.0,0.0,-2.3212509404402226e-05,0.0033822953701019287,-0.0006338062230497599,1.001010537147522,0.0,0.0,0.0,-5.242574691772461,2.154808282852173,5.564609050750732,948.9164428710938,0
2031.7609999999986,0.024081217125058174,0.00041885461541824043,0.000479342183098197,0.0,0.0,0.0,0.0,0.0022126284893602133,8.325421367771924e-05,0.004734731279313564,1.002165675163269,0.0,0.0,0.0,-5.245602607727051,2.1475234031677246,5.563459396362305,949.4645385742188,0
2041.6709999999985,0.02406269870698452,0.0005366545519791543,0.00043859946890734136,0.0,0.0,0.0,0.0,-0.0014422491658478975,0.004395077470690012,-0.0036893077194690704,1.0013664960861206,0.0,0.0,0.0,-5.251230239868164,2.1648378372192383,5.568928241729736,950.4830932617188,0
2051.581,0.023981841281056404,0.0005411450983956456,0.0004416856972966343,0.0,0.0,0.0,0.0,-0.002157312585040927,0.005119931418448687,0.0037741416599601507,1.0022205114364624,0.0,0.0,0.0,-5.2468085289001465,2.1642043590545654,5.555136680603027,949.6827392578125,0
2061.4969999999994,0.023967335000634193,0.0006386905442923307,0.0003766472218558192,0.0,0.0,0.0,0.0,0.004968990571796894,0.0005108570330776274,0.0028377578128129244,0.9987345933914185,0.0,0.0,0.0,-5.253321170806885,2.1960561275482178,5.558979034423828,950.861572265625,0
2071.4089999999997,0.0241294763982296,0.0004906745161861181,0.00041308574145659804,0.0,0.0,0.0,0.0,-0.001051632803864777,-0.00023122355923987925,0.0007397435838356614,0.999828040599823,0.0,0.0,0.0,-5.251802921295166,2.1537508964538574,5.616796493530273,950.5867919921875,0
2081.315999999999,0.024089699611067772,0.0005651252577081323,0.0004018090257886797,0.0,0.0,0.0,0.0,0.0027178702875971794,0.0027124802581965923,0.0029461123049259186,1.0015885829925537,0.0,0.0,0.0,-5.246261119842529,2.156994342803955,5.616146564483643,949.5836791992188,0
2091.2259999999987,0.02415347471833229,0.000447984435595572,0.00039692691643722355,0.0,0.0,0.0,0.0,-0.001291995751671493,0.0009540386963635683,0.0033031594939529896,1.0001634359359741,0.0,0.0,0.0,-5.241052150726318,2.1518025398254395,5.611197471618652,948.6408081054688,0
2101.142,0.02411535196006298,0.0005325672682374716,0.0003889074723701924,0.0,0.0,0.0,0.0,0.0018569851526990533,0.0023765398655086756,-0.0001488412672188133,1.0004831552505493,0.0,0.0,0.0,-5.243995666503906,2.17048978805542,5.598718166351318,949.1737060546875,0
2111.0499999999993,0.024184979498386383,0.00046811162610538304,0.0004090521833859384,0.0,0.0,0.0,0.0,-0.0015359424287453294,0.002113461261615157,-0.0029222078155726194,1.0013874769210815,0.0,0.0,0.0,-5.243811130523682,2.158050537109375,5.6136298179626465,949.1403198242188,0
2120.958999999999,0.024087846279144287,0.0004571312165353447,0.00045996371773071587,0.0,0.0,0.0,0.0,0.00202721799723804,-0.003933253698050976,0.0037691437173634768,1.001094937324524,0.0,0.0,0.0,-5.2390546798706055,2.152073621749878,5.601892471313477,948.279296875,0
2130.8729999999996,0.024170948192477226,0.00039642085903324187,0.0004944605170749128,0.0,0.0,0.0,0.0,0.001512054936029017,0.002576212165877223,-0.0021543705370277166,1.000409722328186,0.0,0.0,0.0,-5.239894390106201,2.1384549140930176,5.627160549163818,948.4313354492188,0
2140.788999999999,0.02414189651608467,0.00044684091699309647,0.00047218005056492984,0.0,0.0,0.0,0.0,0.0014456327771767974,-0.002019987441599369,-0.0010962174274027348,1.0014845132827759,0.0,0.0,0.0,-5.244668006896973,2.1418397426605225,5.615803241729736,949.29541015625,0
2150.6899999999987,0.02413804456591606,0.0003838035627268255,0.00047956223716028035,0.0,0.0,0.0,0.0,0.002913404256105423,-0.001185482949949801,0.0012114390265196562,1.0015376806259155,0.0,0.0,0.0,-5.239261150360107,2.1406478881835938,5.617916107177734,948.316650390625,0
2160.601999999999,0.02406950667500496,0.0004231624770909548,0.0005124363233335316,0.0,0.0,0.0,0.0,-0.00070223119109869,-0.0004619793617166579,0.001748044160194695,1.0000120401382446,0.0,0.0,0.0,-5.240017890930176,2.1444482803344727,5.6075873374938965,948.4536743164062,0
2170.508,0.02400088869035244,0.0004213469219394028,0.0005275600706227124,0.0,0.0,0.0,0.0,-0.002311717253178358,0.0027995104901492596,0.0021798850502818823,0.9997699856758118,0.0,0.0,0.0,-5.233607769012451,2.1390671730041504,5.606106281280518,947.2933959960938,0
