timestamp,stateEstimate.x,stateEstimate.y,stateEstimate.z,controller.cmd_thrust,controller.cmd_roll,controller.cmd_pitch,controller.cmd_yaw,controller.r_roll,controller.r_pitch,controller.r_yaw,controller.accelz,controller.actuatorThrust,controller.roll,controller.pitch,controller.yaw,controller.rollRate,controller.pitchRate,controller.yawRate,controller.ctr_yaw
0.0,-0.0005735759623348713,0.00032865192042663693,-0.0003635204629972577,0.0,0.0,0.0,0.0,-0.0038982045371085405,0.002901889616623521,0.0004733748210128397,0.9983401894569397,0.0,0.0,0.0,-6.722813606262207,2.7972705364227295,6.024965763092041,1216.8426513671875,0
9.929000000000087,-0.0005819835932925344,0.0003565438964869827,-0.0003357935347594321,0.0,0.0,0.0,0.0,-0.00022707050084136426,0.0049673267640173435,0.0028749548364430666,1.000544786453247,0.0,0.0,0.0,-6.726118087768555,2.8078830242156982,6.020933151245117,1217.440673828125,0
19.826999999999316,-0.0006614592275582254,0.0003168241528328508,-0.00034455227432772517,0.0,0.0,0.0,0.0,0.0007611806504428387,0.0009814074728637934,-0.001346237724646926,1.0004825592041016,0.0,0.0,0.0,-6.718916893005371,2.806323289871216,6.005276203155518,1216.1373291015625,0
29.74200000000019,-0.0006082293693907559,0.000288494979031384,-0.00031828798819333315,0.0,0.0,0.0,0.0,0.0027550742961466312,-0.0004991812747903168,0.0029449714347720146,0.9997200965881348,0.0,0.0,0.0,-6.729651927947998,2.802013635635376,6.01479959487915,1218.080322265625,0
39.646999999999025,-0.0006682402454316616,0.00026892736786976457,-0.00034375718678347766,0.0,0.0,0.0,0.0,-0.0015994077548384666,0.0023389041889458895,-0.00037493431591428816,0.9974445700645447,0.0,0.0,0.0,-6.722156047821045,2.791914939880371,6.011434555053711,1216.7235107421875,0
49.576999999999316,-0.0006115151336416602,0.0002542940201237798,-0.0003050797386094928,0.0,0.0,0.0,0.0,-0.0019084865925833583,0.0016617404762655497,0.0007493455777876079,0.9979565739631653,0.0,0.0,0.0,-6.732057571411133,2.7975010871887207,6.025784969329834,1218.5157470703125,0
59.469999999999345,-0.0006692396709695458,0.0002474906505085528,-0.0003278753429185599,0.0,0.0,0.0,0.0,-0.0010429277317598462,0.002614655066281557,0.00046124515938572586,0.999028205871582,0.0,0.0,0.0,-6.724920749664307,2.797114849090576,6.017699718475342,1217.2239990234375,0
69.39599999999882,-0.0005679496680386364,0.0002215477143181488,-0.00028182470123283565,0.0,0.0,0.0,0.0,0.00157801469322294,0.0020940217655152082,-0.0003561119665391743,0.9987421035766602,0.0,0.0,0.0,-6.727720737457275,2.794616222381592,6.03031587600708,1217.7308349609375,0
79.29600000000028,-0.0006322806584648788,0.000221087975660339,-0.0002899606479331851,0.0,0.0,0.0,0.0,0.0014263610355556011,-0.0014188791392371058,-0.0005926238372921944,0.9989502429962158,0.0,0.0,0.0,-6.720731735229492,2.7873289585113525,6.018874168395996,1216.4656982421875,0
89.21999999999935,-0.0005782663938589394,0.00020770353148691356,-0.00025129225105047226,0.0,0.0,0.0,0.0,0.0016255468362942338,-0.00032573723001405597,-0.0009809209732338786,1.000670075416565,0.0,0.0,0.0,-6.72184944152832,2.7860782146453857,6.036238670349121,1216.6680908203125,0
99.1180000000004,-0.0006335771176964045,0.00021352904150262475,-0.0002687229716684669,0.0,0.0,0.0,0.0,-0.0007577514043077826,0.0002009843592531979,-0.00017679104348644614,1.0009868144989014,0.0,0.0,0.0,-6.715429306030273,2.779650926589966,6.033249855041504,1215.506103515625,0
109.04600000000028,-0.0005535200471058488,0.00020510629110503942,-0.00021297659259289503,0.0,0.0,0.0,0.0,0.0003969862300436944,0.0014759058831259608,-0.004828718490898609,1.0008594989776611,0.0,0.0,0.0,-6.716888904571533,2.780458927154541,6.052734375,1215.770263671875,0
118.9409999999989,-0.0006054500117897987,0.0002108322223648429,-0.0002264572394778952,0.0,0.0,0.0,0.0,0.0023381675127893686,0.0009230220457538962,0.001959295477718115,0.999130129814148,0.0,0.0,0.0,-6.7112226486206055,2.7790400981903076,6.04334020614624,1214.74462890625,0
128.86599999999999,-0.0005332108121365309,0.00020421035878825933,-0.0001675333915045485,0.0,0.0,0.0,0.0,-3.5544504498830065e-05,0.000613651005551219,0.0015158922178670764,0.9994291067123413,0.0,0.0,0.0,-6.722375392913818,2.7824926376342773,6.054132461547852,1216.7633056640625,0
138.76599999999962,-0.0005776642938144505,0.00020632865198422223,-0.00018190554692409933,0.0,0.0,0.0,0.0,-0.000559768290258944,0.0003869451757054776,-0.0027908391784876585,0.9994394779205322,0.0,0.0,0.0,-6.715047836303711,2.7821238040924072,6.046929836273193,1215.43701171875,0
148.6849999999995,-0.0005668173544108868,0.0002372984599787742,-0.00012225471436977386,0.0,0.0,0.0,0.0,0.0023739018943160772,0.0006333457422442734,-0.0004307749914005399,1.0014070272445679,0.0,0.0,0.0,-6.72812032699585,2.7933712005615234,6.04532527923584,1217.80322265625,0
158.58799999999974,-0.0005955834640190005,0.0002419203519821167,-0.0001562575635034591,0.0,0.0,0.0,0.0,0.0005493797361850739,-0.0007350249215960503,0.0001295038964599371,1.0004204511642456,0.0,0.0,0.0,-6.721456050872803,2.7857847213745117,6.038630962371826,1216.596923828125,0
168.5109999999986,-0.0005904938443563879,0.0002206966164521873,-0.00012318743392825127,0.0,0.0,0.0,0.0,-0.0023729796521365643,-0.0003004245227202773,0.0013430555118247867,0.999380350112915,0.0,0.0,0.0,-6.732710838317871,2.783637523651123,6.044152736663818,1218.634033203125,0
178.41200000000026,-0.0005755095044150949,0.00030193550628609955,-0.00018587677914183587,0.0,0.0,0.0,0.0,0.0016838314477354288,-0.0012362776324152946,-0.0007280758582055569,1.0002110004425049,0.0,0.0,0.0,-6.725614547729492,2.782060384750366,6.039068222045898,1217.3494873046875,0
188.33499999999913,-0.0005446121795102954,0.0002936582895927131,-0.00014139119593892246,0.0,0.0,0.0,0.0,0.0007918626652099192,0.0030211599078029394,0.004329740069806576,1.0000642538070679,0.0,0.0,0.0,-6.737395286560059,2.77899432182312,6.048736095428467,1219.4818115234375,0
198.2430000000004,-0.0005835837218910456,0.0002667990338522941,-0.00017530594777781516,0.0,0.0,0.0,0.0,0.0005834770854562521,0.001258856849744916,-0.0007536226767115295,1.0009145736694336,0.0,0.0,0.0,-6.729433536529541,2.774169683456421,6.033504962921143,1218.040771484375,0
208.15799999999945,-0.000545353686902672,0.000280845386441797,-0.00011493798228912055,0.0,0.0,0.0,0.0,-0.002774839522317052,-0.0020953838247805834,0.00034808157943189144,1.0000427961349487,0.0,0.0,0.0,-6.74105978012085,2.772702693939209,6.04098653793335,1220.145263671875,0
218.05799999999908,-0.0005850408342666924,0.00026666431222110987,-0.000134416448418051,0.0,0.0,0.0,0.0,0.0012953967088833451,-4.137092037126422e-05,0.0019361907616257668,0.9995613694190979,0.0,0.0,0.0,-6.733534336090088,2.776332139968872,6.045783042907715,1218.7830810546875,0
227.97699999999895,-0.0005507240421138704,0.000274752383120358,-7.802862819517031e-05,0.0,0.0,0.0,0.0,-0.00017342310457024723,0.0022935201413929462,0.0011240442981943488,0.9994773864746094,0.0,0.0,0.0,-6.743748188018799,2.778813123703003,6.0540690422058105,1220.6318359375,0
237.8829999999998,-0.0005832086899317801,0.00025481340708211064,-0.00010460674820933491,0.0,0.0,0.0,0.0,-0.00040912325493991375,-0.002937337849289179,0.0010059211635962129,0.9991181492805481,0.0,0.0,0.0,-6.737102508544922,2.7759995460510254,6.042498588562012,1219.4288330078125,0
247.8050000000003,-0.0005504682776518166,0.00024918955750763416,-5.505895387614146e-05,0.0,0.0,0.0,0.0,-0.001019613235257566,0.00029529520543292165,0.004878939129412174,1.0006442070007324,0.0,0.0,0.0,-6.747420310974121,2.7782726287841797,6.055169105529785,1221.2965087890625,0
257.70600000000013,-0.0005372625309973955,0.00026932594482786953,-0.00012840751151088625,0.0,0.0,0.0,0.0,-0.0003306146536488086,-0.0008440836099907756,0.0014333025319501758,1.0011780261993408,0.0,0.0,0.0,-6.738864421844482,2.7797152996063232,6.052029132843018,1219.7479248046875,0
267.6260000000002,-0.0005768353585153818,0.00024449729244224727,-0.00011765286035370082,0.0,0.0,0.0,0.0,-0.002305955858901143,-0.0005841923994012177,-0.0004376477445475757,1.0002838373184204,0.0,0.0,0.0,-6.745010852813721,2.776874542236328,6.054502010345459,1220.8604736328125,0
277.52899999999863,-0.0005613925750367343,0.00030804291600361466,-0.0001839141477830708,0.0,0.0,0.0,0.0,0.0018758854130282998,-0.004271217156201601,-0.0011964712757617235,0.9988434314727783,0.0,0.0,0.0,-6.738683223724365,2.7801544666290283,6.047333717346191,1219.715087890625,0
287.46299999999974,-0.0005849013687111437,0.00027909764321520925,-0.00017258903244510293,0.0,0.0,0.0,0.0,0.0006633408484049141,0.0034896156284958124,-0.0009853311348706484,0.9989550709724426,0.0,0.0,0.0,-6.750166416168213,2.7789485454559326,6.0480055809021,1221.7935791015625,0
297.36099999999897,-0.0005036601214669645,0.00027271706494502723,-0.000137834605993703,0.0,0.0,0.0,0.0,0.0008119601407088339,0.0020255111157894135,0.0009113713749684393,0.9979755878448486,0.0,0.0,0.0,-6.758618354797363,2.7845208644866943,6.050759792327881,1223.323486328125,0
307.271999999999,-0.0005656142020598054,0.00025413083494640887,-0.0001345328928437084,0.0,0.0,0.0,0.0,0.0013592238537967205,-0.0020902559626847506,0.0017385167302563787,0.9985906481742859,0.0,0.0,0.0,-6.7517008781433105,2.7795238494873047,6.043062686920166,1222.0714111328125,0
317.1809999999987,-0.0004237827379256487,0.00023084937129169703,-9.927772771334276e-05,0.0,0.0,0.0,0.0,-0.0008593107922933996,-0.002259293105453253,-0.006067926064133644,1.0002570152282715,0.0,0.0,0.0,-6.760754585266113,2.7788262367248535,6.070226192474365,1223.7100830078125,0
327.09199999999873,-0.0004784822231158614,0.00021388100867625326,-9.510645031696185e-05,0.0,0.0,0.0,0.0,0.001556137460283935,-0.0027942568995058537,0.004812330473214388,1.0008111000061035,0.0,0.0,0.0,-6.7555131912231445,2.7759718894958496,6.059490203857422,1222.7613525390625,0
337.003999999999,-0.00044990036985836923,0.00020358171605039388,-9.615113958716393e-05,0.0,0.0,0.0,0.0,0.0011598682031035423,0.002715179231017828,0.003119188128039241,1.0012494325637817,0.0,0.0,0.0,-6.762576103210449,2.774397134780884,6.059169292449951,1224.0396728515625,0
346.91499999999905,-0.0005038896342739463,0.00018632758292369545,-9.051308734342456e-05,0.0,0.0,0.0,0.0,-0.0007659720722585917,-0.0010112166637554765,-0.00127519725356251,0.999626874923706,0.0,0.0,0.0,-6.754925727844238,2.767751693725586,6.0429511070251465,1222.655029296875,0
356.8259999999991,-0.00044983404222875834,0.00018957960128318518,-7.991056190803647e-05,0.0,0.0,0.0,0.0,0.002633803989738226,0.0036764442920684814,-6.258192115637939e-06,0.9977732300758362,0.0,0.0,0.0,-6.765198707580566,2.768982172012329,6.053991317749023,1224.514404296875,0
366.7399999999998,-0.0005025295540690422,0.00017307694361079484,-7.3810457251966e-05,0.0,0.0,0.0,0.0,-0.0006799359107390046,-0.0007053972221910954,0.00047335453564301133,0.9969078302383423,0.0,0.0,0.0,-6.757981300354004,2.7614378929138184,6.036005973815918,1223.2080078125,0
376.64899999999943,-0.0004923848900943995,0.00022781222651246935,-7.30386091163382e-05,0.0,0.0,0.0,0.0,-0.00012707228597719222,-0.0004309590731281787,0.002729540690779686,0.999107837677002,0.0,0.0,0.0,-6.768640041351318,2.772033452987671,6.033166885375977,1225.1373291015625,0
386.5609999999997,-0.0005466497386805713,0.00021344644483178854,-7.054749585222453e-05,0.0,0.0,0.0,0.0,0.0018162140622735023,-0.001960610970854759,0.004632608033716679,0.9987451434135437,0.0,0.0,0.0,-6.760754585266113,2.768734931945801,6.03240966796875,1223.7100830078125,0
396.47199999999975,-0.0005532458890229464,0.00021540484158322215,-8.918542152969167e-05,0.0,0.0,0.0,0.0,-0.0005256293807178736,-0.0019078856566920877,0.0036514594685286283,0.9987513422966003,0.0,0.0,0.0,-6.771262168884277,2.7691714763641357,6.035434246063232,1225.6119384765625,0
406.3819999999996,-0.0006086321664042771,0.00019811558013316244,-9.005702304420993e-05,0.0,0.0,0.0,0.0,0.0016285890014842153,0.0016994132893159986,-0.0031611849553883076,1.001684308052063,0.0,0.0,0.0,-6.7642083168029785,2.768882989883423,6.034487247467041,1224.3350830078125,0
416.2950000000001,-0.0005436735809780657,0.00023626306210644543,-0.00012600993795786053,0.0,0.0,0.0,0.0,-0.0008151292568072677,-0.0015415430534631014,0.0020845462568104267,1.0000170469284058,0.0,0.0,0.0,-6.776937484741211,2.768847703933716,6.043676376342773,1226.63916015625,0
426.20700000000033,-0.0005947817699052393,0.00021935168479103595,-0.00012795459770131856,0.0,0.0,0.0,0.0,-0.0011229662923142314,-0.0016619564266875386,-8.541673742001876e-05,1.0005525350570679,0.0,0.0,0.0,-6.769130706787109,2.7692761421203613,6.046889781951904,1225.22607421875,0
436.1189999999988,-0.000612714618910104,0.0003476289566606283,-0.00019377849821466953,0.0,0.0,0.0,0.0,-0.0039566894993186,-0.0013659796677529812,-0.0049853939563035965,1.0011869668960571,0.0,0.0,0.0,-6.773367404937744,2.7824294567108154,6.040524959564209,1225.9930419921875,0
446.02899999999863,-0.0006656628684140742,0.00033490112400613725,-0.00019894172146450728,0.0,0.0,0.0,0.0,0.0007274716626852751,-0.0006429435452446342,0.0002858696971088648,1.0002264976501465,0.0,0.0,0.0,-6.767245769500732,2.7851879596710205,6.04132604598999,1224.885009765625,0
455.9429999999993,-0.0005861619138158858,0.0003341675619594753,-0.0002606443886179477,0.0,0.0,0.0,0.0,-0.004521356429904699,-0.003068869933485985,-0.0032966462895274162,1.0002446174621582,0.0,0.0,0.0,-6.7732038497924805,2.7805988788604736,6.044798851013184,1225.9635009765625,0
465.85199999999895,-0.0006381639395840466,0.0003223842359147966,-0.00026897824136540294,0.0,0.0,0.0,0.0,-0.0012440853752195835,1.5390245607704856e-05,0.0002816228079609573,0.999451220035553,0.0,0.0,0.0,-6.7667765617370605,2.781385898590088,6.042436122894287,1224.800048828125,0
475.76800000000003,-0.0005355277098715305,0.00031906829099170864,-0.0002856790670193732,0.0,0.0,0.0,0.0,-0.0007045057718642056,-0.0028366909828037024,0.00010556230699876323,1.0001782178878784,0.0,0.0,0.0,-6.778254508972168,2.7848057746887207,6.053896427154541,1226.8775634765625,0
485.6809999999987,-0.0005842064856551588,0.00030590512324124575,-0.0002941754355560988,0.0,0.0,0.0,0.0,0.00032501635723747313,-0.0021615945734083652,0.0062604327686131,1.001377820968628,0.0,0.0,0.0,-6.77225399017334,2.784947633743286,6.053696155548096,1225.79150390625,0
495.59199999999873,-0.00045101906289346516,0.00027410610346123576,-0.00029812875436618924,0.0,0.0,0.0,0.0,0.0002570688084233552,0.004210721701383591,-0.0005248943343758583,0.9995768070220947,0.0,0.0,0.0,-6.777698516845703,2.7874414920806885,6.075350761413574,1226.77685546875,0
505.5,-0.0004961941158398986,0.0002581071457825601,-0.00030450723716057837,0.0,0.0,0.0,0.0,-0.0007061115466058254,-0.0008535569650121033,0.0010827037040144205,0.9974724650382996,0.0,0.0,0.0,-6.771518707275391,2.7858002185821533,6.062877655029297,1225.658447265625,0
515.4120000000003,-0.00046515933354385197,0.00029359172913245857,-0.00029610880301333964,0.0,0.0,0.0,0.0,0.002174605382606387,0.001092347432859242,0.00013961757940705866,1.0005760192871094,0.0,0.0,0.0,-6.7744879722595215,2.7870864868164062,6.060245990753174,1226.1959228515625,0
525.3230000000003,-0.0005116540705785155,0.0002765008539427072,-0.0003026122285518795,0.0,0.0,0.0,0.0,-0.002274202648550272,-0.0019278648542240262,-0.00553939351812005,1.0004111528396606,0.0,0.0,0.0,-6.767972946166992,2.779987335205078,6.048454284667969,1225.0164794921875,0
535.235999999999,-0.00045478990068659186,0.0002940865815617144,-0.00030637532472610474,0.0,0.0,0.0,0.0,0.0002807630517054349,0.0024053226225078106,7.691546488786116e-05,0.9997766017913818,0.0,0.0,0.0,-6.762273788452148,2.791196584701538,6.061023712158203,1223.9849853515625,0
545.146999999999,-0.0005001245299354196,0.0002747870166786015,-0.0003114515566267073,0.0,0.0,0.0,0.0,0.00016885528748389333,-0.0018059564754366875,0.003967160824686289,1.0000572204589844,0.0,0.0,0.0,-6.754786014556885,2.785098075866699,6.051837921142578,1222.6297607421875,0
555.0599999999995,-0.0004884598311036825,0.0002370815200265497,-0.0002542049332987517,0.0,0.0,0.0,0.0,0.0017669632798060775,5.060765033704229e-05,0.0017250262899324298,1.000692367553711,0.0,0.0,0.0,-6.754631042480469,2.7848002910614014,6.06275749206543,1222.601806640625,0
564.9699999999993,-0.0005332503351382911,0.0002151870576199144,-0.0002533150545787066,0.0,0.0,0.0,0.0,0.000373477436369285,0.005315765738487244,-0.00029513880144804716,1.0007586479187012,0.0,0.0,0.0,-6.747167587280273,2.7776358127593994,6.051247596740723,1221.2508544921875,0
574.8889999999992,-0.000454149761935696,0.00020534699433483183,-0.00022114947205409408,0.0,0.0,0.0,0.0,0.0024437583051621914,0.0006654922035522759,-0.002131232526153326,0.9999673962593079,0.0,0.0,0.0,-6.7572197914123535,2.7756974697113037,6.0535407066345215,1223.0701904296875,0
584.7929999999997,-0.0004960635560564697,0.00018137787992600352,-0.00021572731202468276,0.0,0.0,0.0,0.0,0.0008367958944290876,0.0018826087471097708,-0.003813038347288966,1.0008039474487305,0.0,0.0,0.0,-6.751305103302002,2.7694168090820312,6.04524564743042,1221.9996337890625,0
594.7049999999999,-0.00048324355157092214,0.00019375610281713307,-0.00018753141921479255,0.0,0.0,0.0,0.0,-0.001482168328948319,-0.002330562099814415,0.001038513844832778,0.9990784525871277,0.0,0.0,0.0,-6.753233909606934,2.766899585723877,6.044837951660156,1222.3487548828125,0
604.6229999999996,-0.0005010428139939904,0.0001917863410199061,-0.0002065755834337324,0.0,0.0,0.0,0.0,0.0005422161775641143,-0.0012939970474690199,-0.00037222859100438654,0.9981323480606079,0.0,0.0,0.0,-6.746426582336426,2.7631664276123047,6.04518461227417,1221.11669921875,0
614.5319999999992,-0.0004927966510877013,0.0002318265032954514,-0.00014337383618112653,0.0,0.0,0.0,0.0,-0.0003853371017612517,0.0010343545582145452,-0.000784559641033411,1.001100778579712,0.0,0.0,0.0,-6.757368087768555,2.775606632232666,6.049980640411377,1223.0970458984375,0
624.4549999999999,-0.0005065618315711617,0.00027333194157108665,-0.00015264010289683938,0.0,0.0,0.0,0.0,-0.0008134461822919548,-0.00024027470499277115,0.0034137372858822346,0.9993261694908142,0.0,0.0,0.0,-6.749820709228516,2.769217014312744,6.043736457824707,1221.73095703125,0
634.3539999999994,-0.00047823667409829795,0.0002689071698114276,-0.00010536965419305488,0.0,0.0,0.0,0.0,0.003150624455884099,0.003139902837574482,0.0011828261194750667,1.0002057552337646,0.0,0.0,0.0,-6.755606651306152,2.7710602283477783,6.048343658447266,1222.7783203125,0
644.268,-0.0004887845716439188,0.00030180191970430315,-0.0001297770213568583,0.0,0.0,0.0,0.0,0.0011927476152777672,0.0007206578156910837,-0.0050230021588504314,0.9993004202842712,0.0,0.0,0.0,-6.748439311981201,2.763951063156128,6.037669658660889,1221.48095703125,0
654.1790000000001,-0.000528824923094362,0.0002674661809578538,-0.00012313433398958296,0.0,0.0,0.0,0.0,7.909988198662177e-06,0.007917674258351326,-0.0007719360291957855,1.0011818408966064,0.0,0.0,0.0,-6.760013103485107,2.7600462436676025,6.031605243682861,1223.5758056640625,0
664.0949999999993,-0.0004998187650926411,0.000325899658491835,-0.00019372139649931341,0.0,0.0,0.0,0.0,-0.00020077229419257492,0.002107554581016302,-0.0014819836942479014,1.0004945993423462,0.0,0.0,0.0,-6.753203392028809,2.7590434551239014,6.011975288391113,1222.34326171875,0
674.0010000000002,-0.0005301095079630613,0.00032721119350753725,-0.0001719427527859807,0.0,0.0,0.0,0.0,0.0016022108029574156,0.0054401555098593235,0.0014366793911904097,0.9999402165412903,0.0,0.0,0.0,-6.753587245941162,2.758291721343994,6.004541873931885,1222.4127197265625,0
683.9110000000001,-0.0005612813984043896,0.0003075697459280491,-0.00019951241847593337,0.0,0.0,0.0,0.0,-7.023077341727912e-05,0.0022408480290323496,-0.0004410748661030084,1.0004513263702393,0.0,0.0,0.0,-6.745780944824219,2.7535600662231445,5.983090877532959,1220.9998779296875,0
693.8230000000003,-0.0004915592144243419,0.0002894572971854359,-0.0001478603226132691,0.0,0.0,0.0,0.0,0.0022594258189201355,0.0006217735353857279,5.9648453316185623e-05,1.0001074075698853,0.0,0.0,0.0,-6.754022598266602,2.750868797302246,5.9920573234558105,1222.4915771484375,0
703.735999999999,-0.00048362070810981095,0.00032973321503959596,-0.00020147299801465124,0.0,0.0,0.0,0.0,0.0030836767982691526,-0.003518291050568223,-0.002279405016452074,0.999548077583313,0.0,0.0,0.0,-6.747323036193848,2.7395308017730713,5.988311767578125,1221.2789306640625,0
713.6479999999992,-0.0004640753904823214,0.00031725247390568256,-0.00016718513506930321,0.0,0.0,0.0,0.0,-0.0009400464477948844,-0.005968799348920584,0.002688922919332981,1.0000324249267578,0.0,0.0,0.0,-6.756783962249756,2.7334377765655518,6.001736640930176,1222.9913330078125,0
723.5579999999991,-0.00047079272917471826,0.00034000707091763616,-0.00020906126883346587,0.0,0.0,0.0,0.0,0.001790095935575664,-0.0007492884760722518,0.001351656042970717,0.9998874664306641,0.0,0.0,0.0,-6.749597072601318,2.7334377765655518,6.003161907196045,1221.6905517578125,0
733.476999999999,-0.0005197226419113576,0.0003405862662475556,-0.00019585309200920165,0.0,0.0,0.0,0.0,0.004059595987200737,-0.0036944085732102394,0.00011200501467101276,0.9998881220817566,0.0,0.0,0.0,-6.749377727508545,2.7369189262390137,5.990634918212891,1221.6507568359375,0
743.3869999999988,-0.0005660470924340189,0.00030069949571043253,-0.00021694095630664378,0.0,0.0,0.0,0.0,0.0002229289384558797,-0.0015720935771241784,0.0031636341009289026,1.0004522800445557,0.0,0.0,0.0,-6.742523670196533,2.7297515869140625,5.9911394119262695,1220.41015625,0
753.2939999999999,-0.000513921957463026,0.0002608764043543488,-0.00018681713845580816,0.0,0.0,0.0,0.0,-0.00323402788490057,0.000512006226927042,0.003810909343883395,0.9995520710945129,0.0,0.0,0.0,-6.744176864624023,2.7315399646759033,6.0088210105896,1220.70947265625,0
763.2049999999999,-0.0005469631869345903,0.0002998673007823527,-0.00019254478684160858,0.0,0.0,0.0,0.0,0.002086385851725936,0.0005123482551425695,-0.004836580250412226,0.9983557462692261,0.0,0.0,0.0,-6.736419200897217,2.733700752258301,6.001250743865967,1219.30517578125,0
773.1170000000002,-0.0005010984023101628,0.0002496496890671551,-0.00016578924260102212,0.0,0.0,0.0,0.0,-0.0007715547108091414,-0.0011950937332585454,0.0006127824890427291,0.9978397488594055,0.0,0.0,0.0,-6.738696575164795,2.7203102111816406,6.008398532867432,1219.7174072265625,0
783.0289999999986,-0.0005255323485471308,0.0002468197199050337,-0.00019773285021074116,0.0,0.0,0.0,0.0,0.0015007841866463423,-0.0005475981160998344,-0.0024999030865728855,0.9996200203895569,0.0,0.0,0.0,-6.731537818908691,2.7171547412872314,5.996172904968262,1218.4217529296875,0
792.9409999999989,-0.00044976032222621143,0.00019740882271435112,-0.00016205776773858815,0.0,0.0,0.0,0.0,-0.0013572776224464178,0.0021541803143918514,0.0011814502067863941,1.001853346824646,0.0,0.0,0.0,-6.737831115722656,2.709723711013794,6.010056495666504,1219.560791015625,0
802.851999999999,-0.00047644367441534996,0.00019299004634376615,-0.0001870913547463715,0.0,0.0,0.0,0.0,-0.0012654497986659408,-0.0010617043590173125,0.0016094727907329798,1.0001306533813477,0.0,0.0,0.0,-6.730493545532227,2.7122533321380615,6.004971027374268,1218.232666015625,0
812.7639999999992,-0.0004911836585961282,0.00017579169070813805,-0.00016252961358986795,0.0,0.0,0.0,0.0,-0.003972128964960575,-0.0021684339735656977,-0.00553746335208416,0.9984373450279236,0.0,0.0,0.0,-6.731343746185303,2.713366985321045,6.011662006378174,1218.3865966796875,0
822.6769999999997,-0.0005175535916350782,0.00019403356418479234,-0.000180794348125346,0.0,0.0,0.0,0.0,0.002364625921472907,0.0048117442056536674,0.0003458147111814469,1.0002126693725586,0.0,0.0,0.0,-6.726325035095215,2.719508171081543,6.014369010925293,1217.4781494140625,0
832.5879999999997,-0.0005006190622225404,0.00017691898392513394,-0.00014499634562525898,0.0,0.0,0.0,0.0,0.0021637878380715847,-0.0038007893599569798,0.0032910241279751062,1.0009874105453491,0.0,0.0,0.0,-6.728940010070801,2.71329402923584,6.012762546539307,1217.951416015625,0
842.4989999999998,-0.0004839622415602207,0.00024920879513956606,-0.0002020145475398749,0.0,0.0,0.0,0.0,-0.0009388569742441177,-0.00512775918468833,-0.0027192439883947372,0.9992752075195312,0.0,0.0,0.0,-6.722192287445068,2.707019329071045,6.006900787353516,1216.7301025390625,0
852.4110000000001,-0.00048074431833811104,0.0002600648731458932,-0.00015569126117043197,0.0,0.0,0.0,0.0,0.0005055916262790561,0.0002236928849015385,-0.0005483007407747209,0.9981560707092285,0.0,0.0,0.0,-6.732036590576172,2.719632148742676,6.021996021270752,1218.511962890625,0
862.3230000000003,-0.00047418949543498456,0.00030037775286473334,-0.00021987348736729473,0.0,0.0,0.0,0.0,-0.0023350759875029325,-0.0008926841546781361,0.0014618270797654986,0.9987780451774597,0.0,0.0,0.0,-6.724728584289551,2.717367649078369,6.013095855712891,1217.189208984375,0
872.2349999999988,-0.0004841750778723508,0.00030625759973190725,-0.000183451222255826,0.0,0.0,0.0,0.0,0.0032127252779901028,-6.226368714123964e-05,-0.001934804837219417,0.9989259243011475,0.0,0.0,0.0,-6.733292102813721,2.732292413711548,6.018836975097656,1218.7392578125,0
882.146999999999,-0.0004874843289144337,0.00033823505509644747,-0.0002461057447362691,0.0,0.0,0.0,0.0,-0.0034385251346975565,-0.000969653541687876,-0.0013733180239796638,0.999510645866394,0.0,0.0,0.0,-6.727246284484863,2.7243618965148926,6.015142440795898,1217.64501953125,0
892.0609999999997,-0.000528643315192312,0.00030459280242212117,-0.00024190536350943148,0.0,0.0,0.0,0.0,-0.00045235699508339167,-0.005229303613305092,-0.002070315647870302,1.0002193450927734,0.0,0.0,0.0,-6.736461162567139,2.730973482131958,6.0179338455200195,1219.3128662109375,0
901.9699999999993,-0.000532759353518486,0.00034541107015684247,-0.00030548140057362616,0.0,0.0,0.0,0.0,-0.0008269433747045696,0.0004727883206214756,-0.00032653825473971665,0.9997448325157166,0.0,0.0,0.0,-6.72941255569458,2.7265381813049316,6.02182149887085,1218.0369873046875,0
911.8819999999996,-0.00048305545351468027,0.0003306719590909779,-0.00026718986919149756,0.0,0.0,0.0,0.0,-0.0022967623081058264,0.0015747543657198548,0.001125693554058671,1.0005477666854858,0.0,0.0,0.0,-6.735119342803955,2.734208345413208,6.031447410583496,1219.070068359375,0
921.7929999999997,-0.0005091452621854842,0.0003389220219105482,-0.00031159789068624377,0.0,0.0,0.0,0.0,-0.0029079874511808157,0.000398810749175027,-0.0007960142102092505,1.0002139806747437,0.0,0.0,0.0,-6.72715950012207,2.736032485961914,6.027332305908203,1217.629150390625,0
931.7049999999999,-0.00048723036888986826,0.0003074484411627054,-0.000290713447611779,0.0,0.0,0.0,0.0,0.003571762004867196,-0.0009615806047804654,0.002051511313766241,1.0000121593475342,0.0,0.0,0.0,-6.731452465057373,2.7403292655944824,6.0352702140808105,1218.40625,0
941.6170000000002,-0.0005059765535406768,0.00033015754888765514,-0.000338989426381886,0.0,0.0,0.0,0.0,0.0028692379128187895,-0.0020223900210112333,-0.00647970475256443,1.0014545917510986,0.0,0.0,0.0,-6.723466873168945,2.7310187816619873,6.029949188232422,1216.9609375,0
951.5280000000002,-0.0004696655960287899,0.0002884883724618703,-0.0003167813702020794,0.0,0.0,0.0,0.0,-0.0004367208748590201,0.0018301974050700665,-0.001309600775130093,1.0012552738189697,0.0,0.0,0.0,-6.7269487380981445,2.72088360786438,6.046774387359619,1217.591064453125,0
961.4419999999991,-0.0004983027465641499,0.0003080759197473526,-0.0003475720004644245,0.0,0.0,0.0,0.0,-0.001961522502824664,0.0009382879943586886,-0.004232403822243214,1.0007727146148682,0.0,0.0,0.0,-6.7198076248168945,2.7161338329315186,6.040371417999268,1216.2984619140625,0
971.3590000000004,-0.0004741456941701472,0.000328423164319247,-0.00028961169300600886,0.0,0.0,0.0,0.0,0.0003862191515509039,0.000378949916921556,0.002101736143231392,0.9993796348571777,0.0,0.0,0.0,-6.732766628265381,2.7234039306640625,6.047470569610596,1218.64404296875,0
981.2659999999996,-0.0004958215868100524,0.00034039057209156454,-0.00032878346974030137,0.0,0.0,0.0,0.0,0.0013536089099943638,0.002116626361384988,-0.0015998121816664934,0.9990487098693848,0.0,0.0,0.0,-6.72492790222168,2.7175557613372803,6.042190074920654,1217.225341796875,0
991.1839999999993,-0.0004812921106349677,0.00030289331334643066,-0.00030641769990324974,0.0,0.0,0.0,0.0,0.00406738230958581,0.0031956727616488934,-0.002422013320028782,1.0004066228866577,0.0,0.0,0.0,-6.729379653930664,2.7165443897247314,6.046720027923584,1218.031005859375,0
1001.0900000000001,-0.0005508241592906415,0.0002510512713342905,-0.00030864914879202843,0.0,0.0,0.0,0.0,0.0009656788315623999,0.0036923710722476244,0.00011411533341743052,0.9993113279342651,0.0,0.0,0.0,-6.722596645355225,2.7052340507507324,6.036642551422119,1216.8033447265625,0
1011.0,-0.00046915531856939197,0.00022634620836470276,-0.0002505927113816142,0.0,0.0,0.0,0.0,0.00022610665473621339,0.0013114261673763394,-0.0020223234314471483,0.9985703229904175,0.0,0.0,0.0,-6.7323784828186035,2.7040958404541016,6.05031681060791,1218.5738525390625,0
1020.9200000000001,-0.0005121046560816467,0.00021145165374036878,-0.0002669276436790824,0.0,0.0,0.0,0.0,0.0005482743144966662,-0.005562608130276203,0.0018979946617037058,0.9983233213424683,0.0,0.0,0.0,-6.726338863372803,2.7000885009765625,6.041665554046631,1217.480712890625,0
1030.8230000000003,-0.0004539683577604592,0.00021387060405686498,-0.0002044018474407494,0.0,0.0,0.0,0.0,-0.0006779279210604727,-0.0004204947908874601,0.0029359508771449327,0.9987592101097107,0.0,0.0,0.0,-6.727630138397217,2.7062511444091797,6.065178394317627,1217.71435546875,0
1040.7479999999996,-0.0004969813162460923,0.00019037978199776262,-0.00022046647791285068,0.0,0.0,0.0,0.0,-0.0008820284274406731,-0.005157385487109423,0.0015917376149445772,0.9992440342903137,0.0,0.0,0.0,-6.720048904418945,2.706310987472534,6.060067176818848,1216.34228515625,0
1050.646999999999,-0.0004936821642331779,0.00021044633467681706,-0.0001642216375330463,0.0,0.0,0.0,0.0,0.0011980326380580664,0.0006883539026603103,0.0006144492072053254,1.0000224113464355,0.0,0.0,0.0,-6.727097988128662,2.719999313354492,6.07357120513916,1217.6180419921875,0
1060.563,-0.0005179235595278442,0.0002099544944940135,-0.0001975062768906355,0.0,0.0,0.0,0.0,0.002275102771818638,-0.007135527208447456,0.0002863213885575533,1.0012235641479492,0.0,0.0,0.0,-6.720493793487549,2.717937707901001,6.067135334014893,1216.4228515625,0
1070.4709999999995,-0.0005136870313435793,0.00020151850185357034,-0.00015797569358255714,0.0,0.0,0.0,0.0,0.0001225930463988334,0.0016747522167861462,-0.0005355433677323163,0.9983581900596619,0.0,0.0,0.0,-6.7262749671936035,2.7241389751434326,6.081699371337891,1217.4691162109375,0
1080.393,-0.0005305343656800687,0.00021151843247935176,-0.000196026565390639,0.0,0.0,0.0,0.0,0.002468338469043374,0.00015229757991619408,-0.000747546146158129,0.9965819120407104,0.0,0.0,0.0,-6.719092845916748,2.7241196632385254,6.0686140060424805,1216.169189453125,0
1090.2969999999987,-0.0005034194909967482,0.00022644901764579117,-0.00013869784015696496,0.0,0.0,0.0,0.0,0.0032437569461762905,0.0010848408564925194,0.0005637426511384547,0.9967464208602905,0.0,0.0,0.0,-6.727003574371338,2.731116533279419,6.072309494018555,1217.60107421875,0
1100.217999999999,-0.000529307231772691,0.00026219114079140127,-0.000154949797433801,0.0,0.0,0.0,0.0,-0.0037556265015155077,-0.0023861881345510483,0.0008015893981792033,1.0007197856903076,0.0,0.0,0.0,-6.71999979019165,2.723501682281494,6.060244083404541,1216.333251953125,0
1110.1209999999992,-0.0005343511002138257,0.0002700520562939346,-0.00011596069089137018,0.0,0.0,0.0,0.0,-0.00026854779571294785,0.0006392001523636281,0.0024698926135897636,0.9987921118736267,0.0,0.0,0.0,-6.722231388092041,2.7369863986968994,6.070582389831543,1216.7371826171875,0
1120.0299999999988,-0.0005597576382569969,0.0002690664550755173,-0.00015239871572703123,0.0,0.0,0.0,0.0,0.0016183783300220966,-0.002411913126707077,0.0006340554682537913,0.9999325275421143,0.0,0.0,0.0,-6.714245796203613,2.7367422580718994,6.061254501342773,1215.2918701171875,0
1129.9439999999995,-0.0005007743020541966,0.0002598543942440301,-9.976622823160142e-05,0.0,0.0,0.0,0.0,0.001686548232100904,0.006024776492267847,-0.004432362038642168,0.999963104724884,0.0,0.0,0.0,-6.722743034362793,2.7367405891418457,6.0769853591918945,1216.829833984375,0
1139.8709999999992,-0.0005236813449300826,0.00026061313110403717,-0.00013421356561593711,0.0,0.0,0.0,0.0,0.0008381711668334901,-0.0008641695603728294,0.001088544144295156,0.9997695088386536,0.0,0.0,0.0,-6.717668056488037,2.7319464683532715,6.059620380401611,1215.911376953125,0
1149.771999999999,-0.0004910984425805509,0.00024847182794474065,-9.2691472673323e-05,0.0,0.0,0.0,0.0,0.00024358007067348808,0.0004388335801195353,0.0024322804529219866,1.001050591468811,0.0,0.0,0.0,-6.726039886474609,2.738455295562744,6.071041584014893,1217.426513671875,0
1159.6849999999995,-0.0005417841603048146,0.00022663756681140512,-0.00010600569657981396,0.0,0.0,0.0,0.0,0.00021225231466814876,0.001971905818209052,0.003396157408133149,0.9983382225036621,0.0,0.0,0.0,-6.718743324279785,2.738562822341919,6.062827110290527,1216.10595703125,0
1169.5949999999993,-0.0005283571081236005,0.00018016918329522014,-8.410253212787211e-05,0.0,0.0,0.0,0.0,0.0004511090519372374,0.001328994520008564,-0.000385183870093897,0.9999799728393555,0.0,0.0,0.0,-6.726946830749512,2.7362658977508545,6.063095569610596,1217.5906982421875,0
1179.5109999999986,-0.0005053664790466428,0.0002562153968028724,-0.00014869416190776974,0.0,0.0,0.0,0.0,-0.00041557912481948733,0.0026880840305238962,0.00206697266548872,1.0009465217590332,0.0,0.0,0.0,-6.720353603363037,2.7289540767669678,6.056504726409912,1216.3974609375,0
1189.4169999999995,-0.0005342558142729104,0.00022086664102971554,-0.00014245230704545975,0.0,0.0,0.0,0.0,-0.002236446365714073,0.003256985219195485,0.0020998960826545954,1.0007717609405518,0.0,0.0,0.0,-6.722553730010986,2.7263970375061035,6.050943851470947,1216.7955322265625,0
1199.333999999999,-0.000513219041749835,0.00028039654716849327,-0.00021589444077108055,0.0,0.0,0.0,0.0,-0.002336355857551098,-0.001713339239358902,-0.003605126403272152,1.0001379251480103,0.0,0.0,0.0,-6.7157135009765625,2.727522134780884,6.0314130783081055,1215.5576171875,0
1209.2420000000002,-0.000574553559999913,0.00029325514333322644,-0.00019995916227344424,0.0,0.0,0.0,0.0,3.187785478075966e-05,0.004246378783136606,0.005068124737590551,0.9982940554618835,0.0,0.0,0.0,-6.719673156738281,2.74137806892395,6.022056579589844,1216.274169921875,0
1219.1589999999997,-0.0005770226707682014,0.0003287324507255107,-0.0002595281112007797,0.0,0.0,0.0,0.0,0.0007808498339727521,-0.00019708684703800827,-0.0012431027134880424,0.999585747718811,0.0,0.0,0.0,-6.712795257568359,2.7369728088378906,6.00919246673584,1215.029296875,0
1229.0739999999987,-0.0005374770262278616,0.00026491362950764596,-0.0002531121426727623,0.0,0.0,0.0,0.0,-0.00022059839102439582,0.0015149889513850212,0.0005591867375187576,0.9985764622688293,0.0,0.0,0.0,-6.714591026306152,2.7269210815429688,6.0223708152771,1215.3543701171875,0
1238.9799999999996,-0.0005490719340741634,0.00031201151432469487,-0.000297004880849272,0.0,0.0,0.0,0.0,-0.001444886322133243,0.003772670403122902,0.0026449807919561863,0.9991468191146851,0.0,0.0,0.0,-6.708257675170898,2.726666212081909,6.011436939239502,1214.2080078125,0
1248.8940000000002,-0.0005363147938624024,0.00032041658414527774,-0.000258487940300256,0.0,0.0,0.0,0.0,0.0025323147419840097,-0.002296934835612774,1.2153173884144053e-05,1.0009175539016724,0.0,0.0,0.0,-6.716357707977295,2.7335963249206543,6.009522438049316,1215.674072265625,0
1258.798999999999,-0.0006082843756303191,0.00027147959917783737,-0.0002558582928031683,0.0,0.0,0.0,0.0,-0.0014054934727028012,0.0003292771871201694,-0.00014245846250560135,0.9993823766708374,0.0,0.0,0.0,-6.7083964347839355,2.72784686088562,6.0092878341674805,1214.2330322265625,0
1268.714,-0.0005119506386108696,0.00020304979989305139,-0.00022504033404402435,0.0,0.0,0.0,0.0,0.002686034655198455,-0.0009775719372555614,-0.00037440998130477965,0.9988402724266052,0.0,0.0,0.0,-6.71366024017334,2.716400146484375,6.015449523925781,1215.1859130859375,0
1278.6279999999988,-0.0005531272036023438,0.0001900185307022184,-0.0002392695751041174,0.0,0.0,0.0,0.0,0.0012451102957129478,0.0011406774865463376,0.0003654569445643574,1.0005953311920166,0.0,0.0,0.0,-6.707388877868652,2.711671829223633,6.00298547744751,1214.05078125,0
1288.5339999999997,-0.00045701954513788223,0.0001724531321087852,-0.00017663300968706608,0.0,0.0,0.0,0.0,-0.0006393537623807788,-0.0008876029751263559,-0.0016295929672196507,0.9999073147773743,0.0,0.0,0.0,-6.714818954467773,2.7159852981567383,6.011024475097656,1215.3956298828125,0
1298.4519999999993,-0.00048509961925446987,0.00016831414541229606,-0.00019736138347070664,0.0,0.0,0.0,0.0,-0.0005169040523469448,0.002969013759866357,-0.001802855054847896,1.0004706382751465,0.0,0.0,0.0,-6.7091498374938965,2.7140121459960938,6.001741886138916,1214.369384765625,0
1308.360999999999,-0.0004910918651148677,0.0001595796347828582,-0.0001609754399396479,0.0,0.0,0.0,0.0,0.000998381176032126,-0.0007106084376573563,0.004307056777179241,0.999474823474884,0.0,0.0,0.0,-6.720566749572754,2.7150890827178955,5.991858959197998,1216.4359130859375,0
1318.2780000000002,-0.0005196429556235671,0.00016084391972981393,-0.00018590124091133475,0.0,0.0,0.0,0.0,0.004232477396726608,-0.0002985868195537478,-0.001727272872813046,0.9985455870628357,0.0,0.0,0.0,-6.712443828582764,2.714250326156616,5.984368324279785,1214.9656982421875,0
1328.1809999999987,-0.0005506909801624715,0.0001562381803523749,-0.00016100765787996352,0.0,0.0,0.0,0.0,-0.002031886950135231,-0.002783855888992548,-0.000697044306434691,0.9982262849807739,0.0,0.0,0.0,-6.716416835784912,2.71012806892395,5.985121250152588,1215.684814453125,0
1338.0959999999995,-0.000575933197978884,0.00016456023149657995,-0.00019094342133030295,0.0,0.0,0.0,0.0,-0.002393007045611739,0.0028440733440220356,-0.0025145327672362328,0.9987950921058655,0.0,0.0,0.0,-6.710058212280273,2.712822914123535,5.989324569702148,1214.533935546875,0
1348.0100000000002,-0.0005080447299405932,0.0001386025978717953,-0.0001388915115967393,0.0,0.0,0.0,0.0,-0.00012948038056492805,-0.002018331317231059,-0.0007113518659025431,0.9993920922279358,0.0,0.0,0.0,-6.717963218688965,2.7181549072265625,6.01263952255249,1215.964599609375,0
1357.9279999999999,-0.0005325250676833093,0.00011823040404124185,-0.00018288787396159023,0.0,0.0,0.0,0.0,0.0009391109342686832,0.004465550649911165,-0.0020912999752908945,0.9972528219223022,0.0,0.0,0.0,-6.711828231811523,2.718559503555298,6.007755756378174,1214.8543701171875,0
1367.8419999999987,-0.0005709024844691157,0.0001289971696678549,-0.0001555256894789636,0.0,0.0,0.0,0.0,-0.0006702848477289081,-0.0036915168166160583,-0.0014954089419916272,0.997061550617218,0.0,0.0,0.0,-6.715757846832275,2.7163829803466797,5.991539001464844,1215.5655517578125,0
1377.753999999999,-0.0005830599693581462,0.00015472769155167043,-0.0002067850873572752,0.0,0.0,0.0,0.0,-0.0012660813517868519,-0.0031887528020888567,0.002505979733541608,0.9998671412467957,0.0,0.0,0.0,-6.709110260009766,2.7166452407836914,5.997399806976318,1214.3623046875,0
1387.655999999999,-0.0005653957487083972,0.00019232695922255516,-0.00014481159450951964,0.0,0.0,0.0,0.0,-1.5767576769576408e-05,0.0035725166089832783,0.0005860578967258334,0.9997770190238953,0.0,0.0,0.0,-6.719974040985107,2.729926586151123,6.0107526779174805,1216.32861328125,0
1397.5730000000003,-0.0005927287274971604,0.00019018005696125329,-0.000186925710295327,0.0,0.0,0.0,0.0,0.003658690955489874,0.005664320662617683,-0.00294756842777133,0.9991289973258972,0.0,0.0,0.0,-6.713135719299316,2.7290537357330322,5.998752593994141,1215.0909423828125,0
1407.4789999999994,-0.0006181394564919174,0.00020955127547495067,-0.00015379472461063415,0.0,0.0,0.0,0.0,0.001246763626113534,0.0017401910154148936,0.003360964125022292,0.9977713227272034,0.0,0.0,0.0,-6.71565055847168,2.7321369647979736,5.9913530349731445,1215.546142578125,0
1417.3899999999994,-0.0006405634921975434,0.0002249998797196895,-0.0002040938998106867,0.0,0.0,0.0,0.0,-0.004504184704273939,-0.0024764644913375378,0.0073602222837507725,0.9979340434074402,0.0,0.0,0.0,-6.709098815917969,2.723005771636963,5.984633445739746,1214.3603515625,0
1427.3019999999997,-0.000632908137049526,0.0002034389617620036,-0.00018298272334504873,0.0,0.0,0.0,0.0,-0.0005601673037745059,-0.0020268696825951338,-0.002472625346854329,0.9992826581001282,0.0,0.0,0.0,-6.717060089111328,2.7332851886749268,5.987273216247559,1215.8011474609375,0
1437.2109999999993,-0.0006507068173959851,0.00022768914641346782,-0.00024004299484658986,0.0,0.0,0.0,0.0,0.0011608701897785068,0.001170988893136382,-0.0044361865147948265,0.9993030428886414,0.0,0.0,0.0,-6.711609840393066,2.728808879852295,5.980098247528076,1214.814697265625,0
1447.1260000000002,-0.0005781638901680708,0.0001928775745909661,-0.000206841723411344,0.0,0.0,0.0,0.0,-0.0006384439766407013,-0.0001914969034260139,-0.0009064865880645812,1.001049518585205,0.0,0.0,0.0,-6.714744567871094,2.727468252182007,5.995924949645996,1215.382080078125,0
1457.0370000000003,-0.0005761476932093501,0.0002072073402814567,-0.0002914279466494918,0.0,0.0,0.0,0.0,0.0019964093808084726,0.002098547760397196,0.0027562996838241816,1.0001872777938843,0.0,0.0,0.0,-6.708213806152344,2.7230820655822754,5.993879795074463,1214.2000732421875,0
1466.9579999999987,-0.0005480824620462954,0.00023446953855454922,-0.00023901418899185956,0.0,0.0,0.0,0.0,0.0008730705012567341,0.0012102180626243353,0.0022372151724994183,0.9998831152915955,0.0,0.0,0.0,-6.716449737548828,2.733811140060425,5.9904985427856445,1215.690673828125,0
1476.8539999999994,-0.0005643864278681576,0.0002385612897342071,-0.0003013736568391323,0.0,0.0,0.0,0.0,-0.0025665347930043936,-0.0012119220336899161,0.0018971685785800219,1.0013811588287354,0.0,0.0,0.0,-6.709945201873779,2.726072072982788,5.988002300262451,1214.513427734375,0
1486.7759999999998,-0.0005384546238929033,0.0002631635870784521,-0.0002486635057721287,0.0,0.0,0.0,0.0,0.0006419150740839541,-0.004320736043155193,0.0023801689967513084,0.9995914697647095,0.0,0.0,0.0,-6.7183661460876465,2.741946220397949,5.993438243865967,1216.03759765625,0
1496.6800000000003,-0.0005600281874649227,0.00024277548072859645,-0.0003085496718995273,0.0,0.0,0.0,0.0,0.0006983887869864702,-0.004644711036235094,0.0030747312121093273,1.000755786895752,0.0,0.0,0.0,-6.710341930389404,2.7412285804748535,5.99556827545166,1214.5853271484375,0
1506.5969999999998,-0.0005286381347104907,0.0002607869100756943,-0.000256376777542755,0.0,0.0,0.0,0.0,0.0014726872323080897,0.002290524309501052,-0.0019397385185584426,0.9984549283981323,0.0,0.0,0.0,-6.717591762542725,2.7470407485961914,6.005463600158691,1215.8974609375,0
1516.5,-0.0005471488111652434,0.00028608215507119894,-0.00029733305564150214,0.0,0.0,0.0,0.0,-0.0006293861079029739,0.0014324397780001163,-0.0008160505094565451,1.0006555318832397,0.0,0.0,0.0,-6.711954593658447,2.7415523529052734,5.993751049041748,1214.8770751953125,0
1526.4219999999987,-0.00052887067431584,0.0002955417148768902,-0.0002546281320974231,0.0,0.0,0.0,0.0,0.0019322882872074842,-0.0016160453669726849,0.00027642794884741306,1.001132607460022,0.0,0.0,0.0,-6.723170280456543,2.7479586601257324,5.994048595428467,1216.9071044921875,0
1536.3239999999987,-0.0005547351902350783,0.00032021422521211207,-0.0002846590068656951,0.0,0.0,0.0,0.0,-0.001332955900579691,-0.0024315351620316505,-0.0011665635975077748,1.0006992816925049,0.0,0.0,0.0,-6.715533256530762,2.7398266792297363,5.987523555755615,1215.52490234375,0
1546.2420000000002,-0.0004468198458198458,0.0002911722403950989,-0.00023045552370604128,0.0,0.0,0.0,0.0,0.0005373360472731292,0.0006551275728270411,-8.481206896249205e-05,0.9994911551475525,0.0,0.0,0.0,-6.7241034507751465,2.740710735321045,6.011550426483154,1217.0760498046875,0
1556.1479999999992,-0.0004886207170784473,0.00024519540602341294,-0.0002614775439724326,0.0,0.0,0.0,0.0,0.0017063560662791133,0.004393280483782291,8.350064308615401e-05,0.998512864112854,0.0,0.0,0.0,-6.717214584350586,2.7396974563598633,6.0049967765808105,1215.8292236328125,0
1566.0689999999995,-0.0005147407646290958,0.00023157228133641183,-0.0002430587337585166,0.0,0.0,0.0,0.0,-0.0002637026773300022,0.0005435378989204764,0.0038705123588442802,0.9993588328361511,0.0,0.0,0.0,-6.721504211425781,2.7370550632476807,5.998589992523193,1216.6055908203125,0
1575.9699999999993,-0.0005655626300722361,0.0002077931130770594,-0.00025420065503567457,0.0,0.0,0.0,0.0,-0.00036014901706948876,-0.003871835069730878,-0.002414979739114642,1.0014803409576416,0.0,0.0,0.0,-6.713671684265137,2.7324886322021484,5.987125396728516,1215.1878662109375,0
1585.887999999999,-0.0005156979896128178,0.00018250771972816437,-0.00021262644440867007,0.0,0.0,0.0,0.0,0.0001851354172686115,0.004712958354502916,0.0033407825976610184,1.0011961460113525,0.0,0.0,0.0,-6.72385835647583,2.7303144931793213,5.997494697570801,1217.03173828125,0
1595.7929999999997,-0.0005428670556284487,0.00018206749518867582,-0.00023981084814295173,0.0,0.0,0.0,0.0,-0.0007863987702876329,0.0018319932278245687,0.0022267813328653574,0.9996144771575928,0.0,0.0,0.0,-6.716916561126709,2.727724075317383,5.986269474029541,1215.7752685546875,0
1605.7160000000003,-0.0005491116316989064,0.00022535031894221902,-0.00017688702791929245,0.0,0.0,0.0,0.0,-0.0014928702730685472,0.0001566186110721901,-0.002488623606041074,1.0001699924468994,0.0,0.0,0.0,-6.728460788726807,2.7357702255249023,5.982670783996582,1217.86474609375,0
1615.619999999999,-0.0005892252083867788,0.00021909399947617203,-0.0001875280140666291,0.0,0.0,0.0,0.0,-0.0009087628568522632,0.0051284171640872955,-0.0006914421101100743,0.9988731741905212,0.0,0.0,0.0,-6.722248077392578,2.732048511505127,5.9773783683776855,1216.740234375,0
1625.5379999999986,-0.0005647976649925113,0.00022780684230383486,-0.00012973180855624378,0.0,0.0,0.0,0.0,-0.0004951878800056875,-0.003744850866496563,-0.002519464585930109,0.9989168643951416,0.0,0.0,0.0,-6.731552600860596,2.7407259941101074,5.970840930938721,1218.42431640625,0
1635.4439999999995,-0.0005896137445233762,0.00022661873663309962,-0.00016159027290996164,0.0,0.0,0.0,0.0,0.002648821333423257,-0.0005704987561330199,-0.0024173050187528133,0.9989873170852661,0.0,0.0,0.0,-6.72522497177124,2.736795663833618,5.967391014099121,1217.279052734375,0
1645.3680000000004,-0.000602253305260092,0.00020326251978985965,-0.00013424015196505934,0.0,0.0,0.0,0.0,-0.0011875905329361558,0.0047735548578202724,0.00039948427001945674,0.9996920228004456,0.0,0.0,0.0,-6.734407424926758,2.7291834354400635,5.960436820983887,1218.941162109375,0
1655.2699999999986,-0.000613963115029037,0.00025960247148759663,-0.0001659194240346551,0.0,0.0,0.0,0.0,-0.0007253452204167843,0.0002858886728063226,-0.0016345105832442641,1.0001059770584106,0.0,0.0,0.0,-6.727162837982178,2.72395920753479,5.947050094604492,1217.6298828125,0
1665.1839999999993,-0.0005170281510800123,0.0002052026684395969,-0.00011584904859773815,0.0,0.0,0.0,0.0,1.7686512364889495e-05,-0.002538192318752408,0.00445258105173707,0.9981849789619446,0.0,0.0,0.0,-6.738570690155029,2.7191853523254395,5.962679386138916,1219.694580078125,0
1675.0879999999997,-0.0004949804279021919,0.00026854235329665244,-0.0001928801939357072,0.0,0.0,0.0,0.0,-7.49639148125425e-05,-0.003505456494167447,-0.0036758945789188147,0.9983472228050232,0.0,0.0,0.0,-6.730011463165283,2.7195560932159424,5.9647955894470215,1218.1455078125,0
1685.0119999999988,-0.0004780082090292126,0.0002361844526603818,-0.00016455675358884037,0.0,0.0,0.0,0.0,0.0008989119087345898,0.0007590666646137834,0.0007984715630300343,0.9978629350662231,0.0,0.0,0.0,-6.742176532745361,2.721940279006958,5.979464530944824,1220.3472900390625,0
1694.911,-0.0005292389541864395,0.00020628355559892952,-0.00017952440248336643,0.0,0.0,0.0,0.0,0.0014026048593223095,0.00019064158550463617,-0.0008843939867801964,0.9988360404968262,0.0,0.0,0.0,-6.7343058586120605,2.7165281772613525,5.979767799377441,1218.9227294921875,0
1704.8310000000001,-0.0005438589723780751,0.00018578802701085806,-0.00015936585259623826,0.0,0.0,0.0,0.0,0.00019827020878437907,8.949870971264318e-05,-0.0017086040461435914,0.9984943270683289,0.0,0.0,0.0,-6.736617565155029,2.7204337120056152,5.977039337158203,1219.341064453125,0
1714.741,-0.0005781379877589643,0.0001765269844327122,-0.00019277166575193405,0.0,0.0,0.0,0.0,0.00071218132507056,0.0024170763790607452,0.0006008079508319497,0.9978546500205994,0.0,0.0,0.0,-6.729436874389648,2.7196242809295654,5.97126579284668,1218.0413818359375,0
1724.6599999999999,-0.0005637033027596772,0.00016406718350481242,-0.00015797106607351452,0.0,0.0,0.0,0.0,-0.0038772623520344496,0.00262838089838624,0.00010558226495049894,1.000902533531189,0.0,0.0,0.0,-6.733144760131836,2.720428943634033,5.971101760864258,1218.712646484375,0
1734.5640000000003,-0.0005884752608835697,0.00017530446348246187,-0.00019725182210095227,0.0,0.0,0.0,0.0,0.0014263719785958529,-0.0006965240463614464,0.0019923499785363674,0.9992733597755432,0.0,0.0,0.0,-6.725875377655029,2.725537061691284,5.961373805999756,1217.396728515625,0
1744.4809999999998,-0.0006048340001143515,0.00019982988305855542,-0.0001529481669422239,0.0,0.0,0.0,0.0,0.0030915632378309965,-0.0006471453234553337,0.0018720801454037428,1.0009835958480835,0.0,0.0,0.0,-6.726869583129883,2.736119031906128,5.96259880065918,1217.57666015625,0
1754.3819999999996,-0.0006323301349766552,0.00019981818331871182,-0.00019420316675677896,0.0,0.0,0.0,0.0,-0.002607570495456457,-0.0018132124096155167,-0.001665653195232153,0.9976535439491272,0.0,0.0,0.0,-6.719455718994141,2.726696252822876,5.96360445022583,1216.23486328125,0
1764.3069999999989,-0.0005758734769187868,0.00015763060946483165,-0.00016084712115116417,0.0,0.0,0.0,0.0,0.0013883155770599842,-0.0003626817197073251,-0.0027063617017120123,0.9985066056251526,0.0,0.0,0.0,-6.72076940536499,2.730672597885132,5.976150035858154,1216.4725341796875,0
1774.2070000000003,-0.0005915951333008707,0.00017878836661111563,-0.00021384289721027017,0.0,0.0,0.0,0.0,-0.0030652466230094433,-0.005842059385031462,0.004133864305913448,0.9989075660705566,0.0,0.0,0.0,-6.714633464813232,2.7290215492248535,5.971765518188477,1215.362060546875,0
1784.1270000000004,-0.0005722378846257925,0.00016144901746883988,-0.0001824695209506899,0.0,0.0,0.0,0.0,0.0007923941593617201,-0.0023737093433737755,-0.0005964150768704712,0.9994575381278992,0.0,0.0,0.0,-6.7181243896484375,2.7386157512664795,5.986887454986572,1215.9937744140625,0
1794.0299999999988,-0.0005946364253759384,0.0001799169258447364,-0.0002322960353922099,0.0,0.0,0.0,0.0,-0.0021310076117515564,-0.00040023867040872574,0.0022178799845278263,0.998561680316925,0.0,0.0,0.0,-6.710563659667969,2.733640193939209,5.979729652404785,1214.62548828125,0
1803.9539999999997,-0.0005306726670823991,0.00016746693290770054,-0.0001816236908780411,0.0,0.0,0.0,0.0,0.0024708169512450695,0.0008323564543388784,0.0012252789456397295,0.9997137188911438,0.0,0.0,0.0,-6.721029758453369,2.744182586669922,5.995997905731201,1216.5196533203125,0
1813.8599999999988,-0.000571409531403333,0.0001650204649195075,-0.00021177403687033802,0.0,0.0,0.0,0.0,1.9332830561324954e-05,0.002001061337068677,-0.0012811750639230013,0.9975292086601257,0.0,0.0,0.0,-6.7136077880859375,2.7370645999908447,5.987285614013672,1215.17626953125,0
1823.786,-0.0005554730305448174,0.00019678013632073998,-0.0001528684515506029,0.0,0.0,0.0,0.0,-0.0030086874030530453,0.0001662603026488796,-0.0010724057210609317,0.9982288479804993,0.0,0.0,0.0,-6.726036071777344,2.751037836074829,5.988543510437012,1217.4259033203125,0
1833.6779999999999,-0.0005874030175618827,0.00020410781144164503,-0.000191373736015521,0.0,0.0,0.0,0.0,-0.0023016261402517557,-0.003724233014509082,0.00019281871209386736,0.9999287724494934,0.0,0.0,0.0,-6.719915866851807,2.7542221546173096,5.980922698974609,1216.318115234375,0
1843.601999999999,-0.00057493761414662,0.00018150408868677914,-0.00016735741519369185,0.0,0.0,0.0,0.0,-9.278563084080815e-05,0.00606727646663785,-0.00466659851372242,0.9990804195404053,0.0,0.0,0.0,-6.7239837646484375,2.7614686489105225,5.9959588050842285,1217.0543212890625,0
1853.4989999999998,-0.0005681580514647067,0.0002601438027340919,-0.00022915027511771768,0.0,0.0,0.0,0.0,-0.000359933270374313,-0.0010776553535833955,0.0002608901704661548,0.9995364546775818,0.0,0.0,0.0,-6.716972351074219,2.7630412578582764,5.975817680358887,1215.785400390625,0
1863.42,-0.0005362406373023987,0.00025390691007487476,-0.00018971887766383588,0.0,0.0,0.0,0.0,0.0001017784234136343,0.0025789502542465925,-0.0012594573199748993,1.0009459257125854,0.0,0.0,0.0,-6.723843574523926,2.7708353996276855,5.984752655029297,1217.029052734375,0
1873.33,-0.0005510536138899624,0.0002805799013003707,-0.00024633100838400424,0.0,0.0,0.0,0.0,0.0027114306576550007,0.005913088098168373,0.0022542935330420732,0.99800044298172,0.0,0.0,0.0,-6.717171669006348,2.7707481384277344,5.970223903656006,1215.8214111328125,0
1883.2430000000004,-0.0005944777512922883,0.0002949160407297313,-0.00022298580734059215,0.0,0.0,0.0,0.0,0.00013282240252010524,-0.003149681258946657,-0.0005141618894413114,0.9983439445495605,0.0,0.0,0.0,-6.721809387207031,2.7686588764190674,5.960666656494141,1216.6607666015625,0
1893.1499999999996,-0.0006101885228417814,0.0003298263472970575,-0.0002843085094355047,0.0,0.0,0.0,0.0,-3.144773245367105e-06,0.005382821895182133,-0.0025280120316892862,0.9976787567138672,0.0,0.0,0.0,-6.714817523956299,2.7702136039733887,5.964097499847412,1215.3953857421875,0
1903.0789999999997,-0.0006139425095170736,0.0003393838996998966,-0.00025648990413174033,0.0,0.0,0.0,0.0,0.001422810135409236,-0.0014165383763611317,0.0009566419175826013,0.9992069602012634,0.0,0.0,0.0,-6.719449043273926,2.7741405963897705,5.958801746368408,1216.233642578125,0
1912.9699999999993,-0.0006813248037360609,0.00029289169469848275,-0.0002873779449146241,0.0,0.0,0.0,0.0,-0.0012308208970353007,0.0014620136935263872,0.0038601120468229055,0.9991031885147095,0.0,0.0,0.0,-6.71288537979126,2.7684783935546875,5.956396579742432,1215.045654296875,0
1922.8979999999992,-0.000613421609159559,0.0002501911949366331,-0.0002594775869511068,0.0,0.0,0.0,0.0,0.003356384579092264,0.0020568741019815207,0.0027936953119933605,0.9992207884788513,0.0,0.0,0.0,-6.721543788909912,2.771106243133545,5.97755765914917,1216.61279296875,0
1932.7979999999989,-0.0006389581831172109,0.0002617783029563725,-0.0003234584291931242,0.0,0.0,0.0,0.0,-0.005550013855099678,0.0019587217830121517,-0.00022519465710502118,0.9992128610610962,0.0,0.0,0.0,-6.714868068695068,2.7604846954345703,5.966833114624023,1215.4044189453125,0
1942.7189999999991,-0.0005752198630943894,0.0002346547698834911,-0.0002925426233559847,0.0,0.0,0.0,0.0,-0.0021042500156909227,-0.0004111862799618393,-0.0006442192243412137,0.9986177086830139,0.0,0.0,0.0,-6.720288276672363,2.7701494693756104,5.978865623474121,1216.3856201171875,0
1952.6260000000002,-0.0005921232514083385,0.0002884622954297811,-0.000348385248798877,0.0,0.0,0.0,0.0,0.0016710853669792414,0.0008253348642028868,0.0006035573896951973,0.9990954995155334,0.0,0.0,0.0,-6.713739395141602,2.7725353240966797,5.974394798278809,1215.2001953125,0
1962.5379999999986,-0.0006308474112302065,0.0002911920309998095,-0.0003369467449374497,0.0,0.0,0.0,0.0,-0.002196377608925104,-0.002223195042461157,0.0007177540101110935,0.9983627796173096,0.0,0.0,0.0,-6.721096038818359,2.777269124984741,5.972002029418945,1216.53173828125,0
1972.4439999999995,-0.0006424634484574199,0.00033844131394289434,-0.00041146090370602906,0.0,0.0,0.0,0.0,-0.0014517541276291013,-0.0023447934072464705,0.0010089974384754896,0.9995216727256775,0.0,0.0,0.0,-6.714955806732178,2.779421806335449,5.971280097961426,1215.42041015625,0
1982.3680000000004,-0.0005238564917817712,0.0003057459834963083,-0.0003660260990727693,0.0,0.0,0.0,0.0,-0.0022625108249485493,0.0054856580682098866,-0.0008978657424449921,0.9992706179618835,0.0,0.0,0.0,-6.726862907409668,2.7840685844421387,6.002455234527588,1217.5755615234375,0
1992.268,-0.0005638503935188055,0.00031687587033957243,-0.00041117321234196424,0.0,0.0,0.0,0.0,0.00033728950074873865,0.004969051573425531,-0.0003713846963364631,0.9997790455818176,0.0,0.0,0.0,-6.720667362213135,2.785022735595703,5.990453243255615,1216.4541015625,0
2002.190999999999,-0.0005794850876554847,0.00034874447737820446,-0.00038003158988431096,0.0,0.0,0.0,0.0,0.0026364768855273724,-0.002223794814199209,-0.0001572362525621429,0.9992983937263489,0.0,0.0,0.0,-6.724125862121582,2.794423818588257,5.982724666595459,1217.080078125,0
2012.092999999999,-0.0006710159359499812,0.00029349757824093103,-0.00038446937105618417,0.0,0.0,0.0,0.0,0.0015964513877406716,-0.002658140379935503,0.0004254940140526742,0.9998417496681213,0.0,0.0,0.0,-6.717057704925537,2.791672706604004,5.9840087890625,1215.8009033203125,0
2022.0169999999998,-0.0005738449981436133,0.0003015075926668942,-0.000318906590109691,0.0,0.0,0.0,0.0,0.002449969993904233,0.004505370277911425,0.0021207951940596104,1.0013736486434937,0.0,0.0,0.0,-6.724110126495361,2.7971019744873047,6.006088733673096,1217.0772705078125,0
2031.9129999999986,-0.0006371233030222356,0.0002767546393442899,-0.0003399304114282131,0.0,0.0,0.0,0.0,0.0004151217290200293,0.0035894017200917006,-0.00015021675790194422,1.00251305103302,0.0,0.0,0.0,-6.716886043548584,2.78959059715271,5.991319179534912,1215.7696533203125,0
2041.8320000000003,-0.000605494249612093,0.0002938494726549834,-0.00028772163204848766,0.0,0.0,0.0,0.0,-0.00033586728386580944,-0.0031406318303197622,0.0009980532340705395,1.002310037612915,0.0,0.0,0.0,-6.720166206359863,2.799189329147339,5.991726398468018,1216.363525390625,0
2051.74,-0.0006776757654733956,0.00025613134494051337,-0.0002920835104305297,0.0,0.0,0.0,0.0,-0.0040183900855481625,-0.0031207725405693054,-0.0012144201900810003,0.9990658760070801,0.0,0.0,0.0,-6.712747573852539,2.7934975624084473,5.991127014160156,1215.0206298828125,0
2061.655999999999,-0.0006379546830430627,0.00026951919426210225,-0.00023082148982211947,0.0,0.0,0.0,0.0,-0.0004024154332000762,0.0015661520883440971,-0.0013561566593125463,1.0018582344055176,0.0,0.0,0.0,-6.715210914611816,2.8096232414245605,6.00507926940918,1215.466552734375,0
2071.5589999999993,-0.000690070737618953,0.0002712906280066818,-0.00024324850528500974,0.0,0.0,0.0,0.0,-0.00020683719776570797,-0.0019891690462827682,-0.0018570803804323077,1.0012431144714355,0.0,0.0,0.0,-6.708662033081055,2.8092408180236816,5.993198871612549,1214.2811279296875,0
2081.4789999999994,-0.0005844997940585017,0.00025254927459172904,-0.00016877525195013732,0.0,0.0,0.0,0.0,0.0015118970768526196,-0.002227935241535306,-0.0017266935901716352,0.9989478588104248,0.0,0.0,0.0,-6.716488838195801,2.8121554851531982,6.022845268249512,1215.69775390625,0
2091.383,-0.0006294875056482852,0.000248876865953207,-0.00018281341181136668,0.0,0.0,0.0,0.0,-0.001999031752347946,0.002159691881388426,-0.0028750530909746885,1.000428557395935,0.0,0.0,0.0,-6.709410667419434,2.80690598487854,6.0258307456970215,1214.4166259765625,0
2101.3089999999993,-0.0005701319314539433,0.00024893844965845346,-0.00011139547859784216,0.0,0.0,0.0,0.0,-0.0005765415844507515,0.004550574347376823,-0.0025502610951662064,1.0019551515579224,0.0,0.0,0.0,-6.719524383544922,2.817500352859497,6.031823635101318,1216.2471923828125,0
2111.206,-0.0006069168448448181,0.00023878438514657319,-0.00013155551278032362,0.0,0.0,0.0,0.0,0.0024916636757552624,0.0036906995810568333,-0.0031255646608769894,1.0012540817260742,0.0,0.0,0.0,-6.71329927444458,2.818230152130127,6.016955375671387,1215.1204833984375,0
2121.133,-0.0005701954942196608,0.00021065793407615274,-8.048118615988642e-05,0.0,0.0,0.0,0.0,-0.0011487264418974519,-5.560106728808023e-05,0.0014733874704688787,0.9988407492637634,0.0,0.0,0.0,-6.721384525299072,2.8126168251037598,6.024229526519775,1216.583984375,0
2131.030999999999,-0.000546964118257165,0.0002848501317203045,-0.00014421623200178146,0.0,0.0,0.0,0.0,0.002334434073418379,-0.0026720380410552025,-0.0009448996861465275,0.9984330534934998,0.0,0.0,0.0,-6.714025974273682,2.807352066040039,6.023196697235107,1215.2520751953125,0
