timestamp,stateEstimate.x,stateEstimate.y,stateEstimate.z,controller.cmd_thrust,controller.cmd_roll,controller.cmd_pitch,controller.cmd_yaw,controller.r_roll,controller.r_pitch,controller.r_yaw,controller.accelz,controller.actuatorThrust,controller.roll,controller.pitch,controller.yaw,controller.rollRate,controller.pitchRate,controller.yawRate,controller.ctr_yaw
0.0,-0.00015324931882787496,0.004928826354444027,0.00019779856665991247,0.0,0.0,0.0,0.0,0.0003003581368830055,0.0011123715667054057,6.188422412378713e-05,1.0009514093399048,0.0,0.0,0.0,4.410441875457764,3.360262393951416,6.006404876708984,-798.298828125,0
9.91399999999885,-0.00016722461441531777,0.004952683113515377,0.00015614545554853976,0.0,0.0,0.0,0.0,0.00037493507261388004,-0.0008555006934329867,0.00212885532528162,0.9988200664520264,0.0,0.0,0.0,4.415966987609863,3.3663365840911865,6.0031561851501465,-799.298828125,0
19.823999999998705,-9.731465979712084e-05,0.0049257902428507805,0.0002130496723111719,0.0,0.0,0.0,0.0,-0.004772901069372892,-0.0003424175374675542,0.0012992530828341842,1.000789761543274,0.0,0.0,0.0,4.411582946777344,3.364833116531372,5.997165203094482,-798.5052490234375,0
29.735999999998967,-0.00011874696792801842,0.004937606398016214,0.00017960114928428084,0.0,0.0,0.0,0.0,0.0011486366856843233,-0.0006840527639724314,0.003643372794613242,1.0008821487426758,0.0,0.0,0.0,4.418212413787842,3.3842251300811768,5.999793529510498,-799.7052612304688,0
39.64599999999882,-0.0001460503408452496,0.004933980293571949,0.00021826670854352415,0.0,0.0,0.0,0.0,0.0026099795941263437,-0.0028394984547048807,-0.0006818771362304688,1.0007975101470947,0.0,0.0,0.0,4.414877414703369,3.379443883895874,6.002357006072998,-799.1016235351562,0
49.55799999999908,-0.00012968941882718354,0.0049716089852154255,0.00013633078197017312,0.0,0.0,0.0,0.0,-0.0008264328353106976,0.004570327699184418,-0.000777199980802834,0.9998508095741272,0.0,0.0,0.0,4.420767784118652,3.3810274600982666,6.020232677459717,-800.1677856445312,0
59.483000000000175,-0.00011004719999618828,0.004939954727888107,0.00017432430468034,0.0,0.0,0.0,0.0,0.0009122483315877616,-0.0003183939552400261,0.00396100664511323,0.9996463060379028,0.0,0.0,0.0,4.415539264678955,3.3795673847198486,6.007554054260254,-799.2213745117188,0
69.3809999999994,-0.00010999136429745704,0.004968106746673584,0.00010597193613648415,0.0,0.0,0.0,0.0,-0.0017193820094689727,-0.005199246108531952,0.0018378283130005002,1.0006873607635498,0.0,0.0,0.0,4.422882556915283,3.385377883911133,6.01424503326416,-800.550537109375,0
79.30199999999968,-0.00010816924623213708,0.004939408041536808,0.00013472982391249388,0.0,0.0,0.0,0.0,0.0028634292539209127,-0.0018287565326318145,-0.0012869557831436396,1.0000075101852417,0.0,0.0,0.0,4.41826868057251,3.389800548553467,6.007911205291748,-799.7153930664062,0
89.20699999999852,-0.00011880886449944228,0.004961481783539057,7.873556751292199e-05,0.0,0.0,0.0,0.0,-0.0007082720403559506,-0.003006306476891041,0.0024920667055994272,1.000163197517395,0.0,0.0,0.0,4.425748825073242,3.389251470565796,6.008899688720703,-801.0693359375,0
99.1359999999986,-0.00014421089144889265,0.004980477504432201,0.00012417703692335635,0.0,0.0,0.0,0.0,-0.002316087717190385,-0.0034682040568441153,-0.0016662133857607841,0.9993559122085571,0.0,0.0,0.0,4.421555042266846,3.386033773422241,6.002642631530762,-800.3102416992188,0
109.03499999999985,-0.00018330052262172103,0.0049805911257863045,9.448826313018799e-05,0.0,0.0,0.0,0.0,-0.00021992198890075088,0.0022515906020998955,0.0014319677138701081,0.9961354732513428,0.0,0.0,0.0,4.42784309387207,3.391132116317749,6.006723403930664,-801.4484252929688,0
118.94999999999891,-7.035186717985198e-05,0.004924211651086807,0.0001413457066519186,0.0,0.0,0.0,0.0,-0.0013024044455960393,-0.004304185975342989,0.003635688917711377,0.9998791813850403,0.0,0.0,0.0,4.424747467041016,3.387477397918701,5.992023944854736,-800.8880615234375,0
128.85800000000017,-0.00011038751836167648,0.004929213784635067,0.00011679457384161651,0.0,0.0,0.0,0.0,-0.00050116959027946,-0.001394742401316762,-0.003553591901436448,1.0017144680023193,0.0,0.0,0.0,4.430366039276123,3.3942298889160156,5.994941234588623,-801.905029296875,0
138.76800000000003,-6.028081406839192e-05,0.004913428798317909,0.0001662467111600563,0.0,0.0,0.0,0.0,0.0026981595437973738,-0.00024595618015155196,0.0042837923392653465,1.000213384628296,0.0,0.0,0.0,4.425107479095459,3.3902175426483154,5.988267421722412,-800.9533081054688,0
148.67799999999988,-6.515071436297148e-05,0.004931549541652203,0.00010195656068390235,0.0,0.0,0.0,0.0,0.0033038712572306395,-0.0011378006311133504,-0.0004950967850163579,1.0001027584075928,0.0,0.0,0.0,4.429998874664307,3.393812656402588,5.991511821746826,-801.838623046875,0
158.59599999999955,-5.610856896964833e-05,0.004915705882012844,0.00013653245696332306,0.0,0.0,0.0,0.0,0.000775144319050014,0.000785929209087044,-0.0007502443040721118,1.0000838041305542,0.0,0.0,0.0,4.4253716468811035,3.384671211242676,5.990978240966797,-801.0010986328125,0
168.4979999999996,-0.00010050127457361668,0.0049205864779651165,0.0001216250893776305,0.0,0.0,0.0,0.0,-0.003996664192527533,-0.0024768225848674774,0.002493384527042508,0.9988711476325989,0.0,0.0,0.0,4.4313459396362305,3.385990619659424,5.991711139678955,-802.0823974609375,0
178.42000000000007,-8.580419671488926e-05,0.0049237413331866264,0.00017041651881299913,0.0,0.0,0.0,0.0,-0.0026767407543957233,-0.006300268694758415,0.00011116004316136241,0.9994186758995056,0.0,0.0,0.0,4.42827844619751,3.389035701751709,5.989138603210449,-801.5271606445312,0
188.3239999999987,-8.700347098056227e-05,0.004950036760419607,0.00010204473801422864,0.0,0.0,0.0,0.0,-0.003997196909040213,0.00015459659334737808,-0.0029984957072883844,1.0014556646347046,0.0,0.0,0.0,4.433578968048096,3.3978374004364014,6.011359691619873,-802.486572265625,0
198.25,-8.408963185502216e-05,0.004941219929605722,0.0001395547151332721,0.0,0.0,0.0,0.0,-0.0006542404880747199,-0.0007288803462870419,-0.0014214065158739686,1.0019443035125732,0.0,0.0,0.0,4.428985595703125,3.3981902599334717,6.005582809448242,-801.6552124023438,0
208.1439999999984,-9.326568397227675e-05,0.004963652230799198,8.068896568147466e-05,0.0,0.0,0.0,0.0,-0.001988055882975459,9.423411393072456e-05,0.0008345911046490073,0.9996939897537231,0.0,0.0,0.0,4.433164596557617,3.4073827266693115,6.008687973022461,-802.41162109375,0
218.0679999999993,-5.987320764688775e-05,0.004952127113938332,0.00012841663556173444,0.0,0.0,0.0,0.0,0.001912598148919642,6.724894774379209e-05,0.0004518254427239299,1.0004397630691528,0.0,0.0,0.0,4.42950963973999,3.4085793495178223,5.999088287353516,-801.7500610351562,0
227.97400000000016,-8.025628631003201e-05,0.004966880660504103,8.30467906780541e-05,0.0,0.0,0.0,0.0,0.0011019755620509386,0.00016822980251163244,-0.0004052023869007826,0.999809205532074,0.0,0.0,0.0,4.436216831207275,3.4145121574401855,6.003015995025635,-802.964111328125,0
237.8869999999988,-6.360111729009077e-05,0.004960922524333,0.00013064219092484564,0.0,0.0,0.0,0.0,0.0023121575359255075,0.0025490387342870235,0.0003334006469231099,0.9994223117828369,0.0,0.0,0.0,4.431481838226318,3.4081695079803467,5.995604515075684,-802.10693359375,0
247.79500000000007,-0.00011704675853252411,0.004950825124979019,0.00012048571079503745,0.0,0.0,0.0,0.0,-0.0029232357628643513,2.3507427613367327e-05,0.0006070294184610248,0.9973650574684143,0.0,0.0,0.0,4.436891078948975,3.4020872116088867,5.992805480957031,-803.0860595703125,0
257.71199999999953,-0.00014388427371159196,0.004940948914736509,0.0001511826121713966,0.0,0.0,0.0,0.0,0.0014557247050106525,-0.0029260492883622646,0.00042834776104427874,0.9994381070137024,0.0,0.0,0.0,4.439770221710205,3.4089794158935547,5.990854740142822,-803.607177734375,0
267.619999999999,-0.000131938184495084,0.004986682441085577,7.224564615171403e-05,0.0,0.0,0.0,0.0,-0.0011284190695732832,0.001135726342909038,0.0015465343603864312,0.999090313911438,0.0,0.0,0.0,4.4354143142700195,3.4059078693389893,5.987203598022461,-802.8187866210938,0
277.53899999999885,-6.980203761486337e-05,0.004973151721060276,0.00012346995936241,0.0,0.0,0.0,0.0,0.0015141722979024053,-0.00043682436808012426,-0.0011780285276472569,1.001091718673706,0.0,0.0,0.0,4.4312214851379395,3.402355670928955,5.975202560424805,-802.0598754882812,0
287.4399999999987,-9.080430027097464e-05,0.004977663978934288,7.370514504145831e-05,0.0,0.0,0.0,0.0,-0.0038494414184242487,-0.003817361779510975,-0.0018471626099199057,1.0019640922546387,0.0,0.0,0.0,4.4366774559021,3.398798704147339,5.975484848022461,-803.0474243164062,0
297.3670000000002,-0.0001135401107603684,0.004956178832799196,9.701953240437433e-05,0.0,0.0,0.0,0.0,0.0009213287266902626,0.0021992509718984365,0.0009121588664129376,1.0019912719726562,0.0,0.0,0.0,4.431881904602051,3.4029178619384766,5.9787187576293945,-802.179443359375,0
307.262999999999,-0.0001287511404370889,0.004972098860889673,3.957632725359872e-05,0.0,0.0,0.0,0.0,-0.001018399023450911,0.0009404108277522027,0.0026254248805344105,0.9999601244926453,0.0,0.0,0.0,4.4393744468688965,3.4062182903289795,5.984095096588135,-803.5355224609375,0
317.1880000000001,-3.578848918550648e-05,0.004920585546642542,8.228966180467978e-05,0.0,0.0,0.0,0.0,-0.0026876123156398535,-0.002561163855716586,0.003621464828029275,0.9982206225395203,0.0,0.0,0.0,4.435283660888672,3.40897274017334,5.985249042510986,-802.795166015625,0
327.0849999999991,-5.323886944097467e-05,0.004938793368637562,3.434882819419727e-05,0.0,0.0,0.0,0.0,-1.4834046851319727e-05,-0.003066829638555646,-0.0003657157940324396,1.0001437664031982,0.0,0.0,0.0,4.430917263031006,3.4101948738098145,5.978743553161621,-802.0048217773438,0
337.0049999999992,-9.297285578213632e-05,0.004925311077386141,5.4982992878649384e-05,0.0,0.0,0.0,0.0,0.000690328364726156,0.0013471271377056837,-0.0009098692680709064,1.0003156661987305,0.0,0.0,0.0,4.42692756652832,3.4075241088867188,5.975061893463135,-801.28271484375,0
346.91199999999844,-0.000110639251943212,0.004945393651723862,6.096230663388269e-06,0.0,0.0,0.0,0.0,-0.0005848472937941551,-0.005775200203061104,-0.0011045130668208003,1.0004712343215942,0.0,0.0,0.0,4.436777114868164,3.4110310077667236,5.976179599761963,-803.0654296875,0
356.83100000000013,-3.45829721482005e-05,0.004912188276648521,5.269513712846674e-05,0.0,0.0,0.0,0.0,-0.0011330944253131747,1.6586696801823564e-05,-1.9365066691534594e-05,0.9998286962509155,0.0,0.0,0.0,4.432160377502441,3.406951904296875,5.979577541351318,-802.2297973632812,0
366.7379999999994,-5.399245856096968e-05,0.0049291797913610935,1.0453371032781433e-05,0.0,0.0,0.0,0.0,-0.0003821682184934616,0.004098699428141117,0.00297651463188231,1.0004366636276245,0.0,0.0,0.0,4.427714824676514,3.4068686962127686,5.975235939025879,-801.4252319335938,0
376.65200000000004,-5.814131145598367e-05,0.004952945280820131,6.174363807076588e-05,0.0,0.0,0.0,0.0,0.0032381739001721144,-0.003961688838899136,-0.00034955519367940724,0.9997193813323975,0.0,0.0,0.0,4.423650741577148,3.4062740802764893,5.958089828491211,-800.6895751953125,0
386.5540000000001,-0.00011267961235716939,0.004935129079967737,5.061856427346356e-05,0.0,0.0,0.0,0.0,-0.0003401986323297024,0.003891561646014452,0.0003126055235043168,1.000022530555725,0.0,0.0,0.0,4.429409503936768,3.403568983078003,5.962032318115234,-801.73193359375,0
396.4830000000002,-7.766790076857433e-05,0.004919460043311119,9.823324216995388e-05,0.0,0.0,0.0,0.0,-0.002790482947602868,0.002005829941481352,0.001270243083126843,0.9989534616470337,0.0,0.0,0.0,4.4244208335876465,3.3950486183166504,5.950904846191406,-800.8289184570312,0
406.3769999999986,-8.805110701359808e-05,0.004961875267326832,4.307535709813237e-05,0.0,0.0,0.0,0.0,0.002246698597446084,-0.0004895093152299523,0.0007455003797076643,0.9992381930351257,0.0,0.0,0.0,4.4205193519592285,3.398254632949829,5.940553665161133,-800.122802734375,0
416.3019999999997,-0.00013062280777376145,0.004980162717401981,8.399830403504893e-05,0.0,0.0,0.0,0.0,0.0009996658191084862,0.0019417660078033805,-0.0008931272896006703,0.9995042085647583,0.0,0.0,0.0,4.416446208953857,3.39117169380188,5.933239459991455,-799.385498046875,0
426.2049999999999,-0.00020319335453677922,0.004932507872581482,7.557272328995168e-05,0.0,0.0,0.0,0.0,-0.002196255838498473,0.0016398943262174726,-0.000915184966288507,1.0005712509155273,0.0,0.0,0.0,4.4119672775268555,3.383744716644287,5.92180871963501,-798.5748901367188,0
436.1239999999998,-0.0001291059161303565,0.004955090582370758,0.0001619696122361347,0.0,0.0,0.0,0.0,0.0004219782422296703,-0.0020294999703764915,0.0003955777792725712,1.0002669095993042,0.0,0.0,0.0,4.413735866546631,3.387296438217163,5.939763069152832,-798.89501953125,0
446.02599999999984,-0.00016276686801575124,0.004963424056768417,0.00012889249774161726,0.0,0.0,0.0,0.0,0.002284539630636573,0.006099539343267679,-3.594282316043973e-05,0.998814046382904,0.0,0.0,0.0,4.420529365539551,3.3875765800476074,5.936964511871338,-800.1246337890625,0
455.9489999999987,-0.00017998558178078383,0.004955154377967119,0.000166610989253968,0.0,0.0,0.0,0.0,-0.003101434325799346,-0.001567350933328271,-0.0014153465162962675,1.000373363494873,0.0,0.0,0.0,4.416438102722168,3.3788325786590576,5.919764995574951,-799.3841552734375,0
465.85199999999895,-0.00020091247279196978,0.004988539963960648,0.0001257617404917255,0.0,0.0,0.0,0.0,7.673755317227915e-05,0.0005739809712395072,-0.001357087749056518,1.001713514328003,0.0,0.0,0.0,4.418292045593262,3.388329029083252,5.9259257316589355,-799.7197265625,0
475.7600000000002,-0.0001299768191529438,0.0049256980419158936,0.00016436180158052593,0.0,0.0,0.0,0.0,-0.003724710550159216,-0.0016054805601015687,-0.0012857656693086028,1.0014570951461792,0.0,0.0,0.0,4.413724899291992,3.382420301437378,5.920528888702393,-798.8930053710938,0
485.67199999999866,-0.00016041238268371671,0.004947391338646412,0.00013389572268351912,0.0,0.0,0.0,0.0,-0.0018377280794084072,-0.0008352388394996524,-0.0028122432995587587,1.0000133514404297,0.0,0.0,0.0,4.421295166015625,3.389829158782959,5.92872428894043,-800.2632446289062,0
495.5849999999991,-7.415361324092373e-05,0.004904771223664284,0.00019002256158273667,0.0,0.0,0.0,0.0,-0.0006080579478293657,-0.004659526981413364,-0.0003906712809111923,0.9992066025733948,0.0,0.0,0.0,4.416514873504639,3.3823628425598145,5.921238422393799,-799.3980102539062,0
505.5010000000002,-0.00011150012142024934,0.004911358002573252,0.0001646667515160516,0.0,0.0,0.0,0.0,-0.0012850462226197124,-0.003864908590912819,-0.0004288752097636461,1.000646710395813,0.0,0.0,0.0,4.419734001159668,3.385845422744751,5.931942462921143,-799.980712890625,0
515.4079999999994,-6.831298378529027e-05,0.004885335452854633,0.00021971882961224765,0.0,0.0,0.0,0.0,-0.001980819273740053,-0.002396554918959737,0.0006724238628521562,0.9989619255065918,0.0,0.0,0.0,4.415417194366455,3.3803534507751465,5.926422119140625,-799.1992797851562,0
525.3199999999997,-9.333456546301022e-05,0.0049120537005364895,0.00018538159201852977,0.0,0.0,0.0,0.0,0.000992475776001811,-0.005790804047137499,0.002953366842120886,0.9988420605659485,0.0,0.0,0.0,4.421935081481934,3.392188549041748,5.932554721832275,-800.3790893554688,0
535.2299999999996,-6.357978418236598e-05,0.00488295778632164,0.00023375099408440292,0.0,0.0,0.0,0.0,-0.0005323185469023883,-0.0041974810883402824,0.004219193942844868,0.999304473400116,0.0,0.0,0.0,4.41868257522583,3.385333299636841,5.933651447296143,-799.790283203125,0
545.1439999999984,-6.644738459726796e-05,0.004918837454169989,0.00017028757429216057,0.0,0.0,0.0,0.0,8.638541476102546e-05,0.004368085879832506,-0.002088656648993492,1.0001028776168823,0.0,0.0,0.0,4.423183917999268,3.4007649421691895,5.941272735595703,-800.6051025390625,0
555.0579999999991,-2.317604776180815e-05,0.004857977386564016,0.0002017531223827973,0.0,0.0,0.0,0.0,-0.003011679742485285,0.0002885804860852659,-0.00028090947307646275,1.0003796815872192,0.0,0.0,0.0,4.4182448387146,3.398110866546631,5.926266193389893,-799.7111206054688,0
564.9639999999999,-5.23481285199523e-05,0.004882298409938812,0.00017256042337976396,0.0,0.0,0.0,0.0,0.0025689806789159775,0.0038958562072366476,-0.0003533786511979997,1.0023123025894165,0.0,0.0,0.0,4.425036907196045,3.4040935039520264,5.926087856292725,-800.9404907226562,0
574.8779999999988,-6.0787348047597334e-05,0.004878131207078695,0.00021735015616286546,0.0,0.0,0.0,0.0,-0.0016227106098085642,0.0007927531842142344,0.002099585486575961,1.001490592956543,0.0,0.0,0.0,4.420681953430176,3.39516544342041,5.911751747131348,-800.1522216796875,0
584.7869999999984,-9.071151725947857e-05,0.004888330120593309,0.00018771665054373443,0.0,0.0,0.0,0.0,0.001390390913002193,0.0029076584614813328,-0.002870837925001979,1.0006072521209717,0.0,0.0,0.0,4.426858425140381,3.398106336593628,5.909294128417969,-801.2702026367188,0
594.6989999999987,-8.829051512293518e-05,0.004874388687312603,0.00023697300639469177,0.0,0.0,0.0,0.0,0.0012489933287724853,0.0012773254420608282,0.000602124142460525,0.9998600482940674,0.0,0.0,0.0,4.420853614807129,3.394991636276245,5.891353130340576,-800.183349609375,0
604.610999999999,-6.658484926447272e-05,0.004939221311360598,0.00016123232489917427,0.0,0.0,0.0,0.0,-6.311518518486992e-05,-0.00543971499428153,0.0020709740929305553,0.9990319013595581,0.0,0.0,0.0,4.416254997253418,3.388474941253662,5.878432273864746,-799.3510131835938,0
614.527,-4.881784843746573e-05,0.004904824309051037,0.00019803375471383333,0.0,0.0,0.0,0.0,0.00045920771663077176,0.004125966690480709,0.0031298629473894835,0.9996950030326843,0.0,0.0,0.0,4.411818981170654,3.386687994003296,5.882762432098389,-798.5480346679688,0
624.4339999999993,-8.299211913254112e-05,0.004909367300570011,0.00017160082643385977,0.0,0.0,0.0,0.0,0.0012158742174506187,-0.0007704297313466668,0.00021666524116881192,1.001700520515442,0.0,0.0,0.0,4.417675971984863,3.3919169902801514,5.872653961181641,-799.608154296875,0
634.3449999999993,-9.61059849942103e-05,0.004900876432657242,0.0002129813947249204,0.0,0.0,0.0,0.0,-0.0008152288501150906,0.005059742368757725,-0.00391018483787775,1.000842571258545,0.0,0.0,0.0,4.412165641784668,3.385911226272583,5.8711934089660645,-798.61083984375,0
644.2569999999996,-0.00012133893324062228,0.00492121372371912,0.0001758923608576879,0.0,0.0,0.0,0.0,0.0014502070844173431,0.0002797639463096857,0.0002722798672039062,0.9998997449874878,0.0,0.0,0.0,4.414684295654297,3.3909969329833984,5.865077495574951,-799.066650390625,0
654.1689999999999,-0.00013033072173129767,0.004885950591415167,0.00021137863222975284,0.0,0.0,0.0,0.0,-0.0012622008798643947,-0.0029100922401994467,0.0013548445422202349,1.0011788606643677,0.0,0.0,0.0,4.4109601974487305,3.384528636932373,5.857526779174805,-798.392578125,0
664.0829999999987,-0.00012081669410690665,0.004939185921102762,0.00013522346853278577,0.0,0.0,0.0,0.0,0.0030292391311377287,0.0011776875471696258,0.0016904495423659682,1.0015712976455688,0.0,0.0,0.0,4.421085357666016,3.4088456630706787,5.878632545471191,-800.2252197265625,0
673.9920000000002,-9.10588787519373e-05,0.004931105300784111,0.0001946428674273193,0.0,0.0,0.0,0.0,-0.003778100246563554,-0.0003693985054269433,0.0006950661190785468,0.998550534248352,0.0,0.0,0.0,4.416191101074219,3.40036678314209,5.869104862213135,-799.33935546875,0
683.905999999999,-9.882439189823344e-05,0.0049630822613835335,0.00013197668886277825,0.0,0.0,0.0,0.0,0.0021384272258728743,0.0008420419762842357,-0.0022558309137821198,0.9991543292999268,0.0,0.0,0.0,4.423420429229736,3.419771671295166,5.878295421600342,-800.64794921875,0
693.8220000000001,-7.373953121714294e-05,0.004942618310451508,0.00018156484293285757,0.0,0.0,0.0,0.0,0.0011577297700569034,-0.0007024764781817794,-0.002265660325065255,0.9987610578536987,0.0,0.0,0.0,4.41992712020874,3.412140130996704,5.869136333465576,-800.0155639648438,0
703.7330000000002,-4.843774513574317e-05,0.004997081123292446,7.826197543181479e-05,0.0,0.0,0.0,0.0,0.0022123358212411404,-0.0012820856645703316,0.0027435971423983574,1.0012644529342651,0.0,0.0,0.0,4.424262046813965,3.424772024154663,5.875434398651123,-800.8002319335938,0
713.6389999999992,-9.042346391652245e-06,0.0049369437620043755,0.00010305344039807096,0.0,0.0,0.0,0.0,-0.0008144164457917213,0.001151991542428732,0.00029382517095655203,0.999158501625061,0.0,0.0,0.0,4.420873165130615,3.41995906829834,5.879345893859863,-800.1868286132812,0
723.5529999999999,-2.6241197701892816e-05,0.004979556426405907,5.272345515550114e-05,0.0,0.0,0.0,0.0,0.00021768627630081028,0.0002846678253263235,-0.0007241713465191424,1.0008645057678223,0.0,0.0,0.0,4.425661563873291,3.43723726272583,5.877272129058838,-801.053466796875,0
733.4629999999997,-1.1824245120806154e-05,0.004925209563225508,6.898016727063805e-05,0.0,0.0,0.0,0.0,-0.002594792051240802,-0.002532406710088253,-0.000237931395531632,1.0024183988571167,0.0,0.0,0.0,4.421320915222168,3.440258741378784,5.877573013305664,-800.2679443359375,0
743.3739999999998,2.118910288118059e-06,0.004987927153706551,-1.6883401258382946e-05,0.0,0.0,0.0,0.0,0.0022715902887284756,0.0022800813894718885,-0.00023037449864204973,1.0017064809799194,0.0,0.0,0.0,4.4239373207092285,3.4606497287750244,5.894420146942139,-800.741455078125,0
753.2989999999991,-5.387267083278857e-05,0.0049897232092916965,7.718575943727046e-06,0.0,0.0,0.0,0.0,3.08330672851298e-05,0.0026223205495625734,-0.0003175624879077077,1.000985860824585,0.0,0.0,0.0,4.419903755187988,3.451901435852051,5.884043216705322,-800.0113525390625,0
763.2009999999991,-0.00013551610754802823,0.004950839094817638,-3.0043024707993027e-06,0.0,0.0,0.0,0.0,0.0009592886781319976,0.00043386712786741555,-0.00035697277053259313,1.0009263753890991,0.0,0.0,0.0,4.429726600646973,3.4482007026672363,5.882974147796631,-801.7893676757812,0
773.125,-8.63985187606886e-05,0.004952775314450264,6.308617594186217e-05,0.0,0.0,0.0,0.0,0.0006421859725378454,5.077433161204681e-05,0.00114917301107198,1.0003572702407837,0.0,0.0,0.0,4.425807476043701,3.4420275688171387,5.880711078643799,-801.0799560546875,0
783.0249999999996,-0.00016585577395744622,0.0049273367039859295,6.902091990923509e-05,0.0,0.0,0.0,0.0,-0.0008132661459967494,0.0016350512159988284,0.0041543240658938885,0.9986122250556946,0.0,0.0,0.0,4.432059288024902,3.4352803230285645,5.874849796295166,-802.2115478515625,0
792.9389999999985,-0.0002346718974877149,0.004952098708599806,0.0001181973930215463,0.0,0.0,0.0,0.0,-0.0027834023348987103,-0.0007955192122608423,-3.331674452056177e-05,0.9986404180526733,0.0,0.0,0.0,4.428468704223633,3.4301297664642334,5.869840621948242,-801.5615844726562,0
802.8439999999991,-0.0002833824837580323,0.0049430858343839645,8.517219976056367e-05,0.0,0.0,0.0,0.0,-0.00038666799082420766,0.0007151937461458147,-0.000772360188420862,0.999758780002594,0.0,0.0,0.0,4.432477951049805,3.4373180866241455,5.874752044677734,-802.2872314453125,0
812.768,-0.0002641300961840898,0.004929735790938139,0.00014440690574701875,0.0,0.0,0.0,0.0,0.003931213170289993,-0.0007025724626146257,0.0009262149105779827,1.00082266330719,0.0,0.0,0.0,4.4286417961120605,3.434119939804077,5.869890213012695,-801.5929565429688,0
822.6669999999995,-0.0003414736711420119,0.004920175299048424,0.000150984589708969,0.0,0.0,0.0,0.0,-0.004684354178607464,0.0007538045174442232,0.003344903700053692,0.9993299245834351,0.0,0.0,0.0,4.4329962730407715,3.4283206462860107,5.869696617126465,-802.381103515625,0
832.5889999999999,-0.0001834445574786514,0.004858674481511116,0.00023352744756266475,0.0,0.0,0.0,0.0,-0.0004114134644623846,-0.00013300578575581312,0.0013897644821554422,0.9998902082443237,0.0,0.0,0.0,4.431294918060303,3.424025297164917,5.903476715087891,-802.0732421875,0
842.4979999999996,-0.0002155185502488166,0.004886863753199577,0.0001985886337934062,0.0,0.0,0.0,0.0,-0.00011639131844276562,-0.0015099782031029463,0.0025922683998942375,1.0018768310546875,0.0,0.0,0.0,4.436507701873779,3.429074764251709,5.906233787536621,-803.0166625976562,0
852.4139999999989,-0.00017875281628221273,0.004872505087405443,0.0002672663249541074,0.0,0.0,0.0,0.0,0.0035248699132353067,0.004967613145709038,-0.0004683808656409383,0.9994552135467529,0.0,0.0,0.0,4.4334306716918945,3.4272491931915283,5.905004024505615,-802.4597778320312,0
862.3149999999987,-0.00020632865198422223,0.004903309978544712,0.00022859541059006006,0.0,0.0,0.0,0.0,0.0003744642890524119,0.00206436263397336,0.0005585799226537347,0.9988271594047546,0.0,0.0,0.0,4.428433418273926,3.41489577293396,5.8862810134887695,-801.5552368164062,0
872.2399999999998,-0.00017381712677888572,0.004871578421443701,0.0002838224172592163,0.0,0.0,0.0,0.0,-0.002535481471568346,0.003580760909244418,-0.0013137087225914001,1.0006436109542847,0.0,0.0,0.0,4.42349100112915,3.4097206592559814,5.871249198913574,-800.66064453125,0
882.1389999999992,-0.00020081966067664325,0.0048825922422111034,0.0002379849465796724,0.0,0.0,0.0,0.0,-0.002213201252743602,-0.001588079729117453,-3.765006840694696e-05,1.0002596378326416,0.0,0.0,0.0,4.428123474121094,3.4196841716766357,5.870278835296631,-801.4990844726562,0
892.0589999999993,-0.00014024326810613275,0.004821891896426678,0.00028663486591540277,0.0,0.0,0.0,0.0,-0.0008358595659956336,0.0016311443177983165,-0.0014701777836307883,0.9982665777206421,0.0,0.0,0.0,4.423943519592285,3.4203362464904785,5.873415946960449,-800.7425537109375,0
901.9659999999985,-0.00017975957598537207,0.0048143635503947735,0.00025298938271589577,0.0,0.0,0.0,0.0,-0.0025895845610648394,0.0035293560940772295,-0.0004314918478485197,0.9998324513435364,0.0,0.0,0.0,4.418285369873047,3.418647050857544,5.8594160079956055,-799.7184448242188,0
911.8809999999994,-0.00017870408191811293,0.004804237745702267,0.00030886780587024987,0.0,0.0,0.0,0.0,-0.00033356944913975894,-0.002251432277262211,-2.0831135771004483e-05,0.9996985793113708,0.0,0.0,0.0,4.413749694824219,3.421536684036255,5.847322463989258,-798.8974609375,0
921.7839999999997,-0.0001853640133049339,0.004853866528719664,0.0002504931762814522,0.0,0.0,0.0,0.0,-0.00025915136211551726,-0.008649716153740883,-0.0005591956432908773,0.9986000657081604,0.0,0.0,0.0,4.417588233947754,3.4367806911468506,5.864869594573975,-799.59228515625,0
931.7039999999997,-0.00016411032993346453,0.0048436447978019714,0.0003098029410466552,0.0,0.0,0.0,0.0,0.0003223400271963328,-0.0045334286987781525,-0.000678888289257884,0.9984151124954224,0.0,0.0,0.0,4.413223743438721,3.435147762298584,5.8727240562438965,-798.8023681640625,0
941.6080000000002,-0.00017912700423039496,0.004889320116490126,0.0002609664516057819,0.0,0.0,0.0,0.0,-0.001891448744572699,0.00617933040484786,-0.00496046245098114,0.9986854791641235,0.0,0.0,0.0,4.40867805480957,3.4314606189727783,5.873096466064453,-797.9794921875,0
951.5279999999984,-0.0001697547995718196,0.0048722936771810055,0.00030639179749414325,0.0,0.0,0.0,0.0,0.0017809885321184993,-0.0005224390188232064,0.00455812131986022,0.9992532134056091,0.0,0.0,0.0,4.4029669761657715,3.434142589569092,5.854830741882324,-796.9457397460938,0
961.4309999999987,-0.0001610415056347847,0.0049180747009813786,0.00021710223518311977,0.0,0.0,0.0,0.0,0.001356606837362051,-0.0020588564220815897,-0.0006427810294553638,1.0000462532043457,0.0,0.0,0.0,4.412132740020752,3.4369633197784424,5.87144136428833,-798.6047973632812,0
971.3549999999996,-0.00015941246238071471,0.004887624643743038,0.0002484975557308644,0.0,0.0,0.0,0.0,0.0016362480819225311,0.001007739338092506,0.001138131134212017,0.9995269775390625,0.0,0.0,0.0,4.407629013061523,3.432199239730835,5.860794544219971,-797.7896118164062,0
981.2559999999994,-0.00024241233768407255,0.004852010402828455,0.0002509494370315224,0.0,0.0,0.0,0.0,-0.0030711772851645947,-0.0025470303371548653,0.0022689681500196457,0.9995735287666321,0.0,0.0,0.0,4.403402328491211,3.4217183589935303,5.848036766052246,-797.0245971679688,0
991.1869999999999,-0.00023433909518644214,0.004827690310776234,0.0002708836109377444,0.0,0.0,0.0,0.0,0.00034896505530923605,0.002986954990774393,-0.003401979571208358,1.0011285543441772,0.0,0.0,0.0,4.3994669914245605,3.423539876937866,5.84375524520874,-796.312255859375,0
1001.0779999999995,-0.000323364365613088,0.004790090955793858,0.00027538364520296454,0.0,0.0,0.0,0.0,0.0004610148025676608,-0.0028197183273732662,0.00016963848611339927,1.0002412796020508,0.0,0.0,0.0,4.39452600479126,3.422680616378784,5.824553966522217,-795.41796875,0
1011.009,-0.0003032828972209245,0.004806204233318567,0.00031515848240815103,0.0,0.0,0.0,0.0,0.0001349935628240928,0.001530977664515376,0.0005626069032587111,1.0009574890136719,0.0,0.0,0.0,4.38991117477417,3.4187235832214355,5.820224761962891,-794.5827026367188,0
1020.9069999999992,-0.00025899516185745597,0.004938467871397734,9.213879820890725e-05,0.0,0.0,0.0,0.0,0.0017207146156579256,0.0022734554950147867,-0.0025347592309117317,0.9991399049758911,0.0,0.0,0.0,4.398345947265625,3.4541056156158447,5.834089279174805,-796.109375,0
1030.833999999999,-0.00021877385734114796,0.004901267122477293,0.00013890492846257985,0.0,0.0,0.0,0.0,-0.00364119210280478,6.342649612633977e-06,0.0004403221537359059,0.999267041683197,0.0,0.0,0.0,4.393612861633301,3.4435856342315674,5.823999881744385,-795.252685546875,0
1040.735999999999,-0.00023805160890333354,0.004942739382386208,3.497404031804763e-05,0.0,0.0,0.0,0.0,0.002761525334790349,0.0026767367962747812,0.0015230460558086634,0.9974433183670044,0.0,0.0,0.0,4.402488708496094,3.4605603218078613,5.83119535446167,-796.859130859375,0
1050.6549999999988,-0.00016301630239468068,0.0049345362931489944,0.00010690122144296765,0.0,0.0,0.0,0.0,0.0011568121844902635,-0.0037362901493906975,-0.0015035150572657585,0.9975550770759583,0.0,0.0,0.0,4.398683547973633,3.4551682472229004,5.823204517364502,-796.17041015625,0
1060.5509999999995,-0.00022720603737980127,0.004938557278364897,7.114795880625024e-05,0.0,0.0,0.0,0.0,0.0007871707784943283,0.0020872182212769985,-0.0019548421259969473,0.9963542222976685,0.0,0.0,0.0,4.406120777130127,3.4579193592071533,5.825854778289795,-797.5166015625,0
1070.4719999999998,-0.00012442783918231726,0.004868785385042429,0.00011134221858810633,0.0,0.0,0.0,0.0,0.0014460358070209622,0.001324418350122869,0.0013682182179763913,0.9983856678009033,0.0,0.0,0.0,4.400840759277344,3.4574759006500244,5.814270496368408,-796.5608520507812,0
1080.3769999999986,-0.0001909791026264429,0.0048723178915679455,8.071993215708062e-05,0.0,0.0,0.0,0.0,0.0037358608096837997,7.175692735472694e-05,-8.531434286851436e-05,0.9975484013557434,0.0,0.0,0.0,4.4064178466796875,3.455684185028076,5.803653240203857,-797.5703125,0
1090.3019999999997,-0.00015736640489194542,0.004863351583480835,0.00012809474719688296,0.0,0.0,0.0,0.0,-0.0004652171046473086,-0.0032094470225274563,-0.00223675393499434,0.9987834692001343,0.0,0.0,0.0,4.402248859405518,3.4445998668670654,5.800063133239746,-796.8157958984375,0
1100.205,-0.0002600803563836962,0.004817751701921225,0.00012783000420313329,0.0,0.0,0.0,0.0,0.0025666102301329374,0.000487456884002313,0.005381349474191666,1.0011661052703857,0.0,0.0,0.0,4.410106182098389,3.443401575088501,5.803384304046631,-798.238037109375,0
1110.1189999999988,-0.00019134918693453074,0.004804711788892746,0.00019225057621952146,0.0,0.0,0.0,0.0,0.0009497583378106356,-0.000767475925385952,-0.004206096287816763,1.0006643533706665,0.0,0.0,0.0,4.406393051147461,3.4391050338745117,5.797244071960449,-797.56591796875,0
1120.0239999999994,-0.00022420985624194145,0.004846879746764898,0.00013660495460499078,0.0,0.0,0.0,0.0,-0.0025023920461535454,0.0005044420249760151,-0.003546609543263912,0.9997551441192627,0.0,0.0,0.0,4.4132399559021,3.4442477226257324,5.800295352935791,-798.8052368164062,0
1129.9569999999985,-0.00022043532226234674,0.004823925904929638,0.0001745120098348707,0.0,0.0,0.0,0.0,0.0010521406074985862,-0.0013700543204322457,0.0014440893428400159,0.9993463158607483,0.0,0.0,0.0,4.407708644866943,3.4474496841430664,5.792182922363281,-797.8040161132812,0
1139.8419999999987,-0.0002542319125495851,0.004878835752606392,0.00012435688404366374,0.0,0.0,0.0,0.0,0.001467579510062933,0.002040509134531021,0.000671697489451617,0.9988852739334106,0.0,0.0,0.0,4.4036760330200195,3.4424335956573486,5.784836769104004,-797.0740966796875,0
1149.7699999999986,-0.00021011866920161992,0.004901907406747341,0.00020064174896106124,0.0,0.0,0.0,0.0,0.0033620225731283426,0.0045227655209600925,0.0010108306305482984,1.0001111030578613,0.0,0.0,0.0,4.399028301239014,3.434535026550293,5.777031421661377,-796.23291015625,0
1159.664999999999,-0.00025755917886272073,0.004883261397480965,0.00013575059711001813,0.0,0.0,0.0,0.0,-0.000885297660715878,-0.005243132822215557,-0.0014378862688317895,0.9996500611305237,0.0,0.0,0.0,4.404919147491455,3.4256043434143066,5.771847724914551,-797.299072265625,0
1169.5869999999995,-0.000275016383966431,0.004896183963865042,0.00018585762882139534,0.0,0.0,0.0,0.0,-0.0004783131298609078,-0.005606350023299456,-0.0016309568891301751,1.002135992050171,0.0,0.0,0.0,4.400921821594238,3.4225475788116455,5.783412456512451,-796.5755615234375,0
1179.4879999999994,-0.00031129317358136177,0.004936917219310999,0.00013524125097319484,0.0,0.0,0.0,0.0,-2.1876814571442083e-05,-0.0017778262263163924,-0.0010732352966442704,1.000343680381775,0.0,0.0,0.0,4.396120548248291,3.4240245819091797,5.784284591674805,-795.7064819335938,0
1189.423999999999,-0.0002756810572464019,0.004921416752040386,0.00018997740698978305,0.0,0.0,0.0,0.0,-0.0002713928697630763,-0.0019454492721706629,-0.0014408439164981246,1.0022846460342407,0.0,0.0,0.0,4.390945911407471,3.425248622894287,5.782436847686768,-794.77001953125,0
1199.3149999999987,-0.0003086849465034902,0.004951809532940388,0.00013267697067931294,0.0,0.0,0.0,0.0,0.002926628803834319,0.0031253064516931772,0.0019980964716523886,0.9994073510169983,0.0,0.0,0.0,4.397251605987549,3.4350075721740723,5.785312652587891,-795.9112548828125,0
1209.241,-0.00024264297098852694,0.0048972927033901215,0.0001799711462808773,0.0,0.0,0.0,0.0,-0.00012661036453209817,0.003682384267449379,-0.0005650065722875297,0.9992906451225281,0.0,0.0,0.0,4.393459320068359,3.423166513442993,5.774227619171143,-795.224853515625,0
1219.1369999999988,-0.00023774869623593986,0.004961453378200531,8.264734060503542e-05,0.0,0.0,0.0,0.0,0.00038971658796072006,-0.00197335472330451,0.0011293021962046623,1.0005755424499512,0.0,0.0,0.0,4.39675235748291,3.4359190464019775,5.775084018707275,-795.8208618164062,0
1229.057999999999,-0.00016951998986769468,0.004926767665892839,0.0001353024272248149,0.0,0.0,0.0,0.0,-0.0003886027552653104,0.004071809817105532,-0.001337605295702815,1.0003479719161987,0.0,0.0,0.0,4.400477409362793,3.422868251800537,5.795219421386719,-796.4951782226562,0
1238.9599999999991,-0.00018303602701053023,0.00498774740844965,6.362898420775309e-05,0.0,0.0,0.0,0.0,0.0026040871161967516,0.0034499226603657007,-0.0017347257817164063,1.000540018081665,0.0,0.0,0.0,4.405157089233398,3.432831048965454,5.791862487792969,-797.3421630859375,0
1248.8819999999996,-0.00010414903226774186,0.004908024799078703,9.422942821402103e-05,0.0,0.0,0.0,0.0,4.371833347249776e-05,-0.00047532530152238905,-0.005499039776623249,1.0008695125579834,0.0,0.0,0.0,4.400369644165039,3.4214584827423096,5.781208038330078,-796.4757080078125,0
1258.7829999999994,-0.0001471011491958052,0.004922694060951471,4.310540680307895e-05,0.0,0.0,0.0,0.0,-0.0027605765499174595,0.004018548876047134,-0.0022611122112721205,0.9987537264823914,0.0,0.0,0.0,4.406496047973633,3.4246740341186523,5.792397499084473,-797.58447265625,0
1268.717999999999,-0.00012084290210623294,0.004866512957960367,6.840495188953355e-05,0.0,0.0,0.0,0.0,-0.004105474334210157,0.0015720694791525602,0.0025511453859508038,0.9996415376663208,0.0,0.0,0.0,4.402186870574951,3.424762725830078,5.775336742401123,-796.8045654296875,0
1278.610999999999,-0.00011237840226385742,0.00497021246701479,-1.874862937256694e-05,0.0,0.0,0.0,0.0,0.0013832531403750181,0.0004603878187481314,-0.0002319275663467124,1.001658320426941,0.0,0.0,0.0,4.406670570373535,3.452953338623047,5.785770893096924,-797.6160888671875,0
1288.5369999999984,-8.667964721098542e-05,0.004911561496555805,-4.048747541673947e-07,0.0,0.0,0.0,0.0,-0.002096492098644376,0.003924065735191107,-0.002034268341958523,1.0001531839370728,0.0,0.0,0.0,4.408987998962402,3.437260866165161,5.799543380737305,-798.0355834960938,0
1298.4339999999993,-0.00015587267989758402,0.004906933289021254,-2.7810194296762347e-05,0.0,0.0,0.0,0.0,-0.0011035613715648651,0.0015411594649776816,-0.004311940632760525,0.9988957047462463,0.0,0.0,0.0,4.4171319007873535,3.437119483947754,5.790104866027832,-799.5097045898438,0
1308.3529999999992,-0.0001511161681264639,0.004908434115350246,2.0430476070032455e-05,0.0,0.0,0.0,0.0,0.0004200930998194963,0.0008730984409339726,0.0023916959762573242,1.0013846158981323,0.0,0.0,0.0,4.411870956420898,3.4338388442993164,5.773249626159668,-798.5574340820312,0
1318.2519999999986,-0.00019327110203448683,0.004946421831846237,-2.7492575100040995e-05,0.0,0.0,0.0,0.0,0.0012278917711228132,-0.0036583086475729942,-0.0033561161253601313,1.0028592348098755,0.0,0.0,0.0,4.408354759216309,3.424687623977661,5.763513565063477,-797.9209594726562,0
1328.1769999999997,-0.00015195392188616097,0.004929129499942064,2.7616435545496643e-05,0.0,0.0,0.0,0.0,-0.001811860129237175,0.004947522189468145,0.00067517178831622,1.0018036365509033,0.0,0.0,0.0,4.403220176696777,3.415942430496216,5.7656707763671875,-796.9915161132812,0
1338.0779999999995,-0.00024896004470065236,0.004893350414931774,3.2048075809143484e-05,0.0,0.0,0.0,0.0,0.0013945206301286817,0.00015247517148964107,0.0005587261985056102,1.0030962228775024,0.0,0.0,0.0,4.399296283721924,3.4124035835266113,5.75387716293335,-796.2813110351562,0
1347.9959999999992,-0.00018787803128361702,0.004901539534330368,8.047153824009001e-05,0.0,0.0,0.0,0.0,-0.002717200666666031,0.000396428833482787,-0.0024138870649039745,1.001395344734192,0.0,0.0,0.0,4.396030902862549,3.4076342582702637,5.7478203773498535,-795.6903076171875,0
1357.8989999999994,-0.0002532396756578237,0.004911812953650951,5.283717473503202e-05,0.0,0.0,0.0,0.0,0.0036490510683506727,0.0021784580312669277,-2.309174305992201e-05,0.9982450008392334,0.0,0.0,0.0,4.400986671447754,3.417107105255127,5.746637344360352,-796.5873413085938,0
1367.825999999999,-0.00023543075076304376,0.004890379961580038,0.00011728174285963178,0.0,0.0,0.0,0.0,0.00047640869161114097,0.0024956052657216787,-0.002785387448966503,1.0010915994644165,0.0,0.0,0.0,4.397395610809326,3.40885591506958,5.736252307891846,-795.9373779296875,0
1377.7219999999998,-0.0002889056922867894,0.004926120396703482,8.523429278284311e-05,0.0,0.0,0.0,0.0,0.002361619146540761,-0.0005208588554523885,-0.0022216099314391613,1.0015491247177124,0.0,0.0,0.0,4.39236307144165,3.4099740982055664,5.726015090942383,-795.0264282226562,0
1387.6489999999994,-0.00018963171169161797,0.004911669995635748,0.00019186812278348953,0.0,0.0,0.0,0.0,0.0015864252345636487,-0.0012339153327047825,-0.003582037054002285,1.0004538297653198,0.0,0.0,0.0,4.386916160583496,3.4067537784576416,5.715142726898193,-794.04052734375,0
1397.548999999999,-0.0002631756360642612,0.004882119596004486,0.00017341325292363763,0.0,0.0,0.0,0.0,0.0011165100149810314,0.0006123649072833359,0.0031465080101042986,1.0004926919937134,0.0,0.0,0.0,4.381471633911133,3.3998284339904785,5.710868835449219,-793.0550537109375,0
1407.4650000000001,-0.00024510969524271786,0.004839926492422819,0.00023525457072537392,0.0,0.0,0.0,0.0,-0.0006852130754850805,0.004608676768839359,-0.001860738848336041,1.000304102897644,0.0,0.0,0.0,4.378546714782715,3.3924143314361572,5.702444553375244,-792.525634765625,0
1417.369999999999,-0.0002733035944402218,0.004883203189820051,0.0001833041460486129,0.0,0.0,0.0,0.0,0.0010464377701282501,-0.005773472134023905,-0.000612664211075753,1.0011510848999023,0.0,0.0,0.0,4.387553691864014,3.4027252197265625,5.696524143218994,-794.156005859375,0
1427.2969999999987,-0.00022436714789364487,0.004863852635025978,0.0002654474519658834,0.0,0.0,0.0,0.0,-0.0004898870247416198,0.00553172267973423,-0.0014903451083227992,0.999965488910675,0.0,0.0,0.0,4.382920742034912,3.395174980163574,5.703670024871826,-793.3173828125,0
1437.2039999999997,-0.0003014322428498417,0.0048429472371935844,0.0002605590270832181,0.0,0.0,0.0,0.0,0.00017256991122849286,-0.00109313044231385,-0.003448358504101634,0.9986031651496887,0.0,0.0,0.0,4.39353609085083,3.393413782119751,5.6905364990234375,-795.2387084960938,0
1447.1179999999986,-0.000263237307080999,0.0047952840104699135,0.0003275950439274311,0.0,0.0,0.0,0.0,-0.002924225991591811,-0.005013887770473957,0.004396860487759113,0.9997085332870483,0.0,0.0,0.0,4.3883137702941895,3.3883211612701416,5.681543827056885,-794.2935180664062,0
1457.0289999999986,-0.0002654876734595746,0.004882748704403639,0.0002652814728207886,0.0,0.0,0.0,0.0,-0.0007302658050321043,-0.0010136942146345973,-0.00033862004056572914,0.9998563528060913,0.0,0.0,0.0,4.384965896606445,3.3899359703063965,5.682610034942627,-793.6876220703125,0
1466.9519999999993,-0.0002334066084586084,0.004824839532375336,0.00031680866959504783,0.0,0.0,0.0,0.0,-0.0007538952049799263,0.0022846658248454332,-0.0024560694582760334,1.0001317262649536,0.0,0.0,0.0,4.386794567108154,3.3844363689422607,5.693150997161865,-794.0185546875,0
1476.8459999999995,-0.00020143704023212194,0.004924186039716005,0.00020549149485304952,0.0,0.0,0.0,0.0,0.000974266673438251,0.004528682213276625,0.0027457575779408216,1.0007860660552979,0.0,0.0,0.0,4.3877105712890625,3.40614652633667,5.707207202911377,-794.184326171875,0
1486.7669999999998,-0.0001752336393110454,0.004903076216578484,0.0002672367845661938,0.0,0.0,0.0,0.0,-0.00014704823843203485,0.004849142860621214,-0.00310117332264781,0.9999180436134338,0.0,0.0,0.0,4.3838582038879395,3.401726722717285,5.691159248352051,-793.487060546875,0
1496.67,-0.0002681265177670866,0.004869228228926659,0.00028343481244519353,0.0,0.0,0.0,0.0,0.0011608299100771546,0.0028737697284668684,-0.0016351499361917377,1.0009058713912964,0.0,0.0,0.0,4.3780341148376465,3.400954246520996,5.668941020965576,-792.4328002929688,0
1506.5969999999998,-0.00020709725504275411,0.004856771789491177,0.0003309634339530021,0.0,0.0,0.0,0.0,-0.002868421608582139,-0.0016532945446670055,-0.0015341037651523948,0.9996405839920044,0.0,0.0,0.0,4.379719257354736,3.399083137512207,5.679505348205566,-792.7379760742188,0
1516.4849999999988,-0.00030067283660173416,0.004819592460989952,0.00035106154973618686,0.0,0.0,0.0,0.0,0.0010492259170860052,-0.008245081640779972,0.0022261738777160645,1.0015201568603516,0.0,0.0,0.0,4.375513076782227,3.399496078491211,5.670128345489502,-791.9765014648438,0
1526.4129999999986,-0.00020389174460433424,0.005011797416955233,9.56450603553094e-05,0.0,0.0,0.0,0.0,-0.0014629195211455226,0.0008873406331986189,-0.0025155560579150915,1.0007857084274292,0.0,0.0,0.0,4.378244400024414,3.445050001144409,5.722840309143066,-792.4708862304688,0
1536.313,-0.00029588566394522786,0.0049844421446323395,9.887156920740381e-05,0.0,0.0,0.0,0.0,0.002496236003935337,0.000514125800691545,0.001579914940521121,0.9996861815452576,0.0,0.0,0.0,4.372798442840576,3.4441425800323486,5.710563659667969,-791.4852294921875,0
1546.2349999999988,-0.0002837458741851151,0.005089461337774992,-3.0058065021876246e-05,0.0,0.0,0.0,0.0,-0.0013928258558735251,-0.002652696566656232,0.003237503580749035,0.9987064599990845,0.0,0.0,0.0,4.376234531402588,3.4713187217712402,5.745823383331299,-792.1071166992188,0
1556.143,-0.00037551685818471014,0.0050684139132499695,-3.593564179027453e-05,0.0,0.0,0.0,0.0,-6.282177491812035e-05,-7.337137503782287e-05,-0.00023666581546422094,1.0007237195968628,0.0,0.0,0.0,4.373358249664307,3.471433639526367,5.746674060821533,-791.5865478515625,0
1566.0559999999987,-0.0003825242747552693,0.005142610054463148,-0.00013674159708898515,0.0,0.0,0.0,0.0,-0.0010979995131492615,-0.0031708574388176203,0.00023547235468868166,1.0009924173355103,0.0,0.0,0.0,4.378105163574219,3.4930455684661865,5.781228542327881,-792.4456787109375,0
1575.9609999999993,-0.0004720516153611243,0.005124793853610754,-0.0001486395631218329,0.0,0.0,0.0,0.0,-0.0014181724982336164,0.0033532127272337675,-0.003662294242531061,1.000119924545288,0.0,0.0,0.0,4.374159812927246,3.4927380084991455,5.779325008392334,-791.7315673828125,0
1585.884,-0.0005527598550543189,0.005121258087456226,-0.00016946774849202484,0.0,0.0,0.0,0.0,0.0004206599260214716,-0.0010281538125127554,9.498886356595904e-05,0.9997120499610901,0.0,0.0,0.0,4.368666648864746,3.4928810596466064,5.7676286697387695,-790.7373046875,0
1595.7879999999986,-0.0006478025461547077,0.005101369693875313,-0.0001811193214962259,0.0,0.0,0.0,0.0,0.0012416352983564138,0.0013937280746176839,-0.000799043569713831,1.0004310607910156,0.0,0.0,0.0,4.364528656005859,3.48950457572937,5.762416839599609,-789.9883422851562,0
1605.708999999999,-0.0006965817883610725,0.00505424477159977,-0.0002608290524221957,0.0,0.0,0.0,0.0,8.900546527002007e-05,0.004639646969735622,-0.0031076609157025814,1.0020846128463745,0.0,0.0,0.0,4.371995449066162,3.4759912490844727,5.770999431610107,-791.33984375,0
1615.6080000000002,-0.000793794053606689,0.005028815940022469,-0.00027545783086679876,0.0,0.0,0.0,0.0,-0.004123233258724213,0.0011466051219031215,0.0013929532142356038,1.0017646551132202,0.0,0.0,0.0,4.36613655090332,3.4710912704467773,5.7538371086120605,-790.2794189453125,0
1625.527,-0.0008236140129156411,0.005081201903522015,-0.00030368048464879394,0.0,0.0,0.0,0.0,-0.0029182564467191696,-0.00213988428004086,-0.0005761515349149704,1.001820683479309,0.0,0.0,0.0,4.361511707305908,3.4713189601898193,5.744389533996582,-789.4423217773438,0
1635.4299999999985,-0.0009208294795826077,0.0050590806640684605,-0.0003155816229991615,0.0,0.0,0.0,0.0,-0.0008227003854699433,-0.0018543298356235027,0.0014042389811947942,1.0022748708724976,0.0,0.0,0.0,4.356451988220215,3.4700727462768555,5.745728015899658,-788.5264892578125,0
1645.348,-0.0009083515615202487,0.005100558046251535,-0.00037030375096946955,0.0,0.0,0.0,0.0,5.172844248590991e-05,0.003860663855448365,-0.0011707996018230915,0.9995046854019165,0.0,0.0,0.0,4.371201992034912,3.495742082595825,5.786335468292236,-791.1962280273438,0
1655.2519999999986,-0.0010016615269705653,0.0050819083116948605,-0.00038292998215183616,0.0,0.0,0.0,0.0,-0.0006020343280397356,-0.0008932966738939285,0.0014003538526594639,0.9987770915031433,0.0,0.0,0.0,4.366207122802734,3.4965310096740723,5.7675557136535645,-790.292236328125,0
1665.1729999999989,-0.000980337499640882,0.005130208563059568,-0.0004348857910372317,0.0,0.0,0.0,0.0,-0.0011638030409812927,-0.0009102653712034225,-0.0020385130774229765,1.0002572536468506,0.0,0.0,0.0,4.374306678771973,3.5286006927490234,5.808355331420898,-791.7582397460938,0
1675.0779999999995,-0.001071549253538251,0.005117393098771572,-0.0004523822572082281,0.0,0.0,0.0,0.0,0.0017964222934097052,-0.001796393538825214,-0.0011449442245066166,0.9990084171295166,0.0,0.0,0.0,4.36898946762085,3.528963327407837,5.811135768890381,-790.7957763671875,0
1684.9969999999994,-0.0010576506610959768,0.005167930852621794,-0.0004988445434719324,0.0,0.0,0.0,0.0,-0.0019063855288550258,0.0005043647834099829,-0.0008502195123583078,0.9991434812545776,0.0,0.0,0.0,4.380599021911621,3.5456454753875732,5.846504211425781,-792.8970947265625,0
1694.8949999999986,-0.0011458888184279203,0.005160439293831587,-0.0005205925554037094,0.0,0.0,0.0,0.0,0.0007040761993266642,0.001665191724896431,-0.001268897787667811,0.9993990659713745,0.0,0.0,0.0,4.376640319824219,3.5454530715942383,5.837846279144287,-792.1805419921875,0
1704.8220000000001,-0.0011214055120944977,0.005206840578466654,-0.0005807082052342594,0.0,0.0,0.0,0.0,0.003446031827479601,-0.0006909618969075382,-0.003382299095392227,0.9986330270767212,0.0,0.0,0.0,4.3836350440979,3.5613722801208496,5.868130207061768,-793.4466552734375,0
1714.717999999999,-0.0012077154824510217,0.0052042617462575436,-0.0006079408340156078,0.0,0.0,0.0,0.0,0.0005500586703419685,-0.002481757430359721,-0.0014790153363719583,0.9995852112770081,0.0,0.0,0.0,4.379517078399658,3.552278518676758,5.868008613586426,-792.7013549804688,0
1724.6439999999984,-0.001297207665629685,0.0051999278366565704,-0.0006357404636219144,0.0,0.0,0.0,0.0,-0.004199122544378042,-0.0023700629826635122,0.0025356353726238012,1.0002763271331787,0.0,0.0,0.0,4.374744415283203,3.552499532699585,5.869024276733398,-791.83740234375,0
1734.5419999999995,-0.0013897775206714869,0.005193210206925869,-0.0006634718738496304,0.0,0.0,0.0,0.0,5.620839147013612e-05,0.0007120399386622012,0.0007414878346025944,0.9993008971214294,0.0,0.0,0.0,4.370212078094482,3.5575075149536133,5.8642964363098145,-791.0170288085938,0
1744.4619999999995,-0.0014857007190585136,0.005184154491871595,-0.0006913475226610899,0.0,0.0,0.0,0.0,0.002118238713592291,-0.0034423572942614555,0.0011005226988345385,1.0003039836883545,0.0,0.0,0.0,4.365899562835693,3.551469564437866,5.855913162231445,-790.2365112304688,0
1754.3670000000002,-0.0015850203344598413,0.005173460580408573,-0.0007194188656285405,0.0,0.0,0.0,0.0,0.0006851987564004958,0.0021947200875729322,0.0028649759478867054,1.0008673667907715,0.0,0.0,0.0,4.362456798553467,3.54453706741333,5.853270530700684,-789.6133422851562,0
1764.3009999999995,-0.001688121585175395,0.0051615131087601185,-0.0007466304814442992,0.0,0.0,0.0,0.0,-0.0035813399590551853,-9.095254426938482e-06,-0.0012337648076936603,1.0034284591674805,0.0,0.0,0.0,4.358515739440918,3.542839288711548,5.841752529144287,-788.9000854492188,0
1774.1939999999995,-0.0017960441764444113,0.005147670861333609,-0.0007715224055573344,0.0,0.0,0.0,0.0,0.002488525118678808,-0.0004876797611359507,0.0037958568427711725,0.9999826550483704,0.0,0.0,0.0,4.353745937347412,3.5424673557281494,5.834284782409668,-788.0366821289062,0
1784.1119999999992,-0.0019088945118710399,0.0051312875002622604,-0.0007945149554871023,0.0,0.0,0.0,0.0,0.00015076958516146988,-3.3973661629715934e-05,-0.0007778142462484539,0.9996935129165649,0.0,0.0,0.0,4.350266456604004,3.5342023372650146,5.824853420257568,-787.4069213867188,0
1794.0159999999996,-0.0020257728174328804,0.005112932994961739,-0.0008171226363629103,0.0,0.0,0.0,0.0,0.000881511194165796,-0.003280946519225836,0.00092232262250036,0.9985644221305847,0.0,0.0,0.0,4.345587253570557,3.5273919105529785,5.812529563903809,-786.5599365234375,0
1803.937,-0.0021459595300257206,0.005093852989375591,-0.0008402342209592462,0.0,0.0,0.0,0.0,-0.0003472933603916317,0.0016308024059981108,0.0014719243627041578,0.9989701509475708,0.0,0.0,0.0,4.342695713043213,3.5236105918884277,5.815306186676025,-786.0364990234375,0
1813.8349999999991,-0.002269205404445529,0.005074306856840849,-0.0008642451139166951,0.0,0.0,0.0,0.0,8.267182420240715e-05,-0.0027970452792942524,0.0036817968357354403,1.0003266334533691,0.0,0.0,0.0,4.339611053466797,3.5245656967163086,5.80822229385376,-785.4782104492188,0
1823.753999999999,-0.0023957521189004183,0.005053228233009577,-0.0008884886628948152,0.0,0.0,0.0,0.0,0.00427180714905262,0.0017081714468076825,-0.0005933062057010829,0.9990835785865784,0.0,0.0,0.0,4.336126804351807,3.520986795425415,5.8109822273254395,-784.8475952148438,0
1833.6589999999997,-0.002526600146666169,0.005030239466577768,-0.0009128188248723745,0.0,0.0,0.0,0.0,-0.0011022983817383647,-0.0019160903757438064,-0.00018474730313755572,0.9994632601737976,0.0,0.0,0.0,4.330886363983154,3.5091707706451416,5.801581382751465,-783.8990478515625,0
1843.583999999999,-0.002662255894392729,0.005005950108170509,-0.0009375467197969556,0.0,0.0,0.0,0.0,-0.0005854704068042338,-0.0011786477407440543,-0.002861898858100176,1.0006437301635742,0.0,0.0,0.0,4.326452255249023,3.502770185470581,5.799014091491699,-783.0964965820312,0
1853.4830000000002,-0.002801899565383792,0.004980086348950863,-0.000962268328294158,0.0,0.0,0.0,0.0,0.002021446358412504,0.0020094984211027622,-0.00023734141723252833,1.0005935430526733,0.0,0.0,0.0,4.321113586425781,3.4998114109039307,5.793624401092529,-782.1301879882812,0
1863.4179999999997,-0.002944548614323139,0.004952211864292622,-0.0009863590821623802,0.0,0.0,0.0,0.0,0.0018589471001178026,0.0031284261494874954,0.0004487954138312489,1.0002704858779907,0.0,0.0,0.0,4.31613826751709,3.4942243099212646,5.787034511566162,-781.2296142578125,0
1873.3059999999987,-0.003090101294219494,0.004922653082758188,-0.0010098011698573828,0.0,0.0,0.0,0.0,-0.0012420413549989462,-0.00039630540413782,-0.002180047333240509,1.0020067691802979,0.0,0.0,0.0,4.312482833862305,3.482865810394287,5.775143146514893,-780.56787109375,0
1883.235999999999,-0.0032391925342381,0.004891715478152037,-0.001032142317853868,0.0,0.0,0.0,0.0,-0.0007077520713210106,-0.001587971462868154,-0.00044654475641436875,1.0013335943222046,0.0,0.0,0.0,4.307960033416748,3.478368043899536,5.763701915740967,-779.7493896484375,0
1893.1329999999998,-0.0033925995230674744,0.00485969940200448,-0.001052727922797203,0.0,0.0,0.0,0.0,0.0028552082367241383,-0.0022998421918600798,0.0006826718454249203,0.9997487664222717,0.0,0.0,0.0,4.304181098937988,3.472263813018799,5.761819839477539,-779.0653076171875,0
1903.054,-0.003550343681126833,0.004826370161026716,-0.0010722483275458217,0.0,0.0,0.0,0.0,-0.0005495772929862142,-0.002628177171573043,0.0050062439404428005,1.0016206502914429,0.0,0.0,0.0,4.299185752868652,3.460341691970825,5.753030300140381,-778.1611938476562,0
1912.9609999999993,-0.0037111747078597546,0.004791812505573034,-0.0010908158728852868,0.0,0.0,0.0,0.0,-0.0016168549191206694,0.0010651347693055868,0.00033320137299597263,1.0009921789169312,0.0,0.0,0.0,4.295973777770996,3.4631152153015137,5.755345344543457,-777.5797729492188,0
1922.875,-0.003874419955536723,0.004756481386721134,-0.001107823452912271,0.0,0.0,0.0,0.0,0.001798220444470644,0.006632743403315544,-0.000992019777186215,0.9994986057281494,0.0,0.0,0.0,4.291543483734131,3.463075876235962,5.748072147369385,-776.7779541015625,0
1932.7839999999997,-0.004040594678372145,0.004719192162156105,-0.0011239798041060567,0.0,0.0,0.0,0.0,0.0013753842795267701,-0.00020373404549900442,-0.0001260539429495111,1.0005512237548828,0.0,0.0,0.0,4.286709785461426,3.4538097381591797,5.723692893981934,-775.9029541015625,0
1942.6989999999987,-0.004210085608065128,0.004679954145103693,-0.0011398488422855735,0.0,0.0,0.0,0.0,0.0013497525360435247,-0.000650847505312413,-0.0006501590250991285,1.0006579160690308,0.0,0.0,0.0,4.281663417816162,3.444628953933716,5.718247413635254,-774.9895629882812,0
1952.6119999999992,-0.004382832441478968,0.004639780148863792,-0.0011550188064575195,0.0,0.0,0.0,0.0,-0.00037927230005152524,0.002011688658967614,-3.8502523239003494e-05,0.9987294673919678,0.0,0.0,0.0,4.2780537605285645,3.4465088844299316,5.7185821533203125,-774.3362426757812,0
1962.5119999999988,-0.004558853805065155,0.004598472733050585,-0.0011700044851750135,0.0,0.0,0.0,0.0,0.00017538201063871384,0.0033891252242028713,-3.245209518354386e-05,0.9988843202590942,0.0,0.0,0.0,4.274089336395264,3.4356422424316406,5.714071273803711,-773.6187133789062,0
1972.4309999999987,-0.004738681949675083,0.0045552500523626804,-0.0011857080971822143,0.0,0.0,0.0,0.0,-0.0016213569324463606,0.0006804959266446531,-0.0010519011411815882,1.001498818397522,0.0,0.0,0.0,4.2703351974487305,3.431485176086426,5.704787731170654,-772.9391479492188,0
1982.3359999999993,-0.004922629799693823,0.004509288817644119,-0.0012010623468086123,0.0,0.0,0.0,0.0,0.0038868754636496305,0.0030697090551257133,-0.002067416673526168,0.9991578459739685,0.0,0.0,0.0,4.266376495361328,3.425330877304077,5.69993782043457,-772.22265625,0
1992.253999999999,-0.0005896568764001131,0.003634081222116947,0.002424806822091341,0.0,0.0,0.0,0.0,0.0002290600968990475,0.004425033926963806,0.001528978580608964,1.000326156616211,0.0,0.0,0.0,4.281987190246582,3.3804290294647217,6.094066143035889,-775.048095703125,0
2002.1589999999997,-0.0006567632663063705,0.0035713952966034412,0.002493678592145443,0.0,0.0,0.0,0.0,0.002221144502982497,0.0010479558259248734,0.0008433971670456231,0.9988001585006714,0.0,0.0,0.0,4.277084827423096,3.3704299926757812,6.075366020202637,-774.1608276367188,0
2012.08,-0.0005853496259078383,0.0035554913338273764,0.0026574796065688133,0.0,0.0,0.0,0.0,9.805525769479573e-05,0.0028533446602523327,-0.004280218854546547,0.9974951148033142,0.0,0.0,0.0,4.287858963012695,3.365832567214966,6.105090618133545,-776.111083984375,0
2021.9809999999998,-0.0006505341734737158,0.003490797244012356,0.002728506922721863,0.0,0.0,0.0,0.0,-0.0004712164227385074,-0.0009194223093800247,-0.0010321607114747167,1.0015608072280884,0.0,0.0,0.0,4.282709121704102,3.359431743621826,6.092877388000488,-775.1788330078125,0
2031.8989999999994,-0.0006126498337835073,0.003479351056739688,0.002806419273838401,0.0,0.0,0.0,0.0,-0.00023176069953478873,0.0033811391331255436,0.0011812454322353005,1.0011539459228516,0.0,0.0,0.0,4.293166160583496,3.3604464530944824,6.123287677764893,-777.0715942382812,0
2041.8069999999989,-0.0006759353564120829,0.003411997342482209,0.0028803113382309675,0.0,0.0,0.0,0.0,-0.0021088102366775274,0.006208436563611031,0.0013710159109905362,1.0022408962249756,0.0,0.0,0.0,4.289653778076172,3.3602895736694336,6.108138561248779,-776.4359130859375,0
2051.7299999999996,-0.0006309289019554853,0.0034045453649014235,0.002918619429692626,0.0,0.0,0.0,0.0,-0.0018805552972480655,1.263052490685368e-05,0.0011634137481451035,1.0027765035629272,0.0,0.0,0.0,4.301921844482422,3.3594777584075928,6.135696887969971,-778.6564331054688,0
2061.6359999999986,-0.0006892813253216445,0.003336577443405986,0.0029985271394252777,0.0,0.0,0.0,0.0,0.0019093228038400412,0.0019022776978090405,0.0020132677163928747,0.9990645051002502,0.0,0.0,0.0,4.297579765319824,3.3550679683685303,6.128951549530029,-777.8704833984375,0
2071.547999999999,-0.0006435819668695331,0.003339186077937484,0.003013681387528777,0.0,0.0,0.0,0.0,0.0006580574554391205,0.0027453270740807056,-0.0025671583134680986,0.9992899298667908,0.0,0.0,0.0,4.307101726531982,3.3476476669311523,6.1710028648376465,-779.5939331054688,0
2081.449999999999,-0.0006986435037106276,0.0032692530658096075,0.0030963991302996874,0.0,0.0,0.0,0.0,0.001037359470501542,0.0006707501015625894,0.00200567371211946,1.0023458003997803,0.0,0.0,0.0,4.3016886711120605,3.3437578678131104,6.151394844055176,-778.6141967773438,0
2091.3729999999996,-0.0007626781589351594,0.0031892438419163227,0.0031880252063274384,0.0,0.0,0.0,0.0,0.0001005710510071367,0.004587278701364994,0.0009885343024507165,1.000583291053772,0.0,0.0,0.0,4.299051761627197,3.3369596004486084,6.147734642028809,-778.136962890625,0
2101.2749999999996,-0.0008239227463491261,0.0031139557249844074,0.0032726868521422148,0.0,0.0,0.0,0.0,0.0013732401421293616,-0.0009538030717521906,-0.00030550130759365857,1.0017178058624268,0.0,0.0,0.0,4.2948784828186035,3.3327009677886963,6.131070613861084,-777.381591796875,0
2111.1989999999987,-0.0006938877631910145,0.0032128291204571724,0.0032220769207924604,0.0,0.0,0.0,0.0,0.0015234528109431267,0.0012235490139573812,0.0009742474067024887,1.000380516052246,0.0,0.0,0.0,4.308294773101807,3.3464131355285645,6.220695972442627,-779.8099365234375,0
2121.1009999999987,-0.0007425376679748297,0.0031403121538460255,0.003313076216727495,0.0,0.0,0.0,0.0,0.0022561452351510525,0.004115383140742779,-0.000561355787795037,0.9993860125541687,0.0,0.0,0.0,4.304318428039551,3.3383829593658447,6.213641166687012,-779.0902099609375,0
2131.020999999999,-0.0007932066218927503,0.0030651562847197056,0.0034042869228869677,0.0,0.0,0.0,0.0,-0.0012829693732783198,0.0033156471326947212,-0.002450860571116209,0.9993325471878052,0.0,0.0,0.0,4.299264907836914,3.3318960666656494,6.20207405090332,-778.1754760742188,0
2140.92,-0.0008463842677883804,0.002988008316606283,0.003495089476928115,0.0,0.0,0.0,0.0,0.002340506063774228,0.0033764580730348825,0.003647714387625456,0.9991280436515808,0.0,0.0,0.0,4.2938642501831055,3.3276679515838623,6.191063404083252,-777.197998046875,0
2150.849,-0.0007177591905929148,0.003064892254769802,0.0034814602695405483,0.0,0.0,0.0,0.0,0.0012200528290122747,-0.001619399175979197,-0.0003515841090120375,1.0001288652420044,0.0,0.0,0.0,4.302506446838379,3.342869520187378,6.253856658935547,-778.7622680664062,0
