timestamp,stateEstimate.x,stateEstimate.y,stateEstimate.z,controller.cmd_thrust,controller.cmd_roll,controller.cmd_pitch,controller.cmd_yaw,controller.r_roll,controller.r_pitch,controller.r_yaw,controller.accelz,controller.actuatorThrust,controller.roll,controller.pitch,controller.yaw,controller.rollRate,controller.pitchRate,controller.yawRate,controller.ctr_yaw
0.0,-6.488864164566621e-05,1.5501304005738348e-05,-0.00015433247608598322,0.0,0.0,0.0,0.0,0.00013313500676304102,-0.0009375025983899832,-0.000815581064671278,0.9997768998146057,0.0,0.0,0.0,0.3812330663204193,2.9447691440582275,4.994715213775635,-69.00394439697266,0
9.909999999999854,-0.0001391893601976335,-4.1011717257788405e-06,-0.00016083648370113224,0.0,0.0,0.0,0.0,-0.0032673850655555725,-8.711843111086637e-05,-0.0022273585200309753,1.0006159543991089,0.0,0.0,0.0,0.3805919885635376,2.9364068508148193,4.984427452087402,-68.88790893554688,0
19.824000000000524,-5.453831181512214e-05,2.727438186411746e-06,-0.0001906029792735353,0.0,0.0,0.0,0.0,-0.0017453747568652034,-0.001143162022344768,-0.007036256603896618,1.0000345706939697,0.0,0.0,0.0,0.389443039894104,2.9381420612335205,4.993013381958008,-70.48995971679688,0
29.73400000000038,-0.00012743944535031915,-1.7799116903916e-05,-0.00019793330284301192,0.0,0.0,0.0,0.0,-0.0038479603826999664,-0.0011192947858944535,-0.0011067793238908052,0.9989191889762878,0.0,0.0,0.0,0.38960376381874084,2.9336204528808594,4.991376876831055,-70.51905822753906,0
39.647000000000844,-6.432949885493144e-05,6.796979960199678e-06,-0.00016117597988341004,0.0,0.0,0.0,0.0,-0.00026450707809999585,0.0024117177817970514,-0.002420061035081744,0.9971503615379333,0.0,0.0,0.0,0.3895702362060547,2.9341509342193604,4.991060256958008,-70.51298522949219,0
49.55899999999929,-0.0001427819370292127,-1.4337991160573438e-05,-0.00016599272203166038,0.0,0.0,0.0,0.0,-0.00323249539360404,-0.003622580785304308,0.00016080067143775523,0.9991295337677002,0.0,0.0,0.0,0.38892892003059387,2.937429428100586,4.988024711608887,-70.39690399169922,0
59.48099999999977,-5.468599556479603e-05,-2.2923073629499413e-05,-0.000128176950966008,0.0,0.0,0.0,0.0,0.000338055775500834,-0.002928971778601408,-0.0011454165214672685,0.9977495074272156,0.0,0.0,0.0,0.38861727714538574,2.9421334266662598,4.98662805557251,-70.34049987792969,0
69.38299999999981,-0.0001355028070975095,-4.719374919659458e-05,-0.00013226007285993546,0.0,0.0,0.0,0.0,0.004900709260255098,0.0016137249767780304,0.0009677436319179833,0.9967790842056274,0.0,0.0,0.0,0.38721904158592224,2.9379723072052,4.989078521728516,-70.08741760253906,0
79.29500000000007,-6.373054930008948e-05,-4.2991392547264695e-05,-0.00011127631296403706,0.0,0.0,0.0,0.0,0.0008591180085204542,-0.0006433337111957371,0.0013104218523949385,0.999269962310791,0.0,0.0,0.0,0.38696902990341187,2.9295966625213623,4.987878322601318,-70.04216766357422,0
89.20700000000033,-0.00014546746388077736,-6.951717659831047e-05,-0.00011704253847710788,0.0,0.0,0.0,0.0,0.002819516696035862,0.00198010983876884,-0.0023933490738272667,1.001378059387207,0.0,0.0,0.0,0.38655757904052734,2.9243457317352295,4.981672286987305,-69.96768188476562,0
99.1200000000008,-3.139549517072737e-05,-7.079356873873621e-05,-9.90476255537942e-05,0.0,0.0,0.0,0.0,0.0002905404835473746,-0.0013014861615374684,-0.00246616592630744,1.0005030632019043,0.0,0.0,0.0,0.37633031606674194,2.9097020626068115,4.9886298179626465,-68.11653900146484,0
109.03199999999924,-8.808244456304237e-05,-5.7944762374972925e-05,-0.00013377804134506732,0.0,0.0,0.0,0.0,0.00020100627443753183,0.0016316503752022982,-0.00398057047277689,1.0003032684326172,0.0,0.0,0.0,0.3743418753147125,2.9047300815582275,4.9795403480529785,-67.75662231445312,0
118.94599999999991,-6.04532215220388e-05,-6.795138324378058e-05,-9.177521133096889e-05,0.0,0.0,0.0,0.0,-0.0007645288133062422,-0.0011190972290933132,0.001549351029098034,1.0008994340896606,0.0,0.0,0.0,0.3742262125015259,2.9036552906036377,4.974931240081787,-67.73568725585938,0
128.8610000000008,-0.00011303253268124536,-4.6679884690092877e-05,-0.00011468020238680765,0.0,0.0,0.0,0.0,0.0031909511890262365,0.0034608575515449047,0.0003152193676214665,0.9984079599380493,0.0,0.0,0.0,0.37438344955444336,2.9008846282958984,4.969939708709717,-67.76414489746094,0
138.77399999999943,-1.6097181287477724e-05,-0.00011289575195405632,-7.57623347453773e-05,0.0,0.0,0.0,0.0,-0.0023604854941368103,0.005833644885569811,0.001238779746927321,0.9996076226234436,0.0,0.0,0.0,0.3738911747932434,2.886190414428711,4.953521728515625,-67.67504119873047,0
148.6839999999993,-2.3013677491690032e-05,-6.688346184091642e-05,-0.00014838925562798977,0.0,0.0,0.0,0.0,-0.0015813828213140368,0.0012878894340246916,0.005185915622860193,1.0009417533874512,0.0,0.0,0.0,0.3730119466781616,2.8868088722229004,4.942704677581787,-67.51590728759766,0
158.59900000000016,-2.8176016712677665e-05,-6.275671330513433e-05,-0.0001134908088715747,0.0,0.0,0.0,0.0,-0.0008110414491966367,0.0019014840945601463,-0.0015673366142436862,1.0005663633346558,0.0,0.0,0.0,0.373041033744812,2.8861725330352783,4.945553779602051,-67.52116394042969,0
168.5049999999992,-4.766780330101028e-05,-2.7331527235219255e-05,-0.00017320930783171207,0.0,0.0,0.0,0.0,0.0007696683169342577,0.0016584594268351793,0.0008130340720526874,0.9989474415779114,0.0,0.0,0.0,0.3720208704471588,2.8883376121520996,4.923058986663818,-67.33651733398438,0
178.42000000000007,-4.7082190576475114e-05,-2.0879393559880555e-05,-0.0001357406727038324,0.0,0.0,0.0,0.0,-0.0007105365511961281,0.003959800582379103,-0.0013771606609225273,0.998542845249176,0.0,0.0,0.0,0.3707549273967743,2.8837413787841797,4.909501075744629,-67.10738372802734,0
188.32799999999952,-0.00011313027061987668,-1.4313003703136928e-05,-0.0001457644102629274,0.0,0.0,0.0,0.0,-0.001713849836960435,0.0033327911514788866,-0.003247027052566409,0.9987493753433228,0.0,0.0,0.0,0.3708343505859375,2.8752596378326416,4.895458221435547,-67.12174987792969,0
198.2440000000006,-8.743387297727168e-05,-1.702723602647893e-05,-0.00010285856842529029,0.0,0.0,0.0,0.0,0.002480589086189866,-0.0023795024026185274,0.0006898000719957054,0.9985035061836243,0.0,0.0,0.0,0.3691563308238983,2.8678269386291504,4.880339622497559,-66.81803131103516,0
208.15300000000025,-0.00014267819642554969,2.897766307796701e-06,-0.00012161479389760643,0.0,0.0,0.0,0.0,0.001348066027276218,-0.0012326412834227085,0.0002823244722094387,0.9970626831054688,0.0,0.0,0.0,0.36906230449676514,2.8704674243927,4.874770641326904,-66.80101013183594,0
218.0630000000001,-2.381324884481728e-05,-7.90777921793051e-05,-9.085360943572596e-05,0.0,0.0,0.0,0.0,0.0024458658881485462,0.0033818893134593964,-0.0004968363209627569,0.9985526204109192,0.0,0.0,0.0,0.3703729510307312,2.864753484725952,4.873837947845459,-67.03823852539062,0
227.9860000000008,-0.00012339932436589152,-0.00011689444363582879,-7.098417700035498e-05,0.0,0.0,0.0,0.0,0.00239103427156806,-0.0003371401398908347,8.545387390768155e-05,0.9999226331710815,0.0,0.0,0.0,0.36906126141548157,2.862077236175537,4.865799903869629,-66.80082702636719,0
237.90099999999984,-7.780155283398926e-05,-0.00013269098417367786,-2.793795101752039e-05,0.0,0.0,0.0,0.0,-8.670319402881432e-06,0.003024387639015913,0.0005943172727711499,0.9987667202949524,0.0,0.0,0.0,0.36902663111686707,2.8570971488952637,4.85517692565918,-66.7945556640625,0
247.79999999999927,-0.00010762043530121446,-7.86091186455451e-05,-6.56139527563937e-05,0.0,0.0,0.0,0.0,-0.0027881767600774765,-0.0009933537803590298,0.0037910861428827047,0.9973214268684387,0.0,0.0,0.0,0.36738908290863037,2.854151725769043,4.849571228027344,-66.49815368652344,0
257.72400000000016,-8.358612831216305e-05,-0.00010667710012057796,-3.653727617347613e-05,0.0,0.0,0.0,0.0,-0.00210638833232224,0.0007442405913025141,0.001284806989133358,0.9969155788421631,0.0,0.0,0.0,0.3774245083332062,2.85545015335083,4.867794513702393,-68.31459045410156,0
267.6239999999998,-0.0001309518120251596,-0.00011045653081964701,-7.852635462768376e-05,0.0,0.0,0.0,0.0,-0.0031105922535061836,-0.0014522462151944637,0.00018709601135924459,0.9961133003234863,0.0,0.0,0.0,0.37138622999191284,2.859145402908325,4.865065097808838,-67.22164154052734,0
277.54399999999987,-0.0001564132107887417,-9.885435429168865e-05,-4.728528074338101e-05,0.0,0.0,0.0,0.0,-0.0008810251601971686,-0.0030570714734494686,0.003735331352800131,0.9989994168281555,0.0,0.0,0.0,0.3644140362739563,2.8682641983032227,4.875613212585449,-65.95967102050781,0
287.4539999999997,-0.00022275310766417533,-0.00010692987416405231,-7.285141327884048e-05,0.0,0.0,0.0,0.0,-0.002230000449344516,0.0014863066608086228,-0.00032828576513566077,0.999187707901001,0.0,0.0,0.0,0.3642931580543518,2.8685927391052246,4.8761091232299805,-65.93778228759766,0
297.3739999999998,-9.731094178277999e-05,-0.00012860930291935802,-1.0374607882113196e-05,0.0,0.0,0.0,0.0,0.002915517194196582,-0.001282571698538959,-0.002943337894976139,1.0001075267791748,0.0,0.0,0.0,0.36398184299468994,2.868056535720825,4.876584529876709,-65.88143157958984,0
307.27299999999923,-0.00016743771266192198,-0.00013655786460731179,-2.8527185349958017e-05,0.0,0.0,0.0,0.0,-0.0008444477571174502,0.0028267274610698223,-0.0042676255106925964,0.9996610879898071,0.0,0.0,0.0,0.369712769985199,2.869284152984619,4.879540920257568,-66.91874694824219,0
317.1949999999997,-6.06322537350934e-05,-0.00020054291235283017,1.1924257705686614e-05,0.0,0.0,0.0,0.0,-0.0018991348333656788,-0.0024736991617828608,-0.003660733113065362,0.9994733929634094,0.0,0.0,0.0,0.3696931004524231,2.867107391357422,4.866306781768799,-66.9151840209961,0
327.09599999999955,-7.477878534700722e-05,-0.00012740578677039593,-4.396500298753381e-05,0.0,0.0,0.0,0.0,-0.0016423811903223395,-0.0019347920315340161,-0.0008642838802188635,0.9999282956123352,0.0,0.0,0.0,0.36823731660842896,2.8618218898773193,4.861911296844482,-66.65169525146484,0
337.01800000000003,-5.325870370143093e-05,-0.00016943331866059452,-2.108073022100143e-05,0.0,0.0,0.0,0.0,-0.0018955424893647432,0.0014827899867668748,0.00091926398454234,0.9970484375953674,0.0,0.0,0.0,0.36758458614349365,2.8579599857330322,4.8620686531066895,-66.53353881835938,0
346.91899999999987,-7.753060344839469e-05,-0.00010628200834617019,-7.003257633186877e-05,0.0,0.0,0.0,0.0,-0.00023865146795287728,-0.0019176965579390526,-9.959627641364932e-05,1.0011476278305054,0.0,0.0,0.0,0.366954505443573,2.8639702796936035,4.857107639312744,-66.41949462890625,0
356.85299999999916,-5.178234277991578e-05,-0.0001401972258463502,-4.388667730381712e-05,0.0,0.0,0.0,0.0,0.0016936676111072302,-0.000992068089544773,0.0008705102954991162,1.0012104511260986,0.0,0.0,0.0,0.367178350687027,2.860360860824585,4.853694438934326,-66.46001434326172,0
366.7489999999998,-8.482514385832474e-05,-9.53774870140478e-05,-8.399399666814134e-05,0.0,0.0,0.0,0.0,-0.0025221803225576878,0.003493298077955842,0.0029189230408519506,0.9979057312011719,0.0,0.0,0.0,0.366752952337265,2.8600099086761475,4.851424694061279,-66.38301086425781,0
376.66699999999946,-6.325939466478303e-05,-0.00011414755863370374,-5.134606180945411e-05,0.0,0.0,0.0,0.0,0.0009277708013541996,-0.00041958194924518466,0.0018843519501388073,0.9984602332115173,0.0,0.0,0.0,0.3666831851005554,2.8666882514953613,4.842100620269775,-66.3703842163086,0
386.5679999999993,-6.215098983375356e-05,-4.929516580887139e-05,-0.0001308231003349647,0.0,0.0,0.0,0.0,-0.003443432506173849,0.0012574413558468223,0.0006233088206499815,0.9983168840408325,0.0,0.0,0.0,0.3660450577735901,2.8664402961730957,4.8443779945373535,-66.25489044189453,0
396.4950000000008,-5.67474817216862e-05,-6.98245785315521e-05,-0.00011143375013489276,0.0,0.0,0.0,0.0,0.0008037316729314625,0.0009513631812296808,-2.3347029127762653e-05,0.998039186000824,0.0,0.0,0.0,0.36677899956703186,2.8715076446533203,4.842449188232422,-66.38773345947266,0
406.3909999999996,-0.00010212483175564557,-4.520063157542609e-05,-0.00015129441453609616,0.0,0.0,0.0,0.0,-0.00040472522960044444,-0.0024759608786553144,-0.0018156253499910235,1.0004624128341675,0.0,0.0,0.0,0.36642420291900635,2.8645691871643066,4.836595058441162,-66.3235092163086,0
416.3189999999995,-5.542355211218819e-05,-6.451045192079619e-05,-0.00011489251482998952,0.0,0.0,0.0,0.0,0.001304561155848205,0.0011482209665700793,-0.0040279412642121315,1.0004603862762451,0.0,0.0,0.0,0.3660076856613159,2.8593080043792725,4.823515892028809,-66.24811553955078,0
426.21600000000035,-0.00011956255184486508,-6.10894276178442e-05,-0.0001378595334244892,0.0,0.0,0.0,0.0,-0.0024107140488922596,-0.005483016837388277,0.0023358450271189213,0.9996029734611511,0.0,0.0,0.0,0.36580637097358704,2.8564746379852295,4.813602447509766,-66.21168518066406,0
436.1389999999992,-6.609318370465189e-05,-8.912559133023024e-05,-9.821541607379913e-05,0.0,0.0,0.0,0.0,0.000221975555177778,0.006502845790237188,0.00044390419498085976,0.9986190795898438,0.0,0.0,0.0,0.36552682518959045,2.858421564102173,4.811540603637695,-66.16108703613281,0
446.04299999999967,-0.00011035851639462635,-5.5947384680621326e-05,-0.00014908902812749147,0.0,0.0,0.0,0.0,0.002898945240303874,0.0024113571271300316,0.00022234021162148565,0.9974200129508972,0.0,0.0,0.0,0.36421096324920654,2.852903366088867,4.798259258270264,-65.92290496826172,0
455.97099999999955,-6.669535650871694e-05,-7.780599116813391e-05,-0.00011177943815710023,0.0,0.0,0.0,0.0,-0.00309998937882483,0.0007797584403306246,0.0007428926764987409,0.9979639649391174,0.0,0.0,0.0,0.36242640018463135,2.8431272506713867,4.779618740081787,-65.59989929199219,0
465.8709999999992,-0.00011774802260333672,-5.658738882630132e-05,-0.00014603391173295677,0.0,0.0,0.0,0.0,0.0021152901463210583,0.0022478392347693443,-0.0034036124125123024,0.9983887076377869,0.0,0.0,0.0,0.3634446859359741,2.837401866912842,4.774809837341309,-65.78421020507812,0
475.78399999999965,-7.270873902598396e-05,-8.200866432162002e-05,-0.00011333958536852151,0.0,0.0,0.0,0.0,-0.0020364983938634396,-0.002312968485057354,0.0007638143142685294,0.9987820982933044,0.0,0.0,0.0,0.36237114667892456,2.832310438156128,4.769164562225342,-65.58989715576172,0
485.6910000000007,-7.615642243763432e-05,-1.1903639460797422e-05,-0.00019539339700713754,0.0,0.0,0.0,0.0,-0.0010119378566741943,0.005287856794893742,-0.002151773776859045,0.9990381002426147,0.0,0.0,0.0,0.36223044991493225,2.833932399749756,4.7635345458984375,-65.56443786621094,0
495.61199999999917,-4.145450293435715e-05,-3.5176177334506065e-05,-0.00016592105384916067,0.0,0.0,0.0,0.0,0.0017685011262074113,0.0033417558297514915,-0.00401300610974431,0.9995076060295105,0.0,0.0,0.0,0.3607407510280609,2.834231376647949,4.747774600982666,-65.2947998046875,0
505.5169999999998,-0.00011628333595581353,-4.225545490044169e-05,-0.000181265888386406,0.0,0.0,0.0,0.0,-0.003908147569745779,0.004462545737624168,0.005271908361464739,0.9997557401657104,0.0,0.0,0.0,0.3617354929447174,2.8236606121063232,4.734179496765137,-65.47484588623047,0
515.4320000000007,-6.779852992622182e-05,-6.771318294340745e-05,-0.0001458235055906698,0.0,0.0,0.0,0.0,0.0007053590379655361,-0.0008340427884832025,0.0012990343384444714,0.9996069073677063,0.0,0.0,0.0,0.3619471788406372,2.818582057952881,4.721059322357178,-65.5131607055664,0
525.3389999999999,-9.386926831211895e-05,-3.684528928715736e-05,-0.00021367448789533228,0.0,0.0,0.0,0.0,-0.0008044907590374351,-0.0028905398212373257,0.0002627914655022323,0.9985531568527222,0.0,0.0,0.0,0.36158666014671326,2.809622287750244,4.713674545288086,-65.44790649414062,0
535.2559999999994,-6.374093936756253e-05,-5.212967153056525e-05,-0.00018019844719674438,0.0,0.0,0.0,0.0,-0.006744314916431904,0.001483942847698927,0.0011152898659929633,1.00016188621521,0.0,0.0,0.0,0.36072680354118347,2.807974338531494,4.7224626541137695,-65.29227447509766,0
545.1610000000001,-0.00014736558659933507,-9.597282041795552e-05,-0.0002033858618233353,0.0,0.0,0.0,0.0,-0.0008454806520603597,-0.0023648168426007032,0.0010734100360423326,0.9992986917495728,0.0,0.0,0.0,0.353805810213089,2.811661720275879,4.718848705291748,-64.03955841064453,0
555.0810000000001,-7.899169577285647e-05,-0.00010433349962113425,-0.0001487207628088072,0.0,0.0,0.0,0.0,7.301183018171287e-07,0.005929569248110056,-0.002726370934396982,0.9991327524185181,0.0,0.0,0.0,0.3543471693992615,2.804476737976074,4.711858749389648,-64.13754272460938,0
564.9840000000004,-0.00012716682977043092,-6.43785169813782e-05,-0.0001847640232881531,0.0,0.0,0.0,0.0,0.001006171340122819,0.001333845779299736,0.0010316770058125257,1.0002367496490479,0.0,0.0,0.0,0.3551376461982727,2.807051181793213,4.703440189361572,-64.28062438964844,0
574.9110000000001,-7.700949936406687e-05,-7.59861504775472e-05,-0.0001383019844070077,0.0,0.0,0.0,0.0,0.001833472866564989,-0.002710763830691576,-0.0026783482171595097,1.002172827720642,0.0,0.0,0.0,0.3539658188819885,2.796567916870117,4.690167427062988,-64.06851959228516,0
584.8080000000009,-0.00015082742902450264,-0.00010537461639614776,-0.0001642662682570517,0.0,0.0,0.0,0.0,-0.00014276411093305796,0.004979056306183338,0.002789099235087633,1.0001153945922852,0.0,0.0,0.0,0.3530551791191101,2.7933542728424072,4.684070587158203,-63.90369415283203,0
594.7270000000008,-7.269433262990788e-05,-0.00011799961066571996,-0.00010305913019692525,0.0,0.0,0.0,0.0,0.0025815851986408234,-0.0014295127475634217,0.003849059110507369,0.9995797872543335,0.0,0.0,0.0,0.3529474139213562,2.794992208480835,4.667543888092041,-63.88418197631836,0
604.6389999999992,-0.00011507505405461416,-7.904021913418546e-05,-0.00013967504492029548,0.0,0.0,0.0,0.0,0.00017548701725900173,0.004372004419565201,0.0008756530587561429,1.0001693964004517,0.0,0.0,0.0,0.35268664360046387,2.790968894958496,4.654922962188721,-63.83698272705078,0
614.5509999999995,-3.823412407655269e-05,-0.00013661097909789532,-9.964127093553543e-05,0.0,0.0,0.0,0.0,-0.0015485123731195927,-0.0029702174942940474,0.0023105174768716097,0.9999182820320129,0.0,0.0,0.0,0.3520524799823761,2.785942316055298,4.635659217834473,-63.72220230102539,0
624.4599999999991,-0.00013666701852343976,-0.0001639194379094988,-8.963049185695127e-05,0.0,0.0,0.0,0.0,-0.0018006217433139682,-0.0018831060733646154,-0.0025232620537281036,0.9984468817710876,0.0,0.0,0.0,0.35217875242233276,2.7868592739105225,4.635670185089111,-63.74505615234375,0
634.3729999999996,-9.128662895818707e-06,-0.0002009955933317542,-1.4991553143772762e-05,0.0,0.0,0.0,0.0,0.001548370928503573,-0.0034530386328697205,0.004514457192271948,0.9980613589286804,0.0,0.0,0.0,0.35229456424713135,2.785674571990967,4.628357410430908,-63.76601791381836,0
644.2829999999994,-6.629677955061197e-05,-0.0001550149027025327,-2.328381197003182e-05,0.0,0.0,0.0,0.0,-0.0014818974304944277,-0.005836076568812132,-0.0008719066390767694,0.997808575630188,0.0,0.0,0.0,0.3503280580043793,2.779904842376709,4.62930154800415,-63.410072326660156,0
654.1990000000005,-7.749930227873847e-05,-0.00016175821656361222,2.587846029200591e-05,0.0,0.0,0.0,0.0,0.0015478727873414755,0.0031804819591343403,-0.0031379577703773975,0.9985570311546326,0.0,0.0,0.0,0.3494825065135956,2.775007963180542,4.63361930847168,-63.25702667236328,0
664.1139999999996,-0.0001536624477012083,-0.00017493552877567708,1.112427344196476e-05,0.0,0.0,0.0,0.0,8.231322135543451e-05,-0.002995582763105631,0.001180183026008308,0.9984607100486755,0.0,0.0,0.0,0.3491878807544708,2.7744510173797607,4.630220890045166,-63.20370101928711,0
674.0210000000006,-8.807145059108734e-05,-0.00018897224799729884,8.020337554626167e-05,0.0,0.0,0.0,0.0,-0.0013995944755151868,0.002986740320920944,-0.0004755934642162174,0.9993353486061096,0.0,0.0,0.0,0.34888747334480286,2.7819583415985107,4.630455493927002,-63.14932632446289,0
683.9320000000007,-0.00010633929196046665,-0.0001269836793653667,1.9629093003459275e-05,0.0,0.0,0.0,0.0,-0.001257448922842741,-0.0034715316724032164,0.000855544931255281,0.9992256164550781,0.0,0.0,0.0,0.3418888449668884,2.803481340408325,4.632511138916016,-61.88256072998047,0
693.8430000000008,-7.13819099473767e-05,-0.00018119244487024844,5.781597428722307e-05,0.0,0.0,0.0,0.0,0.0033988719806075096,-0.0015619114274159074,0.0012003111187368631,0.9994460940361023,0.0,0.0,0.0,0.34787437319755554,2.800071954727173,4.662888050079346,-62.9659538269043,0
703.7540000000008,-0.00014222171739675105,-0.00018249060667585582,3.595608359319158e-05,0.0,0.0,0.0,0.0,-4.6170993300620466e-05,0.00047393349814228714,-0.000979434116743505,1.0004451274871826,0.0,0.0,0.0,0.3468574583530426,2.7990400791168213,4.660898685455322,-62.78189468383789,0
713.6659999999993,-9.878039418254048e-05,-0.00023129492183215916,7.968441786943004e-05,0.0,0.0,0.0,0.0,-0.0004076792683918029,0.0012863106094300747,0.00036550164804793894,0.9995991587638855,0.0,0.0,0.0,0.34733209013938904,2.7941062450408936,4.659814834594727,-62.8677978515625,0
723.5759999999991,-6.623804802075028e-05,-0.0001154223209596239,-3.187062975484878e-05,0.0,0.0,0.0,0.0,-0.0035956657957285643,-0.0020720178727060556,-0.002512941835448146,1.0011769533157349,0.0,0.0,0.0,0.34728744626045227,2.7883200645446777,4.653712272644043,-62.85971450805664,0
733.5,-7.702605216763914e-05,-0.00013396771100815386,1.4878269212204032e-06,0.0,0.0,0.0,0.0,0.002325002569705248,0.00552797969430685,-0.0015963411424309015,0.9982625246047974,0.0,0.0,0.0,0.34569865465164185,2.7896597385406494,4.650264263153076,-62.5721435546875,0
743.4030000000002,-7.590280438307673e-05,-7.394945714622736e-05,-9.990858961828053e-05,0.0,0.0,0.0,0.0,-0.0021197909954935312,-0.0011456490028649569,-0.0004186215519439429,0.9980154633522034,0.0,0.0,0.0,0.3444930613040924,2.786029100418091,4.640063762664795,-62.35393142700195,0
753.3250000000007,-2.9504833946703002e-05,-0.00013797366409562528,-7.526417903136462e-05,0.0,0.0,0.0,0.0,-0.0005765893147327006,0.0038892256561666727,-0.006609439384192228,0.9972454905509949,0.0,0.0,0.0,0.34383389353752136,2.7804322242736816,4.631778717041016,-62.234615325927734,0
763.2250000000004,-4.988142609363422e-05,-3.925815690308809e-05,-0.00015281225205399096,0.0,0.0,0.0,0.0,0.002870796248316765,-0.0023496809881180525,-0.0011387346312403679,0.9986458420753479,0.0,0.0,0.0,0.34198465943336487,2.784691333770752,4.613498687744141,-61.89990234375,0
773.1530000000002,-3.3881155104609206e-05,-9.416793182026595e-05,-0.0001439729385310784,0.0,0.0,0.0,0.0,0.001928794546984136,-0.0020949544850736856,-0.0015985401114448905,1.0005556344985962,0.0,0.0,0.0,0.3411242663860321,2.775954008102417,4.609238624572754,-61.74416732788086,0
783.0550000000003,-0.00012103577319066972,-0.00011707112571457401,-0.00017517650849185884,0.0,0.0,0.0,0.0,-0.0012573313433676958,0.0012478831922635436,-0.0050212726928293705,1.0002810955047607,0.0,0.0,0.0,0.34152981638908386,2.772299289703369,4.607314109802246,-61.81757354736328,0
792.9719999999998,-2.6727604563347995e-05,-0.00016943713126238436,-0.00013351136294659227,0.0,0.0,0.0,0.0,-0.002189871622249484,0.0053496514447033405,0.000188292920938693,0.9991520643234253,0.0,0.0,0.0,0.33982741832733154,2.7649238109588623,4.611263751983643,-61.50943374633789,0
802.875,-7.915000605862588e-05,-0.0001210206828545779,-0.00017809163546189666,0.0,0.0,0.0,0.0,-0.00012939184671267867,-0.0001781113096512854,-0.0006735917995683849,0.9998049736022949,0.0,0.0,0.0,0.33970028162002563,2.7706427574157715,4.59316349029541,-61.48642349243164,0
812.7929999999997,-2.2037012968212366e-05,-0.00016062299255281687,-0.00013920712808612734,0.0,0.0,0.0,0.0,0.0022605559788644314,0.0011372191365808249,-0.0015300981467589736,1.0018811225891113,0.0,0.0,0.0,0.3386420011520386,2.7697434425354004,4.590206146240234,-61.29487991333008,0
822.7070000000003,-8.660685853101313e-05,-0.00011202348832739517,-0.00016335005057044327,0.0,0.0,0.0,0.0,-0.0023667290806770325,-0.0038892815355211496,-9.95287555269897e-05,0.9972655177116394,0.0,0.0,0.0,0.3441888093948364,2.784034013748169,4.582050323486328,-62.29885482788086,0
832.6280000000006,-2.239206514786929e-05,-0.00015483061724808067,-0.00011954979709116742,0.0,0.0,0.0,0.0,0.000437807640992105,-0.0020988895557820797,0.0011971292551606894,0.999480664730072,0.0,0.0,0.0,0.344044029712677,2.7826220989227295,4.570353984832764,-62.27265167236328,0
842.5220000000008,-8.118095138343051e-05,-0.00010864450450753793,-0.00015016495308373123,0.0,0.0,0.0,0.0,0.001393590704537928,0.0022258504759520292,-0.003393745282664895,0.999319851398468,0.0,0.0,0.0,0.34438538551330566,2.7871599197387695,4.576568126678467,-62.334442138671875,0
852.4519999999993,-3.3640582842053846e-05,-0.00015984184574335814,-0.0001175901634269394,0.0,0.0,0.0,0.0,-0.000989939901046455,-0.0022397469729185104,-0.00395861966535449,0.9999296069145203,0.0,0.0,0.0,0.3434145748615265,2.7753961086273193,4.565125465393066,-62.15871810913086,0
862.3529999999992,-8.317896572407335e-05,-0.00010739050048869103,-0.00015891621296759695,0.0,0.0,0.0,0.0,-0.0009961319155991077,-0.0025668388698250055,0.002116887364536524,1.000144124031067,0.0,0.0,0.0,0.3424966633319855,2.7799365520477295,4.562803745269775,-61.99258041381836,0
872.2649999999994,-8.426712156506255e-05,-8.497678936691955e-05,-9.920379670802504e-05,0.0,0.0,0.0,0.0,-0.005187598988413811,-0.002592216245830059,-0.0013840319588780403,0.9980221390724182,0.0,0.0,0.0,0.34271880984306335,2.777360677719116,4.558239459991455,-62.03278350830078,0
882.1749999999993,-0.000147714075865224,-5.1668768719537184e-05,-0.00012886950571555644,0.0,0.0,0.0,0.0,-0.0024446051102131605,-0.001621752162463963,0.001970083685591817,0.9975080490112305,0.0,0.0,0.0,0.34172433614730835,2.779132127761841,4.560421466827393,-61.852787017822266,0
892.0859999999993,-0.00011527538299560547,-4.9113590648630634e-05,-7.042726065265015e-05,0.0,0.0,0.0,0.0,-0.001494632801041007,-0.0032029584981501102,-0.0006955048884265125,0.9978699684143066,0.0,0.0,0.0,0.34233638644218445,2.7828245162963867,4.5679497718811035,-61.963565826416016,0
901.9930000000004,-0.00016919760673772544,-2.8398811991792172e-05,-0.00012173479626653716,0.0,0.0,0.0,0.0,-0.0009452502708882093,-0.001619998482055962,0.0010499188210815191,1.000123381614685,0.0,0.0,0.0,0.34315282106399536,2.7845046520233154,4.5549635887146,-62.11134338378906,0
911.9069999999992,-9.253617463400587e-05,-6.757172377547249e-05,-7.308722706511617e-05,0.0,0.0,0.0,0.0,-0.0019331644289195538,-0.002943573519587517,-0.004201942589133978,1.0013514757156372,0.0,0.0,0.0,0.34313297271728516,2.7794346809387207,4.5542144775390625,-62.107749938964844,0
921.8209999999999,-0.00014485239807981998,-2.9196395189501345e-05,-0.00011735402949852869,0.0,0.0,0.0,0.0,0.0002162128803320229,-0.004601422697305679,-0.0015175736043602228,0.9985961318016052,0.0,0.0,0.0,0.3430064618587494,2.780775785446167,4.5659403800964355,-62.08485412597656,0
931.7399999999998,-9.309737652074546e-05,-6.132163252914324e-05,-6.86048369971104e-05,0.0,0.0,0.0,0.0,0.0006325996364466846,-0.0002548442280385643,-0.0017864012625068426,0.9990915060043335,0.0,0.0,0.0,0.34191596508026123,2.7755022048950195,4.5660200119018555,-61.88747024536133,0
941.6419999999998,-0.00015666030230931938,-7.632737833773717e-05,-0.0001178549209726043,0.0,0.0,0.0,0.0,0.0008748464751988649,0.0013466026866808534,0.004395490977913141,0.9981482625007629,0.0,0.0,0.0,0.34094029664993286,2.7720139026641846,4.56993293762207,-61.710872650146484,0
951.5640000000003,-0.00010788243525894359,-7.278403063537553e-05,-5.396536653279327e-05,0.0,0.0,0.0,0.0,-0.0014530897606164217,-0.003359926166012883,-0.0013317386619746685,0.9973424673080444,0.0,0.0,0.0,0.3419380486011505,2.768893003463745,4.568199634552002,-61.89146423339844,0
961.4660000000003,-0.00019829750817734748,-9.93514695437625e-05,-6.907968781888485e-05,0.0,0.0,0.0,0.0,-0.001278078998439014,-0.005316093564033508,-0.0025503775104880333,0.997713565826416,0.0,0.0,0.0,0.34094130992889404,2.7642743587493896,4.560854434967041,-61.71105194091797,0
971.3880000000008,-0.0001117742431233637,-0.00011305713996989653,2.240720959889586e-06,0.0,0.0,0.0,0.0,0.0033453013747930527,-0.0009326415602117777,-0.0001532958704046905,0.9998496174812317,0.0,0.0,0.0,0.34037429094314575,2.7676424980163574,4.561944484710693,-61.608421325683594,0
981.2900000000009,-0.0002027715090662241,-0.00017074972856789827,-2.259541543025989e-05,0.0,0.0,0.0,0.0,0.00086678855586797,-6.378542457241565e-05,-0.0003796413366217166,0.9997053742408752,0.0,0.0,0.0,0.34074005484580994,2.7655324935913086,4.560142517089844,-61.67463302612305,0
991.2099999999991,-9.867355402093381e-05,-0.00023191059881355613,3.284256672486663e-05,0.0,0.0,0.0,0.0,-0.006853776052594185,-0.0019193293992429972,0.000581870786845684,0.9972973465919495,0.0,0.0,0.0,0.3403533697128296,2.7616982460021973,4.558621406555176,-61.604637145996094,0
1001.1129999999994,-0.00015308249567169696,-0.00021421347628347576,-2.453657998557901e-06,0.0,0.0,0.0,0.0,-0.0005041325930505991,-0.0043426440097391605,0.0001125784037867561,0.9995445609092712,0.0,0.0,0.0,0.3400489389896393,2.764700412750244,4.550732612609863,-61.54953384399414,0
1011.0390000000007,-0.00016179827798623592,-0.0002461480617057532,3.318274684716016e-05,0.0,0.0,0.0,0.0,-0.0011316182790324092,-0.0004935449687764049,0.004590846598148346,1.0009557008743286,0.0,0.0,0.0,0.3467637300491333,2.7694926261901855,4.571740627288818,-62.764923095703125,0
1020.9420000000009,-0.00013169362500775605,-0.0001223583531100303,-8.786426769802347e-05,0.0,0.0,0.0,0.0,-0.0005815273616462946,-0.004529478959739208,-5.502816929947585e-05,0.9979507327079773,0.0,0.0,0.0,0.34847360849380493,2.7998838424682617,4.590816020965576,-63.07442092895508,0
1030.8600000000006,-7.61530245654285e-05,-0.00016918174515012652,-4.8613703256705776e-05,0.0,0.0,0.0,0.0,0.000263302557868883,0.004581657703965902,0.0010995573829859495,0.9967536926269531,0.0,0.0,0.0,0.3490488827228546,2.8000736236572266,4.596995830535889,-63.17853927612305,0
1040.7620000000006,-8.822267409414053e-05,-0.0001361693866783753,-0.0001431384007446468,0.0,0.0,0.0,0.0,0.0005363432574085891,0.004730175714939833,-0.00046071020187810063,0.9980643391609192,0.0,0.0,0.0,0.3487020432949066,2.794539451599121,4.581692695617676,-63.11576461791992,0
1050.6859999999997,-5.940693154116161e-05,-0.00017297414888162166,-0.00011612658272497356,0.0,0.0,0.0,0.0,-0.00045304602826945484,-0.0001413099089404568,-0.0016527551924809813,0.9977354407310486,0.0,0.0,0.0,0.34773123264312744,2.7884418964385986,4.566205024719238,-62.940040588378906,0
1060.5869999999995,-0.00010363896581111476,-0.00012184032675577328,-0.0001653786312090233,0.0,0.0,0.0,0.0,-0.002989823929965496,-0.0031400099396705627,-0.0007708659977652133,1.0001052618026733,0.0,0.0,0.0,0.34838569164276123,2.785506248474121,4.561695575714111,-63.05850601196289,0
1070.5100000000002,-6.065512479835888e-06,-0.0001993098994717002,-0.0001385908981319517,0.0,0.0,0.0,0.0,-0.000584702065680176,0.005729979835450649,0.0006332495831884444,0.9999131560325623,0.0,0.0,0.0,0.34766504168510437,2.788445234298706,4.5651021003723145,-62.92806625366211,0
1080.411,-5.188765499042347e-05,-0.0001406295195920393,-0.00018345293938182294,0.0,0.0,0.0,0.0,0.0024934629909694195,-0.0005233421688899398,0.0001234272785950452,0.9995313286781311,0.0,0.0,0.0,0.3459843397140503,2.7834575176239014,4.544934272766113,-62.62384796142578,0
1090.3320000000003,-2.5358993298141286e-05,-0.00017444412515033036,-0.00015527999494224787,0.0,0.0,0.0,0.0,-0.0032150631304830313,-0.006850769743323326,0.0028962655924260616,0.9987758994102478,0.0,0.0,0.0,0.3459254503250122,2.7763516902923584,4.5371198654174805,-62.613197326660156,0
1100.2379999999994,-8.706455264473334e-05,-0.00013995033805258572,-0.00019210796745028347,0.0,0.0,0.0,0.0,-0.00038377000601030886,0.00046846651821397245,-0.0034389588981866837,0.9984741806983948,0.0,0.0,0.0,0.3458750545978546,2.779982328414917,4.54696798324585,-62.604068756103516,0
1110.161,-6.983439379837364e-05,-0.00014445438864640892,-0.00014977020327933133,0.0,0.0,0.0,0.0,-0.0019748674239963293,-0.00016056385356932878,-0.0010455056326463819,0.9994904398918152,0.0,0.0,0.0,0.34485915303230286,2.7828075885772705,4.549107074737549,-62.42019271850586,0
1120.0660000000007,-0.00017679085431154817,-0.00016962186782620847,-0.0001482160296291113,0.0,0.0,0.0,0.0,2.9761047699139453e-05,-0.003251780988648534,0.002357867080718279,0.9993858337402344,0.0,0.0,0.0,0.3446749746799469,2.784686803817749,4.55452823638916,-62.38685607910156,0
1129.982,-0.0001287712511839345,-0.00013154545740690082,-6.125736399553716e-05,0.0,0.0,0.0,0.0,-0.001488791313022375,-0.0006271603633649647,0.001079085050150752,0.9988149404525757,0.0,0.0,0.0,0.34360238909721375,2.7809998989105225,4.540789604187012,-62.192718505859375,0
1139.8870000000006,-0.00015953688125591725,-6.462406599894166e-05,-0.00012280554801691324,0.0,0.0,0.0,0.0,0.003142422065138817,0.005364798940718174,0.0023114392533898354,0.9988222122192383,0.0,0.0,0.0,0.3505297005176544,2.804626226425171,4.554292678833008,-63.44657897949219,0
1149.812,-0.00010161286627408117,-6.814263906562701e-05,-5.7444387493887916e-05,0.0,0.0,0.0,0.0,0.0006420071003958583,0.0009669089340604842,0.0004231487400829792,1.0006192922592163,0.0,0.0,0.0,0.3495866060256958,2.7971959114074707,4.540375709533691,-63.2758674621582,0
1159.7080000000005,-0.00014601329166907817,-2.6911258828477003e-05,-0.00011128529149573296,0.0,0.0,0.0,0.0,-0.0005969310877844691,-0.0015348814195021987,-0.005105591379106045,1.001156210899353,0.0,0.0,0.0,0.34934014081954956,2.7909140586853027,4.523900508880615,-63.231258392333984,0
1169.6329999999998,-0.00011143349547637627,-2.9918070140411146e-05,-5.133480590302497e-05,0.0,0.0,0.0,0.0,-0.0011315942974761128,0.0023010128643363714,0.004424781072884798,1.0004189014434814,0.0,0.0,0.0,0.3480904996395111,2.7966160774230957,4.517055988311768,-63.005069732666016,0
1179.5310000000009,-0.00016375479754060507,6.945511472622456e-07,-0.00010027886310126632,0.0,0.0,0.0,0.0,-0.004255805164575577,-0.0031522433273494244,-0.0009298637742176652,0.9983673691749573,0.0,0.0,0.0,0.35469865798950195,2.809583902359009,4.518983840942383,-64.20116424560547,0
1189.4570000000003,-7.990130688995123e-05,-7.888163236202672e-05,-6.174335430841893e-05,0.0,0.0,0.0,0.0,0.001106889802031219,0.002766384743154049,-0.0009810623014345765,0.9990429878234863,0.0,0.0,0.0,0.35992783308029175,2.8010408878326416,4.544906139373779,-65.14765167236328,0
1199.3549999999996,-8.419356890954077e-05,1.6539523130632006e-05,-0.00014705168723594397,0.0,0.0,0.0,0.0,0.002003456698730588,-0.0005495701334439218,0.0029109849128872156,0.9985214471817017,0.0,0.0,0.0,0.35769200325012207,2.79704213142395,4.539390563964844,-64.74296569824219,0
1209.2790000000005,-0.00011980005365330726,-4.746932245325297e-05,-0.0001461197971366346,0.0,0.0,0.0,0.0,0.0006345453439280391,-0.0007753511308692396,-0.002390090608969331,0.9993979930877686,0.0,0.0,0.0,0.36560383439064026,2.783296585083008,4.540563106536865,-66.1750259399414,0
1219.183000000001,-0.00014864395780023187,-1.4210485460353084e-05,-0.0002329209091840312,0.0,0.0,0.0,0.0,-0.0020177278202027082,0.0024859916884452105,-0.0007484788657166064,0.9988620281219482,0.0,0.0,0.0,0.36549508571624756,2.7852742671966553,4.539387226104736,-66.15534210205078,0
1229.1100000000006,-9.774242789717391e-05,-2.4420143745373935e-05,-0.0001774989941623062,0.0,0.0,0.0,0.0,0.0021485376637429,0.004920438397675753,-0.0021747450809925795,1.0004355907440186,0.0,0.0,0.0,0.3582090139389038,2.789675235748291,4.559086799621582,-64.8365478515625,0
1239.0030000000006,-0.0001883896766230464,-5.34343853360042e-05,-0.0002280275075463578,0.0,0.0,0.0,0.0,-0.0008724461076781154,-0.0010549339931458235,0.0013686798047274351,0.9987491965293884,0.0,0.0,0.0,0.3572147488594055,2.786715269088745,4.548490047454834,-64.65658569335938,0
1248.9300000000003,-0.00014079225366003811,-0.0001425651425961405,-0.00021152602857910097,0.0,0.0,0.0,0.0,0.0021748861763626337,0.006705244071781635,-0.0003448506467975676,1.001082420349121,0.0,0.0,0.0,0.3573763072490692,2.79114031791687,4.541961669921875,-64.68582153320312,0
1258.8340000000007,-0.0002414897026028484,-0.00017328867397736758,-0.0002250077814096585,0.0,0.0,0.0,0.0,-0.002370055764913559,0.0013937718467786908,-0.004374805837869644,1.0024408102035522,0.0,0.0,0.0,0.3568355441093445,2.7817888259887695,4.524388313293457,-64.58795166015625,0
1268.7639999999992,-0.00020038826914969832,-0.0001839683682192117,-0.00015933948452584445,0.0,0.0,0.0,0.0,-0.002444744575768709,-0.0012150324182584882,0.0013220568653196096,0.999426007270813,0.0,0.0,0.0,0.3489680290222168,2.790618419647217,4.539717197418213,-63.16390609741211,0
1278.6560000000009,-0.0002697040617931634,-0.00019279858679510653,-0.00020077923545613885,0.0,0.0,0.0,0.0,-0.0029059199150651693,-0.0005673406412824988,0.0009158742032013834,0.9982472658157349,0.0,0.0,0.0,0.3494431674480438,2.791954278945923,4.535630702972412,-63.249908447265625,0
1288.5789999999997,-8.240788883995265e-05,-0.000254095095442608,-0.00011387516133254394,0.0,0.0,0.0,0.0,-0.0011891773901879787,0.0016407822258770466,-0.0021534475963562727,0.9985969066619873,0.0,0.0,0.0,0.3471967279911041,2.7941880226135254,4.5760321617126465,-62.843299865722656,0
1298.4799999999996,-0.00015898676065262407,-0.0002658927405718714,-0.00013507885159924626,0.0,0.0,0.0,0.0,0.002764638978987932,-0.00044049692223779857,0.000715419533662498,1.0007095336914062,0.0,0.0,0.0,0.3464454412460327,2.7926907539367676,4.5721611976623535,-62.70731735229492,0
1308.4120000000003,-0.00017861636297311634,-0.0002591816883068532,-7.623094279551879e-05,0.0,0.0,0.0,0.0,-0.0008587867487221956,0.00039133132668212056,-0.0022943385411053896,0.9990865588188171,0.0,0.0,0.0,0.34635359048843384,2.786539316177368,4.571186065673828,-62.69068908691406,0
1318.308000000001,-0.00022815630654804409,-0.00024915175163187087,-0.0001297279668506235,0.0,0.0,0.0,0.0,0.002784036099910736,0.00155483721755445,-0.0012915900442749262,0.9975274801254272,0.0,0.0,0.0,0.34593212604522705,2.785355806350708,4.566585063934326,-62.61439895629883,0
1328.2260000000006,-0.0001406881056027487,-0.00031539477640762925,-7.646343146916479e-05,0.0,0.0,0.0,0.0,-0.001310928026214242,-0.007613652385771275,-0.0009701646631583571,0.9996495246887207,0.0,0.0,0.0,0.34466078877449036,2.777501106262207,4.555421829223633,-62.3842887878418,0
1338.1319999999996,-0.00018785850261338055,-0.0002812609018292278,-0.00012603127106558532,0.0,0.0,0.0,0.0,-0.0022375897970050573,-0.0015342447441071272,0.0012100687017664313,1.00126314163208,0.0,0.0,0.0,0.3441619873046875,2.77803373336792,4.562559127807617,-62.29399871826172,0
1348.0509999999995,-0.00016503024380654097,-0.0002962496946565807,-6.321155524346977e-05,0.0,0.0,0.0,0.0,0.0016437589656561613,0.0017797657055780292,-0.002360849641263485,0.9995185136795044,0.0,0.0,0.0,0.337738960981369,2.7886803150177,4.576308250427246,-61.13142395019531,0
1357.9539999999997,-0.00018597309826873243,-0.00020789544214494526,-0.00012957138824276626,0.0,0.0,0.0,0.0,0.0008643115870654583,-0.0027125331107527018,-0.0009712857427075505,0.9968948364257812,0.0,0.0,0.0,0.3374563157558441,2.7846808433532715,4.56808614730835,-61.080265045166016,0
1367.875,-0.00029505830025300384,-0.0002568982308730483,-0.00013419700553640723,0.0,0.0,0.0,0.0,-0.0002637177531141788,0.0016088399570435286,0.004200315568596125,0.9986780285835266,0.0,0.0,0.0,0.336665540933609,2.7813141345977783,4.568744659423828,-60.9371337890625,0
1377.7729999999992,-0.00032603932777419686,-0.00016217585653066635,-0.0001947450073203072,0.0,0.0,0.0,0.0,0.0006924644694663584,4.235879168845713e-05,0.005770871881395578,0.9989985227584839,0.0,0.0,0.0,0.34186112880706787,2.8166565895080566,4.581725597381592,-61.87754440307617,0
1387.696,-0.00019704242004081607,-0.00021468116028700024,-7.736884435871616e-05,0.0,0.0,0.0,0.0,0.0008116484386846423,0.003318585455417633,-0.0012198850745335221,1.0023912191390991,0.0,0.0,0.0,0.33942317962646484,2.8153200149536133,4.6270976066589355,-61.43627166748047,0
1397.607,-0.000279036263236776,-0.0002164171455660835,-8.317959145642817e-05,0.0,0.0,0.0,0.0,0.0010517167393118143,-0.002266467083245516,-0.0018674362218007445,0.9993282556533813,0.0,0.0,0.0,0.33890047669410706,2.8154537677764893,4.611837863922119,-61.34165954589844,0
1407.5169999999998,-0.00020631522056646645,-0.00022776047990191728,7.792702490405645e-06,0.0,0.0,0.0,0.0,0.003182946937158704,-0.004196633119136095,0.0018349640304222703,0.9979021549224854,0.0,0.0,0.0,0.33807772397994995,2.809112787246704,4.607712745666504,-61.1927375793457,0
1417.4210000000003,-0.00022625329438596964,-0.000154871420818381,-5.281303674564697e-05,0.0,0.0,0.0,0.0,-0.0037228476721793413,-0.005123934242874384,0.0032754556741565466,0.9985083937644958,0.0,0.0,0.0,0.33726873993873596,2.801037311553955,4.607518196105957,-61.04631805419922,0
1427.3420000000006,-0.00017412241140846163,-0.00019860513566527516,2.651579279699945e-06,0.0,0.0,0.0,0.0,0.003709273412823677,0.00027488285559229553,-0.0020870540756732225,0.9996843338012695,0.0,0.0,0.0,0.3363683521747589,2.8105766773223877,4.6100921630859375,-60.88334274291992,0
1437.2530000000006,-0.00015846498718019575,-0.00011577770055737346,-0.00011168252967763692,0.0,0.0,0.0,0.0,-0.00015396768867503852,0.0006593329599127173,-0.0010453654685989022,0.9982227087020874,0.0,0.0,0.0,0.3351440131664276,2.804347276687622,4.6009297370910645,-60.66173553466797,0
1447.1800000000003,-0.00021028159244451672,-0.0001544531260151416,-9.765254071680829e-05,0.0,0.0,0.0,0.0,0.00019012155826203525,0.00045382286771200597,0.0010798400035127997,0.9981333613395691,0.0,0.0,0.0,0.34446093440055847,2.8031201362609863,4.599949359893799,-62.348114013671875,0
1457.0740000000005,-0.00024116437998600304,-9.168802353087813e-05,-0.00016490809503011405,0.0,0.0,0.0,0.0,-0.004825636278837919,-0.00326691847294569,0.0008705807267688215,0.998661994934082,0.0,0.0,0.0,0.34517136216163635,2.8003861904144287,4.595697402954102,-62.476707458496094,0
1466.9930000000004,-0.00020068930462002754,-0.00012207654071971774,-0.00011930049367947504,0.0,0.0,0.0,0.0,0.001151566975750029,0.005691318307071924,0.0010319669963791966,0.9984543323516846,0.0,0.0,0.0,0.3537207841873169,2.8092782497406006,4.615588665008545,-64.024169921875,0
1476.8950000000004,-0.00027053046505898237,-0.0001378171145915985,-0.0001700475550023839,0.0,0.0,0.0,0.0,-0.002294881734997034,-0.0014767188113182783,0.0015808835159987211,0.9995123744010925,0.0,0.0,0.0,0.3531818091869354,2.7997138500213623,4.592140197753906,-63.92660903930664,0
1486.8220000000001,-0.00016679518739692867,-0.000199205256649293,-0.00011590895155677572,0.0,0.0,0.0,0.0,0.0009972150437533855,0.0016938254702836275,0.002769904676824808,1.0008938312530518,0.0,0.0,0.0,0.3523310720920563,2.7985644340515137,4.5852861404418945,-63.77262496948242,0
1496.7170000000006,-0.0002238322631455958,-0.0001539588120067492,-0.00015552643162664026,0.0,0.0,0.0,0.0,0.0025676500517874956,-0.005569284316152334,-0.002161480952054262,0.9983744621276855,0.0,0.0,0.0,0.3524450659751892,2.790410041809082,4.57515287399292,-63.79325485229492,0
1506.6370000000006,-0.0001831645204219967,-0.00014676255523227155,-7.85485390224494e-05,0.0,0.0,0.0,0.0,-0.0023826472461223602,-0.0006322901463136077,0.00011538881517481059,0.9974059462547302,0.0,0.0,0.0,0.35136476159095764,2.7816169261932373,4.577339172363281,-63.597721099853516,0
1516.5429999999997,-0.0002278876636410132,-0.00010275687964167446,-0.00013779393339063972,0.0,0.0,0.0,0.0,-0.002664195606485009,0.0013886656379327178,0.00207386608235538,0.9993160367012024,0.0,0.0,0.0,0.351643443107605,2.7844595909118652,4.5754804611206055,-63.648162841796875,0
1526.4619999999995,-0.0001835762377595529,-0.00014032176113687456,-8.849366713548079e-05,0.0,0.0,0.0,0.0,0.0016283720033243299,-0.0023286084178835154,0.003200358711183071,1.0010805130004883,0.0,0.0,0.0,0.3520723283290863,2.7893528938293457,4.567854881286621,-63.72579574584961,0
1536.3649999999998,-0.0002886233851313591,-0.00017733733693603426,-9.62544436333701e-05,0.0,0.0,0.0,0.0,0.0016766490880399942,0.0005507984897121787,-0.00036721755168400705,0.9993744492530823,0.0,0.0,0.0,0.36374449729919434,2.78352689743042,4.565248489379883,-65.83847045898438,0
1546.2870000000003,-0.00021713599562644958,-0.00019791988597717136,-2.0740420950460248e-05,0.0,0.0,0.0,0.0,0.000514041748829186,0.0031194945331662893,-0.0017157119000330567,1.0006307363510132,0.0,0.0,0.0,0.363260954618454,2.776594877243042,4.55504846572876,-65.7509536743164,0
1556.1890000000003,-0.0002956856042146683,-0.00019919252372346818,-4.5495758968172595e-05,0.0,0.0,0.0,0.0,-0.004437238909304142,0.003936204127967358,0.0004087911802344024,1.0002155303955078,0.0,0.0,0.0,0.36194634437561035,2.772225856781006,4.546981334686279,-65.51300811767578,0
1566.1149999999998,-0.00021211903367657214,-0.0002388285647612065,2.806631164276041e-05,0.0,0.0,0.0,0.0,0.0011483924463391304,0.0037239142693579197,-0.00048797024646773934,0.9985171556472778,0.0,0.0,0.0,0.361255019903183,2.774780750274658,4.540862083435059,-65.38787841796875,0
1576.0130000000008,-0.0002505452139303088,-0.00021606124937534332,-4.046760295750573e-05,0.0,0.0,0.0,0.0,-0.0011883897241204977,0.0019385222112759948,-0.000666076026391238,0.9997003078460693,0.0,0.0,0.0,0.35410264134407043,2.783323287963867,4.543972015380859,-64.0932846069336,0
1585.9480000000003,-0.00016739300917834044,-0.00028589661815203726,1.5349134628195316e-05,0.0,0.0,0.0,0.0,-0.0019444426288828254,-0.002087621483951807,0.0018053015228360891,0.999367892742157,0.0,0.0,0.0,0.3535566031932831,2.788562297821045,4.536095142364502,-63.99444580078125,0
1595.8410000000003,-0.0001952689199242741,-0.00024252472212538123,-6.149345426820219e-05,0.0,0.0,0.0,0.0,-0.00012540862371679395,0.003795207943767309,-0.0004910235293209553,0.9984980225563049,0.0,0.0,0.0,0.35429051518440247,2.789594888687134,4.540375232696533,-64.12728881835938,0
1605.7579999999998,-0.0001903241063700989,-0.00024138927983585745,3.5701284559763735e-06,0.0,0.0,0.0,0.0,0.0011249021627008915,0.0002975445531774312,0.0009528663358651102,0.998021125793457,0.0,0.0,0.0,0.35376614332199097,2.7876436710357666,4.531291961669922,-64.0323715209961,0
1615.6620000000003,-0.00021228811237961054,-0.00016534789756406099,-7.127616845536977e-05,0.0,0.0,0.0,0.0,0.002285754308104515,0.001812191680073738,0.0009703342220745981,0.9973403215408325,0.0,0.0,0.0,0.35403284430503845,2.7795517444610596,4.526604175567627,-64.08065032958984,0
1625.5820000000003,-0.0001862452772911638,-0.0002094098017551005,-3.05540015688166e-05,0.0,0.0,0.0,0.0,-0.0019267123425379395,-0.0034707838203758,-0.0037384366150945425,0.9984695911407471,0.0,0.0,0.0,0.3548108637332916,2.7733938694000244,4.523361682891846,-64.22147369384766,0
1635.4850000000006,-0.00022067641839385033,-0.00014185415056999773,-9.77082090685144e-05,0.0,0.0,0.0,0.0,-0.0012627494288608432,0.004495762754231691,-0.003455513156950474,0.998867392539978,0.0,0.0,0.0,0.35427388548851013,2.7781717777252197,4.532650470733643,-64.12427520751953,0
1645.4060000000009,-0.00033397518564015627,-0.0001874086301540956,-0.00010885331721510738,0.0,0.0,0.0,0.0,-6.731596658937633e-05,-0.0010550575098022819,0.0031358348205685616,1.0018774271011353,0.0,0.0,0.0,0.35337594151496887,2.778562545776367,4.519587516784668,-63.96174621582031,0
1655.3109999999997,-0.00036459072725847363,-0.00010838294110726565,-0.00019005924696102738,0.0,0.0,0.0,0.0,0.0005296551389619708,0.003092942526564002,-0.0029508210718631744,1.0008893013000488,0.0,0.0,0.0,0.3549101948738098,2.7781927585601807,4.518717288970947,-64.23945617675781,0
1665.2360000000008,-0.0002537030668463558,-0.00017730648687575012,-9.493187826592475e-05,0.0,0.0,0.0,0.0,0.00024909546482376754,0.001035282388329506,0.0012150737456977367,0.9992755651473999,0.0,0.0,0.0,0.3609665036201477,2.769960880279541,4.558062553405762,-65.33566284179688,0
1675.1360000000004,-0.0002931123017333448,-0.000123364181490615,-0.00015581779007334262,0.0,0.0,0.0,0.0,-0.0009439818095415831,0.0018910982180386782,0.002150359796360135,0.9992262125015259,0.0,0.0,0.0,0.36078310012817383,2.764122486114502,4.543715476989746,-65.30245971679688,0
1685.0640000000003,-0.00020175581448711455,-0.00015813835489097983,-8.538560359738767e-05,0.0,0.0,0.0,0.0,-0.0014539919793605804,0.005313978064805269,0.0030419041868299246,0.9985781908035278,0.0,0.0,0.0,0.36079728603363037,2.7620458602905273,4.533471584320068,-65.3050308227539,0
1694.9670000000006,-0.00030057033291086555,-0.0001747076603351161,-8.628111390862614e-05,0.0,0.0,0.0,0.0,0.0006274553597904742,0.005441213957965374,-0.003219527890905738,1.0005637407302856,0.0,0.0,0.0,0.3611163794994354,2.7615742683410645,4.524862289428711,-65.36278533935547,0
1704.8889999999992,-0.0001926642144098878,-0.00023976637749001384,-2.6755084036267363e-05,0.0,0.0,0.0,0.0,-0.0006123990751802921,0.0018823121208697557,-0.0027411477640271187,1.000563621520996,0.0,0.0,0.0,0.3608045279979706,2.7547061443328857,4.514605522155762,-65.30634307861328,0
1714.7919999999995,-0.0002602450840640813,-0.00022069727128837258,-5.249006062513217e-05,0.0,0.0,0.0,0.0,-0.0019423008197918534,0.00011688576341839507,0.0001860619813669473,1.0000768899917603,0.0,0.0,0.0,0.35892629623413086,2.751608371734619,4.5006937980651855,-64.96636962890625,0
1724.7109999999993,-0.0001856021408457309,-0.00026853897725231946,9.914448128256481e-06,0.0,0.0,0.0,0.0,0.0023998809047043324,-0.0037143356166779995,0.0010716905817389488,0.9977297782897949,0.0,0.0,0.0,0.35212409496307373,2.7535204887390137,4.5136566162109375,-63.735164642333984,0
1734.6100000000006,-0.00021324786939658225,-0.00022871143301017582,-6.612907600356266e-05,0.0,0.0,0.0,0.0,-0.0014535486698150635,0.0003281577955931425,-0.000516591127961874,0.998005211353302,0.0,0.0,0.0,0.35239675641059875,2.748903751373291,4.519176959991455,-63.78451156616211,0
1744.5249999999996,-0.0001492339069955051,-0.00028625212144106627,-1.298132792726392e-05,0.0,0.0,0.0,0.0,0.0015960020245984197,0.0027814137283712626,0.00019320266437716782,0.9991943836212158,0.0,0.0,0.0,0.3517968952655792,2.750781536102295,4.5118513107299805,-63.67593765258789,0
1754.4320000000007,-0.00014559287228621542,-0.00019017871818505228,-0.00011706330406013876,0.0,0.0,0.0,0.0,0.0013568010181188583,-0.001672347541898489,0.0005869843880645931,0.9998865127563477,0.0,0.0,0.0,0.35120370984077454,2.7458455562591553,4.5010905265808105,-63.568572998046875,0
1764.3539999999994,-0.00013029445835854858,-0.0002351360599277541,-7.997731154318899e-05,0.0,0.0,0.0,0.0,-0.0005692753475159407,0.0009629247360862792,-0.0013749880017712712,0.998950183391571,0.0,0.0,0.0,0.35105156898498535,2.7403650283813477,4.5011677742004395,-63.54103088378906,0
1774.2559999999994,-0.00014575524255633354,-0.00015518569853156805,-0.0001860718330135569,0.0,0.0,0.0,0.0,0.0025190883316099644,-0.00026189902564510703,-0.0008487835875712335,0.9991559982299805,0.0,0.0,0.0,0.3507521152496338,2.740743637084961,4.494661331176758,-63.48683166503906,0
1784.183000000001,-0.00017289433162659407,-0.00015255874313879758,-0.0001411357952747494,0.0,0.0,0.0,0.0,-0.00025926713715307415,-0.0005193879478611052,-0.004215213004499674,1.0004489421844482,0.0,0.0,0.0,0.350333034992218,2.736224889755249,4.482903957366943,-63.41097640991211,0
1794.0840000000007,-0.00022361752053257078,-0.00010665436275303364,-0.00020671587844844908,0.0,0.0,0.0,0.0,0.0016245035221800208,-0.0006830039783380926,-0.0014549902407452464,1.0012845993041992,0.0,0.0,0.0,0.34930843114852905,2.7363548278808594,4.479744911193848,-63.225521087646484,0
1804.0020000000004,-0.00018793996423482895,-0.0001267704792553559,-0.00015170189726632088,0.0,0.0,0.0,0.0,-0.0006455763359554112,-0.0009718245128169656,0.000914204865694046,0.9989287853240967,0.0,0.0,0.0,0.34870827198028564,2.729111433029175,4.476294040679932,-63.11689376831055,0
1813.9069999999992,-0.00026210403302684426,-0.00010858527093660086,-0.00018823945720214397,0.0,0.0,0.0,0.0,0.0014672119868919253,0.0041851201094686985,0.0013844642089679837,0.9991316199302673,0.0,0.0,0.0,0.34937575459480286,2.727968215942383,4.475363731384277,-63.23770523071289,0
1823.821,-0.00016446763765998185,-0.0001676858519203961,-0.00013199064414948225,0.0,0.0,0.0,0.0,0.0031692953780293465,0.0029223919846117496,-0.0012732072500512004,0.999047577381134,0.0,0.0,0.0,0.35003766417503357,2.7245736122131348,4.461253643035889,-63.35751724243164,0
1833.7309999999998,-0.0002261581103084609,-0.0001312216481892392,-0.00017435931658837944,0.0,0.0,0.0,0.0,-0.0013471228303387761,-2.3441180019290186e-05,0.0011648541549220681,1.0014208555221558,0.0,0.0,0.0,0.34963393211364746,2.7198140621185303,4.44955587387085,-63.2844352722168,0
1843.6540000000005,-0.00017431456944905221,-0.0001469553099013865,-0.00010731048678280786,0.0,0.0,0.0,0.0,0.0004400048637762666,-0.004760191310197115,0.002363580511882901,0.999699592590332,0.0,0.0,0.0,0.3498879671096802,2.7244327068328857,4.4468255043029785,-63.330413818359375,0
1853.554,-0.00022981772781349719,-0.00011429460573708639,-0.00015589676331728697,0.0,0.0,0.0,0.0,0.0016466074157506227,-0.0004043659719172865,-1.377963872073451e-05,0.9996781945228577,0.0,0.0,0.0,0.3499467968940735,2.721745491027832,4.450011730194092,-63.341064453125,0
1863.4809999999998,-0.0002059074759017676,-0.00011243799235671759,-8.624915062682703e-05,0.0,0.0,0.0,0.0,0.0016850752290338278,-0.0036869363393634558,0.0012456494150683284,1.0001237392425537,0.0,0.0,0.0,0.34960588812828064,2.7187914848327637,4.444423198699951,-63.279361724853516,0
1873.3829999999998,-0.0002731345593929291,-0.00012476486153900623,-0.00014039629604667425,0.0,0.0,0.0,0.0,-0.0013044205261394382,0.001196548924781382,-0.0020990329794585705,1.0003564357757568,0.0,0.0,0.0,0.34862613677978516,2.715866804122925,4.44251012802124,-63.10202407836914,0
1883.2960000000003,-0.00020882680837530643,-0.00013226323062554002,-5.936702655162662e-05,0.0,0.0,0.0,0.0,0.001978144980967045,-0.004404586274176836,0.0010256574023514986,1.0004369020462036,0.0,0.0,0.0,0.34706100821495056,2.7191593647003174,4.431366920471191,-62.8187370300293,0
1893.205,-0.00027118728030472994,-9.64542559813708e-05,-9.391600906383246e-05,0.0,0.0,0.0,0.0,-0.002514493651688099,-0.0017836972838267684,-0.0005957231624051929,0.9998096823692322,0.0,0.0,0.0,0.3472530245780945,2.7110750675201416,4.439898490905762,-62.853492736816406,0
1903.1200000000008,-0.00024333388137165457,-0.00012197613250464201,-3.243084574933164e-05,0.0,0.0,0.0,0.0,0.0030710038263350725,0.0008819655631668866,-0.00465086754411459,0.9994068741798401,0.0,0.0,0.0,0.34654879570007324,2.713042736053467,4.436895847320557,-62.72602081298828,0
1913.0329999999994,-0.00028874652343802154,-7.810792158124968e-05,-8.990601781988516e-05,0.0,0.0,0.0,0.0,9.235516336048022e-05,0.00023487467842642218,0.0006433581584133208,1.0000454187393188,0.0,0.0,0.0,0.34504732489585876,2.7111473083496094,4.430020332336426,-62.45425033569336,0
1922.9480000000003,-0.0002617429126985371,-0.00011863736290251836,-3.6196888686390594e-05,0.0,0.0,0.0,0.0,-0.0014839008217677474,-0.0025594085454940796,0.0018475268734619021,1.0004936456680298,0.0,0.0,0.0,0.34562838077545166,2.7116875648498535,4.423873424530029,-62.55942153930664,0
1932.8590000000004,-0.00030488925403915346,-7.030161214061081e-05,-9.921568562276661e-05,0.0,0.0,0.0,0.0,0.002236864995211363,-0.0020447764545679092,-0.0024383394047617912,0.9998115301132202,0.0,0.0,0.0,0.3462503254413605,2.712761640548706,4.41788387298584,-62.672000885009766,0
1942.7700000000004,-0.00023701162717770785,-8.959267870523036e-05,-2.2283920770860277e-05,0.0,0.0,0.0,0.0,0.0005981667782180011,0.0028032318223267794,-0.005097487010061741,0.9980804324150085,0.0,0.0,0.0,0.34596380591392517,2.7085835933685303,4.414011001586914,-62.62013244628906,0
1952.6800000000003,-0.00025440548779442906,-3.604784797062166e-05,-0.00011859463120345026,0.0,0.0,0.0,0.0,0.001518006669357419,0.0014856599736958742,-0.0014978969702497125,0.9965251088142395,0.0,0.0,0.0,0.3440052270889282,2.7060163021087646,4.402984619140625,-62.265628814697266,0
1962.5959999999995,-0.00015044071187730879,-0.0001456404133932665,-8.549365884391591e-05,0.0,0.0,0.0,0.0,-0.0006177244358696043,-0.005890330299735069,0.004485768266022205,0.997565746307373,0.0,0.0,0.0,0.34382444620132446,2.700336217880249,4.394172191619873,-62.232906341552734,0
1972.5030000000006,-0.00022099023044575006,-0.00014167558401823044,-0.00013185599527787417,0.0,0.0,0.0,0.0,-0.0014923190465196967,-0.0007546126726083457,0.0040578111074864864,0.997056245803833,0.0,0.0,0.0,0.3446821868419647,2.7024595737457275,4.40132999420166,-62.388160705566406,0
1982.4120000000003,-0.00015550627722404897,-0.0002133421367034316,-9.26985012483783e-05,0.0,0.0,0.0,0.0,-0.0017267728690057993,-0.005856914445757866,0.003131531411781907,0.9993224143981934,0.0,0.0,0.0,0.34458714723587036,2.705625057220459,4.397790431976318,-62.3709602355957,0
1992.3269999999993,-0.0002521459828130901,-0.0002277479798067361,-0.00011113296204712242,0.0,0.0,0.0,0.0,-0.0018400218104943633,0.002001168206334114,-0.00040142706711776555,0.9991034865379333,0.0,0.0,0.0,0.3447745740413666,2.710066556930542,4.408841609954834,-62.40488815307617,0
2002.241,-0.0001710601063678041,-0.00028011156246066093,-5.210570088820532e-05,0.0,0.0,0.0,0.0,0.002175750909373164,-0.0014773077564314008,0.00348358484916389,0.998988926410675,0.0,0.0,0.0,0.3439478278160095,2.7145140171051025,4.399336814880371,-62.25524139404297,0
2012.1499999999996,-0.00028598521021194756,-0.0003341102856211364,-5.689814133802429e-05,0.0,0.0,0.0,0.0,0.00047015666496008635,-0.003166116774082184,-0.0016259710537269711,0.9978395104408264,0.0,0.0,0.0,0.3449152112007141,2.7095742225646973,4.393104076385498,-62.43033981323242,0
2022.0699999999997,-0.00033785775303840637,-0.0002766709658317268,-0.0001143755653174594,0.0,0.0,0.0,0.0,0.00011361344513716176,-0.00423683924600482,0.0027753585018217564,0.9983349442481995,0.0,0.0,0.0,0.34317997097969055,2.7073075771331787,4.391045093536377,-62.11625671386719,0
2031.9799999999996,-0.00046018240391276777,-0.0003283308760728687,-0.00012568161764647812,0.0,0.0,0.0,0.0,-0.0018657833570614457,0.0032555731013417244,0.0013985070399940014,0.9979985356330872,0.0,0.0,0.0,0.34357643127441406,2.7054340839385986,4.394031524658203,-62.188018798828125,0
2041.884,-0.00047521208762191236,-0.00018528153304941952,-0.00021567323710769415,0.0,0.0,0.0,0.0,0.0006872136145830154,-0.0015598207246512175,-0.0012637143954634666,1.0007268190383911,0.0,0.0,0.0,0.34012582898139954,2.758817195892334,4.4153733253479,-61.563453674316406,0
2051.7980000000007,-0.000597050879150629,-0.0002278767351526767,-0.00023499538656324148,0.0,0.0,0.0,0.0,-0.0021728924475610256,-9.456976840738207e-05,-0.0026568493340164423,1.000088095664978,0.0,0.0,0.0,0.33915475010871887,2.751941204071045,4.408705234527588,-61.3876838684082,0
2061.7090000000007,-0.0006258639041334391,-0.00010500095231691375,-0.0003133637073915452,0.0,0.0,0.0,0.0,0.002001810120418668,-0.00024385748838540167,0.00036641524638980627,0.9982573986053467,0.0,0.0,0.0,0.3358945846557617,2.809894323348999,4.4565534591674805,-60.797584533691406,0
2071.625,-0.0007478856714442372,-0.00013695357483811677,-0.0003373505605850369,0.0,0.0,0.0,0.0,-0.0021641813218593597,-0.0009615856688469648,0.001264997641555965,0.9977399110794067,0.0,0.0,0.0,0.3354610204696655,2.801450252532959,4.4503021240234375,-60.719112396240234,0
2081.5300000000007,-0.0007558666402474046,-7.865716906962916e-05,-0.0004622304404620081,0.0,0.0,0.0,0.0,0.0028564578387886286,-0.003071501851081848,-0.0028253132477402687,0.9991582632064819,0.0,0.0,0.0,0.33943015336990356,2.839287757873535,4.506872177124023,-61.437538146972656,0
2091.447,-0.0008758823969401419,-0.00010694609227357432,-0.0004968157736584544,0.0,0.0,0.0,0.0,0.003533999901264906,0.0034362676087766886,-0.0014159310376271605,0.9970517754554749,0.0,0.0,0.0,0.33900585770606995,2.8312952518463135,4.513525485992432,-61.36073303222656,0
2101.3539999999994,-0.0008931048796512187,6.8831777753075585e-06,-0.0005833514151163399,0.0,0.0,0.0,0.0,0.0009519613813608885,-0.002481582574546337,0.0015694081084802747,0.9977779388427734,0.0,0.0,0.0,0.33812597393989563,2.8779385089874268,4.5540642738342285,-61.20146942138672,0
2111.2780000000002,-0.0010106632253155112,-1.2282909665373154e-05,-0.0006263153627514839,0.0,0.0,0.0,0.0,-0.0002100409910781309,-0.00039847640437074006,-0.0016590658342465758,0.9982181191444397,0.0,0.0,0.0,0.33896729350090027,2.8702409267425537,4.547331809997559,-61.353755950927734,0
