timestamp,stateEstimate.x,stateEstimate.y,stateEstimate.z,controller.cmd_thrust,controller.cmd_roll,controller.cmd_pitch,controller.cmd_yaw,controller.r_roll,controller.r_pitch,controller.r_yaw,controller.accelz,controller.actuatorThrust,controller.roll,controller.pitch,controller.yaw,controller.rollRate,controller.pitchRate,controller.yawRate,controller.ctr_yaw
0.0,-0.0037337513640522957,-0.02311883307993412,-0.0001537911157356575,0.0,0.0,0.0,0.0,0.0017358369659632444,0.0025369487702846527,-9.632109868107364e-05,0.9994626641273499,0.0,0.0,0.0,-27.22480010986328,4.9092631340026855,2.0235540866851807,4927.7431640625,0
9.884000000000015,-0.0037458688020706177,-0.02312878519296646,-0.00017823684902396053,0.0,0.0,0.0,0.0,0.0025580318178981543,-0.002269831020385027,0.0007674740045331419,0.999809741973877,0.0,0.0,0.0,-27.196426391601562,4.894155502319336,2.0291690826416016,4922.607421875,0
19.771999999999025,-0.0037423435132950544,-0.02307712286710739,-0.00019267952302470803,0.0,0.0,0.0,0.0,0.001731774304062128,0.0033110762014985085,0.0013284668093547225,0.9987977147102356,0.0,0.0,0.0,-27.26274871826172,4.9074177742004395,2.022752046585083,4934.6123046875,0
29.670000000000073,-0.0037546746898442507,-0.02308577671647072,-0.00021765194833278656,0.0,0.0,0.0,0.0,0.001863647485151887,0.0015014111995697021,0.000337760808179155,0.9996417760848999,0.0,0.0,0.0,-27.234567642211914,4.899745464324951,2.0120749473571777,4929.5107421875,0
39.547999999998865,-0.003766125999391079,-0.02309630624949932,-0.00024322056560777128,0.0,0.0,0.0,0.0,-0.0012000126298516989,0.001789733418263495,0.0018217115430161357,0.9995986819267273,0.0,0.0,0.0,-27.207382202148438,4.891747951507568,2.0130789279937744,4924.58984375,0
49.43299999999908,-0.0037762692663818598,-0.023109029978513718,-0.0002688838285394013,0.0,0.0,0.0,0.0,0.002089648973196745,0.0028523176442831755,-0.00045186965144239366,1.0001360177993774,0.0,0.0,0.0,-27.181381225585938,4.883957386016846,2.0096595287323,4919.88427734375,0
59.3179999999993,-0.0037978014443069696,-0.023149361833930016,-0.00031132245203480124,0.0,0.0,0.0,0.0,0.0005771839059889317,-0.001362861366942525,-0.0009934245608747005,1.0000715255737305,0.0,0.0,0.0,-27.227998733520508,4.864437103271484,1.995321273803711,4928.322265625,0
69.1989999999987,-0.003809993853792548,-0.02316698618233204,-0.00033710678690113127,0.0,0.0,0.0,0.0,0.00026290214736945927,-5.649084414471872e-05,-0.0011234147241339087,1.0007706880569458,0.0,0.0,0.0,-27.20115852355957,4.859348773956299,1.999436378479004,4923.4638671875,0
79.09100000000035,-0.0038478283677250147,-0.02317597158253193,-0.0003103066992480308,0.0,0.0,0.0,0.0,0.0013433340936899185,0.007445740047842264,0.0034426359925419092,0.9997871518135071,0.0,0.0,0.0,-27.253589630126953,4.849727630615234,1.9772493839263916,4932.9541015625,0
88.97400000000016,-0.003863879479467869,-0.02319636382162571,-0.000331913644913584,0.0,0.0,0.0,0.0,-0.0016955069731920958,-0.0020432432647794485,0.00198829616419971,1.0009667873382568,0.0,0.0,0.0,-27.225582122802734,4.83855676651001,1.9681745767593384,4927.884765625,0
98.85900000000038,-0.003895136760547757,-0.023200687021017075,-0.0003132393176201731,0.0,0.0,0.0,0.0,-0.0020069547463208437,0.003456472884863615,-0.0004481380747165531,0.9994996190071106,0.0,0.0,0.0,-27.261926651000977,4.839837074279785,1.9504772424697876,4934.46337890625,0
108.74099999999999,-0.003912379499524832,-0.02322293072938919,-0.0003313725464977324,0.0,0.0,0.0,0.0,0.00021370951435528696,0.0061172801069915295,-0.0023649169597774744,1.0000619888305664,0.0,0.0,0.0,-27.235074996948242,4.840799808502197,1.939084529876709,4929.60302734375,0
118.62700000000041,-0.0039309109561145306,-0.02320137806236744,-0.0003098061424680054,0.0,0.0,0.0,0.0,-0.00033210450783371925,-0.0048439763486385345,-0.00014473398914560676,0.9992294907569885,0.0,0.0,0.0,-27.285085678100586,4.849120140075684,1.9234248399734497,4938.65478515625,0
128.51499999999942,-0.0039499965496361256,-0.023186054080724716,-0.000296083657303825,0.0,0.0,0.0,0.0,7.034117516013794e-06,0.0010818014852702618,0.0028745168820023537,0.9994680285453796,0.0,0.0,0.0,-27.33119773864746,4.854978084564209,1.9209139347076416,4947.00146484375,0
138.39899999999943,-0.00364647526293993,-0.023321818560361862,2.888941889978014e-05,0.0,0.0,0.0,0.0,-0.004443301819264889,-0.004900551866739988,0.0006472673849202693,1.0007036924362183,0.0,0.0,0.0,-27.38674545288086,4.874256134033203,1.9824764728546143,4957.05517578125,0
148.28399999999965,-0.00364166428335011,-0.023331671953201294,2.5537339752190746e-05,0.0,0.0,0.0,0.0,-0.0049154628068208694,0.0005461440305225551,-0.001687760348431766,1.0024454593658447,0.0,0.0,0.0,-27.414325714111328,4.880105018615723,1.979640245437622,4962.04736328125,0
158.17499999999927,-0.0037352382205426693,-0.023276470601558685,8.12769285403192e-05,0.0,0.0,0.0,0.0,-0.001337593887001276,0.007635967340320349,-0.0009434676612727344,1.000367522239685,0.0,0.0,0.0,-27.463912963867188,4.888666152954102,1.967236042022705,4971.02294921875,0
168.0589999999993,-0.0037305147852748632,-0.023304834961891174,5.262528793537058e-05,0.0,0.0,0.0,0.0,-0.0022359557915478945,-0.002568846568465233,0.0010082348017022014,0.9989906549453735,0.0,0.0,0.0,-27.484779357910156,4.888986587524414,1.9464449882507324,4974.7998046875,0
177.9419999999991,-0.003779820166528225,-0.023280013352632523,0.00010318167187506333,0.0,0.0,0.0,0.0,-0.001035673194564879,-0.001415635459125042,0.002582760062068701,0.9992690682411194,0.0,0.0,0.0,-27.522096633911133,4.895396709442139,1.9516023397445679,4981.5546875,0
187.82899999999972,-0.0037302898708730936,-0.02324668876826763,3.437319173826836e-05,0.0,0.0,0.0,0.0,0.0012435803655534983,-0.0012678717030212283,0.0016608145087957382,1.0004029273986816,0.0,0.0,0.0,-27.54477882385254,4.901209831237793,1.9483466148376465,4985.65966796875,0
197.70899999999892,-0.0037487358786165714,-0.02326333522796631,3.527663284330629e-05,0.0,0.0,0.0,0.0,0.0006310518947429955,-0.0034719188697636127,0.002289882395416498,1.001412034034729,0.0,0.0,0.0,-27.516246795654297,4.894883632659912,1.9454466104507446,4980.49560546875,0
207.59900000000016,-0.003757582977414131,-0.023286940529942513,1.7753007341525517e-05,0.0,0.0,0.0,0.0,-0.0015244334936141968,0.00021257343178149313,-0.00103932642377913,0.9993175864219666,0.0,0.0,0.0,-27.530879974365234,4.894235134124756,1.9406121969223022,4983.14404296875,0
217.48599999999897,-0.003684374736621976,-0.02330363541841507,0.00013244016736280173,0.0,0.0,0.0,0.0,-0.0006537339650094509,-0.0025370370130985975,-0.0027707000263035297,0.9956093430519104,0.0,0.0,0.0,-27.5677547454834,4.899777889251709,1.9517042636871338,4989.81884765625,0
227.3719999999994,-0.003686216427013278,-0.023298967629671097,0.0001249628548976034,0.0,0.0,0.0,0.0,0.0013273365329951048,0.010240981355309486,-0.00214552553370595,0.9980509281158447,0.0,0.0,0.0,-27.584510803222656,4.90093469619751,1.9428575038909912,4992.85107421875,0
237.2549999999992,-0.003708323696628213,-0.023314541205763817,0.0001271813816856593,0.0,0.0,0.0,0.0,-0.00021571260003838688,-0.002832605503499508,0.0028839006554335356,0.9999926090240479,0.0,0.0,0.0,-27.557777404785156,4.897085189819336,1.9334250688552856,4988.0126953125,0
247.13999999999942,-0.003684872994199395,-0.02330288290977478,6.034183024894446e-05,0.0,0.0,0.0,0.0,1.1051651199522894e-05,0.006053131073713303,-0.0009089002851396799,1.0019851922988892,0.0,0.0,0.0,-27.56586456298828,4.905417442321777,1.9349455833435059,4989.47607421875,0
257.02599999999984,-0.0037590113934129477,-0.023259349167346954,0.00011995487875537947,0.0,0.0,0.0,0.0,-0.0017490863101556897,0.0024550026282668114,0.002215603832155466,1.0013179779052734,0.0,0.0,0.0,-27.599668502807617,4.908368110656738,1.9172418117523193,4995.59521484375,0
266.91499999999905,-0.0037611050065606833,-0.023282621055841446,7.538397767348215e-05,0.0,0.0,0.0,0.0,0.001296883448958397,-0.0025712724309414625,0.0018757503712549806,0.9992480874061584,0.0,0.0,0.0,-27.608470916748047,4.909325122833252,1.909279465675354,4997.18798828125,0
276.8029999999999,-0.003786554094403982,-0.02329523302614689,7.61785704526119e-05,0.0,0.0,0.0,0.0,-0.003037843154743314,0.0023080722894519567,-0.003071359358727932,1.0004135370254517,0.0,0.0,0.0,-27.581260681152344,4.899432182312012,1.9063735008239746,4992.26318359375,0
286.6839999999993,-0.0037871836684644222,-0.02327662892639637,5.223658081376925e-05,0.0,0.0,0.0,0.0,0.005906222853809595,0.0026349471881985664,0.003825673833489418,0.9985736012458801,0.0,0.0,0.0,-27.596698760986328,4.914577007293701,1.9027055501937866,4995.05712890625,0
296.5669999999991,-0.003808664157986641,-0.023250771686434746,0.00013483503425959498,0.0,0.0,0.0,0.0,-0.0001893345033749938,0.003087707795202732,-0.0018578555900603533,0.998738706111908,0.0,0.0,0.0,-27.622880935668945,4.914342403411865,1.8932585716247559,4999.79638671875,0
306.46099999999933,-0.003769604954868555,-0.023215368390083313,5.599531141342595e-05,0.0,0.0,0.0,0.0,0.0020675777923315763,0.006798941176384687,0.0026718638837337494,1.001796007156372,0.0,0.0,0.0,-27.637313842773438,4.91834831237793,1.8935602903366089,5002.40869140625,0
316.34000000000015,-0.0037957807071506977,-0.023222628980875015,5.3500356443692e-05,0.0,0.0,0.0,0.0,-0.0035535343922674656,-0.004377406556159258,0.001632369589060545,0.9982103705406189,0.0,0.0,0.0,-27.6106014251709,4.914392471313477,1.8804000616073608,4997.57373046875,0
326.22599999999875,-0.003808302106335759,-0.023249762132763863,1.2128890375606716e-05,0.0,0.0,0.0,0.0,0.002721932251006365,-0.0003321257245261222,0.003478678874671459,0.9987393021583557,0.0,0.0,0.0,-27.615514755249023,4.907458305358887,1.8835331201553345,4998.462890625,0
336.1180000000004,-0.003834968199953437,-0.023259559646248817,4.763642209582031e-06,0.0,0.0,0.0,0.0,-0.0039044632576406,0.0029044682160019875,-0.004882102832198143,0.9984681606292725,0.0,0.0,0.0,-27.587772369384766,4.8978753089904785,1.878061056137085,4993.44189453125,0
346.0029999999988,-0.0038477350026369095,-0.023269958794116974,-3.4623328247107565e-05,0.0,0.0,0.0,0.0,0.0024322434328496456,-0.0024301453959196806,-0.0016371810343116522,1.0013391971588135,0.0,0.0,0.0,-27.59502410888672,4.9006733894348145,1.867750883102417,4994.75439453125,0
355.884,-0.003875226015225053,-0.02328018844127655,-4.4216038077138364e-05,0.0,0.0,0.0,0.0,-0.0011092580389231443,0.000977319898083806,-0.001658817520365119,1.0003842115402222,0.0,0.0,0.0,-27.568029403686523,4.886190891265869,1.867601752281189,4989.8681640625,0
365.771999999999,-0.0038813401479274035,-0.023239977657794952,-7.029659172985703e-05,0.0,0.0,0.0,0.0,-0.000806346710305661,-0.003783164545893669,0.0010508487466722727,0.9998129606246948,0.0,0.0,0.0,-27.587371826171875,4.901361465454102,1.8727765083312988,4993.36962890625,0
375.65599999999904,-0.0038580899126827717,-0.023193174973130226,9.500821761321276e-05,0.0,0.0,0.0,0.0,0.0018359132809564471,-0.00555767398327589,-1.6144464098033495e-05,0.9977090358734131,0.0,0.0,0.0,-27.619068145751953,4.923470973968506,1.8811109066009521,4999.10595703125,0
385.54099999999926,-0.0038188714534044266,-0.02314189448952675,1.5069299479364417e-05,0.0,0.0,0.0,0.0,0.0007255679229274392,-0.004489739425480366,-0.002472028834745288,0.9997709393501282,0.0,0.0,0.0,-27.621971130371094,4.938085079193115,1.901149034500122,4999.6318359375,0
395.4269999999997,-0.0037836204282939434,-0.02313954383134842,8.556929969927296e-05,0.0,0.0,0.0,0.0,0.000829049851745367,0.002216214779764414,-0.0011753810103982687,1.0019521713256836,0.0,0.0,0.0,-27.649879455566406,4.943002700805664,1.9146685600280762,5004.68310546875,0
405.3130000000001,-0.003798777237534523,-0.023172881454229355,5.0648155593080446e-05,0.0,0.0,0.0,0.0,0.00068715400993824,-0.0029596409294754267,-0.0007285436731763184,1.0001425743103027,0.0,0.0,0.0,-27.65235137939453,4.938700199127197,1.9247677326202393,5005.13037109375,0
415.1989999999987,-0.003779269987717271,-0.023157760500907898,0.00011110396008007228,0.0,0.0,0.0,0.0,0.0018545814091339707,-0.0025750461500138044,0.0032767336815595627,0.9996172785758972,0.0,0.0,0.0,-27.678415298461914,4.939947605133057,1.9284814596176147,5009.84765625,0
425.08599999999933,-0.0037790779024362564,-0.023165900260210037,7.012813148321584e-05,0.0,0.0,0.0,0.0,0.0018055674154311419,0.0034661886747926474,0.0028389515355229378,0.9992541074752808,0.0,0.0,0.0,-27.682165145874023,4.930784225463867,1.9258016347885132,5010.5263671875,0
434.96999999999935,-0.0037727553863078356,-0.023146845400333405,0.00011796166654676199,0.0,0.0,0.0,0.0,-7.150514284148812e-05,-0.002412274247035384,0.0009117148583754897,0.9971482753753662,0.0,0.0,0.0,-27.70330810546875,4.928003787994385,1.9239740371704102,5014.353515625,0
444.8580000000002,-0.0037892006803303957,-0.023156892508268356,0.00010311125515727326,0.0,0.0,0.0,0.0,0.001961649162694812,-0.001868107239715755,0.004797286819666624,0.9980542063713074,0.0,0.0,0.0,-27.713315963745117,4.921856880187988,1.9304907321929932,5016.16552734375,0
454.7430000000004,-0.003788750385865569,-0.02314622700214386,0.0001363300980301574,0.0,0.0,0.0,0.0,-0.001236632582731545,-0.0037278009112924337,0.0029856401961296797,0.9996659159660339,0.0,0.0,0.0,-27.73125457763672,4.9191508293151855,1.9337507486343384,5019.41259765625,0
464.6270000000004,-0.0037909450475126505,-0.023151820525527,9.778728417586535e-05,0.0,0.0,0.0,0.0,0.0017396163893863559,0.00233801850117743,0.0006465181359089911,0.9989837408065796,0.0,0.0,0.0,-27.736299514770508,4.917586326599121,1.93626070022583,5020.32568359375,0
474.5139999999992,-0.0038139373064041138,-0.02314765937626362,9.340151154901832e-05,0.0,0.0,0.0,0.0,0.0008709702524356544,-7.829273090464994e-05,0.001217792509123683,0.9983677268028259,0.0,0.0,0.0,-27.70811653137207,4.912522315979004,1.931552529335022,5015.2236328125,0
484.40400000000045,-0.003821723163127899,-0.023140184581279755,6.449729698942974e-05,0.0,0.0,0.0,0.0,-0.002797198249027133,-0.00117762282025069,0.0001334443804807961,0.9996117353439331,0.0,0.0,0.0,-27.71543312072754,4.908547401428223,1.927623987197876,5016.548828125,0
494.28299999999945,-0.003753943368792534,-0.02313869446516037,0.00015613764117006212,0.0,0.0,0.0,0.0,-0.0009267024579457939,-0.005087539087980986,-0.0022179537918418646,1.0013095140457153,0.0,0.0,0.0,-27.73606300354004,4.922443866729736,1.9451022148132324,5020.283203125,0
504.16899999999987,-0.003765976522117853,-0.023157650604844093,0.0001256387768080458,0.0,0.0,0.0,0.0,-0.0003945471835322678,-0.0028351182118058205,0.0010523247765377164,0.9990644454956055,0.0,0.0,0.0,-27.74382781982422,4.918604373931885,1.9516170024871826,5021.68798828125,0
514.0589999999993,-0.003789651207625866,-0.02315688692033291,0.00012340758985374123,0.0,0.0,0.0,0.0,-0.0019757088739424944,0.00017332704737782478,0.002394509268924594,0.9991909861564636,0.0,0.0,0.0,-27.714975357055664,4.91648006439209,1.9577711820602417,5016.46630859375,0
523.9449999999997,-0.003802679944783449,-0.023197025060653687,7.004907820373774e-05,0.0,0.0,0.0,0.0,0.0013513340381905437,0.0038339009042829275,0.0027934901881963015,0.999555766582489,0.0,0.0,0.0,-27.725521087646484,4.904327392578125,1.9430245161056519,5018.37451171875,0
533.8239999999987,-0.003792152041569352,-0.023187877610325813,0.00013794317783322185,0.0,0.0,0.0,0.0,0.002046520123258233,0.00407508434727788,-0.001514281495474279,0.9978876709938049,0.0,0.0,0.0,-27.743261337280273,4.910313606262207,1.9414820671081543,5021.58544921875,0
543.7129999999997,-0.0038039800710976124,-0.023205315694212914,9.935373964253813e-05,0.0,0.0,0.0,0.0,-1.2935013728565536e-05,-0.004853019956499338,-0.0015628295950591564,0.9987190961837769,0.0,0.0,0.0,-27.738126754760742,4.902799129486084,1.9352484941482544,5020.65625,0
553.5990000000002,-0.0038319407030940056,-0.023207010701298714,9.165746450889856e-05,0.0,0.0,0.0,0.0,-0.003493005409836769,-0.007156266365200281,0.004635044373571873,0.9958966374397278,0.0,0.0,0.0,-27.710067749023438,4.903151512145996,1.943593978881836,5015.57763671875,0
563.4830000000002,-0.003843278158456087,-0.023187657818198204,6.620555359404534e-05,0.0,0.0,0.0,0.0,-4.339583028922789e-05,0.006046425085514784,-0.0037182585801929235,0.9977466464042664,0.0,0.0,0.0,-27.715290069580078,4.910738945007324,1.9454344511032104,5016.5224609375,0
573.3719999999994,-0.003909994848072529,-0.023128630593419075,0.00011413678294047713,0.0,0.0,0.0,0.0,-0.0008438998484052718,0.004375578369945288,-0.0017911925679072738,1.0008214712142944,0.0,0.0,0.0,-27.739816665649414,4.922738075256348,1.9247937202453613,5020.9619140625,0
583.2579999999998,-0.003914960660040379,-0.02313012070953846,6.0311715060379356e-05,0.0,0.0,0.0,0.0,-0.0004920027568005025,-0.0005275290459394455,0.003522812854498625,1.000017523765564,0.0,0.0,0.0,-27.73949432373047,4.922204494476318,1.9118655920028687,5020.90380859375,0
593.1389999999992,-0.0038314368575811386,-0.02313140593469143,0.00012954947305843234,0.0,0.0,0.0,0.0,-0.001218274817802012,0.003094678046181798,-0.0030355043709278107,0.9986515641212463,0.0,0.0,0.0,-27.756643295288086,4.925304412841797,1.9378485679626465,5024.00830078125,0
603.0280000000002,-0.003835867391899228,-0.02313682995736599,8.524946315446869e-05,0.0,0.0,0.0,0.0,0.00016459354083053768,-0.0010023931972682476,0.0019693707581609488,0.9972148537635803,0.0,0.0,0.0,-27.763538360595703,4.926908493041992,1.939805030822754,5025.255859375,0
612.914999999999,-0.003860563738271594,-0.02313288487493992,7.24422643543221e-05,0.0,0.0,0.0,0.0,0.0007973518804647028,-0.001798515673726797,-0.001286873477511108,0.9978792071342468,0.0,0.0,0.0,-27.736528396606445,4.922768592834473,1.9397391080856323,5020.36669921875,0
622.7989999999991,-0.0038299255538731813,-0.023098856210708618,-1.944102768902667e-05,0.0,0.0,0.0,0.0,0.0009988875826820731,0.0015333073679357767,-0.0032933526672422886,0.9969416260719299,0.0,0.0,0.0,-27.73554229736328,4.929192066192627,1.951942801475525,5020.1884765625,0
632.6880000000001,-0.003773356322199106,-0.02310272492468357,4.223096766509116e-05,0.0,0.0,0.0,0.0,-0.0005614045076072216,0.0010008623357862234,-0.0013555141631513834,0.9977028369903564,0.0,0.0,0.0,-27.752811431884766,4.932265758514404,1.9646662473678589,5023.314453125,0
642.5699999999997,-0.003754641627892852,-0.023086758330464363,-3.603645018301904e-05,0.0,0.0,0.0,0.0,-0.00011236083810217679,-0.00046407923218794167,0.0009431639919057488,0.9989655017852783,0.0,0.0,0.0,-27.754377365112305,4.934344291687012,1.9494751691818237,5023.59814453125,0
652.4629999999997,-0.003773751901462674,-0.0230791624635458,-6.168769323267043e-05,0.0,0.0,0.0,0.0,-0.0006915563717484474,-0.0016515087336301804,0.0009347012382932007,0.9992751479148865,0.0,0.0,0.0,-27.726558685302734,4.927407264709473,1.9538750648498535,5018.5625,0
662.3400000000001,-0.0037773968651890755,-0.023106137290596962,-0.00013988089631311595,0.0,0.0,0.0,0.0,-0.00034966482780873775,0.0032112053595483303,-0.004617209080606699,0.9990084767341614,0.0,0.0,0.0,-27.72422218322754,4.919560432434082,1.9601062536239624,5018.1396484375,0
672.2279999999992,-0.0037991025019437075,-0.023098308593034744,-0.00017063121777027845,0.0,0.0,0.0,0.0,0.001548934611491859,-0.0006352968048304319,0.0025139525532722473,0.9999083280563354,0.0,0.0,0.0,-27.6964111328125,4.9157490730285645,1.9533827304840088,5013.10498046875,0
682.110999999999,-0.003805321641266346,-0.023076340556144714,-0.0002253660641144961,0.0,0.0,0.0,0.0,0.0017717729788273573,0.00831588078290224,-0.0008804737590253353,0.9990622997283936,0.0,0.0,0.0,-27.701017379760742,4.917002201080322,1.9541822671890259,5013.93896484375,0
691.9959999999992,-0.003736367914825678,-0.023061435669660568,-0.00012302317190915346,0.0,0.0,0.0,0.0,-0.001090916688553989,0.002079334110021591,9.833525837166235e-05,1.001938819885254,0.0,0.0,0.0,-27.72492027282715,4.921440601348877,1.9556009769439697,5018.26611328125,0
701.8809999999994,-0.003760949708521366,-0.023107631132006645,-0.00017020765517372638,0.0,0.0,0.0,0.0,-0.0012209356063976884,-0.002629130380228162,0.0018254677997902036,1.0014736652374268,0.0,0.0,0.0,-27.721712112426758,4.914762496948242,1.9686068296432495,5017.68505859375,0
711.7690000000002,-0.003777706529945135,-0.02310054935514927,-0.00019296839309390634,0.0,0.0,0.0,0.0,-0.0014006886631250381,-0.00014186534099280834,0.004083334468305111,0.9996845722198486,0.0,0.0,0.0,-27.694271087646484,4.910840034484863,1.9718904495239258,5012.7177734375,0
721.6549999999988,-0.0038260340224951506,-0.0231588464230299,-0.00020400062203407288,0.0,0.0,0.0,0.0,0.0032815353479236364,0.0002886208239942789,-0.000527232070453465,0.9982540011405945,0.0,0.0,0.0,-27.695724487304688,4.891543388366699,1.9705681800842285,5012.98095703125,0
731.5409999999993,-0.003846328239887953,-0.023154940456151962,-0.00022684867144562304,0.0,0.0,0.0,0.0,0.0016150081064552069,0.0028715685475617647,0.00014830009604338557,0.9988030791282654,0.0,0.0,0.0,-27.6689453125,4.877262592315674,1.9643514156341553,5008.1337890625,0
741.4229999999989,-0.003878786228597164,-0.02317221835255623,-0.00024124945048242807,0.0,0.0,0.0,0.0,0.0008841805392876267,0.0007133950130082667,0.003602192271500826,0.9986628890037537,0.0,0.0,0.0,-27.669981002807617,4.863130569458008,1.959604263305664,5008.32177734375,0
751.3149999999987,-0.0037817119155079126,-0.023172974586486816,-0.00010824401397258043,0.0,0.0,0.0,0.0,0.0019170739687979221,-0.0028647426515817642,0.0014460787642747164,0.9986757636070251,0.0,0.0,0.0,-27.69029998779297,4.870188236236572,1.9836373329162598,5011.9990234375,0
761.1970000000001,-0.0037951585836708546,-0.023159123957157135,-0.00011173434904776514,0.0,0.0,0.0,0.0,-0.0014465913409367204,-0.003589484840631485,0.0029288914520293474,0.998388409614563,0.0,0.0,0.0,-27.695085525512695,4.860574245452881,1.9850181341171265,5012.865234375,0
771.0939999999991,-0.0037650323938578367,-0.023126814514398575,-4.483156590140425e-05,0.0,0.0,0.0,0.0,-0.00026979786343872547,0.0032575929071754217,0.0013929551932960749,0.9967423677444458,0.0,0.0,0.0,-27.715349197387695,4.8738322257995605,1.9934132099151611,5016.533203125,0
780.9629999999997,-0.0037935059517621994,-0.023160547018051147,-6.035091428202577e-05,0.0,0.0,0.0,0.0,0.003232951508834958,0.0023739426396787167,0.0019852742552757263,1.0009100437164307,0.0,0.0,0.0,-27.71334457397461,4.86829948425293,1.9847865104675293,5016.1708984375,0
790.8619999999992,-0.003808313747867942,-0.02315639890730381,-7.325982733163983e-05,0.0,0.0,0.0,0.0,-0.0035683726891875267,0.00015302523388527334,0.0026079430244863033,1.002379298210144,0.0,0.0,0.0,-27.68528938293457,4.858142852783203,1.9688975811004639,5011.09228515625,0
800.7379999999994,-0.003824250539764762,-0.023164259269833565,-8.731633715797216e-05,0.0,0.0,0.0,0.0,0.0016254261136054993,0.0008770122076384723,0.0005497742095030844,1.0015766620635986,0.0,0.0,0.0,-27.68444061279297,4.861874580383301,1.9708315134048462,5010.9384765625,0
810.634,-0.003841231344267726,-0.023162415251135826,-9.649166895542294e-05,0.0,0.0,0.0,0.0,-0.00039667586679570377,0.0007205045549198985,-0.0009244034299626946,1.0005772113800049,0.0,0.0,0.0,-27.657209396362305,4.852538108825684,1.9543101787567139,5006.01025390625,0
820.5079999999998,-0.0038533147890120745,-0.02315431274473667,-0.0001092370439437218,0.0,0.0,0.0,0.0,0.002415913389995694,0.009014141745865345,-0.0027640394400805235,0.9991828799247742,0.0,0.0,0.0,-27.659963607788086,4.857213497161865,1.9518698453903198,5006.5087890625,0
830.4009999999998,-0.0038704979233443737,-0.023152414709329605,-0.00011767654359573498,0.0,0.0,0.0,0.0,-0.0012434249510988593,-0.0034751275088638067,-0.0030865236185491085,0.9999202489852905,0.0,0.0,0.0,-27.63254737854004,4.8444108963012695,1.945839524269104,5001.54638671875,0
840.2780000000002,-0.0038883464876562357,-0.023168129846453667,-0.0001408323150826618,0.0,0.0,0.0,0.0,-0.002610161667689681,-0.005959466099739075,0.00047966931015253067,0.9989867210388184,0.0,0.0,0.0,-27.635562896728516,4.837078094482422,1.9519212245941162,5002.091796875,0
850.1729999999989,-0.003778604557737708,-0.02318616583943367,1.598485505382996e-05,0.0,0.0,0.0,0.0,0.002434757072478533,-0.0009488861542195082,-0.0013170870952308178,1.0003608465194702,0.0,0.0,0.0,-27.661937713623047,4.855360984802246,1.983767032623291,5006.86572265625,0
860.0529999999999,-0.0037822460290044546,-0.023201381787657738,-3.7926333789073396e-06,0.0,0.0,0.0,0.0,0.0019419364398345351,0.002401404082775116,0.0013139925431460142,0.9985349774360657,0.0,0.0,0.0,-27.663461685180664,4.851419925689697,1.991814374923706,5007.1416015625,0
869.9429999999993,-0.0037941322661936283,-0.023204058408737183,-5.715116003557341e-06,0.0,0.0,0.0,0.0,0.001729426672682166,0.003927926532924175,-0.004228960257023573,0.9992602467536926,0.0,0.0,0.0,-27.63599967956543,4.837466239929199,1.9746756553649902,5002.1708984375,0
879.8259999999991,-0.0037626263219863176,-0.02315005287528038,-5.674167914548889e-05,0.0,0.0,0.0,0.0,0.00010664501314749941,-0.0016654388746246696,-0.0020785003434866667,0.9988403916358948,0.0,0.0,0.0,-27.63625717163086,4.84757661819458,1.964736819267273,5002.21728515625,0
889.7150000000001,-0.00377602013759315,-0.023147663101553917,-6.351137562887743e-05,0.0,0.0,0.0,0.0,0.000589991279412061,0.0015356035437434912,0.003744167508557439,0.9989545941352844,0.0,0.0,0.0,-27.609891891479492,4.843388080596924,1.9542328119277954,4997.4453125,0
899.5929999999989,-0.0037991907447576523,-0.02314879558980465,-5.401983798947185e-05,0.0,0.0,0.0,0.0,-0.004414734430611134,0.0012849781196564436,0.0007323341560550034,0.9981098771095276,0.0,0.0,0.0,-27.61921501159668,4.830228328704834,1.9419360160827637,4999.1328125,0
909.4879999999994,-0.0038147452287375927,-0.023146266117691994,-6.189856503624469e-05,0.0,0.0,0.0,0.0,-0.002795747248455882,0.0065503837540745735,0.0013010762631893158,0.9981914162635803,0.0,0.0,0.0,-27.590883255004883,4.826456069946289,1.9311745166778564,4994.0048828125,0
919.3670000000002,-0.0038130765315145254,-0.02313251979649067,-0.00010826667858054861,0.0,0.0,0.0,0.0,0.0006964968051761389,-0.0034016480203717947,-0.002653310773894191,1.0002853870391846,0.0,0.0,0.0,-27.60679817199707,4.837380409240723,1.9366631507873535,4996.88525390625,0
929.2569999999996,-0.0037440231535583735,-0.023144442588090897,8.745520972297527e-06,0.0,0.0,0.0,0.0,0.00012680445797741413,0.0009370923507958651,0.00035613260115496814,1.0011788606643677,0.0,0.0,0.0,-27.632158279418945,4.843453884124756,1.9509382247924805,5001.4755859375,0
939.134,-0.0037698657251894474,-0.023191772401332855,-2.5838839974312577e-06,0.0,0.0,0.0,0.0,-0.0012183956569060683,0.0018869057530537248,-0.00025353956152684987,1.000953197479248,0.0,0.0,0.0,-27.631139755249023,4.834177494049072,1.945897102355957,5001.291015625,0
949.0389999999989,-0.0037849554792046547,-0.023196088150143623,-5.129072178533534e-06,0.0,0.0,0.0,0.0,-0.0029544036369770765,0.0011195744154974818,-0.0001972271129488945,0.9993094205856323,0.0,0.0,0.0,-27.60394859313965,4.8263020515441895,1.9439070224761963,4996.36962890625,0
958.9069999999992,-0.0037894868291914463,-0.023196442052721977,-2.7945832698605955e-05,0.0,0.0,0.0,0.0,0.0007595857605338097,0.0008886420400813222,-0.0018120722379535437,0.9989884495735168,0.0,0.0,0.0,-27.61062240600586,4.831846237182617,1.9372695684432983,4997.5771484375,0
968.7919999999995,-0.0036821817047894,-0.02322894148528576,9.532571857562289e-05,0.0,0.0,0.0,0.0,-0.00046263859258033335,0.010886596515774727,-4.4049906136933714e-05,0.9990566372871399,0.0,0.0,0.0,-27.638124465942383,4.832958221435547,1.950331211090088,5002.55517578125,0
978.6819999999989,-0.0036412051413208246,-0.023174133151769638,4.8449448513565585e-05,0.0,0.0,0.0,0.0,-0.00016316214168909937,-0.0003515894350130111,0.0016915504820644855,0.9986979961395264,0.0,0.0,0.0,-27.650291442871094,4.847035884857178,1.9314913749694824,5004.7578125,0
988.5669999999991,-0.003701671725139022,-0.02313409559428692,8.59889987623319e-05,0.0,0.0,0.0,0.0,0.0002584308967925608,0.0024188514798879623,0.001114508369937539,0.9993844032287598,0.0,0.0,0.0,-27.674516677856445,4.847055435180664,1.9325692653656006,5009.14208984375,0
998.4509999999991,-0.0037218090146780014,-0.023168649524450302,7.745059701846913e-05,0.0,0.0,0.0,0.0,-0.0004673678195104003,-0.005687342956662178,0.0005082715069875121,0.9997711181640625,0.0,0.0,0.0,-27.683406829833984,4.8409743309021,1.922953724861145,5010.751953125,0
1008.3419999999987,-0.0037445989437401295,-0.023152008652687073,0.00011405288387322798,0.0,0.0,0.0,0.0,0.0006852037622593343,0.002912526484578848,0.0028168223798274994,0.9976900815963745,0.0,0.0,0.0,-27.703205108642578,4.83819055557251,1.934530258178711,5014.3349609375,0
1018.2309999999998,-0.003719459054991603,-0.02315809205174446,5.4777730838395655e-05,0.0,0.0,0.0,0.0,-0.001668657292611897,-0.0005186513299122453,0.0014193376991897821,0.997805655002594,0.0,0.0,0.0,-27.709707260131836,4.838367938995361,1.932413101196289,5015.51171875,0
1028.110999999999,-0.0037434289697557688,-0.023133546113967896,9.210789721691981e-05,0.0,0.0,0.0,0.0,-0.0005135083920322359,-0.0018662263173609972,0.0016289689810946584,0.9999721646308899,0.0,0.0,0.0,-27.730989456176758,4.84248161315918,1.936775803565979,5019.3642578125,0
1037.9920000000002,-0.003701003734022379,-0.023092178627848625,4.031616845168173e-05,0.0,0.0,0.0,0.0,0.0016503313090652227,-0.0013985356781631708,0.0010476828319951892,0.9991995692253113,0.0,0.0,0.0,-27.7408447265625,4.8469085693359375,1.9306153059005737,5021.1484375,0
1047.887999999999,-0.003717107465490699,-0.02308032289147377,6.82956087985076e-05,0.0,0.0,0.0,0.0,0.002309826435521245,0.003542722202837467,-0.0007573887123726308,0.9985818862915039,0.0,0.0,0.0,-27.76001739501953,4.849973678588867,1.9317647218704224,5024.6181640625,0
1057.7700000000004,-0.0037134585436433554,-0.023124640807509422,1.9473121938062832e-05,0.0,0.0,0.0,0.0,-0.0010367011418566108,-0.002523835515603423,-0.0024869777262210846,0.9978598356246948,0.0,0.0,0.0,-27.764856338500977,4.834830284118652,1.9131778478622437,5025.49462890625,0
1067.6579999999994,-0.0037730250041931868,-0.023116957396268845,1.601689109520521e-05,0.0,0.0,0.0,0.0,0.0010624557035043836,0.0008246414363384247,0.0009429651545360684,0.9994502067565918,0.0,0.0,0.0,-27.78200912475586,4.8313093185424805,1.9090092182159424,5028.5986328125,0
1077.5370000000003,-0.003789376001805067,-0.0231495201587677,8.825409167911857e-07,0.0,0.0,0.0,0.0,-0.0009488683426752687,0.002182057360187173,-0.00278355460613966,1.0005404949188232,0.0,0.0,0.0,-27.78562355041504,4.828348636627197,1.8933671712875366,5029.25341796875,0
1087.4349999999995,-0.003757504979148507,-0.023134494200348854,4.9621030484559014e-05,0.0,0.0,0.0,0.0,-0.0003253431059420109,0.00649305758997798,-0.00316634401679039,0.9985353350639343,0.0,0.0,0.0,-27.799680709838867,4.836467266082764,1.892879843711853,5031.79736328125,0
1097.3099999999995,-0.0037756224628537893,-0.02316470444202423,3.9307265979005024e-05,0.0,0.0,0.0,0.0,-0.0013109255814924836,0.0036478443071246147,0.0011193788377568126,0.9978621006011963,0.0,0.0,0.0,-27.800045013427734,4.8265509605407715,1.8907533884048462,5031.86328125,0
1107.2029999999995,-0.003754977136850357,-0.02314850501716137,8.657384023535997e-05,0.0,0.0,0.0,0.0,0.00040572130819782615,-0.0014822398079559207,-0.0006557320011779666,0.9985877275466919,0.0,0.0,0.0,-27.81447410583496,4.83484411239624,1.876177430152893,5034.47509765625,0
1117.0779999999995,-0.003778755431994796,-0.02320854365825653,6.439949356717989e-05,0.0,0.0,0.0,0.0,0.0006394157535396516,0.002400652738288045,-0.0006554229184985161,0.9990312457084656,0.0,0.0,0.0,-27.806293487548828,4.82049036026001,1.8746769428253174,5032.99462890625,0
1126.9709999999995,-0.003769142320379615,-0.02319139614701271,0.00010801250755321234,0.0,0.0,0.0,0.0,0.0011891996255144477,0.000536588835529983,-0.0012965123169124126,0.9999759197235107,0.0,0.0,0.0,-27.817350387573242,4.824071407318115,1.8689649105072021,5034.99609375,0
1136.857,-0.003782890271395445,-0.023225396871566772,8.348344272235408e-05,0.0,0.0,0.0,0.0,-0.0019333476666361094,0.0019079545745626092,0.002807638142257929,0.9991053342819214,0.0,0.0,0.0,-27.807077407836914,4.816474437713623,1.873611569404602,5033.13623046875,0
1146.7430000000004,-0.003792607458308339,-0.023193789646029472,0.00013464140647556633,0.0,0.0,0.0,0.0,-0.0009496307466179132,0.002280829008668661,0.004213056992739439,1.0003085136413574,0.0,0.0,0.0,-27.822158813476562,4.82475471496582,1.868661880493164,5035.8662109375,0
1156.625,-0.0037901122123003006,-0.023199446499347687,9.982925257645547e-05,0.0,0.0,0.0,0.0,0.003120267065241933,0.0021520222071558237,-0.00031540985219180584,0.9995642304420471,0.0,0.0,0.0,-27.82225227355957,4.829721450805664,1.8531544208526611,5035.8828125,0
1166.5259999999998,-0.003783012740314007,-0.023190516978502274,0.0001416855666320771,0.0,0.0,0.0,0.0,0.0024533586110919714,0.005887169390916824,0.002019413746893406,0.9975922703742981,0.0,0.0,0.0,-27.835002899169922,4.830827236175537,1.8409650325775146,5038.19140625,0
1176.4009999999998,-0.0037909471429884434,-0.023223714902997017,0.00010770554217742756,0.0,0.0,0.0,0.0,0.001769528491422534,-0.00355863431468606,-0.00185188848990947,0.9991012215614319,0.0,0.0,0.0,-27.824642181396484,4.8199143409729,1.831550121307373,5036.3154296875,0
1186.2919999999995,-0.00378261785954237,-0.02320951595902443,0.00015142731717787683,0.0,0.0,0.0,0.0,-0.0012080909218639135,0.002002434805035591,0.0008632447570562363,0.9977425932884216,0.0,0.0,0.0,-27.837814331054688,4.8221001625061035,1.841435432434082,5038.69970703125,0
1196.1659999999993,-0.0037744648288935423,-0.023208893835544586,0.00011564699525479227,0.0,0.0,0.0,0.0,0.0018763300031423569,-0.0014777092728763819,-0.0013351914240047336,0.9972264170646667,0.0,0.0,0.0,-27.835620880126953,4.828183650970459,1.8493850231170654,5038.302734375,0
1206.0699999999997,-0.0036847491282969713,-0.023229451850056648,0.0001666130410740152,0.0,0.0,0.0,0.0,0.0027323265094310045,0.0028473034035414457,-0.0006292032194323838,0.999722957611084,0.0,0.0,0.0,-27.850313186645508,4.827053546905518,1.8606334924697876,5040.96240234375,0
1215.9349999999995,-0.003686999436467886,-0.02325280010700226,0.00013225038128439337,0.0,0.0,0.0,0.0,-0.0014829367864876986,-0.0020309777464717627,-0.0012681774096563458,1.000461459159851,0.0,0.0,0.0,-27.844636917114258,4.819504261016846,1.8540924787521362,5039.9345703125,0
1225.833999999999,-0.003755634417757392,-0.02321482263505459,0.00015317436191253364,0.0,0.0,0.0,0.0,8.568717748858035e-05,-0.005893233697861433,0.0028086367528885603,0.9990442395210266,0.0,0.0,0.0,-27.853609085083008,4.824446201324463,1.850959300994873,5041.55859375,0
1235.7070000000003,-0.003715121652930975,-0.023198019713163376,7.271461799973622e-05,0.0,0.0,0.0,0.0,-0.00025366945192217827,-0.0026663499884307384,0.0050384486094117165,1.0009782314300537,0.0,0.0,0.0,-27.853078842163086,4.825592994689941,1.8685895204544067,5041.462890625,0
1245.6009999999987,-0.0037059541791677475,-0.02315535955131054,0.00012958384468220174,0.0,0.0,0.0,0.0,0.00014280920731835067,-0.00016206518921535462,-0.00207120506092906,0.999177098274231,0.0,0.0,0.0,-27.864423751831055,4.832618236541748,1.8796916007995605,5043.51611328125,0
1255.4830000000002,-0.0036913175135850906,-0.02316887676715851,6.298915832303464e-05,0.0,0.0,0.0,0.0,0.00022894340509083122,0.0003855952527374029,0.002335009630769491,0.9971544146537781,0.0,0.0,0.0,-27.85407829284668,4.830809116363525,1.8821542263031006,5041.6435546875,0
1265.3850000000002,-0.003744805697351694,-0.02313009463250637,8.317112951772287e-05,0.0,0.0,0.0,0.0,-0.0002803816460072994,-0.0006331550539471209,0.00015785791038069874,0.9993413686752319,0.0,0.0,0.0,-27.862037658691406,4.8350830078125,1.8707903623580933,5043.08447265625,0
1275.2520000000004,-0.0037139093037694693,-0.023101748898625374,7.970658771228045e-06,0.0,0.0,0.0,0.0,0.0011422296520322561,0.005791769362986088,-0.00160529266577214,0.9994145631790161,0.0,0.0,0.0,-27.857227325439453,4.840208053588867,1.8665831089019775,5042.2138671875,0
1285.1489999999994,-0.00373651715926826,-0.02309969626367092,-7.042057404760271e-06,0.0,0.0,0.0,0.0,0.0007449002587236464,0.0013974610483273864,0.000828621385153383,1.0001275539398193,0.0,0.0,0.0,-27.829622268676758,4.826981067657471,1.8577182292938232,5037.216796875,0
1295.021999999999,-0.003731363220140338,-0.023055147379636765,-3.90983113902621e-05,0.0,0.0,0.0,0.0,0.00173610495403409,0.00018394434300716966,-0.0014640205772593617,0.9986977577209473,0.0,0.0,0.0,-27.834043502807617,4.836527347564697,1.8502000570297241,5038.017578125,0
1304.9269999999997,-0.0037559352349489927,-0.023048045113682747,-5.588918429566547e-05,0.0,0.0,0.0,0.0,0.0025074465665966272,0.004051015246659517,-0.0016634193016216159,1.0000239610671997,0.0,0.0,0.0,-27.806222915649414,4.8316264152526855,1.842637062072754,5032.9814453125,0
1314.7999999999993,-0.003761421889066696,-0.023045092821121216,-0.00011084871221100911,0.0,0.0,0.0,0.0,0.00040003276080824435,-0.0032101324759423733,0.00035951752215623856,0.9971827864646912,0.0,0.0,0.0,-27.804702758789062,4.827178478240967,1.852081298828125,5032.70654296875,0
1324.696,-0.003639733185991645,-0.023085536435246468,-1.8425096641294658e-05,0.0,0.0,0.0,0.0,0.0012128391535952687,0.005483955144882202,-0.0032046784181147814,0.997707724571228,0.0,0.0,0.0,-27.820953369140625,4.836010932922363,1.894609808921814,5035.64794921875,0
1334.5640000000003,-0.0036366030108183622,-0.02306089550256729,-5.1586608606157824e-05,0.0,0.0,0.0,0.0,-0.002967209555208683,-0.004422671161592007,-0.002328164642676711,0.9994921088218689,0.0,0.0,0.0,-27.82745361328125,4.843364238739014,1.8876327276229858,5036.82470703125,0
1344.4660000000003,-0.0036529835779219866,-0.02305336482822895,-7.005971565376967e-05,0.0,0.0,0.0,0.0,-0.004025049973279238,0.0008624378824606538,0.0026940596289932728,1.0001635551452637,0.0,0.0,0.0,-27.800418853759766,4.838000774383545,1.8940707445144653,5031.931640625,0
1354.3359999999993,-0.0037051253020763397,-0.02310788445174694,-6.807208410464227e-05,0.0,0.0,0.0,0.0,-0.00017475370259489864,-0.01067675556987524,0.0006876098341308534,0.9995688199996948,0.0,0.0,0.0,-27.801511764526367,4.81723690032959,1.8908089399337769,5032.12890625,0
1364.241,-0.003728112205862999,-0.023073939606547356,-2.5688010282465257e-05,0.0,0.0,0.0,0.0,-0.00011217935389140621,-0.0038163727149367332,-0.001440503285266459,0.9991111755371094,0.0,0.0,0.0,-27.818002700805664,4.824846267700195,1.893886923789978,5035.1142578125,0
1374.107,-0.003792372066527605,-0.023168133571743965,-3.7853991670999676e-05,0.0,0.0,0.0,0.0,0.0025706058368086815,-0.0030746404081583023,0.0004088413843419403,1.0009543895721436,0.0,0.0,0.0,-27.81981658935547,4.796489715576172,1.9001502990722656,5035.44189453125,0
1384.0010000000002,-0.0037746222224086523,-0.023138336837291718,2.759678682195954e-05,0.0,0.0,0.0,0.0,-0.0016765089239925146,-0.001171519630588591,0.0009954202687367797,0.9979135990142822,0.0,0.0,0.0,-27.836658477783203,4.79689884185791,1.9049842357635498,5038.490234375,0
1393.887999999999,-0.0038038170896470547,-0.023154323920607567,1.3495224266080186e-05,0.0,0.0,0.0,0.0,0.0016363346949219704,-0.0021865738090127707,0.0009675723849795759,0.999354898929596,0.0,0.0,0.0,-27.8375244140625,4.793795585632324,1.9081053733825684,5038.6474609375,0
1403.777,-0.0037819857243448496,-0.023130513727664948,6.927345384610817e-05,0.0,0.0,0.0,0.0,-0.0008056408842094243,0.002131689339876175,-0.0006140541518107057,0.9998624920845032,0.0,0.0,0.0,-27.852458953857422,4.79390811920166,1.910361886024475,5041.35009765625,0
1413.6620000000003,-0.003807592671364546,-0.023158108815550804,4.2151361412834376e-05,0.0,0.0,0.0,0.0,-0.001238291966728866,-0.002259812317788601,0.004477398470044136,1.000204086303711,0.0,0.0,0.0,-27.846328735351562,4.788771629333496,1.8988324403762817,5040.2412109375,0
1423.5460000000003,-0.003835615934804082,-0.0231571476906538,3.57201715814881e-05,0.0,0.0,0.0,0.0,0.0014952952042222023,0.00279199774377048,-0.001481080544181168,1.0010628700256348,0.0,0.0,0.0,-27.81763458251953,4.785715103149414,1.8948649168014526,5035.046875,0
1433.432999999999,-0.0038524726405739784,-0.023151416331529617,1.258649535884615e-05,0.0,0.0,0.0,0.0,-0.0036107234191149473,0.0060630254447460175,-0.0041623469442129135,0.9989872574806213,0.0,0.0,0.0,-27.821796417236328,4.783499717712402,1.8861063718795776,5035.80029296875,0
1443.3149999999987,-0.0038095470517873764,-0.023148324340581894,9.26437132875435e-05,0.0,0.0,0.0,0.0,0.0007284106104634702,-0.0003958960296586156,0.002703938400372863,0.9991632699966431,0.0,0.0,0.0,-27.83978271484375,4.795644283294678,1.8903506994247437,5039.0556640625,0
1453.1939999999995,-0.0038032406009733677,-0.02315526269376278,1.4829161955276504e-05,0.0,0.0,0.0,0.0,-0.001501037273555994,0.0018561865435913205,-0.001826939987950027,1.0003507137298584,0.0,0.0,0.0,-27.832523345947266,4.79481315612793,1.8888739347457886,5037.7421875,0
1463.089,-0.0038032406009733677,-0.02315526269376278,1.4829161955276504e-05,0.0,0.0,0.0,0.0,0.0030392566695809364,-0.004617626778781414,0.0019871790427714586,0.9994562864303589,0.0,0.0,0.0,-27.832523345947266,4.79481315612793,1.8888739347457886,5037.7421875,0
1472.9650000000001,-0.0038482723757624626,-0.023131046444177628,-1.4187578926794231e-05,0.0,0.0,0.0,0.0,0.001063525676727295,-0.00282728741876781,0.001804382773116231,0.9988691210746765,0.0,0.0,0.0,-27.806447982788086,4.783928394317627,1.9045770168304443,5033.02294921875,0
1482.8629999999994,-0.0038214954547584057,-0.023135315626859665,3.3119209547294304e-05,0.0,0.0,0.0,0.0,-0.0038507834542542696,-0.0014103235444054008,-0.0036029135808348656,0.998966634273529,0.0,0.0,0.0,-27.85236358642578,4.791555404663086,1.9134474992752075,5041.3330078125,0
1492.7369999999992,-0.0038380795158445835,-0.02311350591480732,-4.86820463265758e-05,0.0,0.0,0.0,0.0,-0.0016633233753964305,-4.893010191153735e-05,0.0030094156973063946,1.000846028327942,0.0,0.0,0.0,-27.828916549682617,4.7972025871276855,1.926781415939331,5037.08935546875,0
1502.6309999999994,-0.003753458382561803,-0.023111317306756973,2.250495344924275e-05,0.0,0.0,0.0,0.0,0.0015002654399722815,0.0008767806575633585,-0.00028364756144583225,0.9996567964553833,0.0,0.0,0.0,-27.873151779174805,4.807709217071533,1.9391688108444214,5045.095703125,0
1512.5100000000002,-0.0037659171503037214,-0.023064548149704933,-3.217741323169321e-05,0.0,0.0,0.0,0.0,0.0015362240374088287,0.002921109087765217,0.0026170897763222456,0.9993370771408081,0.0,0.0,0.0,-27.84665870666504,4.802318572998047,1.9374912977218628,5040.30078125,0
1522.4040000000005,-0.0037659171503037214,-0.023064548149704933,-3.217741323169321e-05,0.0,0.0,0.0,0.0,0.00029681072919629514,0.00055057363351807,0.00019569798314478248,0.9999663233757019,0.0,0.0,0.0,-27.84665870666504,4.802318572998047,1.9374912977218628,5040.30078125,0
1532.2909999999993,-0.003834490431472659,-0.02310926653444767,-6.059208317310549e-05,0.0,0.0,0.0,0.0,-0.00041467463597655296,0.0016693152720108628,0.0017807073891162872,1.0012669563293457,0.0,0.0,0.0,-27.813858032226562,4.77720308303833,1.9387465715408325,5034.36376953125,0
1542.1659999999993,-0.003834490431472659,-0.02310926653444767,-6.059208317310549e-05,0.0,0.0,0.0,0.0,0.001987132476642728,0.0017895532073453069,0.0003684927069116384,1.0032800436019897,0.0,0.0,0.0,-27.813858032226562,4.77720308303833,1.9387465715408325,5034.36376953125,0
1552.0509999999995,-0.00388951669447124,-0.02314004674553871,-0.00010242399002891034,0.0,0.0,0.0,0.0,-0.00040972905117087066,0.0005360406357795,-0.0014412335585802794,1.0007649660110474,0.0,0.0,0.0,-27.784391403198242,4.7551422119140625,1.9217438697814941,5029.0302734375,0
1561.946,-0.00388951669447124,-0.02314004674553871,-0.00010242399002891034,0.0,0.0,0.0,0.0,0.0027445273008197546,-0.003771265735849738,6.409432535292581e-05,0.9978238940238953,0.0,0.0,0.0,-27.784391403198242,4.7551422119140625,1.9217438697814941,5029.0302734375,0
1571.825999999999,-0.003941919654607773,-0.023127665743231773,-0.00012401219282764941,0.0,0.0,0.0,0.0,0.0024856876116245985,0.0025058684404939413,-0.001953846076503396,0.9969245791435242,0.0,0.0,0.0,-27.762678146362305,4.743381500244141,1.9280375242233276,5025.1005859375,0
1581.7160000000003,-0.003941919654607773,-0.023127665743231773,-0.00012401219282764941,0.0,0.0,0.0,0.0,-0.004796160850673914,-0.0030943925958126783,-0.0010564577532932162,0.999768078327179,0.0,0.0,0.0,-27.762678146362305,4.743381500244141,1.9280375242233276,5025.1005859375,0
1591.6049999999996,-0.003986835479736328,-0.023116683587431908,-0.0001613112835912034,0.0,0.0,0.0,0.0,-0.000393275055103004,0.0021363645792007446,0.0019214530475437641,1.0030847787857056,0.0,0.0,0.0,-27.737804412841797,4.748981952667236,1.933610439300537,5020.59765625,0
1601.4989999999998,-0.003780109342187643,-0.023175634443759918,4.636331141227856e-05,0.0,0.0,0.0,0.0,-0.0005086964811198413,0.005593019537627697,-0.0005819224752485752,1.0014063119888306,0.0,0.0,0.0,-27.78814125061035,4.77267599105835,1.9887207746505737,5029.708984375,0
1611.3770000000004,-0.0037858139257878065,-0.023195967078208923,2.2584967155125923e-05,0.0,0.0,0.0,0.0,0.0028244885616004467,0.0005253294948488474,0.0006383699947036803,0.9986283183097839,0.0,0.0,0.0,-27.787334442138672,4.762811660766602,1.9777379035949707,5029.56298828125,0
1621.253999999999,-0.0037994342856109142,-0.02320132404565811,2.4932656742748804e-05,0.0,0.0,0.0,0.0,0.0015131336404010653,-0.0037160308565944433,-0.00022666205768473446,1.0003098249435425,0.0,0.0,0.0,-27.759723663330078,4.753913879394531,1.9567190408706665,5024.5654296875,0
1631.1369999999988,-0.003778272308409214,-0.023190947249531746,-4.161906326771714e-05,0.0,0.0,0.0,0.0,-0.002442521508783102,0.001331405364908278,0.002607555128633976,0.9994433522224426,0.0,0.0,0.0,-27.763731002807617,4.762979507446289,1.970920443534851,5025.291015625,0
1641.0229999999992,-0.0037511924747377634,-0.02317255549132824,6.009096614434384e-05,0.0,0.0,0.0,0.0,0.0016494024312123656,0.0031615132465958595,-0.00104167137760669,0.9995790719985962,0.0,0.0,0.0,-27.784669876098633,4.769676208496094,1.9804251194000244,5029.08056640625,0
1650.9089999999997,-0.003725762013345957,-0.023176895454525948,-9.134007086686324e-06,0.0,0.0,0.0,0.0,0.001321672461926937,-0.0015098011353984475,0.001014464651234448,1.001694917678833,0.0,0.0,0.0,-27.781522750854492,4.770417213439941,1.9957102537155151,5028.5107421875,0
1660.795,-0.00373947829939425,-0.02318056859076023,-1.0414750249765348e-05,0.0,0.0,0.0,0.0,-0.001534848939627409,-0.002597302431240678,1.399583834427176e-05,1.0005167722702026,0.0,0.0,0.0,-27.755186080932617,4.763543128967285,1.9865810871124268,5023.744140625,0
1670.6839999999993,-0.003718347754329443,-0.023143507540225983,-5.3196843509795144e-05,0.0,0.0,0.0,0.0,0.0030933457892388105,0.0038663570303469896,-0.0010878785979002714,0.9992004036903381,0.0,0.0,0.0,-27.756072998046875,4.77636194229126,1.9951462745666504,5023.90478515625,0
1680.5829999999987,-0.0037320819683372974,-0.02311018668115139,2.4420780391665176e-05,0.0,0.0,0.0,0.0,0.0003909484366886318,-0.0017335800221189857,-0.0010764981852844357,0.9981324076652527,0.0,0.0,0.0,-27.781705856323242,4.782407283782959,1.9953380823135376,5028.54443359375,0
1690.4579999999987,-0.0037128960248082876,-0.023105015978217125,-2.766798024822492e-05,0.0,0.0,0.0,0.0,0.0009649126441217959,-0.00340638542547822,0.004165195394307375,0.998573362827301,0.0,0.0,0.0,-27.786090850830078,4.78159761428833,1.9906165599822998,5029.337890625,0
1700.3410000000003,-0.003634369233623147,-0.02312152087688446,3.7092533602844924e-05,0.0,0.0,0.0,0.0,0.0037366689648479223,-0.0011772189754992723,0.002103200415149331,0.9989287853240967,0.0,0.0,0.0,-27.807802200317383,4.778650283813477,2.0004847049713135,5033.267578125,0
1710.223,-0.0036258569452911615,-0.023134451359510422,5.418035016191425e-06,0.0,0.0,0.0,0.0,-0.0028878990560770035,-0.0017740079201757908,-0.002716685179620981,1.0000637769699097,0.0,0.0,0.0,-27.805740356445312,4.775331974029541,2.0005979537963867,5032.89404296875,0
1720.1090000000004,-0.003633633255958557,-0.023141300305724144,2.6029670152638573e-06,0.0,0.0,0.0,0.0,0.0007325399783439934,0.0011626144405454397,-0.004478263668715954,1.0006102323532104,0.0,0.0,0.0,-27.77819061279297,4.7724175453186035,2.011425256729126,5027.90771484375,0
1729.9939999999988,-0.0036307109985500574,-0.023176074028015137,-4.3120024201925844e-05,0.0,0.0,0.0,0.0,-0.002623609732836485,0.0017826774856075644,0.002480440540239215,0.9985178709030151,0.0,0.0,0.0,-27.778989791870117,4.766978740692139,2.0121121406555176,5028.05224609375,0
1739.8860000000004,-0.003701650770381093,-0.02313009835779667,-3.5768255202128785e-06,0.0,0.0,0.0,0.0,0.0006340364925563335,0.006364485714584589,-0.0006170813576318324,0.9986685514450073,0.0,0.0,0.0,-27.801937103271484,4.776383399963379,1.991786241531372,5032.2060546875,0
1749.7659999999996,-0.0037388447672128677,-0.02318594604730606,-6.278528417169582e-07,0.0,0.0,0.0,0.0,-0.0010479751508682966,0.00013392965774983168,-0.0006184057565405965,1.0004804134368896,0.0,0.0,0.0,-27.802736282348633,4.7637200355529785,1.9767383337020874,5032.3505859375,0
1759.6540000000005,-0.003755127312615514,-0.02319762296974659,-3.976859716203762e-06,0.0,0.0,0.0,0.0,-0.0005907561862841249,-0.0025539968628436327,0.0029328311793506145,0.9995366930961609,0.0,0.0,0.0,-27.774730682373047,4.757437705993652,1.9751653671264648,5027.28173828125,0
1769.5380000000005,-0.0037558823823928833,-0.02316962741315365,-7.198194452939788e-06,0.0,0.0,0.0,0.0,-0.0010118811624124646,-0.0036330586299300194,-0.0004479651106521487,0.9982484579086304,0.0,0.0,0.0,-27.77458953857422,4.765285968780518,1.980444073677063,5027.255859375,0
1779.423999999999,-0.0037633043248206377,-0.023147284984588623,6.614374433411285e-05,0.0,0.0,0.0,0.0,-0.0013963275123387575,0.00403271010145545,-0.0024166484363377094,1.0003609657287598,0.0,0.0,0.0,-27.79827117919922,4.7732625007629395,1.9947320222854614,5031.54248046875,0
1789.315999999999,-0.0037874814588576555,-0.02318369224667549,5.588401108980179e-05,0.0,0.0,0.0,0.0,-0.0020628920756280422,0.004494400694966316,-9.664405297371559e-06,1.0011389255523682,0.0,0.0,0.0,-27.79654884338379,4.76713752746582,1.9843519926071167,5031.23046875,0
1799.1949999999997,-0.003808511421084404,-0.02319229766726494,5.6856952141970396e-05,0.0,0.0,0.0,0.0,6.043361281626858e-05,-0.003121066140010953,-0.0009864363819360733,0.9985354542732239,0.0,0.0,0.0,-27.76836585998535,4.761592388153076,1.9700876474380493,5026.1298828125,0
1809.0849999999991,-0.003813448129221797,-0.023203948512673378,2.4881086574168876e-05,0.0,0.0,0.0,0.0,0.0011884529376402497,-0.0018325869459658861,0.001341718016192317,0.9968675971031189,0.0,0.0,0.0,-27.76764678955078,4.756516933441162,1.9756954908370972,5025.99951171875,0
1818.9669999999987,-0.003790286835283041,-0.023190602660179138,0.0001227064203703776,0.0,0.0,0.0,0.0,0.00038239278364926577,0.0006079098675400019,-0.0006460192962549627,0.9996260404586792,0.0,0.0,0.0,-27.794700622558594,4.764199733734131,1.9866127967834473,5030.89599609375,0
1828.866,-0.0037756969686597586,-0.02316645346581936,8.816943591227755e-05,0.0,0.0,0.0,0.0,0.0025327696930617094,-0.002011111006140709,0.0003470973751973361,0.999593198299408,0.0,0.0,0.0,-27.796775817871094,4.773307800292969,1.9864345788955688,5031.27197265625,0
1838.744999999999,-0.0038017239421606064,-0.023178568109869957,8.760784839978442e-05,0.0,0.0,0.0,0.0,0.002533267019316554,-0.0008538875845260918,-0.0009557566954754293,0.999625027179718,0.0,0.0,0.0,-27.76861572265625,4.763728141784668,1.9952099323272705,5026.17529296875,0
1848.637999999999,-0.0038094515912234783,-0.023192187771201134,5.0943195674335584e-05,0.0,0.0,0.0,0.0,0.0007339534349739552,0.005904529243707657,0.0009212877484969795,1.0004793405532837,0.0,0.0,0.0,-27.76992416381836,4.760040760040283,2.001363754272461,5026.41162109375,0
1858.5100000000002,-0.0037952957209199667,-0.023189885541796684,0.00013620413665194064,0.0,0.0,0.0,0.0,-0.0022206695284694433,-0.0010939104249700904,0.00045255335862748325,0.9995142221450806,0.0,0.0,0.0,-27.792552947998047,4.767104625701904,1.999890685081482,5030.50732421875,0
1868.4049999999988,-0.0038087782450020313,-0.023227252066135406,9.440543362870812e-05,0.0,0.0,0.0,0.0,0.0007446588715538383,0.00010243009455734864,0.000999725772999227,1.0025075674057007,0.0,0.0,0.0,-27.78728485107422,4.765645503997803,2.008122682571411,5029.5537109375,0
1878.2849999999999,-0.00383775751106441,-0.023239873349666595,9.549770038574934e-05,0.0,0.0,0.0,0.0,0.002254341496154666,-0.0009225376415997744,0.004129132255911827,1.0015084743499756,0.0,0.0,0.0,-27.75995445251465,4.76212215423584,2.0041816234588623,5024.60693359375,0
1888.1759999999995,-0.003856240538880229,-0.023256542161107063,7.284527964657173e-05,0.0,0.0,0.0,0.0,-0.0050502559170126915,-0.0004509611171670258,-0.001144105801358819,0.9990666508674622,0.0,0.0,0.0,-27.753923416137695,4.757293701171875,2.004453420639038,5023.51513671875,0
1898.0560000000005,-0.0038236030377447605,-0.023259514942765236,0.00017806707182899117,0.0,0.0,0.0,0.0,0.0010667069582268596,0.003906091209501028,4.170195461483672e-05,1.0000557899475098,0.0,0.0,0.0,-27.77836036682129,4.779099941253662,2.013092517852783,5027.9384765625,0
1907.949999999999,-0.003815819974988699,-0.02325889654457569,0.0001350017701042816,0.0,0.0,0.0,0.0,0.0008056965307332575,0.002329503418877721,0.0008563754381611943,1.0013341903686523,0.0,0.0,0.0,-27.77552604675293,4.782763957977295,1.9988552331924438,5027.42578125,0
1917.825999999999,-0.003842766396701336,-0.023272976279258728,0.00014028795703779906,0.0,0.0,0.0,0.0,-0.0011377035407349467,-0.0036373480688780546,0.0015731292078271508,1.0008589029312134,0.0,0.0,0.0,-27.74796485900879,4.776003837585449,1.988641619682312,5022.43701171875,0
1927.726999999999,-0.0038240551948547363,-0.023238055408000946,9.3143004050944e-05,0.0,0.0,0.0,0.0,0.0012178431497886777,0.00041275369585491717,-0.0006160170887596905,0.9980929493904114,0.0,0.0,0.0,-27.7617130279541,4.788787364959717,1.9918408393859863,5024.92529296875,0
1937.598,-0.003725596470758319,-0.023281825706362724,0.00020500598475337029,0.0,0.0,0.0,0.0,0.0003573907306417823,0.0006483392207883298,0.0005713822320103645,0.9981685876846313,0.0,0.0,0.0,-27.78632926940918,4.792086601257324,2.015355110168457,5029.380859375,0
1947.4939999999988,-0.0037182194646447897,-0.02329888381063938,0.00016117491759359837,0.0,0.0,0.0,0.0,-0.0016600426752120256,0.004707962274551392,0.001400115666911006,1.0010524988174438,0.0,0.0,0.0,-27.785526275634766,4.7917799949646,2.01385760307312,5029.23583984375,0
1957.3709999999992,-0.003737999824807048,-0.023314617574214935,0.00016513984883204103,0.0,0.0,0.0,0.0,0.0002886788279283792,0.0002644544292706996,-0.0020142546854913235,0.9994646310806274,0.0,0.0,0.0,-27.75773048400879,4.789927005767822,2.0055155754089355,5024.20458984375,0
1967.2619999999988,-0.0037203296087682247,-0.023271899670362473,0.00014006171841174364,0.0,0.0,0.0,0.0,0.0005954551161266863,-0.00308086141012609,-0.0026774557773023844,0.998717188835144,0.0,0.0,0.0,-27.765132904052734,4.806468963623047,2.0122780799865723,5025.54443359375,0
1977.1419999999998,-0.0037386538460850716,-0.023281963542103767,0.00014120276318863034,0.0,0.0,0.0,0.0,0.00044733445974998176,-0.0046675498597323895,0.002411498222500086,0.9975503087043762,0.0,0.0,0.0,-27.738027572631836,4.798396587371826,2.0213253498077393,5020.63818359375,0
1987.0439999999999,-0.0037325979210436344,-0.023257602006196976,0.0001147572256741114,0.0,0.0,0.0,0.0,-0.0005883044796064496,0.00020709435921162367,-0.0007035842863842845,1.00020170211792,0.0,0.0,0.0,-27.750905990600586,4.810055732727051,2.032965898513794,5022.96923828125,0
1996.9169999999995,-0.0037477489095181227,-0.023265458643436432,0.00011126168101327494,0.0,0.0,0.0,0.0,-0.0028947165701538324,-0.004018987063318491,0.0012343507260084152,0.9989011883735657,0.0,0.0,0.0,-27.723817825317383,4.805522918701172,2.0372071266174316,5018.06640625,0
2006.813,-0.003742503933608532,-0.023263901472091675,6.857659900560975e-05,0.0,0.0,0.0,0.0,0.0015762049006298184,-0.001128466334193945,0.000911432784050703,0.9991344213485718,0.0,0.0,0.0,-27.729612350463867,4.812081813812256,2.0530803203582764,5019.115234375,0
2016.6849999999995,-0.0037610118743032217,-0.023232553154230118,0.00014366993855219334,0.0,0.0,0.0,0.0,0.001463885884732008,-0.0019242403795942664,0.003902767552062869,1.0000602006912231,0.0,0.0,0.0,-27.75981903076172,4.820837020874023,2.0499138832092285,5024.5830078125,0
2026.58,-0.0037536555901169777,-0.02322506718337536,0.0001178409656859003,0.0,0.0,0.0,0.0,0.002444405574351549,-0.002347523346543312,0.0009319501114077866,0.9997438192367554,0.0,0.0,0.0,-27.772296905517578,4.825638771057129,2.05368971824646,5026.8408203125,0
2036.4669999999987,-0.0037667069118469954,-0.023230798542499542,0.00011426445416873321,0.0,0.0,0.0,0.0,-0.00032430156716145575,-0.00019507801334839314,-0.0002078322577290237,0.9997177124023438,0.0,0.0,0.0,-27.744802474975586,4.818323135375977,2.0610265731811523,5021.8642578125,0
2046.357,-0.0037407868076115847,-0.023229770362377167,2.356439654249698e-05,0.0,0.0,0.0,0.0,0.002214748878031969,-0.004850132390856743,0.0004322362074162811,1.0006731748580933,0.0,0.0,0.0,-27.747514724731445,4.821571350097656,2.0603532791137695,5022.35546875,0
2056.227999999999,-0.003765864297747612,-0.023189982399344444,9.179596236208454e-05,0.0,0.0,0.0,0.0,-0.00040205882396548986,0.004405409563332796,-0.0007363348267972469,0.9985628128051758,0.0,0.0,0.0,-27.77587890625,4.82480525970459,2.058576822280884,5027.4892578125,0
2066.126,-0.003708871314302087,-0.023117708042263985,1.9522551156114787e-05,0.0,0.0,0.0,0.0,-0.0006289697485044599,0.0013511453289538622,0.0019555040635168552,0.9998316764831543,0.0,0.0,0.0,-27.793115615844727,4.842592239379883,2.0511205196380615,5030.609375,0
2076.0069999999996,-0.003716615494340658,-0.023116670548915863,9.417468390893191e-06,0.0,0.0,0.0,0.0,-0.0009024796891026199,-0.0010315083200111985,-0.003553808433935046,0.9978998303413391,0.0,0.0,0.0,-27.764856338500977,4.835195064544678,2.048208713531494,5025.49462890625,0
2085.8909999999996,-0.0036965857725590467,-0.023086657747626305,-3.7323112337617204e-05,0.0,0.0,0.0,0.0,-0.00020852593297604471,0.0038766951765865088,0.0005985827301628888,0.999350905418396,0.0,0.0,0.0,-27.784217834472656,4.8446502685546875,2.046548366546631,5028.99853515625,0
2095.7729999999992,-0.0037129870615899563,-0.023055192083120346,1.0087956979987212e-05,0.0,0.0,0.0,0.0,0.0023474935442209244,0.0005707329837605357,-0.000191636907402426,1.0011656284332275,0.0,0.0,0.0,-27.807844161987305,4.845956802368164,2.031402587890625,5033.275390625,0
2105.6630000000005,-0.0037036356516182423,-0.023059332743287086,-3.339761678944342e-05,0.0,0.0,0.0,0.0,-0.0038861201610416174,-1.692564069344371e-06,0.004290977958589792,1.001413345336914,0.0,0.0,0.0,-27.80913543701172,4.837251663208008,2.0255982875823975,5033.50927734375,0
2115.544,-0.003660620888695121,-0.02303401008248329,3.927962825400755e-05,0.0,0.0,0.0,0.0,-0.0008048655581660569,-0.001183339743874967,0.0013972247252240777,1.0014375448226929,0.0,0.0,0.0,-27.833688735961914,4.849569797515869,2.0250027179718018,5037.95263671875,0
2125.4529999999995,-0.0037216360215097666,-0.023150227963924408,4.667233588406816e-05,0.0,0.0,0.0,0.0,0.0016172882169485092,-0.0022528055123984814,-9.040545410243794e-05,0.9987247586250305,0.0,0.0,0.0,-27.82963752746582,4.827370643615723,2.0274739265441895,5037.22021484375,0
2135.3140000000003,-0.0037315196823328733,-0.023133346810936928,8.897182124201208e-05,0.0,0.0,0.0,0.0,0.0011414306936785579,-0.001930948463268578,-0.0006993685383349657,0.997938334941864,0.0,0.0,0.0,-27.84831428527832,4.830877304077148,2.029860019683838,5040.60009765625,0
2145.2119999999995,-0.003760627703741193,-0.023204755038022995,7.593041664222255e-05,0.0,0.0,0.0,0.0,0.001123565947636962,-0.002579194027930498,0.001029248465783894,0.9989603161811829,0.0,0.0,0.0,-27.839622497558594,4.815328598022461,2.0373752117156982,5039.02685546875,0
2155.084999999999,-0.0037628125865012407,-0.023187216371297836,0.0001256441610166803,0.0,0.0,0.0,0.0,0.0023976038210093975,0.0003403897280804813,-0.0008548551704734564,1.0001481771469116,0.0,0.0,0.0,-27.856042861938477,4.816132545471191,2.043048620223999,5041.9990234375,0
