timestamp,stateEstimate.x,stateEstimate.y,stateEstimate.z,controller.cmd_thrust,controller.cmd_roll,controller.cmd_pitch,controller.cmd_yaw,controller.r_roll,controller.r_pitch,controller.r_yaw,controller.accelz,controller.actuatorThrust,controller.roll,controller.pitch,controller.yaw,controller.rollRate,controller.pitchRate,controller.yawRate,controller.ctr_yaw
0.0,-0.014354690909385681,0.011733396910130978,-9.639675408834592e-05,0.0,0.0,0.0,0.0,0.0027793035842478275,0.004281702451407909,0.0035796596202999353,0.9991021752357483,0.0,0.0,0.0,18.564804077148438,6.531322956085205,1.6578583717346191,-3360.266357421875,0
9.885000000000218,-0.014286474324762821,0.011798938736319542,-0.00010094206663779914,0.0,0.0,0.0,0.0,-0.0005437169456854463,-0.006830051075667143,0.0006848119664937258,1.0001840591430664,0.0,0.0,0.0,18.55312728881836,6.544617652893066,1.6721018552780151,-3358.153076171875,0
19.78100000000086,-0.01427915133535862,0.011750061064958572,-0.0001162235566880554,0.0,0.0,0.0,0.0,0.00428604893386364,-0.002287980169057846,0.001993921585381031,0.9976882934570312,0.0,0.0,0.0,18.563344955444336,6.535732746124268,1.6733225584030151,-3360.00244140625,0
29.657000000001062,-0.014269723556935787,0.011777795851230621,-4.562646063277498e-05,0.0,0.0,0.0,0.0,-0.0012196189491078258,0.001649606740102172,-0.0007394847343675792,0.9981609582901001,0.0,0.0,0.0,18.559282302856445,6.533977031707764,1.676152229309082,-3359.26708984375,0
39.54600000000028,-0.014279398135840893,0.011738806962966919,-5.577850970439613e-05,0.0,0.0,0.0,0.0,-0.002876132959499955,0.0022445321083068848,-0.0009023046586662531,1.0003769397735596,0.0,0.0,0.0,18.56756019592285,6.525131702423096,1.674993872642517,-3360.76513671875,0
49.4330000000009,-0.014252040535211563,0.01178091298788786,-1.2040456567774527e-05,0.0,0.0,0.0,0.0,0.0007500810897909105,0.003422227455303073,0.0010588286677375436,0.999686598777771,0.0,0.0,0.0,18.572566986083984,6.529422283172607,1.6724971532821655,-3361.67138671875,0
59.314000000000306,-0.01426355354487896,0.011737000197172165,-2.7880554625880904e-05,0.0,0.0,0.0,0.0,-0.0005604376783594489,0.0077071599662303925,-0.0008326002862304449,1.000662922859192,0.0,0.0,0.0,18.583179473876953,6.523774147033691,1.6565760374069214,-3363.59228515625,0
69.20000000000073,-0.01422927062958479,0.01178024522960186,1.0573179679340683e-05,0.0,0.0,0.0,0.0,-0.002700480632483959,-0.003996970131993294,0.0005524798762053251,0.9971848130226135,0.0,0.0,0.0,18.589067459106445,6.525683403015137,1.6509181261062622,-3364.658203125,0
79.08500000000095,-0.014252751134335995,0.011737298220396042,-7.598641786898952e-06,0.0,0.0,0.0,0.0,-0.00017344493244308978,-0.0028334730304777622,-0.0024197250604629517,1.0006022453308105,0.0,0.0,0.0,18.596656799316406,6.524272918701172,1.6477543115615845,-3366.03173828125,0
88.97600000000057,-0.01423050556331873,0.011700155213475227,-3.971606020058971e-06,0.0,0.0,0.0,0.0,0.0024431361816823483,-0.0012225742684677243,0.001824405393563211,0.9997077584266663,0.0,0.0,0.0,18.578079223632812,6.520319938659668,1.6475366353988647,-3362.669189453125,0
98.86499999999978,-0.014280319213867188,0.011677091009914875,-1.8911898678197758e-06,0.0,0.0,0.0,0.0,0.0035604650620371103,0.0006317965453490615,0.0023772483691573143,0.9989345073699951,0.0,0.0,0.0,18.574926376342773,6.511651039123535,1.648407220840454,-3362.0986328125,0
108.746000000001,-0.014259213581681252,0.011638368479907513,1.2632579000637634e-06,0.0,0.0,0.0,0.0,0.004035567864775658,0.001372067374177277,-0.0009408603073097765,0.9986666440963745,0.0,0.0,0.0,18.55658721923828,6.504185199737549,1.6396054029464722,-3358.779296875,0
118.63200000000143,-0.014300532639026642,0.01159582007676363,-7.032794655970065e-06,0.0,0.0,0.0,0.0,0.002012021141126752,-0.0019880945328623056,0.00011434254702180624,0.997603178024292,0.0,0.0,0.0,18.56606101989746,6.49195671081543,1.6246119737625122,-3360.494140625,0
128.52200000000084,-0.01416440587490797,0.011771521531045437,-5.857048381585628e-05,0.0,0.0,0.0,0.0,0.0020564901642501354,0.005132738500833511,-0.0044912355951964855,1.0011749267578125,0.0,0.0,0.0,18.567296981811523,6.536893844604492,1.6589938402175903,-3360.7177734375,0
138.40999999999985,-0.014317618682980537,0.011798215098679066,-8.894057828001678e-05,0.0,0.0,0.0,0.0,-0.002204285701736808,-0.0051905191503465176,0.0025453369598835707,0.9994988441467285,0.0,0.0,0.0,18.561803817749023,6.5537309646606445,1.627252459526062,-3359.723388671875,0
148.29300000000148,-0.01424641627818346,0.011890154331922531,-8.671489922562614e-05,0.0,0.0,0.0,0.0,0.0013635363429784775,-0.0024396711960434914,0.00123947998508811,0.9965524077415466,0.0,0.0,0.0,18.562026977539062,6.5687174797058105,1.6363533735275269,-3359.763671875,0
158.1770000000015,-0.014294869266450405,0.01186867244541645,-0.00011825516412500292,0.0,0.0,0.0,0.0,0.0018447920447215438,0.0034784977324306965,0.000830063596367836,0.9990843534469604,0.0,0.0,0.0,18.57180404663086,6.567728042602539,1.6337215900421143,-3361.533447265625,0
168.0580000000009,-0.01425835583359003,0.011910460889339447,-9.873940143734217e-05,0.0,0.0,0.0,0.0,-0.00016925849195104092,-0.003339397720992565,0.00045046137529425323,0.9982821941375732,0.0,0.0,0.0,18.55315399169922,6.566021919250488,1.643127679824829,-3358.157470703125,0
177.9459999999999,-0.014294728636741638,0.011900302954018116,-0.00010937180195469409,0.0,0.0,0.0,0.0,0.0019743465818464756,0.007269402965903282,-0.0007958989008329809,0.9971663355827332,0.0,0.0,0.0,18.551910400390625,6.56360387802124,1.6386260986328125,-3357.932861328125,0
187.83600000000115,-0.014273913577198982,0.01187228225171566,-0.00011698809976223856,0.0,0.0,0.0,0.0,0.0025109038688242435,-0.0029831223655492067,0.0009219034109264612,0.9973288178443909,0.0,0.0,0.0,18.532756805419922,6.55451774597168,1.6271443367004395,-3354.4658203125,0
197.72000000000116,-0.014254425652325153,0.011821030639111996,-0.00014421172090806067,0.0,0.0,0.0,0.0,0.0007348734070546925,-0.0007656908710487187,0.0016610627062618732,0.9993879199028015,0.0,0.0,0.0,18.54269790649414,6.532786846160889,1.6248220205307007,-3356.26513671875,0
207.61000000000058,-0.014186378568410873,0.011882004328072071,-0.00016518142365384847,0.0,0.0,0.0,0.0,0.0007112392340786755,-0.0015560579486191273,-0.002179684117436409,1.0003116130828857,0.0,0.0,0.0,18.534706115722656,6.54702091217041,1.6409962177276611,-3354.818603515625,0
217.4950000000008,-0.014183131977915764,0.011810491792857647,-0.00021992642723489553,0.0,0.0,0.0,0.0,0.0016471829731017351,-0.0024298171047121286,-0.0030432308558374643,0.9985775351524353,0.0,0.0,0.0,18.547428131103516,6.528018951416016,1.6509685516357422,-3357.12158203125,0
227.375,-0.014177844859659672,0.011824080720543861,-0.0001636612432776019,0.0,0.0,0.0,0.0,-0.0022786729969084263,-0.003019841155037284,0.002225656295195222,0.9975425004959106,0.0,0.0,0.0,18.52963638305664,6.523475170135498,1.6560008525848389,-3353.90087890625,0
237.25900000000001,-0.014232250861823559,0.011812884360551834,-0.00018269300926476717,0.0,0.0,0.0,0.0,0.0018717906204983592,0.0005841442616656423,-0.0007622882258147001,0.9979403614997864,0.0,0.0,0.0,18.527925491333008,6.527719497680664,1.65757417678833,-3353.59130859375,0
247.14400000000023,-0.014211911708116531,0.011835573241114616,-0.00014700336032547057,0.0,0.0,0.0,0.0,-0.002428734442219138,-0.006210080347955227,-0.001367387012578547,1.0005301237106323,0.0,0.0,0.0,18.518173217773438,6.524782657623291,1.660269856452942,-3351.826171875,0
257.03000000000065,-0.014247988350689411,0.011789326556026936,-0.0001923476083902642,0.0,0.0,0.0,0.0,-0.0035673186648637056,-0.004668992478400469,0.003279897617176175,1.0010805130004883,0.0,0.0,0.0,18.530460357666016,6.520298004150391,1.649818778038025,-3354.05029296875,0
266.9160000000011,-0.014224263839423656,0.01182790007442236,-0.00015662511577829719,0.0,0.0,0.0,0.0,0.002134868176653981,-0.0014644151087850332,-0.0007279480341821909,0.9998637437820435,0.0,0.0,0.0,18.540414810180664,6.528047561645508,1.6626335382461548,-3355.85205078125,0
276.8010000000013,-0.01425054483115673,0.011807264760136604,-0.0001700461289146915,0.0,0.0,0.0,0.0,-0.0026025136467069387,0.004413586109876633,0.002105545485392213,1.0002803802490234,0.0,0.0,0.0,18.54190444946289,6.524410724639893,1.6640830039978027,-3356.121826171875,0
286.6890000000003,-0.014221236109733582,0.011844215914607048,-0.00013502611545845866,0.0,0.0,0.0,0.0,0.0038706797640770674,0.0027345737908035517,0.0008276975131593645,1.0017112493515015,0.0,0.0,0.0,18.53129005432129,6.532159805297852,1.6610603332519531,-3354.200439453125,0
296.5730000000003,-0.014342098496854305,0.011851713061332703,-0.00016726405010558665,0.0,0.0,0.0,0.0,-0.0001389691315125674,0.002948644571006298,-0.0010040383785963058,0.9996644258499146,0.0,0.0,0.0,18.52756690979004,6.533947467803955,1.63358473777771,-3353.5263671875,0
306.45900000000074,-0.014324912801384926,0.011840040795505047,-0.00015167916717473418,0.0,0.0,0.0,0.0,0.00015396119852084666,-0.0018663554219529033,-0.001183321699500084,0.998993456363678,0.0,0.0,0.0,18.527067184448242,6.524833679199219,1.639483094215393,-3353.43603515625,0
316.34500000000116,-0.014281557872891426,0.011777359992265701,-0.00016098495689220726,0.0,0.0,0.0,0.0,0.0012926461640745401,0.004849243443459272,-0.0006078518927097321,0.9986198544502258,0.0,0.0,0.0,18.537067413330078,6.5088090896606445,1.6406913995742798,-3355.24609375,0
326.2380000000012,-0.014286572113633156,0.01175539568066597,-0.00010877163003897294,0.0,0.0,0.0,0.0,0.0020482558757066727,0.0011217414867132902,0.000581485393922776,0.9959251880645752,0.0,0.0,0.0,18.53353500366211,6.50436544418335,1.6326518058776855,-3354.6064453125,0
336.1170000000002,-0.014281773008406162,0.011727693490684032,-9.807201422518119e-05,0.0,0.0,0.0,0.0,-0.0012232454027980566,-0.007302094716578722,0.002097070449963212,0.9989772439002991,0.0,0.0,0.0,18.530250549316406,6.493158340454102,1.621711015701294,-3354.01220703125,0
346.0030000000006,-0.01429885346442461,0.011734290979802608,-6.904095243953634e-06,0.0,0.0,0.0,0.0,-0.0004091880691703409,0.004032921977341175,0.0017398038180544972,1.0000267028808594,0.0,0.0,0.0,18.540403366088867,6.495488166809082,1.6242411136627197,-3355.849853515625,0
355.89100000000144,-0.0143134705722332,0.011690512299537659,-8.93729338713456e-06,0.0,0.0,0.0,0.0,2.4152892365236767e-05,0.0023106529843062162,-0.0010521112708374858,0.9965693950653076,0.0,0.0,0.0,18.54029083251953,6.488244533538818,1.6345572471618652,-3355.829345703125,0
365.77500000000146,-0.014293286949396133,0.011644895188510418,-6.081916581024416e-06,0.0,0.0,0.0,0.0,0.0002487154270056635,0.001063561299815774,0.0032495867926627398,0.9978898763656616,0.0,0.0,0.0,18.52222442626953,6.4821062088012695,1.6345292329788208,-3352.559326171875,0
375.65999999999985,-0.014313646592199802,0.011601567268371582,-8.75569003255805e-06,0.0,0.0,0.0,0.0,0.002604665467515588,-0.002979524666443467,0.002184598008170724,1.0007977485656738,0.0,0.0,0.0,18.530994415283203,6.477499485015869,1.6194275617599487,-3354.14697265625,0
385.5460000000003,-0.014207158237695694,0.011717225424945354,-2.9950342650408857e-05,0.0,0.0,0.0,0.0,0.001554107409901917,-0.0013966092374175787,0.0012032518861815333,0.9993623495101929,0.0,0.0,0.0,18.5373592376709,6.503468036651611,1.6382114887237549,-3355.298828125,0
395.4430000000011,-0.014302673749625683,0.011706382967531681,-5.632619286188856e-05,0.0,0.0,0.0,0.0,-0.0023624319583177567,-0.005538152530789375,0.0012816069647669792,0.9996485114097595,0.0,0.0,0.0,18.54981803894043,6.507493019104004,1.6362268924713135,-3357.5537109375,0
405.3170000000009,-0.014205585233867168,0.011832852847874165,-5.884112397325225e-05,0.0,0.0,0.0,0.0,0.0015880954451858997,-0.002143505960702896,0.0006588678224943578,0.999075174331665,0.0,0.0,0.0,18.55506134033203,6.528099060058594,1.661237120628357,-3358.5029296875,0
415.20300000000134,-0.01425913255661726,0.01180324237793684,-8.694575808476657e-05,0.0,0.0,0.0,0.0,-0.001728790462948382,0.006115043070167303,-0.00292457127943635,1.0000804662704468,0.0,0.0,0.0,18.553571701049805,6.527970314025879,1.6635502576828003,-3358.2333984375,0
425.08899999999994,-0.014193769544363022,0.011887049302458763,-6.624889647355303e-05,0.0,0.0,0.0,0.0,0.001578343566507101,0.0018788836896419525,0.0011504902504384518,0.9992373585700989,0.0,0.0,0.0,18.55916404724121,6.546011924743652,1.6757720708847046,-3359.245849609375,0
434.97500000000036,-0.01419488713145256,0.01181268971413374,-0.0001047719269990921,0.0,0.0,0.0,0.0,0.0036187313962727785,0.004052124451845884,-0.003483867272734642,0.9987486004829407,0.0,0.0,0.0,18.552793502807617,6.528830528259277,1.6619794368743896,-3358.092529296875,0
444.8610000000008,-0.014156191609799862,0.011835071258246899,-8.415267075179145e-05,0.0,0.0,0.0,0.0,-0.0010575709166005254,0.0026638638228178024,0.0031371591612696648,0.9988488554954529,0.0,0.0,0.0,18.56165885925293,6.531634330749512,1.6604173183441162,-3359.697021484375,0
454.7579999999998,-0.014187133871018887,0.011777357198297977,-0.0001243804581463337,0.0,0.0,0.0,0.0,0.0016508440021425486,0.0009361374541185796,0.0016310387291014194,1.0003061294555664,0.0,0.0,0.0,18.555614471435547,6.509446144104004,1.63478684425354,-3358.60302734375,0
464.6320000000014,-0.014160070568323135,0.011735496111214161,-0.0001334305852651596,0.0,0.0,0.0,0.0,3.208718771929853e-05,0.00258914683945477,-0.0019835717976093292,0.998893678188324,0.0,0.0,0.0,18.536846160888672,6.502407550811768,1.6362841129302979,-3355.206298828125,0
474.52500000000146,-0.014222518540918827,0.01169765554368496,-0.00015634269220754504,0.0,0.0,0.0,0.0,0.0006490438245236874,0.0013928321423009038,-0.0010946635156869888,1.0006015300750732,0.0,0.0,0.0,18.55016326904297,6.4989166259765625,1.6227457523345947,-3357.616455078125,0
484.40500000000065,-0.01415473036468029,0.011777371168136597,-0.00013619288802146912,0.0,0.0,0.0,0.0,-0.002415855647996068,-0.0029050649609416723,-0.0006540535832755268,1.0013881921768188,0.0,0.0,0.0,18.55747413635254,6.5080342292785645,1.6348744630813599,-3358.939453125,0
494.2920000000013,-0.014197141863405704,0.011730123311281204,-0.00017534312792122364,0.0,0.0,0.0,0.0,0.00017488592129666358,0.0022117302287369967,-8.805334800854325e-05,0.9980384111404419,0.0,0.0,0.0,18.552595138549805,6.4993767738342285,1.6180565357208252,-3358.056640625,0
504.1750000000011,-0.014149925671517849,0.011799082159996033,-0.00013267743634060025,0.0,0.0,0.0,0.0,0.0007227336755022407,-0.0001232908689416945,-0.0011487668380141258,0.9981863498687744,0.0,0.0,0.0,18.557369232177734,6.5155744552612305,1.6405047178268433,-3358.9208984375,0
514.0680000000011,-0.014231025241315365,0.011794213205575943,-0.00015437208639923483,0.0,0.0,0.0,0.0,0.0016067654360085726,-0.00310018309392035,0.00129518355242908,0.9993941783905029,0.0,0.0,0.0,18.555374145507812,6.518581867218018,1.6233124732971191,-3358.5595703125,0
523.9549999999999,-0.014223547652363777,0.011805483140051365,-9.548222442390397e-05,0.0,0.0,0.0,0.0,-0.0021268902346491814,0.0016846917569637299,0.00258600153028965,0.9983977675437927,0.0,0.0,0.0,18.558218002319336,6.5116119384765625,1.6344232559204102,-3359.074462890625,0
533.8330000000005,-0.014302833937108517,0.011822580359876156,-9.591112757334486e-05,0.0,0.0,0.0,0.0,0.0018424519803375006,-0.0008956363308243454,0.0030946084298193455,0.9998552203178406,0.0,0.0,0.0,18.552953720092773,6.515137195587158,1.621281623840332,-3358.12158203125,0
543.719000000001,-0.014322029426693916,0.011822317726910114,-5.252476057648892e-06,0.0,0.0,0.0,0.0,0.001021896954625845,0.0018742876127362251,0.0003468454524409026,0.9998271465301514,0.0,0.0,0.0,18.564064025878906,6.524620532989502,1.6268240213394165,-3360.13232421875,0
553.6059999999998,-0.014350851066410542,0.011787260882556438,-1.919918940984644e-05,0.0,0.0,0.0,0.0,0.0022002768237143755,-0.0028238582890480757,-0.0020208009518682957,1.0024558305740356,0.0,0.0,0.0,18.575376510620117,6.515520095825195,1.6263548135757446,-3362.179931640625,0
563.491,-0.014303324744105339,0.011836511082947254,7.302084213733906e-06,0.0,0.0,0.0,0.0,-0.000156007386976853,-0.00520873349159956,-3.3030381018761545e-05,1.0020254850387573,0.0,0.0,0.0,18.580854415893555,6.517193794250488,1.6324692964553833,-3363.171630859375,0
573.3760000000002,-0.014384375885128975,0.011816530488431454,-9.836125173023902e-06,0.0,0.0,0.0,0.0,1.180256458610529e-05,-0.00012789985339622945,0.00018779982929117978,0.9999196529388428,0.0,0.0,0.0,18.575511932373047,6.517998218536377,1.6325033903121948,-3362.204833984375,0
583.2620000000006,-0.014337016269564629,0.011859234422445297,1.738428727549035e-05,0.0,0.0,0.0,0.0,0.0012147573288530111,0.0007796440622769296,-0.002468244871124625,0.9999070763587952,0.0,0.0,0.0,18.583328247070312,6.5264201164245605,1.6481881141662598,-3363.619384765625,0
593.1530000000002,-0.014401337131857872,0.011798854917287827,-2.5812101739575155e-05,0.0,0.0,0.0,0.0,0.0016907212557271123,0.003936487715691328,-0.0010032779537141323,0.9997231960296631,0.0,0.0,0.0,18.594097137451172,6.5214667320251465,1.6458930969238281,-3365.568603515625,0
603.0349999999999,-0.01432510744780302,0.011865152046084404,-3.129093602183275e-05,0.0,0.0,0.0,0.0,-0.0021192042622715235,-0.004437062423676252,-0.0006674483884125948,0.9985421895980835,0.0,0.0,0.0,18.6060848236084,6.529852867126465,1.6598262786865234,-3367.73828125,0
612.9200000000001,-0.014383808709681034,0.011815391480922699,-6.696728087263182e-05,0.0,0.0,0.0,0.0,0.0005251812981441617,0.008164719678461552,0.0006278654327616096,0.9994205236434937,0.0,0.0,0.0,18.612083435058594,6.524435520172119,1.6404907703399658,-3368.823974609375,0
622.8050000000003,-0.01431006658822298,0.011877020820975304,-7.056551112327725e-05,0.0,0.0,0.0,0.0,0.0012828648323193192,0.0017309592803940177,0.0008663720800541341,1.0011768341064453,0.0,0.0,0.0,18.594329833984375,6.519233703613281,1.6440123319625854,-3365.6103515625,0
632.6920000000009,-0.014262452721595764,0.011797329410910606,-8.380480721825734e-05,0.0,0.0,0.0,0.0,0.0002787025587167591,-0.0028464635834097862,0.0003080446331296116,1.0004934072494507,0.0,0.0,0.0,18.605501174926758,6.497618198394775,1.6305620670318604,-3367.632568359375,0
642.5780000000013,-0.014228012412786484,0.011816700920462608,-5.1933671784354374e-05,0.0,0.0,0.0,0.0,0.0008338823681697249,-0.003930158447474241,0.0010670796036720276,1.0011214017868042,0.0,0.0,0.0,18.593982696533203,6.502833843231201,1.6338369846343994,-3365.5478515625,0
652.4620000000014,-0.014261134900152683,0.011760042980313301,-7.815587741788477e-05,0.0,0.0,0.0,0.0,0.0007854208233766258,0.0050703431479632854,0.004067674744874239,0.9974269270896912,0.0,0.0,0.0,18.600139617919922,6.492315292358398,1.623536229133606,-3366.662109375,0
662.348,-0.0142049016430974,0.011808671057224274,-5.801429142593406e-05,0.0,0.0,0.0,0.0,-0.0037460282910615206,2.1739622297900496e-06,-0.0024356611538678408,0.9992856979370117,0.0,0.0,0.0,18.604663848876953,6.501150131225586,1.6259407997131348,-3367.48095703125,0
672.2350000000006,-0.01420564204454422,0.011716065928339958,-9.946378122549504e-05,0.0,0.0,0.0,0.0,0.0011524659348651767,-0.002266562543809414,-0.0020283726043999195,0.9980863332748413,0.0,0.0,0.0,18.617433547973633,6.483714580535889,1.6225230693817139,-3369.792724609375,0
682.121000000001,-0.014142461121082306,0.0117968013510108,-6.765848229406402e-05,0.0,0.0,0.0,0.0,-0.0002665191423147917,-0.0010006942320615053,0.003776824101805687,0.9979654550552368,0.0,0.0,0.0,18.617368698120117,6.500831604003906,1.6384246349334717,-3369.78076171875,0
692.0070000000014,-0.014095214195549488,0.011691286228597164,-0.00010023921640822664,0.0,0.0,0.0,0.0,0.0015349223976954818,-0.005888085812330246,-0.00265477760694921,1.0004613399505615,0.0,0.0,0.0,18.622785568237305,6.479354381561279,1.6401094198226929,-3370.761474609375,0
701.8910000000014,-0.014065328985452652,0.011638190597295761,-0.00010569362348178402,0.0,0.0,0.0,0.0,-0.0010416810400784016,0.0028881949838250875,0.001599455252289772,1.0005158185958862,0.0,0.0,0.0,18.604629516601562,6.471502780914307,1.642359733581543,-3367.474853515625,0
711.777,-0.014139209873974323,0.01156071200966835,-0.00015100950258783996,0.0,0.0,0.0,0.0,-0.00036236277082934976,-0.004569032695144415,0.0023634370882064104,0.9990639090538025,0.0,0.0,0.0,18.609167098999023,6.462665557861328,1.6190727949142456,-3368.296142578125,0
721.6630000000005,-0.014112423174083233,0.011501497589051723,-0.00015911457012407482,0.0,0.0,0.0,0.0,0.0010354379191994667,0.005072114523500204,0.0008167119813151658,0.9986655712127686,0.0,0.0,0.0,18.590892791748047,6.456094741821289,1.6283676624298096,-3364.98876953125,0
731.5510000000013,-0.014212509617209435,0.01146932877600193,-0.00015927082858979702,0.0,0.0,0.0,0.0,-0.00040430575609207153,-0.0026349672116339207,-0.0013774997787550092,0.9986509680747986,0.0,0.0,0.0,18.602375030517578,6.463357925415039,1.6044036149978638,-3367.06689453125,0
741.4369999999999,-0.014117127284407616,0.011574807576835155,-0.00016339086869265884,0.0,0.0,0.0,0.0,0.00017653706890996546,0.005105325486510992,0.0006920411251485348,0.9981829524040222,0.0,0.0,0.0,18.595836639404297,6.501021385192871,1.6258809566497803,-3365.88330078125,0
751.3230000000003,-0.014235042035579681,0.011589787900447845,-0.00017873664910439402,0.0,0.0,0.0,0.0,-0.0022952109575271606,0.0019919504411518574,-0.0006321942200884223,0.9967978596687317,0.0,0.0,0.0,18.606863021850586,6.513368606567383,1.6144640445709229,-3367.87890625,0
761.2090000000007,-0.014139993116259575,0.011691605672240257,-0.0001947815908351913,0.0,0.0,0.0,0.0,-0.003406218020245433,-0.0009291931055486202,-0.0009856198448687792,0.9980591535568237,0.0,0.0,0.0,18.588361740112305,6.509298801422119,1.6117147207260132,-3364.530517578125,0
771.0920000000006,-0.014272449538111687,0.011729794554412365,-0.00021694033057428896,0.0,0.0,0.0,0.0,-0.0018636992899701,-0.0008003504481166601,-0.0002345200045965612,0.9989809393882751,0.0,0.0,0.0,18.59947395324707,6.53210973739624,1.58865487575531,-3366.541748046875,0
780.978000000001,-0.014189593493938446,0.011816211976110935,-0.00023479021911043674,0.0,0.0,0.0,0.0,0.002139466116204858,-0.0010832487605512142,-0.0020029579754918814,1.0011380910873413,0.0,0.0,0.0,18.579864501953125,6.524311542510986,1.59352445602417,-3362.992431640625,0
790.8640000000014,-0.01427009329199791,0.011831150390207767,-0.0002584064786788076,0.0,0.0,0.0,0.0,-0.0017796865431591868,-0.006929200608283281,0.002195837674662471,1.001281499862671,0.0,0.0,0.0,18.587902069091797,6.5327677726745605,1.5775368213653564,-3364.447021484375,0
800.7489999999998,-0.014166774228215218,0.011942101642489433,-0.00029689492657780647,0.0,0.0,0.0,0.0,0.0020101298578083515,0.0006549929385073483,0.0005836564814671874,1.0003163814544678,0.0,0.0,0.0,18.576311111450195,6.546863555908203,1.6016889810562134,-3362.34912109375,0
810.6360000000004,-0.014293842017650604,0.011941459961235523,-0.00036136325797997415,0.0,0.0,0.0,0.0,0.0013011874398216605,0.0005551889771595597,0.002787390723824501,0.9979639649391174,0.0,0.0,0.0,18.58816146850586,6.548870086669922,1.5966160297393799,-3364.494140625,0
820.5290000000005,-0.014270569197833538,0.011948232538998127,-0.0003444702015258372,0.0,0.0,0.0,0.0,0.0017234960105270147,-0.0051126242615282536,-0.00031009860686026514,0.998447060585022,0.0,0.0,0.0,18.570316314697266,6.541249752044678,1.5904200077056885,-3361.264404296875,0
830.4080000000013,-0.014278675429522991,0.011938621290028095,-0.00035790097899734974,0.0,0.0,0.0,0.0,0.002431524684652686,-0.00021262402879074216,-7.580516103189439e-05,0.9979313015937805,0.0,0.0,0.0,18.584625244140625,6.529934883117676,1.5986675024032593,-3363.854248046875,0
840.2930000000015,-0.014258758164942265,0.011985432356595993,-0.00030106233316473663,0.0,0.0,0.0,0.0,0.00038508596480824053,-0.006124803330749273,0.0011782015208154917,0.9979835152626038,0.0,0.0,0.0,18.5853328704834,6.5331501960754395,1.6048105955123901,-3363.982177734375,0
850.1790000000001,-0.014265590347349644,0.011961414478719234,-0.000320383463986218,0.0,0.0,0.0,0.0,-0.00015369134780485183,-0.00046972843119874597,-0.0009771056938916445,0.9990584254264832,0.0,0.0,0.0,18.59418296813965,6.523823261260986,1.5979591608047485,-3365.583984375,0
860.0660000000007,-0.014271148480474949,0.011970127001404762,-0.0002515577361918986,0.0,0.0,0.0,0.0,0.000721871096175164,0.0008547504548914731,0.00243178429082036,1.00038743019104,0.0,0.0,0.0,18.597978591918945,6.524717330932617,1.6131041049957275,-3366.271240234375,0
869.9530000000013,-0.014247298240661621,0.01189876813441515,-0.00028650800231844187,0.0,0.0,0.0,0.0,-0.0007290183566510677,-0.0011583358282223344,-0.0020669596269726753,1.0011775493621826,0.0,0.0,0.0,18.607933044433594,6.506712913513184,1.6054034233093262,-3368.07275390625,0
879.8420000000006,-0.014241117984056473,0.011896020732820034,-0.00023537992092315108,0.0,0.0,0.0,0.0,-0.0001619401155039668,0.0027590531390160322,-0.00159278919454664,0.9999136328697205,0.0,0.0,0.0,18.5904598236084,6.506747245788574,1.6045976877212524,-3364.91015625,0
889.7260000000006,-0.014188959263265133,0.011811777018010616,-0.00025910494150593877,0.0,0.0,0.0,0.0,0.0006968769012019038,-0.000817994587123394,-0.0013406234793365002,0.9990243911743164,0.0,0.0,0.0,18.600339889526367,6.495601177215576,1.6155973672866821,-3366.698486328125,0
899.6080000000002,-0.014174401760101318,0.011819547973573208,-0.00020460253290366381,0.0,0.0,0.0,0.0,-0.002017801161855459,0.00201719393953681,0.002320036059245467,0.997881293296814,0.0,0.0,0.0,18.603200912475586,6.495774269104004,1.6150814294815063,-3367.216064453125,0
909.4989999999998,-0.014145668596029282,0.011784009635448456,-0.00019397953292354941,0.0,0.0,0.0,0.0,0.002614286495372653,0.002116747200489044,-0.0006127530941739678,0.9977651834487915,0.0,0.0,0.0,18.598533630371094,6.488580703735352,1.6156790256500244,-3366.37158203125,0
919.3790000000008,-0.01413023192435503,0.011785409413278103,-0.0001388698146911338,0.0,0.0,0.0,0.0,-0.0018764380365610123,-0.0003449917712714523,-0.0030629485845565796,0.998137354850769,0.0,0.0,0.0,18.57931900024414,6.482110977172852,1.613800048828125,-3362.8935546875,0
929.2650000000012,-0.014218499884009361,0.011787994764745235,-0.00014666742936242372,0.0,0.0,0.0,0.0,0.0014143548905849457,-0.0006730584427714348,-0.0012555071152746677,0.9983507394790649,0.0,0.0,0.0,18.571916580200195,6.490716934204102,1.5929920673370361,-3361.5537109375,0
939.152,-0.0141892209649086,0.011744570918381214,-0.00014843094686511904,0.0,0.0,0.0,0.0,-0.0027363523840904236,-0.004578395280987024,0.0005116809043101966,0.997444212436676,0.0,0.0,0.0,18.553544998168945,6.482284069061279,1.582113265991211,-3358.228759765625,0
949.0450000000001,-0.014281196519732475,0.011738021858036518,-0.00014823258970864117,0.0,0.0,0.0,0.0,0.0007957614143379033,0.004928797949105501,-0.0017116392264142632,0.9994510412216187,0.0,0.0,0.0,18.56671714782715,6.490735054016113,1.57529616355896,-3360.61279296875,0
958.9230000000007,-0.014230390079319477,0.01177312433719635,-0.0001234403607668355,0.0,0.0,0.0,0.0,0.0007358845905400813,0.004640794359147549,-2.8785976610379294e-05,0.9981287717819214,0.0,0.0,0.0,18.56005096435547,6.503730297088623,1.5982558727264404,-3359.40625,0
968.8080000000009,-0.014349428936839104,0.011787233874201775,-0.00014012714382261038,0.0,0.0,0.0,0.0,-0.0003325663274154067,-0.001479818602092564,0.001112577272579074,0.9991922974586487,0.0,0.0,0.0,18.55375862121582,6.5146098136901855,1.568806767463684,-3358.26708984375,0
978.6950000000015,-0.014281466603279114,0.011877987533807755,-0.0001180003528133966,0.0,0.0,0.0,0.0,0.0016668953467160463,-0.004847746342420578,-0.0003280024975538254,0.9995039105415344,0.0,0.0,0.0,18.56448745727539,6.53523063659668,1.576798915863037,-3360.209228515625,0
988.5799999999999,-0.01439675036817789,0.011876304633915424,-0.00015909754438325763,0.0,0.0,0.0,0.0,-1.704747228359338e-05,-0.005296413786709309,0.0033480916172266006,0.9981094598770142,0.0,0.0,0.0,18.582860946655273,6.541950225830078,1.5688997507095337,-3363.534423828125,0
998.4660000000003,-0.014332608319818974,0.011950043961405754,-0.00015346793225035071,0.0,0.0,0.0,0.0,-0.0016361724119633436,-0.002752613741904497,-0.0011517406674101949,0.9986928701400757,0.0,0.0,0.0,18.58247184753418,6.553831100463867,1.5859488248825073,-3363.46435546875,0
1008.3510000000006,-0.014318259432911873,0.011903340928256512,-0.00017298871534876525,0.0,0.0,0.0,0.0,0.0015713685424998403,-0.0015210778219625354,0.0048064254224300385,1.0011851787567139,0.0,0.0,0.0,18.595069885253906,6.542962551116943,1.5888888835906982,-3365.744384765625,0
1018.237000000001,-0.014290767721831799,0.011930052191019058,-0.0001444355584681034,0.0,0.0,0.0,0.0,0.0007019593613222241,0.0011857622303068638,-0.000859768595546484,0.9997120499610901,0.0,0.0,0.0,18.576066970825195,6.53556489944458,1.5861667394638062,-3362.304931640625,0
1028.1230000000014,-0.014291662722826004,0.011891629546880722,-0.00016297097317874432,0.0,0.0,0.0,0.0,0.002348411362618208,0.0009247209527529776,-5.968719779048115e-05,0.9988266825675964,0.0,0.0,0.0,18.588666915893555,6.520396709442139,1.5909589529037476,-3364.585693359375,0
1038.0100000000002,-0.01427221205085516,0.011859819293022156,-0.00016788806533440948,0.0,0.0,0.0,0.0,0.001426855567842722,-0.0006245766999199986,0.002843452151864767,0.9992407560348511,0.0,0.0,0.0,18.5698299407959,6.510128498077393,1.5752774477005005,-3361.176025390625,0
1047.9009999999998,-0.014267711900174618,0.01183025911450386,-0.0001699697459116578,0.0,0.0,0.0,0.0,-4.2520714487181976e-05,-0.002913167467340827,-0.0031667216680943966,0.9991154074668884,0.0,0.0,0.0,18.566810607910156,6.4928154945373535,1.5661896467208862,-3360.6298828125,0
1057.7810000000009,-0.014248584397137165,0.011794229038059711,-0.00017585468594916165,0.0,0.0,0.0,0.0,-0.00030895473901182413,0.002933380426838994,0.0004866219242103398,0.9993775486946106,0.0,0.0,0.0,18.54864501953125,6.4891676902771,1.5705525875091553,-3357.341796875,0
1067.675000000001,-0.014263714663684368,0.011750432662665844,-0.0001929361023940146,0.0,0.0,0.0,0.0,-0.0011016480857506394,-0.001380621106363833,0.0002780694921966642,0.9992357492446899,0.0,0.0,0.0,18.561355590820312,6.48565673828125,1.5696715116500854,-3359.642333984375,0
1077.554,-0.014214462600648403,0.011798962950706482,-0.00016849348321557045,0.0,0.0,0.0,0.0,0.0036573440302163363,0.0023552742786705494,-0.0017063823761418462,0.9992212653160095,0.0,0.0,0.0,18.543174743652344,6.477231979370117,1.5640711784362793,-3356.3515625,0
1087.4450000000015,-0.014244982041418552,0.011776999570429325,-0.0001781690662028268,0.0,0.0,0.0,0.0,-8.965344750322402e-05,0.0044264295138418674,-0.0009031118825078011,0.9969216585159302,0.0,0.0,0.0,18.54294204711914,6.471964359283447,1.5530894994735718,-3356.309326171875,0
1097.3240000000005,-0.014206113293766975,0.011826004832983017,-0.00013945830869488418,0.0,0.0,0.0,0.0,-0.0011313678696751595,-0.003225848777219653,0.0011462621623650193,1.0003591775894165,0.0,0.0,0.0,18.525236129760742,6.4667744636535645,1.5441772937774658,-3353.1044921875,0
1107.2170000000006,-0.014199190773069859,0.011752324178814888,-0.00018219863704871386,0.0,0.0,0.0,0.0,0.003362326417118311,-0.00044204085133969784,-0.0002308223192812875,1.0016175508499146,0.0,0.0,0.0,18.53692626953125,6.452527046203613,1.537728190422058,-3355.220703125,0
1117.0969999999998,-0.014177455566823483,0.011712489649653435,-0.00018996662402059883,0.0,0.0,0.0,0.0,0.0012669764691963792,0.0011899152304977179,-0.0014423355460166931,0.99951171875,0.0,0.0,0.0,18.5180721282959,6.442577362060547,1.5392087697982788,-3351.807861328125,0
1126.996000000001,-0.01424634363502264,0.011693713255226612,-0.00019825900380965322,0.0,0.0,0.0,0.0,-0.0006361468695104122,0.0032152472995221615,-0.0040176850743591785,1.0012656450271606,0.0,0.0,0.0,18.530399322509766,6.445286273956299,1.5198689699172974,-3354.0390625,0
1136.8739999999998,-0.014184223487973213,0.011787892319262028,-0.00015849186456762254,0.0,0.0,0.0,0.0,0.0013476411113515496,-0.0023082795087248087,-0.0005934067303314805,1.0012322664260864,0.0,0.0,0.0,18.5352840423584,6.466241836547852,1.5305585861206055,-3354.92333984375,0
1146.7669999999998,-0.014248060993850231,0.011784033849835396,-0.00016585270350333303,0.0,0.0,0.0,0.0,-0.0014271908439695835,-0.0004282584704924375,-0.0029284916818141937,0.9985337853431702,0.0,0.0,0.0,18.534122467041016,6.4694929122924805,1.5152137279510498,-3354.713134765625,0
1156.6509999999998,-0.014228063635528088,0.011748270131647587,-0.0001659978152019903,0.0,0.0,0.0,0.0,0.001248611370101571,0.003231700975447893,-0.0016053608851507306,0.9990249276161194,0.0,0.0,0.0,18.516571044921875,6.462756156921387,1.522985816001892,-3351.5361328125,0
1166.5349999999999,-0.014268530532717705,0.011732782237231731,-0.00015790967154316604,0.0,0.0,0.0,0.0,-0.0007992928731255233,-0.00013580889208242297,-0.0012145170476287603,0.9996577501296997,0.0,0.0,0.0,18.51579475402832,6.463629722595215,1.5198392868041992,-3351.3955078125,0
1176.4120000000003,-0.01425290945917368,0.011694882065057755,-0.0001582647382747382,0.0,0.0,0.0,0.0,-0.0002910203184001148,-0.0005569259519688785,0.000489691155962646,0.999642550945282,0.0,0.0,0.0,18.497238159179688,6.451223373413086,1.5024770498275757,-3348.036865234375,0
1186.304,-0.01424657367169857,0.011651021428406239,-0.00016336857515852898,0.0,0.0,0.0,0.0,-9.720774687593803e-05,-0.0003259546065237373,0.003618524642661214,1.0004054307937622,0.0,0.0,0.0,18.495094299316406,6.441873550415039,1.4948440790176392,-3347.64892578125,0
1196.1930000000011,-0.014188120141625404,0.011722146533429623,-0.0001406810333719477,0.0,0.0,0.0,0.0,0.0019600584637373686,0.0029157132375985384,-0.00048764809616841376,0.9969303607940674,0.0,0.0,0.0,18.4913330078125,6.471336841583252,1.5068724155426025,-3346.968017578125,0
1206.0790000000015,-0.01420262735337019,0.01168113760650158,-0.00014729509712196887,0.0,0.0,0.0,0.0,0.00012144124775659293,-0.001780568971298635,0.0009711735765449703,0.9980850219726562,0.0,0.0,0.0,18.491891860961914,6.464107036590576,1.506626009941101,-3347.069091796875,0
1215.9540000000015,-0.01415691152215004,0.011744225397706032,-0.00010967978596454486,0.0,0.0,0.0,0.0,-0.0013613213086500764,-0.005320078693330288,0.004852054174989462,0.9995710253715515,0.0,0.0,0.0,18.48143768310547,6.480910301208496,1.5186601877212524,-3345.177001953125,0
1225.8460000000014,-0.014188182540237904,0.011686917394399643,-0.00014389264106284827,0.0,0.0,0.0,0.0,-0.000983966514468193,-0.0012798300012946129,0.00030238862382248044,0.9981848001480103,0.0,0.0,0.0,18.49742317199707,6.471198081970215,1.506339192390442,-3348.070556640625,0
1235.7250000000004,-0.014142048545181751,0.011749894358217716,-0.00011189821088919416,0.0,0.0,0.0,0.0,9.712381870485842e-05,0.0009269628208130598,-0.0024576440919190645,0.9997899532318115,0.0,0.0,0.0,18.488338470458984,6.485267162322998,1.5200482606887817,-3346.42578125,0
1245.6170000000002,-0.014197186566889286,0.011704782955348492,-0.00013899542682338506,0.0,0.0,0.0,0.0,-0.000516346306540072,-0.0037607913836836815,0.0009266282431781292,1.0018932819366455,0.0,0.0,0.0,18.48603057861328,6.482936859130859,1.5151201486587524,-3346.00830078125,0
1255.4970000000012,-0.014106161892414093,0.01181796845048666,-0.00015001284191384912,0.0,0.0,0.0,0.0,0.003697438398376107,0.005798076279461384,4.5823908294551075e-05,1.0000290870666504,0.0,0.0,0.0,18.495389938354492,6.499270439147949,1.5397727489471436,-3347.702392578125,0
1265.389000000001,-0.014126705005764961,0.011768627911806107,-0.00017140731506515294,0.0,0.0,0.0,0.0,0.0003318499366287142,0.0011668377555906773,-0.0007719126297160983,0.9989385008811951,0.0,0.0,0.0,18.510751724243164,6.487665176391602,1.534018874168396,-3350.482666015625,0
1275.2690000000002,-0.01410731952637434,0.011724070645868778,-0.00017256046703550965,0.0,0.0,0.0,0.0,-0.002598071936517954,-0.003801196813583374,-0.0012800028780475259,0.9985674023628235,0.0,0.0,0.0,18.491575241088867,6.473372936248779,1.530300259590149,-3347.01171875,0
1285.1680000000015,-0.014223774895071983,0.011715865693986416,-0.0001720069267321378,0.0,0.0,0.0,0.0,-0.00029858972993679345,0.003528184024617076,0.00318884733133018,0.9998593926429749,0.0,0.0,0.0,18.494626998901367,6.481776237487793,1.518024206161499,-3347.564453125,0
1295.0420000000013,-0.014184466563165188,0.011762123554944992,-0.00012941251043230295,0.0,0.0,0.0,0.0,0.0014533313224092126,0.0027883241418749094,0.00402832543477416,0.9987265467643738,0.0,0.0,0.0,18.487184524536133,6.497679233551025,1.527214527130127,-3346.217041015625,0
1304.9270000000015,-0.014255430549383163,0.011727296747267246,-0.00015767144213896245,0.0,0.0,0.0,0.0,-0.0020735308062285185,-0.002821252914145589,0.0006687169661745429,1.0004541873931885,0.0,0.0,0.0,18.501523971557617,6.4992828369140625,1.5079375505447388,-3348.812744140625,0
1314.812,-0.014241315424442291,0.011681589297950268,-0.0001597847876837477,0.0,0.0,0.0,0.0,0.002375328913331032,-0.0017555609811097383,0.001994681777432561,1.0011544227600098,0.0,0.0,0.0,18.483293533325195,6.492441177368164,1.5069811344146729,-3345.5126953125,0
1324.705,-0.014276847243309021,0.011647958308458328,-0.00015988262020982802,0.0,0.0,0.0,0.0,0.0027035486418753862,0.005370301194489002,-0.001601345487870276,0.9991500377655029,0.0,0.0,0.0,18.4984073638916,6.490198135375977,1.5092968940734863,-3348.24853515625,0
1334.5840000000007,-0.014205120503902435,0.011733545921742916,-0.00015501647430937737,0.0,0.0,0.0,0.0,-2.2113508748589084e-05,-0.0021430852357298136,-0.0010177848162129521,0.9981346726417542,0.0,0.0,0.0,18.507080078125,6.503066062927246,1.5172117948532104,-3349.818603515625,0
1344.4800000000014,-0.01426104549318552,0.01172909326851368,-0.00014517280214931816,0.0,0.0,0.0,0.0,0.0004508180427365005,-0.003804198233410716,0.0022438340820372105,0.9979429244995117,0.0,0.0,0.0,18.503772735595703,6.511746406555176,1.5194145441055298,-3349.2197265625,0
1354.357,-0.014238791540265083,0.01176588423550129,-8.835982589516789e-05,0.0,0.0,0.0,0.0,0.003104330273345113,0.0035339745227247477,0.0013121444499120116,0.9998829960823059,0.0,0.0,0.0,18.507888793945312,6.5169854164123535,1.529073715209961,-3349.96484375,0
1364.2520000000004,-0.01436768937855959,0.011754647828638554,-0.00012978003360331059,0.0,0.0,0.0,0.0,-0.0012109717354178429,0.0025077343452721834,0.0017168872291222215,0.9986013770103455,0.0,0.0,0.0,18.522598266601562,6.5122480392456055,1.5186350345611572,-3352.627197265625,0
1374.1270000000004,-0.01434065867215395,0.01179820392280817,-8.717813034309074e-05,0.0,0.0,0.0,0.0,0.0003360729606356472,-0.0013518708292394876,0.0009313416667282581,0.9986498355865479,0.0,0.0,0.0,18.530927658081055,6.518459320068359,1.5065820217132568,-3354.135009765625,0
1384.0220000000008,-0.014393629506230354,0.011732293292880058,-9.735221101436764e-05,0.0,0.0,0.0,0.0,0.0004172287881374359,0.00035246979678049684,0.0030943001620471478,0.9988716840744019,0.0,0.0,0.0,18.50967788696289,6.511670112609863,1.4889978170394897,-3350.288818359375,0
1393.8990000000013,-0.014393629506230354,0.011732293292880058,-9.735221101436764e-05,0.0,0.0,0.0,0.0,0.0016541369259357452,0.0066382745280861855,0.000978752737864852,0.9990426898002625,0.0,0.0,0.0,18.50967788696289,6.511670112609863,1.4889978170394897,-3350.288818359375,0
1403.7960000000003,-0.014369112439453602,0.011648144572973251,-8.515147055732086e-05,0.0,0.0,0.0,0.0,-0.0011074922513216734,0.0012340282555669546,0.004753817804157734,0.9977253079414368,0.0,0.0,0.0,18.50688934326172,6.496255397796631,1.4839606285095215,-3349.783935546875,0
1413.6710000000003,-0.014369112439453602,0.011648144572973251,-8.515147055732086e-05,0.0,0.0,0.0,0.0,0.0005993930390104651,0.0010688414331525564,-0.0034742567222565413,0.997696042060852,0.0,0.0,0.0,18.50688934326172,6.496255397796631,1.4839606285095215,-3349.783935546875,0
1423.5640000000003,-0.014329184778034687,0.011569282039999962,-6.08554037171416e-05,0.0,0.0,0.0,0.0,0.0007480437634512782,0.004114125389605761,0.0003658253117464483,0.9970605373382568,0.0,0.0,0.0,18.487796783447266,6.488226413726807,1.4833863973617554,-3346.328125,0
1433.442000000001,-0.014242496341466904,0.011731235310435295,-0.00010394131822977215,0.0,0.0,0.0,0.0,-0.001976007129997015,-0.0018075729021802545,-0.004565212409943342,0.9997246265411377,0.0,0.0,0.0,18.51968002319336,6.526472568511963,1.5134001970291138,-3352.09912109375,0
1443.339,-0.014247572049498558,0.011647908017039299,-0.00011995337263215333,0.0,0.0,0.0,0.0,-0.0020146481692790985,0.0020856824703514576,-0.003329339437186718,0.9985710382461548,0.0,0.0,0.0,18.51336097717285,6.519960403442383,1.5037240982055664,-3350.955078125,0
1453.214,-0.01423764880746603,0.01173586118966341,-6.245931581361219e-05,0.0,0.0,0.0,0.0,0.0002484720607753843,0.004432549700140953,0.00038433552253991365,1.0011744499206543,0.0,0.0,0.0,18.544004440307617,6.538755416870117,1.5131112337112427,-3356.501708984375,0
1463.1080000000002,-0.014182442799210548,0.011630668304860592,-5.308118124958128e-05,0.0,0.0,0.0,0.0,-0.0012329260352998972,-0.001948139863088727,0.0003895615227520466,0.9989765882492065,0.0,0.0,0.0,18.520572662353516,6.52339506149292,1.5142382383346558,-3352.2607421875,0
1472.9850000000006,-0.014133568853139877,0.011769354343414307,-3.0533170502167195e-05,0.0,0.0,0.0,0.0,-0.0012450636131688952,0.001977399690076709,-0.0006062712636776268,0.9987082481384277,0.0,0.0,0.0,18.543434143066406,6.547271251678467,1.530907392501831,-3356.3984375,0
1482.8790000000008,-0.014209255576133728,0.01169764157384634,-6.876359839225188e-05,0.0,0.0,0.0,0.0,-0.0006971273105591536,-0.006531890016049147,-0.0012101182946935296,0.9996556639671326,0.0,0.0,0.0,18.538570404052734,6.54597282409668,1.5155338048934937,-3355.518310546875,0
1492.7610000000004,-0.014205042272806168,0.011770754121243954,-2.0237739590811543e-05,0.0,0.0,0.0,0.0,0.0020748444367200136,0.0050895847380161285,0.0019835999701172113,1.0009315013885498,0.0,0.0,0.0,18.55939292907715,6.557888507843018,1.5210503339767456,-3359.287109375,0
1502.6540000000005,-0.014240274205803871,0.0116882910951972,-3.553989881766029e-05,0.0,0.0,0.0,0.0,0.00017457622743677348,0.0057268100790679455,-0.002255026251077652,0.9985005855560303,0.0,0.0,0.0,18.5384464263916,6.543883323669434,1.502131462097168,-3355.49560546875,0
1512.532000000001,-0.014220946468412876,0.01177994441241026,3.7205971636922186e-08,0.0,0.0,0.0,0.0,-0.004450946114957333,-0.00365054071880877,0.003352913772687316,0.9965907335281372,0.0,0.0,0.0,18.563739776611328,6.557602405548096,1.5112025737762451,-3360.073486328125,0
1522.4230000000007,-0.014254090376198292,0.011686152778565884,-3.541560363373719e-05,0.0,0.0,0.0,0.0,-0.0032919668592512608,-0.001397100044414401,0.00019265241280663759,0.9976516962051392,0.0,0.0,0.0,18.55520248413086,6.547935485839844,1.511672019958496,-3358.528564453125,0
1532.3060000000005,-0.014238082803785801,0.011772741563618183,1.4738989193574525e-06,0.0,0.0,0.0,0.0,-0.0007665418670512736,0.007214664481580257,-0.000728479353711009,0.9977798461914062,0.0,0.0,0.0,18.579238891601562,6.560884475708008,1.5198285579681396,-3362.879150390625,0
1542.1980000000003,-0.014260657131671906,0.01169044990092516,-2.191784187743906e-05,0.0,0.0,0.0,0.0,0.0005541503778658807,-0.0039583900943398476,-4.411002737469971e-05,1.0000345706939697,0.0,0.0,0.0,18.556346893310547,6.560258865356445,1.4877283573150635,-3358.735595703125,0
1552.0740000000005,-0.014221747405827045,0.011787953786551952,-1.309857725573238e-05,0.0,0.0,0.0,0.0,-4.68250218546018e-05,0.003591639921069145,-0.004831650760024786,0.9988804459571838,0.0,0.0,0.0,18.58124542236328,6.57387113571167,1.5001680850982666,-3363.242431640625,0
1561.9719999999998,-0.01433846540749073,0.011724232695996761,-7.951933366712183e-05,0.0,0.0,0.0,0.0,0.0019242303678765893,0.0006137107848189771,-0.0004854016297031194,0.9981170892715454,0.0,0.0,0.0,18.572765350341797,6.563576698303223,1.4650791883468628,-3361.707275390625,0
1571.844000000001,-0.014296206645667553,0.011828003451228142,-7.15843343641609e-05,0.0,0.0,0.0,0.0,-0.0001666030439082533,-0.005003891419619322,0.0009092487744055688,0.9973928332328796,0.0,0.0,0.0,18.59858512878418,6.57833194732666,1.4785618782043457,-3366.380859375,0
1581.7480000000014,-0.014318336732685566,0.011787678115069866,-7.935593748698011e-05,0.0,0.0,0.0,0.0,0.0010938553605228662,0.00035771162947639823,0.002011179691180587,0.9981986880302429,0.0,0.0,0.0,18.576030731201172,6.5712056159973145,1.4844166040420532,-3362.298583984375,0
1591.6220000000012,-0.014295508153736591,0.011855117045342922,-6.6928900196217e-05,0.0,0.0,0.0,0.0,-0.0018415403319522738,0.000177477762917988,0.001367687014862895,1.0000734329223633,0.0,0.0,0.0,18.597702026367188,6.58064603805542,1.4926279783248901,-3366.220947265625,0
1601.5100000000002,-0.014263938181102276,0.01176523882895708,-9.330806642537937e-05,0.0,0.0,0.0,0.0,0.0010573036270216107,0.002388544613495469,0.004584886133670807,1.0001704692840576,0.0,0.0,0.0,18.575063705444336,6.558444976806641,1.4926059246063232,-3362.12353515625,0
1611.3950000000004,-0.014263938181102276,0.01176523882895708,-9.330806642537937e-05,0.0,0.0,0.0,0.0,-0.0009980485774576664,-0.0051384782418608665,0.005572968162596226,1.0014339685440063,0.0,0.0,0.0,18.575063705444336,6.558444976806641,1.4926059246063232,-3362.12353515625,0
1621.2810000000009,-0.014229298569262028,0.01167057454586029,-0.00012255522597115487,0.0,0.0,0.0,0.0,0.0021561456378549337,-0.0030805186834186316,-0.005424095317721367,0.9997517466545105,0.0,0.0,0.0,18.556116104125977,6.539738178253174,1.4993600845336914,-3358.69384765625,0
1631.1580000000013,-0.014229298569262028,0.01167057454586029,-0.00012255522597115487,0.0,0.0,0.0,0.0,-0.0015208355616778135,0.001406092313118279,0.001844878657720983,0.9987064003944397,0.0,0.0,0.0,18.556116104125977,6.539738178253174,1.4993600845336914,-3358.69384765625,0
1641.0570000000007,-0.014266926795244217,0.0115974061191082,-0.00014196563279256225,0.0,0.0,0.0,0.0,-0.0013172198086977005,0.0033228425309062004,-0.004720991011708975,0.9985864758491516,0.0,0.0,0.0,18.550798416137695,6.531688690185547,1.4992599487304688,-3357.731201171875,0
1650.9320000000007,-0.014266926795244217,0.0115974061191082,-0.00014196563279256225,0.0,0.0,0.0,0.0,-0.0011185606708750129,-0.0019993449095636606,-0.0015864834422245622,1.0015324354171753,0.0,0.0,0.0,18.550798416137695,6.531688690185547,1.4992599487304688,-3357.731201171875,0
1660.8340000000007,-0.01428972464054823,0.011549782007932663,-0.00013040492194704711,0.0,0.0,0.0,0.0,0.005250409711152315,0.0025320565328001976,-0.00031025349744595587,1.000030755996704,0.0,0.0,0.0,18.529817581176758,6.534031391143799,1.4866644144058228,-3353.933837890625,0
1670.7020000000011,-0.014194764196872711,0.011745314113795757,-0.0001781765022315085,0.0,0.0,0.0,0.0,0.0005689221434295177,-0.000318416568916291,-0.0003640620270743966,0.9996336698532104,0.0,0.0,0.0,18.55613136291504,6.590466022491455,1.5237644910812378,-3358.69677734375,0
1680.5990000000002,-0.014210625551640987,0.011699419468641281,-0.00020505525753833354,0.0,0.0,0.0,0.0,0.00019227097800467163,-0.0007262920844368637,0.00045728206168860197,0.998131275177002,0.0,0.0,0.0,18.55074691772461,6.570566177368164,1.497937560081482,-3357.72216796875,0
1690.4750000000004,-0.014181411825120449,0.011821399442851543,-0.00015277432976290584,0.0,0.0,0.0,0.0,-0.0009469754295423627,0.0009235512115992606,0.003887127386406064,0.9980495572090149,0.0,0.0,0.0,18.58007049560547,6.600357532501221,1.513893723487854,-3363.02978515625,0
1700.384,-0.014220408163964748,0.011794904246926308,-0.00017716082220431417,0.0,0.0,0.0,0.0,0.0032187546603381634,-0.004151246976107359,0.002309968927875161,0.9985359311103821,0.0,0.0,0.0,18.559267044067383,6.5967535972595215,1.5057082176208496,-3359.26416015625,0
1710.2470000000012,-0.01422256138175726,0.01184807438403368,-0.00012315182539168745,0.0,0.0,0.0,0.0,-0.002207039622589946,0.0005409102886915207,-0.0019823904149234295,0.9977520704269409,0.0,0.0,0.0,18.568452835083008,6.607679843902588,1.508663296699524,-3360.9267578125,0
1720.139000000001,-0.014188847504556179,0.011753815226256847,-0.000177398047526367,0.0,0.0,0.0,0.0,0.0025330858770757914,-0.0025335506070405245,0.0028110193088650703,0.9983327984809875,0.0,0.0,0.0,18.56113624572754,6.575014591217041,1.4985413551330566,-3359.6025390625,0
1730.0169999999998,-0.014188847504556179,0.011753815226256847,-0.000177398047526367,0.0,0.0,0.0,0.0,-0.0006625594687648118,0.0010580775560811162,-0.0021330101881176233,0.9970039129257202,0.0,0.0,0.0,18.56113624572754,6.575014591217041,1.4985413551330566,-3359.6025390625,0
1739.9210000000003,-0.014219404198229313,0.011709853075444698,-0.0002120452409144491,0.0,0.0,0.0,0.0,0.0010984796099364758,-0.0017969788750633597,-3.3796834031818435e-05,0.9986115097999573,0.0,0.0,0.0,18.55427360534668,6.563216209411621,1.5060524940490723,-3358.360595703125,0
1749.7880000000005,-0.014207396656274796,0.01178330834954977,-0.00015974119014572352,0.0,0.0,0.0,0.0,-0.0012606842210516334,0.0027890298515558243,0.00035289747756905854,0.9998522400856018,0.0,0.0,0.0,18.569581985473633,6.579286575317383,1.5131603479385376,-3361.13134765625,0
1759.687,-0.014208662323653698,0.011743136681616306,-0.00019267777679488063,0.0,0.0,0.0,0.0,0.0014410570729523897,-0.0026257175486534834,0.002377474680542946,0.9990777373313904,0.0,0.0,0.0,18.561063766479492,6.569502353668213,1.512377381324768,-3359.58935546875,0
1769.5600000000013,-0.014208662323653698,0.011743136681616306,-0.00019267777679488063,0.0,0.0,0.0,0.0,7.594525231979787e-05,0.005316527094691992,0.00023063238768372685,0.9980372786521912,0.0,0.0,0.0,18.561063766479492,6.569502353668213,1.512377381324768,-3359.58935546875,0
1779.451000000001,-0.014273867942392826,0.011715656146407127,-0.00021400545665528625,0.0,0.0,0.0,0.0,0.0009589395485818386,-0.006033964455127716,0.0005157452542334795,0.9999147653579712,0.0,0.0,0.0,18.55835723876953,6.571240425109863,1.5121705532073975,-3359.099365234375,0
1789.3320000000003,-0.014245287515223026,0.011806833557784557,-0.00017954093345906585,0.0,0.0,0.0,0.0,0.0027240142226219177,-0.0014576276298612356,0.0034046361688524485,1.0007368326187134,0.0,0.0,0.0,18.564706802368164,6.591944694519043,1.5227818489074707,-3360.24853515625,0
1799.232,-0.014289095997810364,0.011807674542069435,-0.00018254217866342515,0.0,0.0,0.0,0.0,0.0001187407979159616,0.0008215464767999947,0.0026896363124251366,0.9974400997161865,0.0,0.0,0.0,18.54252052307129,6.594374656677246,1.5321393013000488,-3356.233154296875,0
1809.103000000001,-0.014328159391880035,0.01180233433842659,-0.00010494738671695814,0.0,0.0,0.0,0.0,0.0020139189437031746,-0.000862661050632596,0.005440989043563604,0.9985910654067993,0.0,0.0,0.0,18.559192657470703,6.5944719314575195,1.5262153148651123,-3359.250732421875,0
1818.9970000000012,-0.014361638575792313,0.011748813092708588,-0.00014550880587194115,0.0,0.0,0.0,0.0,0.0009204998495988548,0.004122656304389238,-0.0015085890190675855,0.9999088644981384,0.0,0.0,0.0,18.556880950927734,6.579766750335693,1.5108193159103394,-3358.83251953125,0
1828.8760000000002,-0.01434605848044157,0.011833307333290577,-0.00010534250031923875,0.0,0.0,0.0,0.0,-0.00040027263457886875,-0.0028833672404289246,-0.001650161691941321,0.9986425638198853,0.0,0.0,0.0,18.578357696533203,6.5932087898254395,1.518824577331543,-3362.7197265625,0
1838.7759999999998,-0.014285124838352203,0.011756088584661484,-0.00010768661741167307,0.0,0.0,0.0,0.0,-0.0004592837649397552,0.0025275233201682568,-0.001239872770383954,1.0002917051315308,0.0,0.0,0.0,18.554780960083008,6.56920862197876,1.5136305093765259,-3358.4521484375,0
1848.6470000000008,-0.014276308007538319,0.011830000206828117,-6.563292845385149e-05,0.0,0.0,0.0,0.0,0.003894251538440585,0.0023278507869690657,-0.0027510658837854862,0.9992534518241882,0.0,0.0,0.0,18.58204460144043,6.58022403717041,1.520424246788025,-3363.38671875,0
1858.5430000000015,-0.014266612939536572,0.011767424643039703,-9.456987754674628e-05,0.0,0.0,0.0,0.0,-0.003014146350324154,-0.006537805777043104,0.0014181324513629079,0.9998213648796082,0.0,0.0,0.0,18.594558715820312,6.563658237457275,1.5158939361572266,-3365.652099609375,0
1868.4180000000015,-0.014241772703826427,0.011733072809875011,-9.8419412097428e-05,0.0,0.0,0.0,0.0,-0.0014775106683373451,-0.003989221062511206,-0.0015972309047356248,1.0000145435333252,0.0,0.0,0.0,18.576860427856445,6.556190490722656,1.521632194519043,-3362.44873046875,0
1878.321,-0.014283878728747368,0.01169701386243105,-0.00011777343752328306,0.0,0.0,0.0,0.0,-0.00046870685764588416,-0.007147663738578558,0.00294108921661973,0.9976447224617004,0.0,0.0,0.0,18.59226417541504,6.557590961456299,1.5354487895965576,-3365.23681640625,0
1888.1900000000005,-0.014259757474064827,0.011659778654575348,-0.00012315034109633416,0.0,0.0,0.0,0.0,0.00023497588699683547,0.00018383654241915792,0.0002788710698951036,0.9973932504653931,0.0,0.0,0.0,18.572546005249023,6.549652576446533,1.5421093702316284,-3361.667724609375,0
1898.0820000000003,-0.014261539094150066,0.011620758101344109,-0.0001335161505267024,0.0,0.0,0.0,0.0,0.0018191490089520812,-0.0007831455441191792,0.0007713902159593999,0.9981483221054077,0.0,0.0,0.0,18.5712890625,6.548850059509277,1.5476303100585938,-3361.4404296875,0
1907.9620000000014,-0.01423765067011118,0.011579793877899647,-0.00014324233052320778,0.0,0.0,0.0,0.0,0.0003944623749703169,-0.0009653177112340927,-0.0003569755353964865,0.9990370869636536,0.0,0.0,0.0,18.552724838256836,6.535024166107178,1.5387874841690063,-3358.080322265625,0
1917.857,-0.014253392815589905,0.01155377272516489,-0.00014203123282641172,0.0,0.0,0.0,0.0,-0.0006467885104939342,-0.001619454356841743,-0.002898016246035695,1.0002031326293945,0.0,0.0,0.0,18.548480987548828,6.539990425109863,1.5438178777694702,-3357.31201171875,0
1927.737000000001,-0.014127681031823158,0.011732043698430061,-0.00019959663040935993,0.0,0.0,0.0,0.0,-0.0002448214218020439,0.0038174523506313562,-0.0035209166817367077,0.9996165037155151,0.0,0.0,0.0,18.554243087768555,6.594784736633301,1.5804104804992676,-3358.35498046875,0
1937.6190000000006,-0.014100399799644947,0.011708262376487255,-0.00021201453637331724,0.0,0.0,0.0,0.0,0.0012138669844716787,-0.00497814966365695,-0.0022302737925201654,1.001132845878601,0.0,0.0,0.0,18.535158157348633,6.591115474700928,1.5759238004684448,-3354.900634765625,0
1947.509,-0.014179070480167866,0.011709229089319706,-0.0002556309336796403,0.0,0.0,0.0,0.0,-0.0017142299329861999,-0.010202385485172272,0.0038149612955749035,1.0008320808410645,0.0,0.0,0.0,18.556686401367188,6.5871758460998535,1.5626193284988403,-3358.797119140625,0
1957.3910000000014,-0.014156105928122997,0.011686909943819046,-0.0002691533591132611,0.0,0.0,0.0,0.0,-0.00034882023464888334,0.0023616168182343245,0.0023549178149551153,1.0002816915512085,0.0,0.0,0.0,18.53828239440918,6.58328914642334,1.581737756729126,-3355.466064453125,0
1967.2830000000013,-0.014204696752130985,0.01167595386505127,-0.0002886603178922087,0.0,0.0,0.0,0.0,-0.003044240642338991,-0.005321749951690435,-0.0003620942297857255,0.9978034496307373,0.0,0.0,0.0,18.55959129333496,6.583151340484619,1.585983157157898,-3359.32275390625,0
1977.17,-0.01418248750269413,0.011650965549051762,-0.0003014980466105044,0.0,0.0,0.0,0.0,5.3696014219895005e-05,-0.005347089376300573,-0.0017795220483094454,0.9988498687744141,0.0,0.0,0.0,18.541072845458984,6.580374717712402,1.5972572565078735,-3355.970947265625,0
1987.0570000000007,-0.014219517819583416,0.011653388850390911,-0.0002915514342021197,0.0,0.0,0.0,0.0,0.002123031299561262,0.004585807677358389,-0.0026356244925409555,0.9963957667350769,0.0,0.0,0.0,18.56028938293457,6.593488693237305,1.6051651239395142,-3359.449462890625,0
1996.937,-0.01419749390333891,0.011626454070210457,-0.00030530785443261266,0.0,0.0,0.0,0.0,0.000284628156805411,0.007208039052784443,-0.0019662014674395323,0.998302161693573,0.0,0.0,0.0,18.541868209838867,6.588169574737549,1.6023627519607544,-3356.114990234375,0
2006.8280000000013,-0.014173036441206932,0.011599027551710606,-0.0003212178417015821,0.0,0.0,0.0,0.0,-0.0013088684063404799,0.0011958697577938437,-0.0009431030484847724,0.9985503554344177,0.0,0.0,0.0,18.523059844970703,6.575627326965332,1.5919870138168335,-3352.710693359375,0
2016.7090000000007,-0.014146320521831512,0.011570330709218979,-0.00033878450631164014,0.0,0.0,0.0,0.0,0.0032370402477681637,-0.00059208256425336,-0.00029096100479364395,0.9980941414833069,0.0,0.0,0.0,18.504161834716797,6.570178031921387,1.5777599811553955,-3349.2900390625,0
2026.6000000000004,-0.014118094928562641,0.011539549566805363,-0.00035755179123952985,0.0,0.0,0.0,0.0,-0.0015557974111288786,-0.004693137016147375,0.0005152390222065151,0.9992180466651917,0.0,0.0,0.0,18.485530853271484,6.564154624938965,1.5791423320770264,-3345.91748046875,0
2036.4800000000014,-0.014088532887399197,0.011507222428917885,-0.0003775560762733221,0.0,0.0,0.0,0.0,0.002491759369149804,0.0009436255204491317,-0.0022145966067910194,0.9988357424736023,0.0,0.0,0.0,18.46649932861328,6.5549421310424805,1.5796972513198853,-3342.47314453125,0
2046.3730000000014,-0.014255182817578316,0.011645566672086716,-0.0002553377707954496,0.0,0.0,0.0,0.0,-1.6885309378267266e-05,0.0030146802309900522,-2.0065632270416245e-05,0.9985982775688171,0.0,0.0,0.0,18.474044799804688,6.628166198730469,1.535603404045105,-3343.838623046875,0
2056.25,-0.014240246266126633,0.011624179780483246,-0.0002667838125489652,0.0,0.0,0.0,0.0,0.004578038584440947,0.001653454964980483,0.00015929310757201165,0.9991206526756287,0.0,0.0,0.0,18.455821990966797,6.6225762367248535,1.53646981716156,-3340.540283203125,0
2066.1440000000002,-0.014251704327762127,0.011654832400381565,-0.00023178354604169726,0.0,0.0,0.0,0.0,-0.0004928252310492098,-0.0021731234155595303,0.00017858903447631747,1.0002111196517944,0.0,0.0,0.0,18.467472076416016,6.631143093109131,1.52566659450531,-3342.649169921875,0
2076.022000000001,-0.014238320291042328,0.011634285561740398,-0.0002415651106275618,0.0,0.0,0.0,0.0,0.0014207831118255854,-0.0004623594868462533,0.00034184695687144995,0.9984259605407715,0.0,0.0,0.0,18.44875144958496,6.621457099914551,1.521314263343811,-3339.260498046875,0
2085.9170000000013,-0.014222025871276855,0.011623581871390343,-0.00024910675710998476,0.0,0.0,0.0,0.0,-0.0012718348298221827,-0.001090498175472021,-0.0015956892166286707,0.9991418719291687,0.0,0.0,0.0,18.455181121826172,6.6172099113464355,1.5240859985351562,-3340.424560546875,0
2095.795,-0.014209538698196411,0.011600927449762821,-0.00025956935132853687,0.0,0.0,0.0,0.0,-0.0010759144788607955,-0.00015148257079999894,0.0015424492303282022,0.9987912774085999,0.0,0.0,0.0,18.436012268066406,6.603613376617432,1.5130729675292969,-3336.954833984375,0
2105.6910000000007,-0.014210973866283894,0.011589904315769672,-0.00026979990070685744,0.0,0.0,0.0,0.0,0.002434690948575735,0.0025225651916116476,5.677085937350057e-05,0.998643696308136,0.0,0.0,0.0,18.461307525634766,6.603775501251221,1.5068750381469727,-3341.533203125,0
2115.5650000000005,-0.014199134893715382,0.011565305292606354,-0.00028171762824058533,0.0,0.0,0.0,0.0,0.00016825643251650035,0.0021962178871035576,0.0014897302025929093,0.9966276288032532,0.0,0.0,0.0,18.442920684814453,6.598850727081299,1.5027978420257568,-3338.205322265625,0
2125.461000000001,-0.014186123386025429,0.011538493447005749,-0.00029494872433133423,0.0,0.0,0.0,0.0,4.035809251945466e-05,0.0010116862831637263,-0.0012180156772956252,0.9980764985084534,0.0,0.0,0.0,18.42466926574707,6.587233066558838,1.4984151124954224,-3334.90185546875,0
2135.3370000000014,-0.014173276722431183,0.011509467847645283,-0.0003101768088527024,0.0,0.0,0.0,0.0,0.0004347401554696262,-0.00550491688773036,-0.0012885067844763398,0.9977366924285889,0.0,0.0,0.0,18.40691566467285,6.578454971313477,1.4978992938995361,-3331.688232421875,0
2145.233,-0.014161206781864166,0.011477526277303696,-0.00032756096334196627,0.0,0.0,0.0,0.0,0.0014560747658833861,0.0009381331619806588,-0.00022116613399703056,0.9960713386535645,0.0,0.0,0.0,18.387880325317383,6.571362018585205,1.498150110244751,-3328.242919921875,0
