timestamp,stateEstimate.x,stateEstimate.y,stateEstimate.z,controller.cmd_thrust,controller.cmd_roll,controller.cmd_pitch,controller.cmd_yaw,controller.r_roll,controller.r_pitch,controller.r_yaw,controller.accelz,controller.actuatorThrust,controller.roll,controller.pitch,controller.yaw,controller.rollRate,controller.pitchRate,controller.yawRate,controller.ctr_yaw
0.0,6.901653978275135e-05,-1.1130142411275301e-05,4.3405765609350055e-05,0.0,0.0,0.0,0.0,-0.0007513344753533602,0.0018668491393327713,0.0007785375346429646,0.998244047164917,0.0,0.0,0.0,0.1412358433008194,5.943626403808594,0.8312274813652039,-25.5639705657959,0
9.879000000000815,6.975843280088156e-05,-2.9110360628692433e-05,3.96539326175116e-05,0.0,0.0,0.0,0.0,-0.001903209718875587,-0.00025066922535188496,0.003458429127931595,1.00148606300354,0.0,0.0,0.0,0.14144961535930634,5.9379472732543945,0.8248595595359802,-25.602663040161133,0
19.76599999999962,8.890592289390042e-05,-5.886787221243139e-06,3.6608384107239544e-05,0.0,0.0,0.0,0.0,0.0031917302403599024,0.004495884757488966,0.001064758631400764,0.9994110465049744,0.0,0.0,0.0,0.1583854854106903,5.954626560211182,0.8323712944984436,-28.668088912963867,0
29.652000000000044,7.489256677217782e-05,-2.9463195460266434e-05,3.0943285764806205e-06,0.0,0.0,0.0,0.0,-0.0014877320500090718,0.004157321993261576,-0.0023300708271563053,0.9989928603172302,0.0,0.0,0.0,0.15906187891960144,5.939939022064209,0.818743884563446,-28.790515899658203,0
39.53900000000067,8.51446675369516e-05,-2.2890309992362745e-05,7.66274388297461e-06,0.0,0.0,0.0,0.0,-0.0003947335062548518,-0.0005567726911976933,-0.0001259370765183121,0.9990341067314148,0.0,0.0,0.0,0.14117416739463806,5.946443557739258,0.8094087839126587,-25.552806854248047,0
49.43000000000029,6.868608761578798e-05,-4.249915582477115e-05,-1.2541730939119589e-05,0.0,0.0,0.0,0.0,0.0009098423761315644,-0.00018276076298207045,-4.753803295898251e-05,1.0001804828643799,0.0,0.0,0.0,0.14053824543952942,5.9404706954956055,0.7987637519836426,-25.437700271606445,0
59.314000000000306,4.0970135160023347e-05,-5.621391028398648e-05,4.895838355878368e-05,0.0,0.0,0.0,0.0,0.0013156875502318144,-0.0034895262215286493,0.0014423897955566645,1.0004184246063232,0.0,0.0,0.0,0.1323283165693283,5.933875560760498,0.7887070178985596,-23.951688766479492,0
69.20399999999972,3.892965833074413e-05,-8.431576134171337e-05,3.964821371482685e-05,0.0,0.0,0.0,0.0,0.0002771936706267297,0.0004966984270140529,0.002172320382669568,1.0010008811950684,0.0,0.0,0.0,0.132663294672966,5.9252400398254395,0.7945013046264648,-24.012319564819336,0
79.08400000000074,2.2920057745068334e-05,-9.59134558797814e-05,7.831695256754756e-05,0.0,0.0,0.0,0.0,0.0019526988035067916,0.0021834576036781073,0.0027918971609324217,1.0010361671447754,0.0,0.0,0.0,0.1331338733434677,5.916966438293457,0.7908338904380798,-24.097496032714844,0
88.96999999999935,2.4979539375635795e-05,-0.00013012073759455234,7.294888200704008e-05,0.0,0.0,0.0,0.0,-0.0007646353915333748,0.0030186260119080544,0.0006778794340789318,0.9999890327453613,0.0,0.0,0.0,0.13420455157756805,5.907196998596191,0.7860745787620544,-24.291290283203125,0
98.85599999999977,4.027185423183255e-05,-0.00011009067384293303,9.552924166200683e-05,0.0,0.0,0.0,0.0,9.268355643143877e-05,-0.003797841491177678,0.003628188744187355,0.9986234903335571,0.0,0.0,0.0,0.1546734720468521,5.912961959838867,0.780745267868042,-27.996206283569336,0
108.75,2.8404348995536566e-05,-0.00012896025145892054,9.783211862668395e-05,0.0,0.0,0.0,0.0,-0.0011454429477453232,-0.006851101294159889,-0.0005205915658734739,0.9994437098503113,0.0,0.0,0.0,0.15527813136577606,5.906637668609619,0.7906631231307983,-28.10565185546875,0
118.6309999999994,4.305386028136127e-05,-0.00011980116687482223,0.00011885855201398954,0.0,0.0,0.0,0.0,0.0012582526542246342,0.001028981409035623,-0.0007204138673841953,0.999059796333313,0.0,0.0,0.0,0.17289288341999054,5.907138824462891,0.8056715130805969,-31.293954849243164,0
128.52100000000064,2.8716118322336115e-05,-0.00014111005293671042,0.0001181543993880041,0.0,0.0,0.0,0.0,-0.000895258504897356,-0.00461411289870739,0.0014928248710930347,0.9977372288703918,0.0,0.0,0.0,0.17280960083007812,5.899621963500977,0.8026094436645508,-31.278879165649414,0
138.40400000000045,3.297782313893549e-05,-0.00016796124691609293,0.0001308052014792338,0.0,0.0,0.0,0.0,0.0031440812163054943,-0.006392042152583599,0.00038199301343411207,1.000826358795166,0.0,0.0,0.0,0.16432371735572815,5.89912223815918,0.808049738407135,-29.742919921875,0
148.28800000000047,1.587685437698383e-05,-0.00018779154925141484,0.00012909538054373115,0.0,0.0,0.0,0.0,0.000466685276478529,0.0012617462780326605,-0.0015672898152843118,1.0026228427886963,0.0,0.0,0.0,0.16483505070209503,5.889715671539307,0.8268807530403137,-29.83547019958496,0
158.1830000000009,8.309057011501864e-05,-0.00012186755338916555,0.00010504282545298338,0.0,0.0,0.0,0.0,0.0004909175331704319,0.00040215745684690773,9.171024430543184e-05,1.000112533569336,0.0,0.0,0.0,0.14945730566978455,5.900146961212158,0.8278985619544983,-27.05207061767578,0
168.0630000000001,8.813231397652999e-05,-0.00015071748930495232,0.00010847731027752161,0.0,0.0,0.0,0.0,-0.0016463875072076917,0.00786894652992487,-0.00032713005202822387,0.999320387840271,0.0,0.0,0.0,0.1491420865058899,5.891321659088135,0.8210963010787964,-26.995012283325195,0
177.94900000000052,0.00012088349467376247,-0.00011701093899318948,0.00010471526911715046,0.0,0.0,0.0,0.0,0.0012374346842989326,0.000917245342861861,-0.00046931905671954155,1.0002704858779907,0.0,0.0,0.0,0.13537263870239258,5.903981685638428,0.8059597015380859,-24.502716064453125,0
187.83799999999974,-2.5829034711932763e-05,-7.245420420076698e-05,6.387119356077164e-05,0.0,0.0,0.0,0.0,0.0006480820011347532,0.004575001075863838,0.0017954049399122596,1.0008620023727417,0.0,0.0,0.0,0.12808442115783691,5.9085211753845215,0.7669821381568909,-23.183534622192383,0
197.73199999999997,3.2851927244337276e-05,7.718953156654607e-07,3.798617035499774e-05,0.0,0.0,0.0,0.0,8.857806824380532e-05,-0.0004170041356701404,0.000461587100289762,1.0001403093338013,0.0,0.0,0.0,0.14358754456043243,5.923262119293213,0.7690126299858093,-25.98963165283203,0
207.61399999999958,3.541978367138654e-05,-1.8105867638951167e-05,3.684029434225522e-05,0.0,0.0,0.0,0.0,0.0011481011752039194,-0.0029943285044282675,-0.00047712790546938777,0.9992194175720215,0.0,0.0,0.0,0.14409302175045013,5.918407440185547,0.7662371397018433,-26.08112335205078,0
217.4969999999994,6.760736141586676e-05,4.740430085803382e-05,4.613880446413532e-05,0.0,0.0,0.0,0.0,0.0007907446706667542,-0.002746931277215481,0.0010070371208712459,1.000522494316101,0.0,0.0,0.0,0.1349160373210907,5.930801868438721,0.7794312834739685,-24.42007064819336,0
227.38000000000102,7.255637319758534e-05,3.1612093152944e-05,4.5693690481130034e-05,0.0,0.0,0.0,0.0,-6.583016511285678e-05,-0.001446302398107946,0.003160994965583086,1.000299096107483,0.0,0.0,0.0,0.13506481051445007,5.922962188720703,0.783642053604126,-24.44700050354004,0
237.27200000000084,7.795725105097517e-05,2.0842535377596505e-05,4.896902828477323e-05,0.0,0.0,0.0,0.0,-0.004232771694660187,-0.000708339677657932,-0.0004317155107855797,1.0002384185791016,0.0,0.0,0.0,0.12021578103303909,5.920532703399658,0.7832798957824707,-21.759294509887695,0
247.15400000000045,8.286138472612947e-05,-1.0466483217896894e-06,4.980267840437591e-05,0.0,0.0,0.0,0.0,-0.00029089514282532036,-0.0008249756647273898,0.0036980644799768925,1.0001449584960938,0.0,0.0,0.0,0.11938876658678055,5.9174275398254395,0.7792962789535522,-21.60960578918457,0
257.04299999999967,0.00010342129826312885,2.021071304625366e-05,5.981039794278331e-05,0.0,0.0,0.0,0.0,-0.00012882005830761045,0.0042832838371396065,-0.0029620020650327206,1.0001153945922852,0.0,0.0,0.0,0.13831564784049988,5.928564548492432,0.7933083772659302,-25.0354061126709,0
266.9290000000001,5.08626653754618e-05,-6.12570238445187e-06,-1.2766829058818985e-05,0.0,0.0,0.0,0.0,0.0011587641201913357,0.004533817525953054,0.0031401694286614656,0.9991174340248108,0.0,0.0,0.0,0.13760297000408173,5.923968315124512,0.7875248789787292,-24.906410217285156,0
276.8189999999995,6.898587889736518e-05,1.3399679119174834e-05,3.668135377665749e-06,0.0,0.0,0.0,0.0,-0.003261951729655266,0.00010102121450472623,0.0019377142889425159,1.0003961324691772,0.0,0.0,0.0,0.15834161639213562,5.923282623291016,0.7814319729804993,-28.66014862060547,0
286.70200000000114,7.488211122108623e-05,-1.382288337481441e-05,1.6628232515358832e-06,0.0,0.0,0.0,0.0,-0.0025951301213353872,0.0023210858926177025,0.0015219597844406962,0.9992759823799133,0.0,0.0,0.0,0.15852627158164978,5.919948577880859,0.7812127470970154,-28.693571090698242,0
296.59100000000035,5.596986738964915e-05,-5.2651197620434687e-05,4.941996303386986e-05,0.0,0.0,0.0,0.0,0.00031649478478357196,-0.004335043020546436,0.0019110690336674452,0.9999483823776245,0.0,0.0,0.0,0.17539368569850922,5.915984153747559,0.7768667340278625,-31.746606826782227,0
306.47400000000016,5.972073631710373e-05,-8.488829189445823e-05,5.1183131290599704e-05,0.0,0.0,0.0,0.0,-0.0023587755858898163,-0.002602378139272332,0.00040344236185774207,1.0013009309768677,0.0,0.0,0.0,0.17603443562984467,5.906009674072266,0.7831082940101624,-31.86258316040039,0
316.3729999999996,5.861090176040307e-05,-8.113237709039822e-05,0.00010194573405897245,0.0,0.0,0.0,0.0,-0.0011032576439902186,0.0029823328368365765,0.0006276656640693545,1.0009474754333496,0.0,0.0,0.0,0.1919102519750595,5.91616678237915,0.7741259932518005,-34.736141204833984,0
326.2479999999996,6.340372056001797e-05,-0.0001145006826845929,0.0001092187812901102,0.0,0.0,0.0,0.0,-0.0006241122609935701,-0.005808773450553417,0.003969153389334679,1.0000630617141724,0.0,0.0,0.0,0.19193866848945618,5.912482738494873,0.7671823501586914,-34.74127960205078,0
336.14500000000044,6.536278669955209e-05,-0.00011673072731355205,0.00015567826631013304,0.0,0.0,0.0,0.0,5.183099347050302e-05,-0.002049556002020836,0.0008994500385597348,1.0002973079681396,0.0,0.0,0.0,0.21009980142116547,5.919668674468994,0.7764148712158203,-38.028480529785156,0
346.0159999999996,3.1309918995248154e-05,-0.0001286888145841658,0.00014755113807041198,0.0,0.0,0.0,0.0,-0.0033184350468218327,-0.00021536201529670507,-0.0013604285195469856,1.0003892183303833,0.0,0.0,0.0,0.19634321331977844,5.918924331665039,0.7657490968704224,-35.538509368896484,0
355.9150000000009,4.8868238081922755e-05,-0.00011278890451649204,0.0001704313326627016,0.0,0.0,0.0,0.0,0.00017723017663229257,-0.0040497928857803345,-0.0008378501515835524,0.9999366402626038,0.0,0.0,0.0,0.21554778516292572,5.934940814971924,0.7706665396690369,-39.01457595825195,0
365.79299999999967,5.1723080105148256e-05,-0.00014176499098539352,0.0001821675687097013,0.0,0.0,0.0,0.0,0.00014716446457896382,-0.002532685175538063,0.00022984514362178743,1.0000455379486084,0.0,0.0,0.0,0.21474654972553253,5.927888870239258,0.7811409831047058,-38.86955261230469,0
375.6859999999997,5.984454764984548e-05,-0.00014836591435596347,0.0002046841400442645,0.0,0.0,0.0,0.0,1.2061330380674917e-05,-0.008406765758991241,0.0014458302175626159,1.0016496181488037,0.0,0.0,0.0,0.2052670568227768,5.928438186645508,0.7805434465408325,-37.15374755859375,0
385.5709999999999,6.574785948032513e-05,-0.00018046707555186003,0.00021866928727831692,0.0,0.0,0.0,0.0,0.0017478028312325478,0.0017745502991601825,0.003972474951297045,1.0006135702133179,0.0,0.0,0.0,0.20525336265563965,5.9249982833862305,0.795627772808075,-37.15127182006836,0
395.45900000000074,0.00010793207911774516,-0.000142930744914338,0.0002019169769482687,0.0,0.0,0.0,0.0,6.499667506432161e-05,0.000417266070144251,0.0005774050951004028,0.9979143142700195,0.0,0.0,0.0,0.1904478818178177,5.933109283447266,0.8097455501556396,-34.4714469909668,0
405.33500000000095,0.00011658222501864657,-0.00017135636880993843,0.00021465706231538206,0.0,0.0,0.0,0.0,0.0001832042180467397,-0.003248580265790224,0.0020412099547684193,0.998077929019928,0.0,0.0,0.0,0.18968430161476135,5.926197528839111,0.814163088798523,-34.33323669433594,0
415.228000000001,0.00016815608250908554,-0.00011137001274619251,0.0001912219013320282,0.0,0.0,0.0,0.0,-0.0006042972090654075,-0.0025216247886419296,-0.0015947395004332066,0.9993216395378113,0.0,0.0,0.0,0.20721620321273804,5.953708648681641,0.8488553166389465,-37.50654602050781,0
425.1110000000008,0.00018235512834507972,-0.00013456068700179458,0.00019830414385069162,0.0,0.0,0.0,0.0,0.003241373924538493,0.0009924087207764387,0.002448954386636615,0.999754011631012,0.0,0.0,0.0,0.2066294401884079,5.9527363777160645,0.8588896989822388,-37.40033721923828,0
435.009,0.00022616471687797457,-0.00010655324149411172,0.00018595054280012846,0.0,0.0,0.0,0.0,-0.002385533880442381,-0.000616780947893858,0.0017925504362210631,1.0004262924194336,0.0,0.0,0.0,0.22313743829727173,5.966001033782959,0.8753089308738708,-40.38832092285156,0
444.8819999999996,-6.778837359888712e-06,-3.808090013990295e-06,1.9777209672611207e-05,0.0,0.0,0.0,0.0,-0.002155556809157133,-0.0019898873288184404,-5.4516491218237206e-05,0.9988192915916443,0.0,0.0,0.0,0.2123689353466034,5.993117332458496,0.8081932067871094,-38.4391975402832,0
454.78299999999945,3.8269052311079577e-05,5.020318349124864e-05,-3.0816022444923874e-06,0.0,0.0,0.0,0.0,-0.0012261815136298537,-0.004315521568059921,0.000905654625967145,0.9993248581886292,0.0,0.0,0.0,0.22764766216278076,6.011946678161621,0.8220423460006714,-41.20467758178711,0
464.66400000000067,7.12052860762924e-05,1.4666416973341256e-05,-1.8110411474481225e-05,0.0,0.0,0.0,0.0,-0.0020138262771070004,-0.008522803895175457,-0.0024349582381546497,0.9988846182823181,0.0,0.0,0.0,0.22769762575626373,6.012044906616211,0.8297243118286133,-41.213722229003906,0
474.5529999999999,0.00010185494465986267,4.738973802886903e-05,-2.7237325411988422e-05,0.0,0.0,0.0,0.0,-0.0030379656236618757,-0.005162705667316914,-0.0014757153112441301,1.00175940990448,0.0,0.0,0.0,0.2379455268383026,6.015847206115723,0.8546780943870544,-43.0686149597168,0
484.4290000000001,0.00013747856428381056,-6.044835117791081e-06,-6.0538190155057237e-05,0.0,0.0,0.0,0.0,-0.0014770401176065207,0.00031394901452586055,-0.0005796328186988831,0.998998761177063,0.0,0.0,0.0,0.22831939160823822,6.008098125457764,0.8664252758026123,-41.326263427734375,0
494.3209999999999,0.00016324942407663912,2.856778519344516e-05,-5.9108049754286185e-05,0.0,0.0,0.0,0.0,-0.00037151426658965647,0.0004701234574895352,0.004285086877644062,0.9989433884620667,0.0,0.0,0.0,0.2424197793006897,6.009807586669922,0.8585041761398315,-43.87845993041992,0
504.20700000000033,0.00017548460164107382,1.9752806110773236e-05,-6.7443324951455e-05,0.0,0.0,0.0,0.0,-0.0011529807234182954,-0.00370511831715703,-0.0006308351294137537,0.999675989151001,0.0,0.0,0.0,0.24379035830497742,6.003032684326172,0.8629764914512634,-44.12654113769531,0
514.0949999999993,0.00016186040011234581,-1.352509752905462e-05,-4.575296406983398e-05,0.0,0.0,0.0,0.0,-0.002538293832913041,-0.006959887221455574,-0.0027378378435969353,0.9994367957115173,0.0,0.0,0.0,0.25899937748908997,5.989571571350098,0.8645316362380981,-46.87940216064453,0
523.9740000000002,6.856935215182602e-05,-6.0785814639530145e-06,-0.00010792478860821575,0.0,0.0,0.0,0.0,-0.0008730345289222896,0.005810274742543697,-0.0027302054222673178,1.000194787979126,0.0,0.0,0.0,0.2478107511997223,5.998978614807129,0.8632721304893494,-44.85424041748047,0
533.8670000000002,7.669718615943566e-05,1.2736312783090398e-05,-9.406377648701891e-05,0.0,0.0,0.0,0.0,0.0015341193648055196,0.006485407240688801,-0.0030627965461462736,0.9985341429710388,0.0,0.0,0.0,0.26216116547584534,6.003316402435303,0.8480681777000427,-47.45169448852539,0
543.7530000000006,0.00010228052269667387,1.111878464143956e-05,-8.376962796319276e-05,0.0,0.0,0.0,0.0,-5.13416944158962e-06,-0.005223570391535759,0.0013600586680695415,0.9980654120445251,0.0,0.0,0.0,0.24880360066890717,5.995790481567383,0.8236786723136902,-45.03394317626953,0
553.6409999999996,6.228209531400353e-05,-2.7448493710835464e-05,-2.8891441615996882e-05,0.0,0.0,0.0,0.0,0.0005286207888275385,0.0029348854441195726,7.65867080190219e-05,0.996911346912384,0.0,0.0,0.0,0.26650911569595337,5.985747814178467,0.826722264289856,-48.23868179321289,0
563.5149999999994,7.251966599142179e-05,-4.363029802334495e-05,-3.5062443203059956e-05,0.0,0.0,0.0,0.0,-0.0016553652239963412,-0.005704210139811039,-0.0022752529475837946,0.9991008639335632,0.0,0.0,0.0,0.26636040210723877,5.977343559265137,0.8268317580223083,-48.21176528930664,0
573.4130000000005,5.74891128053423e-05,-4.943543899571523e-05,1.165754201792879e-05,0.0,0.0,0.0,0.0,0.0022953988518565893,0.0021754810586571693,0.0032928052823990583,1.0002100467681885,0.0,0.0,0.0,0.27887845039367676,5.975833892822266,0.8383923768997192,-50.47755432128906,0
583.2910000000011,6.723358092131093e-05,-6.90463202772662e-05,7.572732101834845e-06,0.0,0.0,0.0,0.0,0.0010292488150298595,-0.0023108595050871372,-0.002218893263489008,1.0016968250274658,0.0,0.0,0.0,0.2800191044807434,5.964087009429932,0.833242654800415,-50.684017181396484,0
593.1930000000011,4.814655767404474e-05,-9.61898040259257e-05,5.579428398050368e-05,0.0,0.0,0.0,0.0,-0.0012343097478151321,0.0025732400827109814,-0.0010025495430454612,1.0001167058944702,0.0,0.0,0.0,0.26233893632888794,5.952956199645996,0.8252130150794983,-47.48387145996094,0
603.0670000000009,5.406725176726468e-05,-0.00012117845471948385,5.7403260143473744e-05,0.0,0.0,0.0,0.0,0.002177472459152341,0.0010615324135869741,0.006451461464166641,0.9999062418937683,0.0,0.0,0.0,0.26262980699539185,5.946497917175293,0.8175268173217773,-47.53651809692383,0
612.9580000000005,5.810502989334054e-05,-0.00010524993558647111,9.722908725962043e-05,0.0,0.0,0.0,0.0,0.0006849581259302795,-0.002520918846130371,0.00040186630212701857,1.0000388622283936,0.0,0.0,0.0,0.2790161073207855,5.94685697555542,0.8035995364189148,-50.502464294433594,0
622.8389999999999,6.665826367679983e-05,-0.00012631762365344912,0.000102322141174227,0.0,0.0,0.0,0.0,0.0012559880269691348,-0.0004474943270906806,-0.0020349861588329077,0.9993693232536316,0.0,0.0,0.0,0.2775559723377228,5.940149784088135,0.8111740350723267,-50.23818588256836,0
632.7270000000008,9.587417298462242e-05,-0.0001153568591689691,9.108816448133439e-05,0.0,0.0,0.0,0.0,0.0025641396641731262,-0.0017929476452991366,-0.0002023701963480562,0.9988858103752136,0.0,0.0,0.0,0.29194965958595276,5.947020053863525,0.8243931531906128,-52.843467712402344,0
642.6110000000008,0.00010651018237695098,-0.0001379019522573799,9.401798888575286e-05,0.0,0.0,0.0,0.0,-0.0019406549399718642,0.0014169999631121755,-0.001476181554608047,1.0022677183151245,0.0,0.0,0.0,0.2910350263118744,5.937379837036133,0.8206698298454285,-52.677921295166016,0
652.514000000001,0.0001469019043724984,-9.21479586395435e-05,9.86939194262959e-05,0.0,0.0,0.0,0.0,0.0018940456211566925,0.0025621741078794003,0.0031324466690421104,0.9992254972457886,0.0,0.0,0.0,0.30585891008377075,5.964919090270996,0.8394224047660828,-55.36106491088867,0
662.3790000000008,0.00016062551003415138,-0.00011202162568224594,0.00010299948189640418,0.0,0.0,0.0,0.0,-0.00031152559677138925,-4.517125489655882e-05,0.0021871759090572596,0.9991299510002136,0.0,0.0,0.0,0.3065653145313263,5.951720714569092,0.8284568190574646,-55.48893737792969,0
672.2800000000007,0.00018953926337417215,-6.153689901111647e-05,0.00014546072634402663,0.0,0.0,0.0,0.0,-0.00028014613781124353,0.0023695698473602533,-0.0036524650640785694,0.9976245760917664,0.0,0.0,0.0,0.2811262607574463,5.978882312774658,0.8357760906219482,-50.8844108581543,0
682.1509999999998,0.00020766930538229644,-7.735284452792257e-05,0.00015061443264130503,0.0,0.0,0.0,0.0,0.0004805008939001709,0.004480861127376556,0.002381414407864213,0.9999920725822449,0.0,0.0,0.0,0.2796981930732727,5.973586559295654,0.8238686323165894,-50.62593078613281,0
692.0450000000001,0.00025104786618612707,-6.307526200544089e-05,0.0001429282856406644,0.0,0.0,0.0,0.0,0.0019658124074339867,-0.004595920443534851,-0.0029663117602467537,0.9997479915618896,0.0,0.0,0.0,0.2922535240650177,5.976701736450195,0.8217785954475403,-52.898468017578125,0
701.9259999999995,0.000274659541901201,-7.683754665777087e-05,0.00014573267253581434,0.0,0.0,0.0,0.0,-0.001967472257092595,0.0009672495652921498,-0.002056971425190568,0.9972755312919617,0.0,0.0,0.0,0.29099419713020325,5.964962482452393,0.8288567066192627,-52.670528411865234,0
711.8189999999995,0.0003144412476103753,-5.6518685596529394e-05,0.00015794970386195928,0.0,0.0,0.0,0.0,0.003264098893851042,0.003388293320313096,-0.0014130310155451298,0.9974972605705261,0.0,0.0,0.0,0.3033915162086487,5.975216865539551,0.8318039774894714,-54.91447067260742,0
721.7090000000007,0.00034149488783441484,-6.710992602165788e-05,0.00015791507030371577,0.0,0.0,0.0,0.0,-0.002294651698321104,-0.006334567908197641,0.0010572222527116537,0.9990785121917725,0.0,0.0,0.0,0.30338701605796814,5.962716579437256,0.8166019320487976,-54.91365432739258,0
731.6020000000008,0.0003388375916983932,-8.312889258377254e-05,0.00019131432054564357,0.0,0.0,0.0,0.0,0.0008657138678245246,0.0008147894404828548,0.0031207699794322252,1.0006225109100342,0.0,0.0,0.0,0.28545165061950684,5.95949649810791,0.8125540614128113,-51.66731643676758,0
741.4699999999993,0.0003644782118499279,-9.760761895449832e-05,0.00019200402311980724,0.0,0.0,0.0,0.0,0.003756145015358925,-0.0020923379343003035,-0.0032232170924544334,0.998771071434021,0.0,0.0,0.0,0.28587910532951355,5.949495792388916,0.8136193156242371,-51.744686126708984,0
751.362000000001,0.0003757213125936687,-0.00011404106771806255,0.00021408215980045497,0.0,0.0,0.0,0.0,0.001607607933692634,-0.0028164517134428024,3.3461579732829705e-05,0.9981166124343872,0.0,0.0,0.0,0.3029806315898895,5.940030574798584,0.8205264806747437,-54.84009552001953,0
761.2479999999996,0.00040018081199377775,-0.00013169051089789718,0.0002149527135770768,0.0,0.0,0.0,0.0,0.0016088209813460708,0.004134040325880051,-0.0012358727399259806,0.9993227124214172,0.0,0.0,0.0,0.30232518911361694,5.932960033416748,0.8243552446365356,-54.721458435058594,0
771.1380000000008,0.00037365240859799087,-0.00013969514111522585,0.00028265267610549927,0.0,0.0,0.0,0.0,-0.0017313543939962983,-0.0009641011711210012,0.0014343884540721774,1.0003435611724854,0.0,0.0,0.0,0.2821354568004608,5.921135425567627,0.7942966818809509,-51.06707763671875,0
781.0149999999994,0.0003989331016782671,-0.00015640458150301129,0.00028765114257112145,0.0,0.0,0.0,0.0,-0.0013840618776157498,-0.002654463052749634,0.0003877206181641668,0.9999060034751892,0.0,0.0,0.0,0.2818871736526489,5.916871070861816,0.8008165955543518,-51.02213668823242,0
790.9070000000011,0.0003932454565074295,-0.00016772064554970711,0.0003377648536115885,0.0,0.0,0.0,0.0,-0.0008475064532831311,-0.0014632066013291478,-0.0030804176349192858,0.9991900324821472,0.0,0.0,0.0,0.29485782980918884,5.913203239440918,0.7985392808914185,-53.36985397338867,0
800.7870000000003,0.00041748673538677394,-0.0001878098992165178,0.00034650624729692936,0.0,0.0,0.0,0.0,-0.00023684350890107453,0.0006897110724821687,-0.0016536368057131767,1.0002490282058716,0.0,0.0,0.0,0.29376333951950073,5.911348342895508,0.8075124025344849,-53.1717529296875,0
810.6859999999997,0.0004145374405197799,-0.00020850851433351636,0.000385764695238322,0.0,0.0,0.0,0.0,0.0010867561213672161,-0.0007060206844471395,0.0008019078522920609,1.0007976293563843,0.0,0.0,0.0,0.3090250492095947,5.904937267303467,0.7983083724975586,-55.934146881103516,0
820.5599999999995,0.00043563052895478904,-0.00023237652203533798,0.00039699923945590854,0.0,0.0,0.0,0.0,-0.0022899291943758726,-0.00035214173840358853,0.00014314147119875997,0.9984630346298218,0.0,0.0,0.0,0.3092324733734131,5.895536422729492,0.8011780977249146,-55.9716911315918,0
830.4570000000003,0.000463034346466884,-0.0002533701772335917,0.00040660955710336566,0.0,0.0,0.0,0.0,0.0027850926853716373,0.005464345216751099,0.0027463401202112436,0.9999315142631531,0.0,0.0,0.0,0.3243553340435028,5.897430896759033,0.8089615702629089,-58.708961486816406,0
840.3330000000005,0.0004842051421292126,-0.0002791101287584752,0.00041691650403663516,0.0,0.0,0.0,0.0,0.0036349461879581213,-0.004125624895095825,-0.002427666913717985,1.0009254217147827,0.0,0.0,0.0,0.32523006200790405,5.884380340576172,0.7884129285812378,-58.86729049682617,0
850.2260000000006,0.000517564476467669,-0.00029745177016593516,0.0004237457178533077,0.0,0.0,0.0,0.0,8.015103048819583e-06,-0.0008466787985526025,0.0009009815403260291,1.002158522605896,0.0,0.0,0.0,0.3375531733036041,5.879806041717529,0.7979251146316528,-61.09779739379883,0
860.1059999999998,0.0005374674219638109,-0.0003245974367018789,0.0004353491822257638,0.0,0.0,0.0,0.0,-0.0013791616074740887,0.006923178676515818,-0.0012188340770080686,1.0001469850540161,0.0,0.0,0.0,0.33831480145454407,5.873802661895752,0.7895442843437195,-61.23564910888672,0
870.0059999999994,0.0005696035805158317,-0.0003244007530156523,0.00045726841199211776,0.0,0.0,0.0,0.0,0.0005738776526413858,-0.0034547043032944202,-0.0029897866770625114,0.9978357553482056,0.0,0.0,0.0,0.3566170632839203,5.880495071411133,0.7829204797744751,-64.54839324951172,0
879.8790000000008,8.262717165052891e-05,-9.017762204166502e-05,6.405454769264907e-05,0.0,0.0,0.0,0.0,-0.0010673574870452285,-0.002159059513360262,-0.004924217239022255,0.9993090629577637,0.0,0.0,0.0,0.3423762619495392,5.910985946655273,0.7119367122650146,-61.970787048339844,0
889.7759999999998,7.662273128516972e-05,-9.230416617356241e-05,0.00010617507359711453,0.0,0.0,0.0,0.0,-0.0005220501916483045,0.003333000000566244,-0.00028390128863975406,0.9988173246383667,0.0,0.0,0.0,0.32131296396255493,5.9101409912109375,0.7046616077423096,-58.158287048339844,0
899.652,7.623883720953017e-05,-0.00011572345829335973,0.00010663602006388828,0.0,0.0,0.0,0.0,0.0006382310530170798,-0.003513848641887307,0.000988564919680357,0.9985479712486267,0.0,0.0,0.0,0.3207264840602875,5.903930187225342,0.6938232183456421,-58.05213165283203,0
909.5429999999997,9.204672096529976e-05,-9.307524305768311e-05,0.0001015783054754138,0.0,0.0,0.0,0.0,-0.0005446581053547561,-0.0017971880733966827,-0.0013598499353975058,0.9996062517166138,0.0,0.0,0.0,0.29160183668136597,5.905730247497559,0.7010630369186401,-52.780513763427734,0
919.4290000000001,9.347686136607081e-05,-0.00011830896983155981,9.972765110433102e-05,0.0,0.0,0.0,0.0,0.0006540690665133297,-0.006615278776735067,0.00037421900196932256,0.9999603033065796,0.0,0.0,0.0,0.2919299304485321,5.902221202850342,0.7069112658500671,-52.839900970458984,0
929.3230000000003,0.0001232597278431058,-6.926538480911404e-05,7.835889118723571e-05,0.0,0.0,0.0,0.0,-0.0001036508911056444,0.0033681439235806465,-0.0010099338833242655,1.0001530647277832,0.0,0.0,0.0,0.30014097690582275,5.91166353225708,0.7265562415122986,-54.32611083984375,0
939.1959999999999,0.00010957640915876254,-0.00011730250844266266,2.4700442736502737e-05,0.0,0.0,0.0,0.0,0.0015940220328047872,0.0001663716830080375,0.0004189543833490461,1.0007708072662354,0.0,0.0,0.0,0.28691670298576355,5.901971817016602,0.707949161529541,-51.932491302490234,0
949.085000000001,0.00015636187163181603,-6.390029011527076e-05,6.339524588838685e-06,0.0,0.0,0.0,0.0,0.0024777259677648544,0.005564868915826082,0.0005047321319580078,0.9986314177513123,0.0,0.0,0.0,0.2944228947162628,5.908852577209473,0.7105838656425476,-53.2911262512207,0
958.9680000000008,0.00016197102377191186,-9.058457362698391e-05,-6.639338607783429e-07,0.0,0.0,0.0,0.0,0.00016327394405379891,-0.00044300963054411113,-0.0028879856690764427,0.9974569082260132,0.0,0.0,0.0,0.294137179851532,5.901298522949219,0.6972175240516663,-53.239418029785156,0
968.8580000000002,0.00017171562649309635,-0.00010368908988311887,-2.383228547842009e-06,0.0,0.0,0.0,0.0,0.0018202548380941153,0.0012803361751139164,0.001538276905193925,0.9970563054084778,0.0,0.0,0.0,0.3052787184715271,5.901653289794922,0.6990029811859131,-55.25605773925781,0
978.7420000000002,9.704905824037269e-05,-9.760227840160951e-05,-5.0124304834753275e-05,0.0,0.0,0.0,0.0,-0.002040976658463478,0.0021538890432566404,-0.002875151112675667,1.0001875162124634,0.0,0.0,0.0,0.2993690073490143,5.8981451988220215,0.6886053681373596,-54.18638610839844,0
988.6350000000002,0.0001005171361612156,-0.00011932394409086555,-5.427926589618437e-05,0.0,0.0,0.0,0.0,0.0013924208469688892,0.0034648431465029716,-0.0002792130399029702,1.0009249448776245,0.0,0.0,0.0,0.2841509282588959,5.899377346038818,0.6863589286804199,-51.431884765625,0
998.518,0.00010457845201017335,-0.0001473081938456744,-6.642671360168606e-05,0.0,0.0,0.0,0.0,-0.0004229219048283994,-0.0011556933168321848,0.000940923229791224,0.9996224045753479,0.0,0.0,0.0,0.2844918668270111,5.891531467437744,0.6778914332389832,-51.49359130859375,0
1008.4030000000002,0.00010716985707404092,-0.00013886962551623583,-4.5248056267155334e-05,0.0,0.0,0.0,0.0,0.0009992319392040372,-0.003000069409608841,6.377226236509159e-05,0.9996016621589661,0.0,0.0,0.0,0.2688513994216919,5.892491817474365,0.6725399494171143,-48.66263961791992,0
1018.2880000000005,6.342316191876307e-05,-0.00012964679626747966,-5.1748134865192696e-05,0.0,0.0,0.0,0.0,0.0010242471471428871,0.001954311039298773,-0.0012249269057065248,0.9995802044868469,0.0,0.0,0.0,0.257525771856308,5.88879919052124,0.6721042394638062,-46.612674713134766,0
1028.1800000000003,4.3658797949319705e-05,-0.00013839219172950834,-5.285945917421486e-06,0.0,0.0,0.0,0.0,-0.0006236605113372207,-0.002066276967525482,-0.0003343085991218686,0.9982928037643433,0.0,0.0,0.0,0.23965883255004883,5.885383129119873,0.655113697052002,-43.37873077392578,0
1038.0609999999997,1.9343281110195676e-06,-0.00010504163219593465,2.548707379901316e-05,0.0,0.0,0.0,0.0,-0.0027729792054742575,0.00394042395055294,0.002208814723417163,0.9998304843902588,0.0,0.0,0.0,0.2266780585050583,5.889419078826904,0.6441710591316223,-41.02918243408203,0
1047.9529999999995,1.2498634532676078e-05,-6.700922676827759e-05,5.157015402801335e-05,0.0,0.0,0.0,0.0,-0.0020293081179261208,-0.0034476215951144695,0.005327615421265364,1.000896692276001,0.0,0.0,0.0,0.24130603671073914,5.8951945304870605,0.6374747157096863,-43.676876068115234,0
1057.8330000000005,8.845878255669959e-06,-9.421864524483681e-05,5.045565194450319e-05,0.0,0.0,0.0,0.0,0.0007565469713881612,0.0030255462042987347,-0.0033758683130145073,0.999472439289093,0.0,0.0,0.0,0.24254077672958374,5.891519069671631,0.6518616080284119,-43.90036392211914,0
1067.723,1.3960311662231106e-06,-7.888756226748228e-05,8.777354378253222e-05,0.0,0.0,0.0,0.0,0.00205477443523705,-0.0015527276555076241,0.0009353034547530115,0.9999142289161682,0.0,0.0,0.0,0.23091216385364532,5.895613193511963,0.6457951068878174,-41.79555892944336,0
1077.6090000000004,-5.907078502787044e-06,-0.00010624551941873506,9.01087187230587e-05,0.0,0.0,0.0,0.0,0.001632481929846108,-0.00013075026799924672,0.001435477752238512,1.0008331537246704,0.0,0.0,0.0,0.23090848326683044,5.886999130249023,0.6458290815353394,-41.79489517211914,0
1087.4940000000006,6.729795131832361e-06,-8.791661821305752e-05,7.818204176146537e-05,0.0,0.0,0.0,0.0,-0.00036198756424710155,-7.032762368908152e-05,-0.0029686095658689737,1.001296877861023,0.0,0.0,0.0,0.2511640191078186,5.89087438583374,0.6567872166633606,-45.46118927001953,0
1097.380000000001,-3.2073648981167935e-06,-0.00011504479334689677,8.14916129456833e-05,0.0,0.0,0.0,0.0,0.0008044846472330391,0.003558265743777156,-0.0014712571864947677,1.0009539127349854,0.0,0.0,0.0,0.249502494931221,5.890960216522217,0.6565307974815369,-45.16044998168945,0
1107.282000000001,-6.16030365563347e-06,-0.00010875685256905854,9.532989497529343e-05,0.0,0.0,0.0,0.0,-0.0018542647594586015,0.0009951061801984906,0.0026851571165025234,1.0003732442855835,0.0,0.0,0.0,0.26264023780822754,5.8950724601745605,0.6562722325325012,-47.53840637207031,0
1117.1509999999998,-1.7304200810031034e-05,-0.00013378102448768914,0.00010084303357871249,0.0,0.0,0.0,0.0,0.0019630747847259045,0.00299855787307024,-0.0009118199814110994,1.0009164810180664,0.0,0.0,0.0,0.2634574770927429,5.894648551940918,0.6577361822128296,-47.68632507324219,0
1127.0480000000007,-2.512197897885926e-05,-9.946655336534604e-05,0.00014504480350296944,0.0,0.0,0.0,0.0,0.00029007825651206076,-0.003926594741642475,0.0038255809340626,0.997622013092041,0.0,0.0,0.0,0.24845324456691742,5.905853271484375,0.6447141766548157,-44.97053146362305,0
1136.924000000001,-3.676317282952368e-05,-0.0001208790490636602,0.00015315301425289363,0.0,0.0,0.0,0.0,0.000660810386762023,0.0012123665073886514,0.0018367532175034285,1.000549554824829,0.0,0.0,0.0,0.24902521073818207,5.901216983795166,0.6417162418365479,-45.074058532714844,0
1146.8220000000001,-4.5463599235517904e-05,-0.0001051295839715749,0.00018611837003845721,0.0,0.0,0.0,0.0,0.0018299717921763659,0.0014330109115689993,0.0036251796409487724,1.0017523765563965,0.0,0.0,0.0,0.23376420140266418,5.909450531005859,0.6400758028030396,-42.31178665161133,0
1156.701000000001,-5.72883291170001e-05,-0.00012487788626458496,0.00019627514120656997,0.0,0.0,0.0,0.0,-0.0010811747051775455,0.007414523977786303,-0.0007923126104287803,0.9997941255569458,0.0,0.0,0.0,0.23459719121456146,5.901443958282471,0.6461573839187622,-42.46255874633789,0
1166.5910000000003,-1.337882895313669e-05,-9.887240594252944e-05,0.00013923845835961401,0.0,0.0,0.0,0.0,-0.0006106137880124152,0.005393456667661667,-0.00018170622934121639,1.0001784563064575,0.0,0.0,0.0,0.25057634711265564,5.916868209838867,0.6591256260871887,-45.35481643676758,0
1176.4770000000008,-1.7918595403898507e-05,-0.00011475513019831851,0.00014514519716612995,0.0,0.0,0.0,0.0,-0.00013086933176964521,-0.0029588767793029547,-0.0024096351116895676,1.0002789497375488,0.0,0.0,0.0,0.2499789595603943,5.910203456878662,0.6494922041893005,-45.24668884277344,0
1186.375,8.255255124822725e-06,-9.223548113368452e-05,0.00012885038449894637,0.0,0.0,0.0,0.0,-0.0004995060153305531,-0.008627932518720627,0.0028910853434354067,1.0004974603652954,0.0,0.0,0.0,0.22982917726039886,5.9185991287231445,0.6744605898857117,-41.59953689575195,0
1196.2469999999994,8.003349648788571e-06,-0.00010674413351807743,0.00013408447557594627,0.0,0.0,0.0,0.0,0.0033819128293544054,-0.003717083716765046,0.001890152576379478,1.0002962350845337,0.0,0.0,0.0,0.22991742193698883,5.914602756500244,0.6908079385757446,-41.61551284790039,0
1206.139000000001,3.612761793192476e-05,-9.528801456326619e-05,0.00012177629832876846,0.0,0.0,0.0,0.0,-0.00040275751962326467,-0.0010761225130409002,-0.002065440872684121,0.9994802474975586,0.0,0.0,0.0,0.2474183589220047,5.914659023284912,0.7053146362304688,-44.7832145690918,0
1216.0190000000002,7.680912676732987e-05,-0.00015912014350760728,0.00011001703387591988,0.0,0.0,0.0,0.0,-0.0018504798645153642,0.00232018087990582,0.0036913480143994093,0.999349057674408,0.0,0.0,0.0,0.23430290818214417,5.8957200050354,0.710954487323761,-42.40929412841797,0
1225.9099999999999,0.0001277417759411037,-8.196270937332883e-05,9.802391286939383e-05,0.0,0.0,0.0,0.0,-0.0006442470476031303,0.0020364425145089626,-0.0015173613792285323,1.0009660720825195,0.0,0.0,0.0,0.24766866862773895,5.912968635559082,0.7138382196426392,-44.828521728515625,0
1235.791000000001,0.00013560857041738927,-9.591132402420044e-05,9.958137525245547e-05,0.0,0.0,0.0,0.0,3.60824451490771e-05,0.001507482840679586,-0.0015521992463618517,1.0013374090194702,0.0,0.0,0.0,0.24745599925518036,5.905709743499756,0.7043900489807129,-44.79003143310547,0
1245.6810000000005,0.0001694675738690421,-3.998056490672752e-05,9.740162931848317e-05,0.0,0.0,0.0,0.0,-0.000991996843367815,-0.0005669679376296699,0.004413218703120947,1.0005604028701782,0.0,0.0,0.0,0.2583310306072235,5.908987522125244,0.7086389064788818,-46.75843048095703,0
1255.559000000001,0.00017764326184988022,-5.324940866557881e-05,0.00010057278268504888,0.0,0.0,0.0,0.0,-0.0006651418516412377,0.003924647346138954,-0.0041798437014222145,1.0009629726409912,0.0,0.0,0.0,0.25919362902641296,5.90477180480957,0.7036269903182983,-46.91455841064453,0
1265.460000000001,0.00020274029520805925,-2.3840120775275864e-05,9.322659752797335e-05,0.0,0.0,0.0,0.0,-0.0013527190312743187,0.005474467761814594,-0.0011708950623869896,1.000338077545166,0.0,0.0,0.0,0.2713433802127838,5.914622783660889,0.6988035440444946,-49.113685607910156,0
1275.3310000000001,0.00021176999143790454,-3.847564948955551e-05,9.739345114212483e-05,0.0,0.0,0.0,0.0,0.0022762364242225885,-0.0025613184552639723,-0.001869039493612945,1.0005481243133545,0.0,0.0,0.0,0.27122312784194946,5.913786888122559,0.6889747381210327,-49.091922760009766,0
1285.228000000001,0.00022769464703742415,-2.400901030341629e-05,0.00010965514957206324,0.0,0.0,0.0,0.0,0.0015360413817688823,0.0060738162137568,-0.0012668136041611433,1.0013173818588257,0.0,0.0,0.0,0.27959755063056946,5.912423133850098,0.6918440461158752,-50.60771560668945,0
1295.1110000000008,0.00023745937505736947,-4.1454011807218194e-05,0.00011567684850888327,0.0,0.0,0.0,0.0,-0.003149445168673992,-0.0076139215379953384,0.0009658756316639483,0.998361349105835,0.0,0.0,0.0,0.2790466248989105,5.899899959564209,0.6729918718338013,-50.50798797607422,0
1304.9989999999998,0.000236617517657578,-6.819358532084152e-05,0.00014035888307262212,0.0,0.0,0.0,0.0,-0.002628094982355833,-0.007373620755970478,-0.0029955143108963966,0.9984195232391357,0.0,0.0,0.0,0.26371949911117554,5.8951945304870605,0.6804302930831909,-47.7337532043457,0
1314.8780000000006,-1.4905444913893007e-06,2.360508187848609e-05,-2.7366744689061306e-05,0.0,0.0,0.0,0.0,0.0019010005053132772,0.0008195476839318871,-0.0055335150100290775,0.9998998641967773,0.0,0.0,0.0,0.25224393606185913,5.9215545654296875,0.6415655612945557,-45.65665054321289,0
1324.7739999999994,-9.065447557077277e-07,5.1551269280025735e-06,-4.2792860767804086e-05,0.0,0.0,0.0,0.0,0.0001165740832220763,0.003265228820964694,0.001139816245995462,0.9998801946640015,0.0,0.0,0.0,0.26778870820999146,5.915417194366455,0.6367203593254089,-48.47028732299805,0
1334.652,-5.915687779634027e-06,-1.9528704797266982e-05,-4.6415094402618706e-05,0.0,0.0,0.0,0.0,-0.0001169828319689259,-0.006537121254950762,-0.001884999219328165,1.0019344091415405,0.0,0.0,0.0,0.26780256628990173,5.906787395477295,0.6284404397010803,-48.47279357910156,0
1344.550000000001,-1.775096097844653e-05,-2.409716762485914e-05,-9.345508260594215e-06,0.0,0.0,0.0,0.0,0.00024943979224190116,0.0037984896916896105,0.0007612921763211489,1.0020631551742554,0.0,0.0,0.0,0.2829204499721527,5.906172275543213,0.6397882103919983,-51.209163665771484,0
1354.4359999999997,-2.3017208150122315e-05,-5.0642942369449884e-05,-7.0599844548269175e-06,0.0,0.0,0.0,0.0,0.001264889957383275,-0.0015765767311677337,-0.0035553351044654846,0.9991008639335632,0.0,0.0,0.0,0.283333957195282,5.902202606201172,0.6336028575897217,-51.28401565551758,0
1364.3230000000003,-3.0587732908315957e-05,-2.9806416932842694e-05,4.2864539864240214e-05,0.0,0.0,0.0,0.0,-0.001197375706396997,0.005258467048406601,-0.005036326125264168,0.9990150928497314,0.0,0.0,0.0,0.2684187889099121,5.904855728149414,0.6338093280792236,-48.58433151245117,0
1374.1970000000001,-3.480685336398892e-05,-5.534877709578723e-05,4.841481495532207e-05,0.0,0.0,0.0,0.0,-0.0007411785190925002,-0.0019164818804711103,0.000815560866612941,1.0012480020523071,0.0,0.0,0.0,0.2672044634819031,5.89910888671875,0.6200507879257202,-48.36453628540039,0
1384.098,-4.1275983676314354e-05,-6.994802242843434e-05,7.108218414941803e-05,0.0,0.0,0.0,0.0,-0.0019751384388655424,0.0005326629616320133,0.00033445138251408935,0.9994263052940369,0.0,0.0,0.0,0.25299668312072754,5.895026683807373,0.6206303834915161,-45.792903900146484,0
1393.9719999999998,-4.654573422158137e-05,-9.881658479571342e-05,7.83246141509153e-05,0.0,0.0,0.0,0.0,0.0018978593870997429,0.000588228867854923,-0.002622242784127593,0.9967320561408997,0.0,0.0,0.0,0.2526949346065521,5.89458703994751,0.6117791533470154,-45.738285064697266,0
1403.8639999999996,-2.545187817304395e-05,-8.150036592269316e-05,4.456833266885951e-05,0.0,0.0,0.0,0.0,-0.0006668645655736327,-0.00175198120996356,0.003411495592445135,0.997549831867218,0.0,0.0,0.0,0.23590928316116333,5.9005632400512695,0.618716835975647,-42.700050354003906,0
1413.7420000000002,-2.767118530755397e-05,-0.00011170576908625662,4.45082041551359e-05,0.0,0.0,0.0,0.0,-0.00043365912279114127,-0.000927445013076067,-0.0007677472895011306,0.9991275072097778,0.0,0.0,0.0,0.23648488521575928,5.896754741668701,0.6223776340484619,-42.804237365722656,0
1423.6360000000004,-7.186787570390152e-06,-8.887347939889878e-05,3.706391362356953e-05,0.0,0.0,0.0,0.0,-0.0012476701522246003,-0.001782787498086691,0.0032608439214527607,0.998542070388794,0.0,0.0,0.0,0.21473798155784607,5.90932559967041,0.6312159895896912,-38.868003845214844,0
1433.5149999999994,-3.3749536214600084e-06,-0.00011962644930463284,3.428740819799714e-05,0.0,0.0,0.0,0.0,-0.0005171812954358757,-0.006428462453186512,0.0012649510754272342,0.9999467134475708,0.0,0.0,0.0,0.21485811471939087,5.9068498611450195,0.6408546566963196,-38.88975143432617,0
1443.4230000000007,2.4534609110560268e-05,-0.00010228288010694087,2.1769319573650137e-05,0.0,0.0,0.0,0.0,-0.002618799451738596,0.0032896625343710184,0.0006479828734882176,1.0006133317947388,0.0,0.0,0.0,0.238348588347435,5.921598434448242,0.6715520024299622,-43.14156723022461,0
1453.2870000000003,2.9393977456493303e-05,-0.0001344084885204211,1.8137394363293424e-05,0.0,0.0,0.0,0.0,-0.0014155703829601407,-0.0061888983473181725,-0.002570121781900525,0.9999775886535645,0.0,0.0,0.0,0.23827774822711945,5.919565677642822,0.6673800945281982,-43.12874984741211,0
1463.192000000001,4.629593968275003e-05,-0.00011653263936750591,3.4548138501122594e-05,0.0,0.0,0.0,0.0,0.0047966307029128075,0.0037351250648498535,-0.00016724516171962023,0.9983664155006409,0.0,0.0,0.0,0.21733619272708893,5.932735919952393,0.6784831881523132,-39.33828353881836,0
1473.0660000000007,3.7549736589426175e-05,-0.0001330631785094738,3.3936572435777634e-05,0.0,0.0,0.0,0.0,-0.0015910452930256724,0.006529702804982662,1.5958688891259953e-05,1.0006568431854248,0.0,0.0,0.0,0.20544709265232086,5.9225687980651855,0.6671967506408691,-37.18633270263672,0
1482.9539999999997,7.048229599604383e-05,-0.00010598638618830591,3.1034254789119586e-05,0.0,0.0,0.0,0.0,0.0009143143543042243,-0.000935488729737699,0.0020147226750850677,1.000162959098816,0.0,0.0,0.0,0.19251631200313568,5.931112289428711,0.6598869562149048,-34.84583282470703,0
1492.8310000000001,8.111483475659043e-05,-0.0001363324117846787,2.8976613975828514e-05,0.0,0.0,0.0,0.0,0.0047018141485750675,-0.00020505189604591578,0.00034949922701343894,0.9989703893661499,0.0,0.0,0.0,0.19288137555122375,5.922149181365967,0.6563780903816223,-34.91191101074219,0
1502.7350000000006,0.00010750943329185247,-0.0001255059032700956,2.6087196602020413e-05,0.0,0.0,0.0,0.0,0.0022092219442129135,0.0065243663266301155,0.00039121435838751495,0.9997208118438721,0.0,0.0,0.0,0.21228474378585815,5.919624328613281,0.6543040871620178,-38.42395782470703,0
1512.6039999999994,7.10739113856107e-05,-0.00012999669706914574,1.3057726391707547e-05,0.0,0.0,0.0,0.0,-0.003191162832081318,-0.004451954737305641,-0.0025035920552909374,0.9989168643951416,0.0,0.0,0.0,0.20585018396377563,5.9166035652160645,0.6310972571372986,-37.25929260253906,0
1522.5030000000006,9.258642967324704e-05,-0.00013035431038588285,1.814869392546825e-05,0.0,0.0,0.0,0.0,0.002547039883211255,-0.0003448652569204569,0.0006194913294166327,0.9978780150413513,0.0,0.0,0.0,0.19752895832061768,5.917396068572998,0.6493006348609924,-35.753135681152344,0
1532.3790000000008,0.00010041630594059825,-0.00016563929966650903,1.3905966625316069e-05,0.0,0.0,0.0,0.0,-0.0013454640284180641,0.002636713907122612,5.8543369959807023e-05,1.0003807544708252,0.0,0.0,0.0,0.1969229280948639,5.90803337097168,0.6468827128410339,-35.64344024658203,0
1542.2720000000008,0.00012297957437112927,-0.00013604082050733268,2.843484253389761e-05,0.0,0.0,0.0,0.0,0.000936222611926496,-0.0014376979088410735,0.0011530814226716757,1.000206708908081,0.0,0.0,0.0,0.17691366374492645,5.919558525085449,0.6399657726287842,-32.021724700927734,0
1552.1540000000005,7.793389522703364e-05,-0.00013437680900096893,2.0574985683197156e-05,0.0,0.0,0.0,0.0,-0.002306825714185834,-0.0033443921711295843,0.006003189831972122,0.9995003938674927,0.0,0.0,0.0,0.16622108221054077,5.917766094207764,0.6323636174201965,-30.08634376525879,0
1562.0460000000003,0.00013926571409683675,-6.88875443302095e-05,-1.8766115772450576e-06,0.0,0.0,0.0,0.0,0.0022100601345300674,0.004306901711970568,-0.00011638957948889583,0.9994150400161743,0.0,0.0,0.0,0.18119707703590393,5.931007385253906,0.6388964653015137,-32.79703140258789,0
1571.9279999999999,0.00014648646174464375,-0.00010123827087227255,-6.841171853011474e-06,0.0,0.0,0.0,0.0,-0.0028622352983802557,0.000941587844863534,0.00015974404232110828,0.9997810125350952,0.0,0.0,0.0,0.18086685240268707,5.915253162384033,0.6195748448371887,-32.73725891113281,0
1581.817000000001,0.00011881670070579275,-0.00015279490617103875,4.8124587920028716e-05,0.0,0.0,0.0,0.0,0.00099623401183635,-0.0023856491316109896,-0.0033420787658542395,1.000174880027771,0.0,0.0,0.0,0.16887535154819489,5.911499500274658,0.6106334328651428,-30.566776275634766,0
1591.6970000000001,6.255241169128567e-05,-0.00015601942141074687,3.410978752071969e-05,0.0,0.0,0.0,0.0,-0.0004458971961867064,0.0027176663279533386,8.735784649616107e-05,0.9993724822998047,0.0,0.0,0.0,0.16046442091464996,5.908596515655518,0.6003856658935547,-29.04437828063965,0
1601.603000000001,0.0001141025495599024,-0.00010056870814878494,2.6098749003722332e-05,0.0,0.0,0.0,0.0,-0.0013129947474226356,-0.002552781254053116,0.002734047593548894,1.0006115436553955,0.0,0.0,0.0,0.17502997815608978,5.9185380935668945,0.601584792137146,-31.680774688720703,0
1611.4680000000008,-2.958229515570565e-06,-8.327013347297907e-05,5.8281166275264695e-06,0.0,0.0,0.0,0.0,-0.0010957815684378147,-0.0025582860689610243,0.0009711403981782496,0.9995517730712891,0.0,0.0,0.0,0.1671379804611206,5.922252655029297,0.5871726870536804,-30.25230598449707,0
1621.3649999999998,2.3212751329992898e-05,-7.782543980283663e-05,-5.712402526114602e-06,0.0,0.0,0.0,0.0,-0.0002997578994836658,0.0006677526398561895,0.0027471333742141724,0.9999307990074158,0.0,0.0,0.0,0.15498660504817963,5.925395488739014,0.5921425819396973,-28.052886962890625,0
1631.2430000000004,2.219657471869141e-05,-0.00011751473357435316,-8.546038770873565e-06,0.0,0.0,0.0,0.0,0.001773911528289318,0.0037276684306561947,0.001157004269771278,0.9998036026954651,0.0,0.0,0.0,0.15553417801856995,5.921977996826172,0.5882454514503479,-28.151994705200195,0
1641.1380000000008,3.747893788386136e-05,-0.00010876085434574634,-6.885499715281185e-06,0.0,0.0,0.0,0.0,0.002147499704733491,0.0021018076222389936,-0.0011134096421301365,0.9998849034309387,0.0,0.0,0.0,0.1462097018957138,5.925332069396973,0.5814760327339172,-26.46424674987793,0
1651.0120000000006,3.5160614061169326e-05,-0.0001483634696342051,-9.640468306315597e-06,0.0,0.0,0.0,0.0,-0.0023330089170485735,-0.0026320130564272404,0.003847288666293025,1.0002541542053223,0.0,0.0,0.0,0.14541023969650269,5.91803503036499,0.5748934149742126,-26.319541931152344,0
1660.9060000000009,5.76507045479957e-05,-9.307415166404098e-05,1.653487743169535e-06,0.0,0.0,0.0,0.0,0.0015107375802472234,0.0031990045681595802,0.0015594413271173835,0.9976093769073486,0.0,0.0,0.0,0.16814054548740387,5.938222408294678,0.5935866236686707,-30.43377113342285,0
1670.7960000000003,5.469891766551882e-05,-0.00012982674525119364,-9.012173904920928e-07,0.0,0.0,0.0,0.0,-0.004400383681058884,-0.0018397229723632336,0.0034327893517911434,0.9990713596343994,0.0,0.0,0.0,0.1679050773382187,5.931185722351074,0.5911534428596497,-30.391155242919922,0
1680.6820000000007,9.020658762892708e-05,-6.823248986620456e-05,-1.998000698222313e-05,0.0,0.0,0.0,0.0,-0.0017417080234736204,-0.0011682884069159627,-0.00144300633110106,1.000881314277649,0.0,0.0,0.0,0.1875917911529541,5.959649085998535,0.60698401927948,-33.95448303222656,0
1690.5599999999995,8.868263103067875e-05,-0.00010401902545709163,-2.4951756131486036e-05,0.0,0.0,0.0,0.0,0.0013923200313001871,-0.001954972743988037,-0.002002430148422718,0.9998967051506042,0.0,0.0,0.0,0.1867188960313797,5.957010746002197,0.6038022041320801,-33.79648971557617,0
1700.4529999999995,0.00012721931852865964,-3.765017390833236e-05,-4.003457797807641e-05,0.0,0.0,0.0,0.0,-0.0012576306471601129,0.005681545473635197,0.0005891267792321742,0.999350905418396,0.0,0.0,0.0,0.16532738506793976,5.985492706298828,0.6234056353569031,-29.924585342407227,0
1710.3310000000001,0.0001289956271648407,-7.091985025908798e-05,-4.565639028442092e-05,0.0,0.0,0.0,0.0,-0.0007213604403659701,0.00032816483872011304,0.0016691295895725489,0.9992027282714844,0.0,0.0,0.0,0.16598281264305115,5.981616020202637,0.6151199340820312,-30.0432186126709,0
1720.2399999999998,0.00014433027536142617,-4.9065056373365223e-05,-2.5585959519958124e-05,0.0,0.0,0.0,0.0,-0.005415187682956457,-0.0031754332594573498,0.003569867229089141,0.9995340704917908,0.0,0.0,0.0,0.18876439332962036,5.995092391967773,0.6278581023216248,-34.16673278808594,0
1730.1059999999998,0.00014670105883851647,-8.200603042496368e-05,-3.0482824513455853e-05,0.0,0.0,0.0,0.0,-0.0033789179287850857,-0.002263876609504223,-0.00127917411737144,0.9990290999412537,0.0,0.0,0.0,0.18885581195354462,5.996817111968994,0.6376416087150574,-34.18327713012695,0
1740.0120000000006,0.00014653441030532122,-9.214512829203159e-05,-1.1207173884031363e-05,0.0,0.0,0.0,0.0,0.00036132149398326874,0.003338381415233016,0.0003140634798910469,0.9981308579444885,0.0,0.0,0.0,0.17299529910087585,6.0076189041137695,0.6396175622940063,-31.312490463256836,0
1749.8760000000002,6.26978580839932e-05,-8.237523434218019e-05,-7.518200436607003e-05,0.0,0.0,0.0,0.0,-0.0027666939422488213,0.001129920594394207,0.0013751094229519367,0.9988768100738525,0.0,0.0,0.0,0.17338374257087708,6.001450538635254,0.6313481330871582,-31.382801055908203,0
1759.7700000000004,6.1022205045446754e-05,-0.00011501075641717762,-8.401958621107042e-05,0.0,0.0,0.0,0.0,0.0007737103733234107,-0.0004796911671292037,0.0008213324472308159,1.0006929636001587,0.0,0.0,0.0,0.17333081364631653,6.004223346710205,0.6282395720481873,-31.37322425842285,0
1769.652,5.8963909395970404e-05,-0.00014956769882701337,-9.290085290558636e-05,0.0,0.0,0.0,0.0,0.001120201894082129,0.0016554590547457337,0.0007555452175438404,0.9991931319236755,0.0,0.0,0.0,0.1722271591424942,5.9975104331970215,0.6233742833137512,-31.173460006713867,0
1779.558000000001,5.573024463956244e-05,-0.00018612021813169122,-0.00010172693873755634,0.0,0.0,0.0,0.0,-0.0025294942315667868,-0.003826555795967579,-0.00013552441669162363,0.9996324181556702,0.0,0.0,0.0,0.17204762995243073,5.989083766937256,0.6217843890190125,-31.140962600708008,0
1789.4220000000005,-1.1105796147603542e-05,-0.00018200998601969332,-0.00010660051339073107,0.0,0.0,0.0,0.0,-0.0014021152164787054,-0.005003804806619883,0.0028143685776740313,1.0000718832015991,0.0,0.0,0.0,0.15818072855472565,5.998813152313232,0.6127267479896545,-28.63102912902832,0
1799.3160000000007,-1.878557122836355e-05,-0.00021902148728258908,-0.00011510671902215108,0.0,0.0,0.0,0.0,0.00016102012887131423,0.0023937569931149483,-0.0027161992620676756,0.9993419647216797,0.0,0.0,0.0,0.15895485877990723,5.995543956756592,0.6149898171424866,-28.771146774291992,0
1809.1949999999997,-2.5117809855146334e-05,-0.00025723749422468245,-0.0001234905794262886,0.0,0.0,0.0,0.0,-0.0007175394566729665,0.0008167399792000651,-0.0002547343319747597,1.0006998777389526,0.0,0.0,0.0,0.15779618918895721,5.985595703125,0.6063053607940674,-28.561424255371094,0
1819.0879999999997,-3.0505649192491546e-05,-0.0002969838387798518,-0.00013140190276317298,0.0,0.0,0.0,0.0,-0.0010752803646028042,-0.0019708513282239437,0.0028714619111269712,1.0014801025390625,0.0,0.0,0.0,0.1572253406047821,5.979315280914307,0.6037936210632324,-28.458097457885742,0
1828.9680000000008,-8.398155841859989e-06,-0.00027983536710962653,-5.4804862884338945e-05,0.0,0.0,0.0,0.0,-0.0005485342117026448,-0.0018469791393727064,-0.0023830956779420376,1.0016425848007202,0.0,0.0,0.0,0.15804316103458405,5.975741386413574,0.6044653654098511,-28.60612678527832,0
1838.8729999999996,-1.2617916581803001e-05,-0.0003182690415997058,-5.455684004118666e-05,0.0,0.0,0.0,0.0,0.0016954031307250261,0.0028576257172971964,0.00024224075605161488,0.9998506307601929,0.0,0.0,0.0,0.15746726095676422,5.973177433013916,0.6058143377304077,-28.50188636779785,0
1848.7399999999998,-1.5971098036970943e-05,-0.0003586670209188014,-5.3667718020733446e-05,0.0,0.0,0.0,0.0,-9.747526200953871e-05,0.0010213631903752685,-0.0027079458814114332,0.9993214011192322,0.0,0.0,0.0,0.15740549564361572,5.965572834014893,0.5972645282745361,-28.490707397460938,0
1858.634,-1.8755636119749397e-05,-0.00040074519347399473,-5.297720053931698e-05,0.0,0.0,0.0,0.0,-0.0004979117657057941,-0.0019504583906382322,-0.0009490104857832193,0.9989500045776367,0.0,0.0,0.0,0.15667924284934998,5.95838737487793,0.5890864729881287,-28.3592529296875,0
1868.5120000000006,-2.0825533283641562e-05,-0.00044434709707275033,-5.287405656417832e-05,0.0,0.0,0.0,0.0,-0.0007435900624841452,0.0028468831442296505,-0.002248284872621298,0.9993124008178711,0.0,0.0,0.0,0.15659594535827637,5.951197624206543,0.5890546441078186,-28.344175338745117,0
1878.4210000000003,-2.245474206574727e-05,-0.000490208447445184,-5.339635390555486e-05,0.0,0.0,0.0,0.0,-0.0006796874804422259,0.0011370517313480377,-0.00019208488811273128,1.0009905099868774,0.0,0.0,0.0,0.1554119735956192,5.94589900970459,0.5853790640830994,-28.1298770904541,0
1888.2849999999999,-3.308336454210803e-05,-0.000432355998782441,6.905291229486465e-05,0.0,0.0,0.0,0.0,-0.0025976647157222033,0.001956387422978878,-0.0005418310174718499,1.0022255182266235,0.0,0.0,0.0,0.15496882796287537,5.94138240814209,0.5810030102729797,-28.049667358398438,0
1898.1890000000003,-3.730128446477465e-05,-0.0004778803850058466,7.779354928061366e-05,0.0,0.0,0.0,0.0,-0.0010022899368777871,-0.0027481061406433582,0.0024401985574513674,0.9983484148979187,0.0,0.0,0.0,0.15499649941921234,5.937143325805664,0.578562319278717,-28.054676055908203,0
1908.059000000001,-4.2238589230692014e-05,-0.0005247428198345006,8.687126683071256e-05,0.0,0.0,0.0,0.0,0.00013325223699212074,-0.0008632919634692371,0.0002714485162869096,1.000396490097046,0.0,0.0,0.0,0.15557655692100525,5.933356761932373,0.5859522819519043,-28.15966796875,0
1917.960000000001,-4.7598572564311326e-05,-0.0005722228670492768,9.573448915034533e-05,0.0,0.0,0.0,0.0,0.0003074067644774914,-0.00340313115157187,-0.0035705044865608215,1.0020453929901123,0.0,0.0,0.0,0.15558233857154846,5.9264960289001465,0.5928652882575989,-28.16071319580078,0
1927.8430000000008,-6.406307511497289e-05,-0.0005151387886144221,0.00021937343990430236,0.0,0.0,0.0,0.0,0.00048825028352439404,-0.004474916495382786,0.0017445300472900271,1.0018459558486938,0.0,0.0,0.0,0.1536807268857956,5.916823863983154,0.5932230949401855,-27.816518783569336,0
1937.7250000000004,-7.02015749993734e-05,-0.0005573636153712869,0.0002384976833127439,0.0,0.0,0.0,0.0,-0.0007190825999714434,-0.0018297197530046105,-0.0009204259258694947,0.9994821548461914,0.0,0.0,0.0,0.15379099547863007,5.909880638122559,0.603439211845398,-27.836475372314453,0
1947.6110000000008,-7.535010081483051e-05,-0.000600080587901175,0.0002582930028438568,0.0,0.0,0.0,0.0,0.0007767188362777233,-0.007521975319832563,0.0028805481269955635,0.9993212819099426,0.0,0.0,0.0,0.15333548188209534,5.9083476066589355,0.612637996673584,-27.7540283203125,0
1957.5020000000004,-7.990188896656036e-05,-0.0006445185281336308,0.0002776170149445534,0.0,0.0,0.0,0.0,-0.0033560183364897966,0.00405792985111475,0.002712000161409378,0.999863862991333,0.0,0.0,0.0,0.15331709384918213,5.900708198547363,0.6336110830307007,-27.750699996948242,0
1967.384,-8.437844371655956e-05,-0.0006916139973327518,0.0002969355555251241,0.0,0.0,0.0,0.0,0.0014773234724998474,-0.00290531269274652,0.0018872978398576379,1.0027121305465698,0.0,0.0,0.0,0.1535291075706482,5.897241592407227,0.6288548707962036,-27.789073944091797,0
1977.277,-8.963771688286215e-05,-0.000739661802072078,0.00031770748319104314,0.0,0.0,0.0,0.0,-0.002263565082103014,0.0019046614179387689,0.0001318853028351441,1.001041293144226,0.0,0.0,0.0,0.15266908705234528,5.886641979217529,0.6368641257286072,-27.633407592773438,0
1987.1550000000007,-9.519761806586757e-05,-0.0007883819635026157,0.00034039688762277365,0.0,0.0,0.0,0.0,0.0008685283246450126,0.0019336604746058583,0.003226706525310874,1.000597357749939,0.0,0.0,0.0,0.15181133151054382,5.880695819854736,0.6323419809341431,-27.478153228759766,0
1997.049000000001,0.00011805923713836819,-0.00024736238992772996,-5.635529669234529e-05,0.0,0.0,0.0,0.0,0.0011328371474519372,-0.0006313062040135264,0.0023403761442750692,1.0012532472610474,0.0,0.0,0.0,0.12937447428703308,5.976583957672119,0.6675603985786438,-23.417037963867188,0
2006.9210000000003,0.00012159338075434789,-0.0002737725153565407,-4.264378367224708e-05,0.0,0.0,0.0,0.0,0.0009582420461811125,-0.00013356325507629663,-0.0023829780984669924,1.0009064674377441,0.0,0.0,0.0,0.12993012368679047,5.971479892730713,0.6661980748176575,-23.517610549926758,0
2016.821,0.00014574422675650567,-0.00019545858958736062,1.4725888831890188e-05,0.0,0.0,0.0,0.0,-0.001588058890774846,0.0024791834875941277,0.000969836488366127,1.0016762018203735,0.0,0.0,0.0,0.1106903925538063,5.9912872314453125,0.6638302206993103,-20.035181045532227,0
2026.701000000001,0.00015118889859877527,-0.0002187774662161246,3.384902811376378e-05,0.0,0.0,0.0,0.0,0.0017690559616312385,0.0006013975944370031,0.0024812526535242796,1.0000426769256592,0.0,0.0,0.0,0.11028103530406952,5.985566139221191,0.6537827253341675,-19.96108627319336,0
2036.5969999999998,0.00015526659262832254,-0.00024338941148016602,5.378870264394209e-05,0.0,0.0,0.0,0.0,0.001297693932428956,-0.0019301894353702664,0.0009722539689391851,0.9985898733139038,0.0,0.0,0.0,0.11018527299165726,5.9777913093566895,0.650654673576355,-19.943754196166992,0
2046.4709999999995,0.00015819737745914608,-0.00026833050651475787,7.33160923118703e-05,0.0,0.0,0.0,0.0,0.0018689788412302732,-0.003199648344889283,-0.0024921305011957884,0.9996907711029053,0.0,0.0,0.0,0.11097896099090576,5.969123363494873,0.6552883982658386,-20.087413787841797,0
2056.3780000000006,0.00016053966828621924,-0.0002943935396615416,9.218404738930985e-05,0.0,0.0,0.0,0.0,0.0028786505572497845,0.0015977999428287148,-0.0012693624012172222,0.9992272257804871,0.0,0.0,0.0,0.1105395257472992,5.956447124481201,0.6609511375427246,-20.00787353515625,0
2066.241,0.00016302650328725576,-0.00032158661633729935,0.00011059728421969339,0.0,0.0,0.0,0.0,-0.002540512941777706,-0.0058242157101631165,0.0016451249830424786,0.9993271827697754,0.0,0.0,0.0,0.11000975966453552,5.947953224182129,0.6520205736160278,-19.911985397338867,0
2076.135,0.00016605005657766014,-0.00034790916834026575,0.00012842571595683694,0.0,0.0,0.0,0.0,-0.001805387670174241,-0.0020981058478355408,-7.005374209256843e-05,1.0000823736190796,0.0,0.0,0.0,0.11056046932935715,5.945809841156006,0.6573345065116882,-20.01166534423828,0
2086.0210000000006,0.00016880070324987173,-0.0003732243785634637,0.00014614465180784464,0.0,0.0,0.0,0.0,0.0013395256828516722,-0.00825977697968483,-0.001929375110194087,1.0018763542175293,0.0,0.0,0.0,0.11055371910333633,5.944387435913086,0.654190719127655,-20.01044273376465,0
2095.9130000000005,0.00017045781714841723,-0.0003995128790847957,0.0001649460755288601,0.0,0.0,0.0,0.0,-0.0027994830161333084,0.0063866120763123035,0.001093140454031527,1.0016177892684937,0.0,0.0,0.0,0.11092617362737656,5.939779281616211,0.6680091619491577,-20.077857971191406,0
2105.794,0.0001707097835605964,-0.0004284275055397302,0.00018547463696449995,0.0,0.0,0.0,0.0,0.002977452939376235,-0.0015630103880539536,-0.0011922906851395965,0.9999555349349976,0.0,0.0,0.0,0.11161134392023087,5.939295768737793,0.6531363725662231,-20.201875686645508,0
