timestamp,stateEstimate.x,stateEstimate.y,stateEstimate.z,controller.cmd_thrust,controller.cmd_roll,controller.cmd_pitch,controller.cmd_yaw,controller.r_roll,controller.r_pitch,controller.r_yaw,controller.accelz,controller.actuatorThrust,controller.roll,controller.pitch,controller.yaw,controller.rollRate,controller.pitchRate,controller.yawRate,controller.ctr_yaw
0.0,-0.00022202281979843974,-0.00012583585339598358,-4.357969737611711e-05,0.0,0.0,0.0,0.0,-0.002917524427175522,-0.0003229349968023598,0.0022839964367449284,0.9983653426170349,0.0,0.0,0.0,0.37760278582572937,1.5826048851013184,6.954469680786133,-68.34685516357422,0
9.920000000000073,-0.0002042088017333299,-6.557437882293016e-05,-0.00012699776561930776,0.0,0.0,0.0,0.0,0.0020500209648162127,-0.0035664273891597986,-0.002908997004851699,0.9985828995704651,0.0,0.0,0.0,0.3778044879436493,1.5849095582962036,6.9522576332092285,-68.38336944580078,0
19.82300000000032,-9.31344402488321e-05,-0.0001497168850619346,-6.609271804336458e-05,0.0,0.0,0.0,0.0,-0.0008651536190882325,0.0008594052051194012,-0.0008355446043424308,1.0020909309387207,0.0,0.0,0.0,0.37681642174720764,1.584553599357605,6.955860614776611,-68.20452117919922,0
29.743000000000393,-6.878095882711932e-05,-6.604393274756148e-05,-0.0001244244776898995,0.0,0.0,0.0,0.0,0.0017370741115882993,0.0008658559527248144,0.0014834408648312092,1.0026664733886719,0.0,0.0,0.0,0.3698672950267792,1.6007729768753052,6.960465908050537,-66.94671630859375,0
39.650000000001455,-0.00011737458407878876,-8.482426346745342e-05,-0.00012628310651052743,0.0,0.0,0.0,0.0,0.0014861597446724772,0.002332333941012621,0.0010217579547315836,1.0019711256027222,0.0,0.0,0.0,0.3702312111854553,1.593600869178772,6.951507568359375,-67.01258850097656,0
49.57300000000032,-0.00012602338392753154,-3.804707739618607e-05,-0.00016540562501177192,0.0,0.0,0.0,0.0,0.0006271774182096124,0.003007319988682866,0.0012233456363901496,1.0011584758758545,0.0,0.0,0.0,0.3627694547176361,1.6078016757965088,6.959468841552734,-65.66199493408203,0
59.47700000000077,-0.0001791064569260925,-5.688553210347891e-05,-0.00016540952492505312,0.0,0.0,0.0,0.0,-0.002159093739464879,0.001509417430497706,-0.005848970264196396,1.001698613166809,0.0,0.0,0.0,0.3622695505619049,1.6047929525375366,6.937626361846924,-65.5715103149414,0
69.39900000000125,-0.00020559964468702674,-3.9736936741974205e-05,-0.00020363561634439975,0.0,0.0,0.0,0.0,0.0034198167268186808,-8.287570381071419e-05,0.0004930513678118587,1.0004745721817017,0.0,0.0,0.0,0.3626219928264618,1.5981899499893188,6.938248634338379,-65.63530731201172,0
79.29700000000048,-0.0002612922398839146,-5.47240961168427e-05,-0.00020362898067105561,0.0,0.0,0.0,0.0,-0.0006622009677812457,0.00017360277706757188,0.004640537314116955,0.9989922046661377,0.0,0.0,0.0,0.3616875112056732,1.5929096937179565,6.920393943786621,-65.4661636352539,0
89.22100000000137,-0.00027105139452032745,3.054459739360027e-05,-0.0002638742153067142,0.0,0.0,0.0,0.0,-0.003119103377684951,0.0005454806378111243,0.0031519513577222824,1.0009464025497437,0.0,0.0,0.0,0.3613402843475342,1.5894970893859863,6.918282985687256,-65.40331268310547,0
99.1180000000004,-0.0003275397466495633,1.9199167581973597e-05,-0.0002682646445464343,0.0,0.0,0.0,0.0,-0.00013644211867358536,0.0009961017640307546,-0.00043783316505141556,1.0011520385742188,0.0,0.0,0.0,0.3612532615661621,1.5921168327331543,6.915223121643066,-65.38755798339844,0
109.04800000000068,-0.00036157271824777126,1.5428970073116943e-05,-0.0003173421137034893,0.0,0.0,0.0,0.0,-0.0002563978487160057,-0.006561380345374346,-0.0022907427046447992,1.0013765096664429,0.0,0.0,0.0,0.36093100905418396,1.6000691652297974,6.911031246185303,-65.32923889160156,0
118.94100000000071,-0.0001841484772739932,-1.9655790310935117e-05,-0.00012183485523564741,0.0,0.0,0.0,0.0,-0.00041578165837563574,0.0011831095907837152,-0.0009506088681519032,1.0016907453536987,0.0,0.0,0.0,0.36279451847076416,1.5890374183654785,6.965431213378906,-65.6665267944336,0
128.86000000000058,-0.0001979422668227926,-8.665750101499725e-06,-0.0001577268703840673,0.0,0.0,0.0,0.0,0.001187813119031489,-0.001317288144491613,0.0009731760364957154,1.0007469654083252,0.0,0.0,0.0,0.3620661795139313,1.5909546613693237,6.9690165519714355,-65.53469848632812,0
138.76500000000124,-0.00018752938194666058,5.455455539049581e-05,-7.962670497363433e-05,0.0,0.0,0.0,0.0,-0.0004449388652574271,0.0019118506461381912,-0.0011216296115890145,1.0023128986358643,0.0,0.0,0.0,0.36156371235847473,1.5875442028045654,6.9461846351623535,-65.4437484741211,0
148.6840000000011,-0.0002465770812705159,3.14712019644503e-06,-7.257321703946218e-05,0.0,0.0,0.0,0.0,-0.003380635753273964,-0.002528601326048374,0.001054620137438178,1.001379370689392,0.0,0.0,0.0,0.3605806231498718,1.5794934034347534,6.934065818786621,-65.26581573486328,0
158.59600000000137,-0.0001949335273820907,-1.8253385860589333e-05,-1.3442026101984084e-05,0.0,0.0,0.0,0.0,0.0022776720579713583,8.030352182686329e-05,-0.0028298913966864347,1.0014104843139648,0.0,0.0,0.0,0.3599683940410614,1.5840030908584595,6.917111396789551,-65.15499114990234,0
168.50700000000143,-0.00022921073832549155,-2.841589775925968e-05,-1.9119735952699557e-05,0.0,0.0,0.0,0.0,0.0002455576614011079,0.006683808285742998,0.002415863098576665,0.9994468688964844,0.0,0.0,0.0,0.3587992489337921,1.5835729837417603,6.916700839996338,-64.94337463378906,0
178.41100000000006,-0.0002855517668649554,-4.634664219338447e-05,-9.584255167283118e-08,0.0,0.0,0.0,0.0,0.0013493419392034411,0.0014207189669832587,0.0001298330316785723,0.9991981983184814,0.0,0.0,0.0,0.35664990544319153,1.580224633216858,6.897469997406006,-64.55433654785156,0
188.34400000000096,-0.00034418635186739266,-6.547014345414937e-05,1.9083174265688285e-05,0.0,0.0,0.0,0.0,0.0006534624844789505,-0.008928273804485798,-0.0019175139022991061,1.000712513923645,0.0,0.0,0.0,0.3571445643901825,1.5743149518966675,6.879281044006348,-64.64388275146484,0
198.2400000000016,-0.0002574354293756187,-0.00013052683789283037,8.797517511993647e-05,0.0,0.0,0.0,0.0,-0.002325223758816719,-0.0006693723844364285,0.001736762118525803,1.0001986026763916,0.0,0.0,0.0,0.35622668266296387,1.5723865032196045,6.890085220336914,-64.47773742675781,0
208.15400000000045,-0.00026097745285369456,-8.944919682107866e-05,5.1955110393464565e-05,0.0,0.0,0.0,0.0,-0.0012788510648533702,0.0013377285795286298,-0.0035401396453380585,0.9988971948623657,0.0,0.0,0.0,0.3567667305469513,1.5719274282455444,6.881923198699951,-64.57549285888672,0
218.07000000000153,-0.00032186676980927587,-0.0001091032536351122,7.159344386309385e-05,0.0,0.0,0.0,0.0,0.0002168703795177862,-0.004541441798210144,0.007137981243431568,0.9981681704521179,0.0,0.0,0.0,0.3567656874656677,1.5758389234542847,6.8806633949279785,-64.57530212402344,0
227.97200000000157,-0.00032021093647927046,-5.058766691945493e-05,1.1124732736789156e-05,0.0,0.0,0.0,0.0,0.0031007647048681974,-0.001904503209516406,-0.0031376658007502556,1.000299334526062,0.0,0.0,0.0,0.3558969497680664,1.580936074256897,6.8667497634887695,-64.41805267333984,0
346.9230000000007,-0.00032035887124948204,-1.761472231009975e-05,-6.847899203421548e-05,0.0,0.0,0.0,0.0,9.06320710782893e-05,0.0003727698640432209,-0.003929912578314543,1.0005981922149658,0.0,0.0,0.0,0.34606361389160156,1.5320481061935425,6.804952144622803,-62.63820266723633,0
356.83800000000156,-0.0001758228027028963,-7.616417133249342e-05,-1.8436739992466755e-06,0.0,0.0,0.0,0.0,0.0011931806802749634,0.0027121352031826973,-0.004021627362817526,0.998690664768219,0.0,0.0,0.0,0.34606361389160156,1.5320481061935425,6.804952144622803,-62.63820266723633,0
366.741,-0.0002460125833749771,-0.00010159974044654518,-2.4220662453444675e-07,0.0,0.0,0.0,0.0,0.0014642678434029222,0.003966534044593573,-0.0008703377097845078,0.9990338087081909,0.0,0.0,0.0,0.3441537022590637,1.5306187868118286,6.7952375411987305,-62.292503356933594,0
376.6650000000009,-0.00023572616919409484,-8.320908091263846e-05,4.9270252930000424e-05,0.0,0.0,0.0,0.0,-0.002086970256641507,0.0012086539063602686,-0.005101470276713371,1.0008102655410767,0.0,0.0,0.0,0.3424884080886841,1.5252094268798828,6.781213283538818,-61.9910888671875,0
386.5720000000001,-0.000213231222005561,-2.5667162844911218e-05,-5.8109417295781896e-05,0.0,0.0,0.0,0.0,-0.005485361907631159,0.0007620701217092574,-0.00456704618409276,0.998951256275177,0.0,0.0,0.0,0.34159713983535767,1.5270090103149414,6.770336151123047,-61.82976531982422,0
396.4810000000016,-0.00024802764528431,-3.3003372664097697e-05,-4.4046752009307966e-05,0.0,0.0,0.0,0.0,0.001655974192544818,-0.001612939522601664,-0.002307384740561247,0.9983959197998047,0.0,0.0,0.0,0.34047940373420715,1.5233359336853027,6.761953830718994,-61.6274528503418,0
406.38800000000083,-0.000317909027216956,-5.7350222050445154e-05,-4.693070877692662e-05,0.0,0.0,0.0,0.0,0.0003704636765178293,0.0023035702761262655,0.0029922083485871553,0.9981575608253479,0.0,0.0,0.0,0.34003058075904846,1.5260616540908813,6.751049041748047,-61.54621505737305,0
416.3030000000017,-0.00024090043734759092,-9.879755089059472e-05,-1.0300234862370417e-05,0.0,0.0,0.0,0.0,-0.0009416757966391742,0.0026988573372364044,0.0007402999326586723,0.9992340803146362,0.0,0.0,0.0,0.33910825848579407,1.5282433032989502,6.738090515136719,-61.379268646240234,0
426.21000000000095,-0.00024667789693921804,-4.0512233681511134e-05,-9.128540114033967e-05,0.0,0.0,0.0,0.0,-0.00039554137038066983,-0.006911360193043947,0.002199888229370117,0.9993207454681396,0.0,0.0,0.0,0.34022256731987,1.5303999185562134,6.724527359008789,-61.580963134765625,0
436.1290000000008,-0.0003214888274669647,-6.314677011687309e-05,-9.972958650905639e-05,0.0,0.0,0.0,0.0,-0.0003339630493428558,-0.0040465835481882095,-0.002223714254796505,1.0005730390548706,0.0,0.0,0.0,0.339888334274292,1.5248934030532837,6.718761920928955,-61.52046203613281,0
446.02900000000045,-0.0003758342354558408,-3.758725506486371e-05,-0.00013039792247582227,0.0,0.0,0.0,0.0,0.0006163750658743083,0.00038815432344563305,-0.0016637272201478481,1.0013514757156372,0.0,0.0,0.0,0.3459940254688263,1.5393158197402954,6.726789951324463,-62.6256103515625,0
455.9470000000001,-0.00045824836706742644,-5.992828664602712e-05,-0.0001396646403009072,0.0,0.0,0.0,0.0,0.002174507360905409,-0.001933727995492518,0.0034013441763818264,1.0017715692520142,0.0,0.0,0.0,0.3442158102989197,1.5400049686431885,6.719297409057617,-62.30374526977539,0
465.8680000000004,-0.0005113049410283566,-3.005967300850898e-05,-0.0001916776382131502,0.0,0.0,0.0,0.0,0.002212488790974021,0.003557991934940219,0.0010641248663887382,1.0000457763671875,0.0,0.0,0.0,0.3524622321128845,1.5571104288101196,6.727081775665283,-63.79636764526367,0
475.78100000000086,-0.0002797285560518503,-0.0001472222211305052,-2.0218678400851786e-05,0.0,0.0,0.0,0.0,0.0010337305720895529,0.002539456356316805,-0.0013522010995075107,0.9983341693878174,0.0,0.0,0.0,0.35107147693634033,1.532502293586731,6.786252021789551,-63.544639587402344,0
485.6770000000015,-0.00030628591775894165,-0.00010361293971072882,-4.9861551815411076e-05,0.0,0.0,0.0,0.0,-0.0009764810092747211,0.0014780706260353327,0.0017602917505428195,0.9992603659629822,0.0,0.0,0.0,0.3590546250343323,1.5386112928390503,6.787025451660156,-64.9896011352539,0
495.59500000000116,-0.0003784169093705714,-0.00012655976752284914,-4.940933649777435e-05,0.0,0.0,0.0,0.0,0.002454382600262761,0.004732485394924879,0.00014613327221013606,1.0022103786468506,0.0,0.0,0.0,0.35930442810058594,1.5339244604110718,6.7714667320251465,-65.03482055664062,0
505.5030000000006,-0.00040536309825256467,-7.336081762332469e-05,-9.395393135491759e-05,0.0,0.0,0.0,0.0,0.001673711696639657,0.002161370823159814,-0.0009849133202806115,0.9998264312744141,0.0,0.0,0.0,0.35960736870765686,1.5304954051971436,6.760073184967041,-65.08964538574219,0
515.4210000000003,-0.00022312800865620375,-0.0001386313233524561,5.2431616495596245e-05,0.0,0.0,0.0,0.0,0.0013447561068460345,-0.0013502046931535006,0.0005100838607177138,1.0002849102020264,0.0,0.0,0.0,0.3570372462272644,1.5146255493164062,6.794382572174072,-64.62445068359375,0
525.3330000000005,-0.00025600966182537377,-0.000139628624310717,2.2561283913091756e-05,0.0,0.0,0.0,0.0,0.001466402318328619,0.002515434753149748,-0.0027568598743528128,0.9992817044258118,0.0,0.0,0.0,0.364039808511734,1.5251492261886597,6.7933735847473145,-65.89192962646484,0
535.2420000000002,-0.0003242514212615788,-0.0001626892772037536,2.978130396513734e-05,0.0,0.0,0.0,0.0,-0.003933224361389875,0.0013407296501100063,0.0022543719969689846,1.0015606880187988,0.0,0.0,0.0,0.3634765148162842,1.5209217071533203,6.784648895263672,-65.78997039794922,0
545.148000000001,-0.0003467657952569425,-0.00010228844621451572,-4.839783741772408e-06,0.0,0.0,0.0,0.0,0.0019443690543994308,0.0029517679940909147,-0.002433647634461522,1.0015509128570557,0.0,0.0,0.0,0.37021535634994507,1.5340877771377563,6.792882442474365,-67.00971221923828,0
555.0640000000003,-0.00019390454690437764,-0.00020952602790202945,9.466929623158649e-05,0.0,0.0,0.0,0.0,-0.0002625541528686881,-0.0014672585530206561,-0.0013400267343968153,1.0008599758148193,0.0,0.0,0.0,0.3666505515575409,1.5207771062850952,6.827329158782959,-66.3644790649414,0
564.9740000000002,-0.00015920012083370239,-0.0001142826586146839,1.9823799448204227e-05,0.0,0.0,0.0,0.0,0.0025549866259098053,-0.0002935764205176383,-0.00041774401324801147,0.9999335408210754,0.0,0.0,0.0,0.3662646412849426,1.5223177671432495,6.824658393859863,-66.29462432861328,0
574.8990000000013,-0.00022379442816600204,-0.00013236716040410101,2.7633404897642322e-05,0.0,0.0,0.0,0.0,-0.0032932735048234463,-0.0006750246975570917,0.0011744705261662602,1.0001455545425415,0.0,0.0,0.0,0.3655323088169098,1.514595627784729,6.814028739929199,-66.16207885742188,0
584.7910000000011,-0.00029191048815846443,-0.00015105701459106058,3.591850691009313e-05,0.0,0.0,0.0,0.0,0.005514550022780895,0.0053703757002949715,-0.002713790163397789,0.9991466999053955,0.0,0.0,0.0,0.3646726608276367,1.5142173767089844,6.806233882904053,-66.00647735595703,0
594.7110000000011,-0.0002813469327520579,-0.00012005586904706433,0.00011517931125126779,0.0,0.0,0.0,0.0,-8.531360072083771e-05,-0.0007046066457405686,-7.058340088406112e-06,0.9976222515106201,0.0,0.0,0.0,0.36470186710357666,1.513157844543457,6.795808792114258,-66.01176452636719,0
604.6140000000014,-0.0002170938823837787,3.963734798162477e-06,-2.7082895030616783e-05,0.0,0.0,0.0,0.0,-0.00022776165860705078,0.0012323122937232256,-0.0008211602689698339,1.0003327131271362,0.0,0.0,0.0,0.3580321669578552,1.541276216506958,6.818037986755371,-64.80453491210938,0
614.5380000000005,-0.0002845650597009808,-8.726441592443734e-06,-2.6592437279759906e-05,0.0,0.0,0.0,0.0,-0.0012115511344745755,0.0004911812138743699,-0.0013145783450454473,1.0013233423233032,0.0,0.0,0.0,0.357573926448822,1.5374062061309814,6.808464527130127,-64.72159576416016,0
624.4380000000001,-0.0002841715468093753,5.368026904761791e-05,-0.00011350402928655967,0.0,0.0,0.0,0.0,0.0014251202810555696,0.005008105654269457,0.0014784827362746,0.998112142086029,0.0,0.0,0.0,0.3482217788696289,1.5581848621368408,6.82505464553833,-63.02883529663086,0
634.3520000000008,-0.00035151041811332107,4.5696855522692204e-05,-0.00011844248365378007,0.0,0.0,0.0,0.0,-0.00046530182589776814,-0.0010454918956384063,0.0019091565627604723,0.9991216659545898,0.0,0.0,0.0,0.34864893555641174,1.553711175918579,6.816491603851318,-63.10615158081055,0
644.2610000000004,-0.00043563987128436565,7.746990013401955e-05,-0.00022531139256898314,0.0,0.0,0.0,0.0,0.0008119229460135102,0.0006688392022624612,-9.505416528554633e-05,0.9995050430297852,0.0,0.0,0.0,0.34268268942832947,1.5606324672698975,6.813562870025635,-62.026248931884766,0
654.1810000000005,-0.00012083922047168016,-8.133288793032989e-05,-7.950405415613204e-05,0.0,0.0,0.0,0.0,-0.0009440157446078956,0.0035915423650294542,-0.0034902070183306932,1.00105619430542,0.0,0.0,0.0,0.3431607782840729,1.5301334857940674,6.8882622718811035,-62.11278533935547,0
664.0860000000011,-0.00022209409507922828,-6.56608390272595e-05,-7.964892574818805e-05,0.0,0.0,0.0,0.0,0.00012547828373499215,0.0021766196005046368,-0.0031865709461271763,0.9996954202651978,0.0,0.0,0.0,0.34147095680236816,1.51897132396698,6.872137546539307,-61.806922912597656,0
673.9970000000012,-9.28413137444295e-05,-0.00013215464423410594,-4.8324720410164446e-05,0.0,0.0,0.0,0.0,-0.0005494667566381395,0.004552852362394333,-0.0035822936333715916,1.0013669729232788,0.0,0.0,0.0,0.34147095680236816,1.51897132396698,6.872137546539307,-61.806922912597656,0
683.9080000000013,-0.00016802256868686527,-0.00012172702554380521,-8.60921063576825e-05,0.0,0.0,0.0,0.0,-0.00023683736799284816,0.001045329961925745,-0.0008757468312978745,1.0018738508224487,0.0,0.0,0.0,0.33956751227378845,1.5249440670013428,6.837884902954102,-61.46239471435547,0
693.8220000000001,-0.00016802256868686527,-0.00012172702554380521,-8.60921063576825e-05,0.0,0.0,0.0,0.0,-0.002618805505335331,0.002919866470620036,0.001498152269050479,0.9991187453269958,0.0,0.0,0.0,0.33956751227378845,1.5249440670013428,6.837884902954102,-61.46239471435547,0
703.7310000000016,-0.00021966799977235496,-0.0001021631178446114,-9.081658936338499e-05,0.0,0.0,0.0,0.0,0.00040121213532984257,-0.0005408009164966643,-0.0023550312034785748,0.9995889663696289,0.0,0.0,0.0,0.34874168038368225,1.5361307859420776,6.831991672515869,-63.12294006347656,0
713.6460000000006,-0.0002817502827383578,-0.0001165779831353575,-9.008806227939203e-05,0.0,0.0,0.0,0.0,0.002161631593480706,0.000403242971515283,0.00020951349870301783,1.0003453493118286,0.0,0.0,0.0,0.3478812575340271,1.5342355966567993,6.81986141204834,-62.967201232910156,0
723.5570000000007,-0.0002913412172347307,-2.725323793129064e-05,-0.0001568058505654335,0.0,0.0,0.0,0.0,0.0005730337579734623,-0.0005149063654243946,-0.0011219546431675553,1.0005558729171753,0.0,0.0,0.0,0.3479623794555664,1.5323039293289185,6.804460525512695,-62.98188018798828,0
733.4720000000016,-0.0001754994154907763,-7.934936002129689e-05,-5.1496645028237253e-05,0.0,0.0,0.0,0.0,-0.0007300477591343224,0.005981183610856533,-0.0020542615093290806,1.00104820728302,0.0,0.0,0.0,0.3444924056529999,1.5266187191009521,6.8345046043396,-62.353816986083984,0
743.3900000000012,-0.00019679467368405312,-3.569477121345699e-05,-7.635728252353147e-05,0.0,0.0,0.0,0.0,-0.0027496761176735163,0.000614246993791312,0.0016578452195972204,1.0006290674209595,0.0,0.0,0.0,0.3439280688762665,1.5240840911865234,6.8269829750061035,-62.25165939331055,0
753.2980000000007,-0.0002578207931946963,-4.7339501179521903e-05,-7.288967753993347e-05,0.0,0.0,0.0,0.0,0.0015338300727307796,0.0029077206272631884,-0.0031580307986587286,0.9992009997367859,0.0,0.0,0.0,0.34380361437797546,1.5179485082626343,6.820443630218506,-62.22913360595703,0
763.2070000000003,-0.00031070891418494284,-6.795324588892981e-05,-8.93685282790102e-05,0.0,0.0,0.0,0.0,0.0034292310010641813,-0.0010215811198577285,0.00071849359665066,0.998986005783081,0.0,0.0,0.0,0.35550886392593384,1.5203717947006226,6.811598300933838,-64.34780883789062,0
773.116,-0.0003766669542528689,-7.961886876728386e-05,-8.729255205253139e-05,0.0,0.0,0.0,0.0,-0.0007364399498328567,0.005043995566666126,-0.0004014501755591482,0.9998771548271179,0.0,0.0,0.0,0.3541916608810425,1.5115045309066772,6.805181980133057,-64.1093978881836,0
783.0250000000015,-0.0004105941334273666,-2.6140927730011754e-05,-0.00012762613187078387,0.0,0.0,0.0,0.0,-0.0017258269945159554,-0.001310204155743122,-0.0003790608898270875,1.0010206699371338,0.0,0.0,0.0,0.353759765625,1.5037535429000854,6.784834384918213,-64.03121948242188,0
792.9380000000001,-0.0004776049463544041,-3.5714270779863e-05,-0.00012921345478389412,0.0,0.0,0.0,0.0,0.0002780185313895345,-0.0014082178240641952,-0.0009971216786652803,0.9995070695877075,0.0,0.0,0.0,0.3543696999549866,1.5022835731506348,6.775068283081055,-64.1416244506836,0
802.848,-0.0005474996287375689,-4.710617213277146e-05,-0.00013007137749809772,0.0,0.0,0.0,0.0,0.0018934643594548106,-1.4270148312789388e-05,-0.0023673272226005793,0.9984405636787415,0.0,0.0,0.0,0.3543672561645508,1.5008935928344727,6.777437686920166,-64.14118194580078,0
812.7620000000006,-0.0006205525132827461,-6.0397829656722024e-05,-0.00013099524949211627,0.0,0.0,0.0,0.0,-0.0023994718212634325,0.0033066177275031805,0.004261495545506477,0.9998988509178162,0.0,0.0,0.0,0.3527202904224396,1.4978212118148804,6.769135475158691,-63.843074798583984,0
822.6750000000011,-0.0006093260599300265,2.2086034732637927e-05,-0.000275373924523592,0.0,0.0,0.0,0.0,0.00040769914630800486,0.001914357766509056,0.0014697614824399352,1.0013655424118042,0.0,0.0,0.0,0.3559376895427704,1.530745506286621,6.796152591705322,-64.42543029785156,0
832.5840000000007,-0.0006808253237977624,1.4334802472149022e-05,-0.00028810641379095614,0.0,0.0,0.0,0.0,0.0005293143331073225,-0.000749955594073981,0.003327800426632166,1.000835657119751,0.0,0.0,0.0,0.3566926121711731,1.530799150466919,6.78842830657959,-64.56207275390625,0
842.4990000000016,-0.0006807452882640064,0.00011811691365437582,-0.0004049751441925764,0.0,0.0,0.0,0.0,-0.002965145744383335,0.004522648639976978,-0.007072955835610628,0.9996776580810547,0.0,0.0,0.0,0.3501838445663452,1.5773231983184814,6.813015460968018,-63.383975982666016,0
852.4070000000011,-0.0007492610020563006,0.00011820669169537723,-0.0004233100626152009,0.0,0.0,0.0,0.0,-0.00041156954830512404,0.005870661698281765,0.0009645797545090318,1.0018876791000366,0.0,0.0,0.0,0.35044223070144653,1.5768659114837646,6.808774471282959,-63.43074035644531,0
862.3230000000003,-0.0007886509993113577,0.00014450366143137217,-0.0004936099285259843,0.0,0.0,0.0,0.0,-0.0024233288131654263,0.0014390019932761788,0.0006025505717843771,1.000025987625122,0.0,0.0,0.0,0.3501143157482147,1.5752967596054077,6.793164253234863,-63.37138748168945,0
872.2310000000016,-0.00025003706105053425,-2.8820326406275854e-05,-3.2400788768427446e-05,0.0,0.0,0.0,0.0,0.002392515540122986,0.003180298488587141,0.00036486468161456287,0.9995267391204834,0.0,0.0,0.0,0.34955814480781555,1.5393331050872803,6.926445007324219,-63.27071762084961,0
882.1490000000013,-0.00022459997853729874,3.013391869899351e-05,-0.00010903702059295028,0.0,0.0,0.0,0.0,-0.0011339557822793722,0.0049486360512673855,0.0025870190002024174,1.0013751983642578,0.0,0.0,0.0,0.34843841195106506,1.540083408355713,6.910792827606201,-63.06804275512695,0
892.0610000000015,-0.0001732090167934075,1.7717236914904788e-05,-6.019424108671956e-05,0.0,0.0,0.0,0.0,-0.0016593089094385505,0.000592938857153058,0.0013570288429036736,1.0006548166275024,0.0,0.0,0.0,0.3480836749076843,1.5360630750656128,6.898160934448242,-63.00383377075195,0
901.973,-0.00020975565712433308,-1.586588768986985e-05,-7.053439185256138e-05,0.0,0.0,0.0,0.0,-0.00030088593484833837,0.0019227389711886644,0.0010396272409707308,0.9999759197235107,0.0,0.0,0.0,0.353605717420578,1.5351041555404663,6.8822855949401855,-64.00334167480469,0
911.8770000000004,-0.0002493362408131361,-2.6733705453807488e-05,-6.645810935879126e-05,0.0,0.0,0.0,0.0,-0.0002979608834721148,-0.0005361721268855035,0.00010584280971670523,0.999414324760437,0.0,0.0,0.0,0.3531602621078491,1.537628412246704,6.872406959533691,-63.92271041870117,0
921.7990000000009,-0.00028353245579637587,-6.522744661197066e-05,-8.323304791701958e-05,0.0,0.0,0.0,0.0,-0.0005601338925771415,0.0013500635977834463,-6.0516264056786895e-05,0.9982966780662537,0.0,0.0,0.0,0.3644263446331024,1.5366073846817017,6.868175983428955,-65.96189880371094,0
931.7020000000011,-0.0003267604624852538,-7.74700747570023e-05,-8.049711323110387e-05,0.0,0.0,0.0,0.0,-0.0006424056482501328,6.021798981237225e-06,0.0007096923654899001,0.9983394145965576,0.0,0.0,0.0,0.3625410795211792,1.5411111116409302,6.848461627960205,-65.62065887451172,0
941.6200000000008,-0.0003535331634338945,-6.020991349942051e-05,-0.00010510459105717018,0.0,0.0,0.0,0.0,0.0014787083491683006,0.001053163199685514,0.0020071666222065687,0.9974905252456665,0.0,0.0,0.0,0.36911487579345703,1.5495097637176514,6.867098331451416,-66.81053161621094,0
951.5240000000013,-0.00040032179094851017,-7.227637979667634e-05,-0.00010670175106497481,0.0,0.0,0.0,0.0,0.0001324941695202142,-0.000993208377622068,0.0019756383262574673,0.9986891746520996,0.0,0.0,0.0,0.3689267933368683,1.5563414096832275,6.85580587387085,-66.7764892578125,0
961.4510000000009,-0.0004172605404164642,-1.842172787291929e-05,-0.00016449851682409644,0.0,0.0,0.0,0.0,-0.0011919128010049462,0.0009654543828219175,-0.0013958308845758438,1.0010135173797607,0.0,0.0,0.0,0.3582683205604553,1.5745738744735718,6.860438346862793,-64.84728240966797,0
971.348,-0.0004657731333281845,-2.8891638066852465e-05,-0.00017317954916507006,0.0,0.0,0.0,0.0,0.0002183395845349878,0.0020092178601771593,0.0019033541902899742,1.0011943578720093,0.0,0.0,0.0,0.35714399814605713,1.5749703645706177,6.8523335456848145,-64.6437759399414,0
981.2670000000016,-0.0005478233215399086,1.626945595489815e-05,-0.00023381288337986916,0.0,0.0,0.0,0.0,0.0008332651341333985,-0.0020600457210093737,-0.000399250682676211,1.0002344846725464,0.0,0.0,0.0,0.3553938865661621,1.5743346214294434,6.8323259353637695,-64.32699584960938,0
991.1760000000013,-0.0005478233215399086,1.626945595489815e-05,-0.00023381288337986916,0.0,0.0,0.0,0.0,0.0007063774392008781,-0.0013364482438191772,0.0001773630065144971,0.9993288516998291,0.0,0.0,0.0,0.3553938865661621,1.5743346214294434,6.8323259353637695,-64.32699584960938,0
1001.0950000000012,-0.0006487938808277249,3.060185554204509e-05,-0.00028632301837205887,0.0,0.0,0.0,0.0,0.0011950914049521089,0.0009542179759591818,0.001060476410202682,0.9990897178649902,0.0,0.0,0.0,0.36040735244750977,1.5747106075286865,6.830616474151611,-65.23444366455078,0
1011.0110000000004,-0.0006487938808277249,3.060185554204509e-05,-0.00028632301837205887,0.0,0.0,0.0,0.0,0.002371113980188966,-0.0012539291055873036,0.0024527409113943577,1.0010309219360352,0.0,0.0,0.0,0.36040735244750977,1.5747106075286865,6.830616474151611,-65.23444366455078,0
1020.9200000000001,-0.0007181285764090717,2.1252028091112152e-05,-0.00029985076980665326,0.0,0.0,0.0,0.0,9.584443614585325e-05,0.001556354807689786,0.003602016717195511,1.0006943941116333,0.0,0.0,0.0,0.3601139485836029,1.573960304260254,6.820595741271973,-65.18133544921875,0
1030.8340000000007,-0.000784378033131361,1.2903166862088256e-05,-0.00031125100213102996,0.0,0.0,0.0,0.0,0.001518288510851562,0.00318291992880404,1.0866364391404204e-05,0.9989622235298157,0.0,0.0,0.0,0.36136600375175476,1.5735784769058228,6.807774066925049,-65.40796661376953,0
1040.7440000000006,-0.0007708327029831707,0.00015345486463047564,-0.0004686349129769951,0.0,0.0,0.0,0.0,0.0013733552768826485,-0.0013972627930343151,-0.0027026303578168154,0.9993539452552795,0.0,0.0,0.0,0.3599778115749359,1.6262435913085938,6.846170902252197,-65.15670013427734,0
1050.6540000000005,-0.00016250222688540816,-0.00011104858276667073,-1.0750060937425587e-05,0.0,0.0,0.0,0.0,0.004170573782175779,0.0038171298801898956,-0.002245563780888915,0.9998778700828552,0.0,0.0,0.0,0.35893017053604126,1.5661441087722778,6.994938373565674,-64.96707153320312,0
1060.563,-0.00011536360398167744,-4.7916287257976364e-06,-9.032136586029083e-05,0.0,0.0,0.0,0.0,-0.0041367057710886,-0.0004336502752266824,-0.0022578868083655834,0.9998049736022949,0.0,0.0,0.0,0.35796603560447693,1.5571939945220947,6.983699798583984,-64.79256439208984,0
1070.4790000000012,-0.00014326049131341279,-1.1480784451123327e-05,-9.541258623357862e-05,0.0,0.0,0.0,0.0,-0.0015860905405133963,0.002297826576977968,-0.0008537101675756276,0.9988116025924683,0.0,0.0,0.0,0.3590277135372162,1.5526385307312012,6.990027904510498,-64.98473358154297,0
1080.389000000001,-0.00015348555461969227,-2.4568709704908542e-05,-0.00014543331053573638,0.0,0.0,0.0,0.0,0.0013940961798653007,-0.0064002349972724915,0.00041577720548957586,0.9994251728057861,0.0,0.0,0.0,0.35846662521362305,1.5591716766357422,6.980761528015137,-64.88317108154297,0
1090.309000000001,-0.00018475274555385113,-3.278136864537373e-05,-0.00015425555466208607,0.0,0.0,0.0,0.0,-0.000135867390781641,0.0014299192698672414,0.0003172752622049302,1.0000240802764893,0.0,0.0,0.0,0.3582763969898224,1.5635992288589478,6.975029468536377,-64.84873962402344,0
1100.2150000000001,-0.00022390889353118837,-2.197824687755201e-05,-0.00013769087672699243,0.0,0.0,0.0,0.0,-3.374195875949226e-05,0.0054305545054376125,-0.004759176168590784,1.0011228322982788,0.0,0.0,0.0,0.35852086544036865,1.56383216381073,6.976505279541016,-64.89299011230469,0
1110.1200000000008,-0.00026081770192831755,-2.937670797109604e-05,-0.00014468019071500748,0.0,0.0,0.0,0.0,-0.0026848919223994017,0.003429484786465764,-0.005052563268691301,1.0006641149520874,0.0,0.0,0.0,0.35657504200935364,1.556725025177002,6.972091197967529,-64.54078674316406,0
1120.0420000000013,-0.00028976210160180926,9.373543434776366e-06,-0.00016244102152995765,0.0,0.0,0.0,0.0,0.0008144250023178756,-0.0022615534253418446,0.0006260044756345451,1.000239610671997,0.0,0.0,0.0,0.35512208938598633,1.5552529096603394,6.953561782836914,-64.27780151367188,0
1129.9470000000001,-0.0003324082645121962,2.9741386242676526e-06,-0.00016844490892253816,0.0,0.0,0.0,0.0,0.00038053313619457185,0.0012824439909309149,-0.0015189932892099023,1.0012661218643188,0.0,0.0,0.0,0.3545639216899872,1.5529906749725342,6.949575424194336,-64.17677307128906,0
1139.8680000000004,-0.00036910720518790185,2.632786527101416e-05,-0.0001898461050586775,0.0,0.0,0.0,0.0,-0.0010151969036087394,-0.002945554908365011,-0.00037103198701515794,1.0003750324249268,0.0,0.0,0.0,0.35411837697029114,1.5478765964508057,6.936477184295654,-64.09613037109375,0
1149.7690000000002,-0.00041768269147723913,2.008167575695552e-05,-0.00019548788259271532,0.0,0.0,0.0,0.0,0.0004281634755898267,-0.00037861245800741017,-0.0021556627470999956,0.9989181160926819,0.0,0.0,0.0,0.35515639185905457,1.5466008186340332,6.916758060455322,-64.28401184082031,0
1159.6850000000013,-0.0004581082612276077,5.295527444104664e-05,-0.0002238288871012628,0.0,0.0,0.0,0.0,-0.0005981156718917191,0.0033605829812586308,-0.0007412367849610746,0.9999234676361084,0.0,0.0,0.0,0.3548940420150757,1.5460830926895142,6.920820236206055,-64.23652648925781,0
1169.607,-0.0005132616497576237,4.524284304352477e-05,-0.00023078219965100288,0.0,0.0,0.0,0.0,-0.004852829035371542,-0.0009847679175436497,0.003384145675227046,0.999334454536438,0.0,0.0,0.0,0.3536396622657776,1.5406110286712646,6.9122772216796875,-64.00948333740234,0
1179.509,-0.000535388186108321,8.100436389213428e-05,-0.0003243096580263227,0.0,0.0,0.0,0.0,-0.0009880687575787306,-0.00037722065462730825,-0.003481825115159154,1.001542329788208,0.0,0.0,0.0,0.35183387994766235,1.5453321933746338,6.903337001800537,-63.68263244628906,0
1189.4140000000007,-0.0005929029430262744,7.268968329299241e-05,-0.00033782084938138723,0.0,0.0,0.0,0.0,-0.0013525524409487844,0.003028605366125703,-0.0022985157556831837,1.000565528869629,0.0,0.0,0.0,0.3522800803184509,1.5558876991271973,6.897123336791992,-63.763397216796875,0
1199.3330000000005,-0.000638489902485162,0.00010517328337300569,-0.0003763587155845016,0.0,0.0,0.0,0.0,0.0008739192853681743,0.006508116610348225,0.001353182946331799,0.9990209341049194,0.0,0.0,0.0,0.3509417474269867,1.5573182106018066,6.8842997550964355,-63.521156311035156,0
1209.2520000000004,-0.0006990115507505834,9.723581752041355e-05,-0.0003901273012161255,0.0,0.0,0.0,0.0,-0.005888097453862429,0.0012445220490917563,0.0001136338833021,0.9976667165756226,0.0,0.0,0.0,0.3502117395401001,1.555193543434143,6.869365692138672,-63.38902282714844,0
1219.1560000000009,-0.0007495915633626282,0.0001159195599029772,-0.00042987370397895575,0.0,0.0,0.0,0.0,-0.0010408998932689428,0.00044901081128045917,-0.0010050067212432623,0.999477744102478,0.0,0.0,0.0,0.35059595108032227,1.5586721897125244,6.849180221557617,-63.45856857299805,0
1229.0740000000005,-0.0008157082484103739,0.00010809321247506887,-0.0004473465960472822,0.0,0.0,0.0,0.0,-0.0017936548683792353,0.000689432374201715,0.001819063676521182,1.0009777545928955,0.0,0.0,0.0,0.3494313955307007,1.555504560470581,6.839941501617432,-63.24777603149414,0
1238.9720000000016,-0.0008854069164954126,9.89861655398272e-05,-0.00046517522423528135,0.0,0.0,0.0,0.0,0.0005166326882317662,-0.007109116762876511,0.006448973435908556,0.9977805614471436,0.0,0.0,0.0,0.3491957485675812,1.5589044094085693,6.836799144744873,-63.20512390136719,0
1248.8990000000013,-0.0009576332522556186,8.815102773951367e-05,-0.00048268490354530513,0.0,0.0,0.0,0.0,0.003082453738898039,0.0025921552442014217,0.003911228850483894,0.9993677735328674,0.0,0.0,0.0,0.34818676114082336,1.553801417350769,6.83092737197876,-63.02249526977539,0
1258.7900000000009,-0.0009915272239595652,0.00012082113971700892,-0.0005706521333195269,0.0,0.0,0.0,0.0,-0.0005503059946931899,0.00214590085670352,0.003258306300267577,1.0002532005310059,0.0,0.0,0.0,0.34821662306785583,1.5536127090454102,6.8291401863098145,-63.02790451049805,0
1268.7070000000003,-0.00021698499040212482,-0.00019033998250961304,7.775646372465417e-05,0.0,0.0,0.0,0.0,-0.003763772314414382,0.0031704686116427183,-0.002171772764995694,1.0005160570144653,0.0,0.0,0.0,0.3499734699726105,1.4990639686584473,6.977337837219238,-63.34589385986328,0
1278.6110000000008,-0.0001920757204061374,-0.00012434841482900083,8.380644430872053e-06,0.0,0.0,0.0,0.0,-0.0005895882495678961,0.000296877435175702,-0.0028500519692897797,0.9982960224151611,0.0,0.0,0.0,0.3485630452632904,1.4953820705413818,6.961487770080566,-63.09060287475586,0
1288.5310000000009,-0.0002327165857423097,-0.00014449353329837322,6.166948878671974e-06,0.0,0.0,0.0,0.0,0.004566231742501259,-0.0022684051655232906,0.0002703210629988462,0.9961388111114502,0.0,0.0,0.0,0.3466355800628662,1.4980549812316895,6.953835487365723,-62.741729736328125,0
1298.4430000000011,-0.00024111094535328448,-7.737651321804151e-05,-2.743372169788927e-05,0.0,0.0,0.0,0.0,-0.002930557355284691,-0.0017573521472513676,0.0026254786644130945,0.9991208910942078,0.0,0.0,0.0,0.34614577889442444,1.4939018487930298,6.943856239318848,-62.65306854248047,0
1308.3580000000002,-0.0002862194087356329,-9.41147591220215e-05,-3.5980643588118255e-05,0.0,0.0,0.0,0.0,0.0008215978741645813,0.002274911617860198,0.00033029323094524443,1.0020619630813599,0.0,0.0,0.0,0.34529998898506165,1.5032299757003784,6.9390106201171875,-62.4999885559082,0
1318.264000000001,-0.00031640942324884236,-4.8873866035137326e-05,-6.1252765590325e-05,0.0,0.0,0.0,0.0,0.0035411608405411243,-0.0009388753096573055,-0.002047889865934849,0.9998742341995239,0.0,0.0,0.0,0.34400951862335205,1.5055242776870728,6.9263224601745605,-62.26640319824219,0
1328.179,-0.00036598756560124457,-6.421176658477634e-05,-7.03953264746815e-05,0.0,0.0,0.0,0.0,0.0010609771125018597,-0.001643671770580113,0.0009720221860334277,1.0021432638168335,0.0,0.0,0.0,0.34369850158691406,1.5014030933380127,6.922136306762695,-62.210113525390625,0
1338.085000000001,-0.0003967478114645928,-2.389784094702918e-05,-0.00012042132584610954,0.0,0.0,0.0,0.0,0.0029859181959182024,0.001632148283533752,0.0009893669048324227,0.9998575448989868,0.0,0.0,0.0,0.343548983335495,1.4995485544204712,6.913488864898682,-62.18305206298828,0
1348.0070000000014,-0.00045065052108839154,-3.955712236347608e-05,-0.00013010675320401788,0.0,0.0,0.0,0.0,-0.0033323841635137796,-0.004432108253240585,-0.0006378272082656622,0.9993513226509094,0.0,0.0,0.0,0.34370696544647217,1.4936039447784424,6.906619071960449,-62.211639404296875,0
1357.9050000000007,-0.0004870561242569238,3.3632832128205337e-06,-0.00017572447541169822,0.0,0.0,0.0,0.0,-0.0019161511445418,0.00042914930963888764,-0.0016557433409616351,1.0025540590286255,0.0,0.0,0.0,0.3432794511318207,1.4935178756713867,6.901872634887695,-62.1342658996582,0
1367.8250000000007,-0.000541341898497194,-1.3527383089240175e-05,-0.00018671309226192534,0.0,0.0,0.0,0.0,-0.0006782054551877081,-0.0009404463926330209,0.003363578114658594,1.0014598369598389,0.0,0.0,0.0,0.3418969213962555,1.502463459968567,6.901144027709961,-61.8840217590332,0
1377.7340000000004,-0.0005624315235763788,4.6274355554487556e-05,-0.0002958435215987265,0.0,0.0,0.0,0.0,0.0006342489505186677,0.0013779258588328958,0.001367250457406044,0.9992679953575134,0.0,0.0,0.0,0.3425147831439972,1.4958757162094116,6.888593673706055,-61.99585723876953,0
1387.6620000000003,-0.0006181173957884312,3.000748620252125e-05,-0.00031048397067934275,0.0,0.0,0.0,0.0,-0.0025597820058465004,0.0019861944019794464,-0.0023674096446484327,1.0000169277191162,0.0,0.0,0.0,0.34232133626937866,1.4916435480117798,6.877283096313477,-61.96084213256836,0
1397.554,-0.0006383172003552318,7.28724553482607e-05,-0.0004148501611780375,0.0,0.0,0.0,0.0,-0.0003007282211910933,-1.2527956641861238e-05,0.0014284314820542932,0.999663233757019,0.0,0.0,0.0,0.33353057503700256,1.5115059614181519,6.8855061531066895,-60.369693756103516,0
1407.473,-0.0006914978730492294,5.9534620959311724e-05,-0.0004363639163784683,0.0,0.0,0.0,0.0,0.0017314509022980928,0.002761514624580741,-0.0035252633970230818,1.0017720460891724,0.0,0.0,0.0,0.3328595459461212,1.5098932981491089,6.875734806060791,-60.24824142456055,0
1417.375,-0.0007463535293936729,4.726354018202983e-05,-0.0004572378529701382,0.0,0.0,0.0,0.0,-0.002014581812545657,-0.0029599808622151613,0.002258550375699997,1.0006769895553589,0.0,0.0,0.0,0.3315063416957855,1.5109297037124634,6.860983848571777,-60.00330352783203,0
1427.304,-0.0008040167740546167,3.552224370650947e-05,-0.00047687534242868423,0.0,0.0,0.0,0.0,-0.001304198638536036,0.001976162660866976,-0.0016627473523840308,1.0003526210784912,0.0,0.0,0.0,0.331692636013031,1.502352237701416,6.856284141540527,-60.037025451660156,0
1437.1990000000005,-0.0008326919050887227,9.969627717509866e-05,-0.0005545339081436396,0.0,0.0,0.0,0.0,-0.0011847575660794973,-0.0012491783127188683,-0.0016768424538895488,1.0020039081573486,0.0,0.0,0.0,0.3226853311061859,1.5305395126342773,6.8629469871521,-58.40668487548828,0
1447.1180000000004,-0.0008942010463215411,9.156885789707303e-05,-0.0005761510692536831,0.0,0.0,0.0,0.0,8.307125244755298e-05,0.0023895602207630873,0.0025255242362618446,0.9996942281723022,0.0,0.0,0.0,0.3215324580669403,1.5326542854309082,6.854375839233398,-58.19801712036133,0
1457.023000000001,-0.0009584936778992414,8.236767462221906e-05,-0.0005964563461020589,0.0,0.0,0.0,0.0,-0.0031802912708371878,-0.0015260468935593963,-0.004310848657041788,0.9981489777565002,0.0,0.0,0.0,0.32194000482559204,1.5293208360671997,6.848189353942871,-58.271785736083984,0
1466.9440000000013,-0.00020949965983163565,-0.00018286109843757004,2.8249934985069558e-05,0.0,0.0,0.0,0.0,-0.0012359849642962217,-0.0005133341182954609,-0.0018251516157761216,0.9994243383407593,0.0,0.0,0.0,0.3193494975566864,1.488215684890747,6.997533798217773,-57.80289077758789,0
1476.8520000000008,-0.00018501955491956323,-0.00011464558338047937,-3.081891918554902e-05,0.0,0.0,0.0,0.0,-0.002238626591861248,0.0005465428694151342,0.0018078283173963428,0.9982016086578369,0.0,0.0,0.0,0.3199650049209595,1.4883300065994263,6.989203929901123,-57.914302825927734,0
1486.7720000000008,-0.00021434735390357673,-0.00013489872799254954,-3.203615779057145e-05,0.0,0.0,0.0,0.0,0.00015590901602990925,-0.0035428593400865793,-0.00223151920363307,1.0020676851272583,0.0,0.0,0.0,0.3201293349266052,1.4905866384506226,6.982385158538818,-57.94404983520508,0
1496.67,-0.00015484083269257098,-7.197904778877273e-05,-2.6573588911560364e-05,0.0,0.0,0.0,0.0,0.0002785079996101558,0.00018832378555089235,-0.0019921716302633286,1.002628207206726,0.0,0.0,0.0,0.31964007019996643,1.4911117553710938,6.976837635040283,-57.85548782348633,0
1506.5900000000001,-0.0001848236715886742,-9.002642764244229e-05,-2.6510142561164685e-05,0.0,0.0,0.0,0.0,0.0012946688802912831,0.002976606832817197,-0.001922081341035664,1.0000871419906616,0.0,0.0,0.0,0.3186250329017639,1.4884403944015503,6.971376419067383,-57.67176818847656,0
1516.4920000000002,-0.00018532674585003406,-5.383558163885027e-05,-4.9970079999184236e-05,0.0,0.0,0.0,0.0,0.0007600989774800837,-0.0017669562948867679,-0.005487869959324598,1.0009571313858032,0.0,0.0,0.0,0.31747615337371826,1.4843015670776367,6.961744785308838,-57.46381378173828,0
1526.416000000001,-0.00021893605298828334,-7.041887874947861e-05,-4.8363373934989795e-05,0.0,0.0,0.0,0.0,-0.0018405746668577194,-0.0008755893213674426,-0.0018955412087962031,1.0008352994918823,0.0,0.0,0.0,0.31515637040138245,1.4803650379180908,6.953556060791016,-57.04392623901367,0
1536.3180000000011,-9.675604087533429e-05,-0.00014814325550105423,-4.517915840551723e-06,0.0,0.0,0.0,0.0,-0.0002855441707652062,0.001283846446312964,-0.0010368231451138854,1.0015153884887695,0.0,0.0,0.0,0.319547563791275,1.4804444313049316,6.953545570373535,-57.8387451171875,0
1546.237000000001,-0.00013003108324483037,-0.00016748477355577052,2.016941834881436e-06,0.0,0.0,0.0,0.0,-0.0018406733870506287,8.976570097729564e-05,-0.00021655605814885348,0.9995079040527344,0.0,0.0,0.0,0.3189169466495514,1.4806950092315674,6.941681385040283,-57.72460174560547,0
1556.1400000000012,-8.430350862909108e-05,-7.485324749723077e-05,-6.296129140537232e-05,0.0,0.0,0.0,0.0,-0.001735918689519167,-0.002241347450762987,-0.0003751394397113472,0.9990488886833191,0.0,0.0,0.0,0.31207194924354553,1.495866298675537,6.944619178771973,-56.48564529418945,0
1566.0600000000013,-0.00012090586824342608,-9.241452062269673e-05,-6.042896711733192e-05,0.0,0.0,0.0,0.0,0.0018279399955645204,0.0007166877039708197,-0.0019122272497043014,0.9999932646751404,0.0,0.0,0.0,0.3118232786655426,1.499295949935913,6.9461445808410645,-56.440635681152344,0
1575.9660000000003,-0.00010978331556543708,-3.244126492063515e-05,-0.00011289000394754112,0.0,0.0,0.0,0.0,-0.0008592148660682142,-0.004515550099313259,0.0001388649397995323,0.999491274356842,0.0,0.0,0.0,0.3114122748374939,1.4937267303466797,6.94148588180542,-56.366241455078125,0
1585.884,-0.00014883410767652094,-4.877395258517936e-05,-0.00011430654558353126,0.0,0.0,0.0,0.0,-0.0013615074567496777,-0.0007663946016691625,-0.003918347880244255,0.9981896281242371,0.0,0.0,0.0,0.3109724521636963,1.4998295307159424,6.942537784576416,-56.2866325378418,0
1595.7870000000003,-0.00017277224105782807,-6.461355224018916e-05,-0.0001500004145782441,0.0,0.0,0.0,0.0,-0.0022710496559739113,0.005374473985284567,-0.0023055686615407467,0.9982160925865173,0.0,0.0,0.0,0.31080153584480286,1.5008195638656616,6.950785160064697,-56.25569534301758,0
1605.7060000000001,-0.00021481596922967583,-8.325170347234234e-05,-0.0001558012154418975,0.0,0.0,0.0,0.0,-0.0018545306520536542,0.00017055467469617724,-0.0011339876800775528,0.9974091649055481,0.0,0.0,0.0,0.309333473443985,1.502435326576233,6.939690113067627,-55.98997497558594,0
1615.6150000000016,-0.00014559031114913523,4.8264705583278555e-06,-0.00010964328976115212,0.0,0.0,0.0,0.0,-8.75457699294202e-05,0.0008066818118095398,0.0010938801569864154,0.9997414946556091,0.0,0.0,0.0,0.3094143271446228,1.5013371706008911,6.928478240966797,-56.004608154296875,0
1625.5310000000009,-0.000186077319085598,-1.0699362974264659e-05,-0.00011517904204083607,0.0,0.0,0.0,0.0,0.00045986592886038125,0.003466937690973282,0.003108101198449731,0.9992888569831848,0.0,0.0,0.0,0.3087470233440399,1.503416657447815,6.920638561248779,-55.883827209472656,0
1635.433000000001,-0.00022864025959279388,-2.7254105589236133e-05,-0.00012103484914405271,0.0,0.0,0.0,0.0,0.0023338652681559324,0.0014273665146902204,-0.0007539751823060215,1.0015342235565186,0.0,0.0,0.0,0.3088776767253876,1.5001614093780518,6.905810832977295,-55.907474517822266,0
1645.348,-0.0002740971394814551,-4.559595254249871e-05,-0.00012634441372938454,0.0,0.0,0.0,0.0,0.0010135259944945574,0.003589412197470665,-0.00045193766709417105,0.9982066750526428,0.0,0.0,0.0,0.30698999762535095,1.4919953346252441,6.899357318878174,-55.565799713134766,0
1655.2560000000012,-0.00029653217643499374,-2.937196404673159e-05,-0.00015063084720168263,0.0,0.0,0.0,0.0,-0.002186732366681099,-0.001616111840121448,-0.002838977612555027,1.0005441904067993,0.0,0.0,0.0,0.3079076409339905,1.4816534519195557,6.892721652984619,-55.731895446777344,0
1665.1760000000013,-0.0003466976049821824,-5.1073075155727565e-05,-0.00015724108379799873,0.0,0.0,0.0,0.0,-0.0007747032213956118,0.0077018155716359615,0.0021077911369502544,0.999304473400116,0.0,0.0,0.0,0.30716925859451294,1.4829164743423462,6.882690906524658,-55.59824752807617,0
1675.0830000000005,-0.00039978735730983317,-7.44069111533463e-05,-0.00016378996951971203,0.0,0.0,0.0,0.0,-0.00024585408391430974,-0.00024735089391469955,0.0014424386899918318,1.0009280443191528,0.0,0.0,0.0,0.30717381834983826,1.4840972423553467,6.871870517730713,-55.59907150268555,0
1684.9920000000002,-0.0004557458742056042,-9.956981375580654e-05,-0.00017007482529152185,0.0,0.0,0.0,0.0,-0.001724036643281579,0.002737196162343025,0.0025529374834150076,1.0008488893508911,0.0,0.0,0.0,0.3064640462398529,1.4793713092803955,6.858768463134766,-55.47060012817383,0
1694.9040000000005,-0.00046700285747647285,-1.7672682588454336e-05,-0.00022246733715292066,0.0,0.0,0.0,0.0,-0.001164266373962164,-0.0039317673072218895,0.0031125317327678204,0.9986357688903809,0.0,0.0,0.0,0.31279197335243225,1.5116503238677979,6.862376689910889,-56.615970611572266,0
1704.8320000000003,-0.0005245418287813663,-3.769732575165108e-05,-0.00023041748499963433,0.0,0.0,0.0,0.0,0.002773695159703493,-0.004828840959817171,-0.002588785719126463,0.999394953250885,0.0,0.0,0.0,0.31365132331848145,1.5192537307739258,6.86370325088501,-56.77151107788086,0
1714.732,-0.0005552343209274113,-1.0297129847458564e-05,-0.00028518144972622395,0.0,0.0,0.0,0.0,-0.005062284879386425,-0.0004903556546196342,-0.0050074029713869095,0.9994717836380005,0.0,0.0,0.0,0.3134179413318634,1.5104947090148926,6.861667156219482,-56.729270935058594,0
1724.6420000000016,-0.0006152741843834519,-2.8974995075259358e-05,-0.00029733809060417116,0.0,0.0,0.0,0.0,-0.0024828193709254265,-0.0009838328696787357,-0.0005553637747652829,0.9997124075889587,0.0,0.0,0.0,0.31256023049354553,1.514354944229126,6.863994598388672,-56.57402420043945,0
1734.554,-0.00019420846365392208,-0.0001850364205893129,4.2069830669788644e-05,0.0,0.0,0.0,0.0,-0.0010659571271389723,0.0015834919176995754,-0.0035589742474257946,1.0013656616210938,0.0,0.0,0.0,0.313856303691864,1.477488398551941,6.984666347503662,-56.808616638183594,0
1744.4700000000012,-0.0002308795228600502,-0.0002119506971212104,4.943339081364684e-05,0.0,0.0,0.0,0.0,-0.0005838643410243094,-0.0015599962789565325,0.005871328990906477,1.0010871887207031,0.0,0.0,0.0,0.31217995285987854,1.4785194396972656,6.971462249755859,-56.50519561767578,0
1754.3730000000014,-0.000232475227676332,-0.0001672578655416146,3.7886355130467564e-05,0.0,0.0,0.0,0.0,0.0007465666858479381,0.004366968292742968,-0.0013593175681307912,1.000675916671753,0.0,0.0,0.0,0.3217717707157135,1.4842942953109741,6.978667736053467,-58.2413330078125,0
1764.2870000000003,-0.0002726770762819797,-0.00019433660781942308,4.623234417522326e-05,0.0,0.0,0.0,0.0,0.002366256434470415,0.0031432686373591423,0.0025433539412915707,0.9983519315719604,0.0,0.0,0.0,0.3219861388206482,1.4812179803848267,6.967225551605225,-58.280128479003906,0
1774.1980000000003,-0.00021436957467813045,-0.00014506187289953232,7.019645272521302e-05,0.0,0.0,0.0,0.0,0.0010035877348855138,0.003987718839198351,0.002299152547493577,1.0002084970474243,0.0,0.0,0.0,0.3296302556991577,1.4900083541870117,6.960253715515137,-59.663734436035156,0
1784.1110000000008,-0.0002570745418779552,-0.00016958071500994265,7.906561222625896e-05,0.0,0.0,0.0,0.0,0.002268311334773898,0.0007810212555341423,0.0010739687131717801,1.001315712928772,0.0,0.0,0.0,0.32878828048706055,1.487321376800537,6.952001094818115,-59.511329650878906,0
1794.0200000000004,-0.00024261491489596665,-0.000107449377537705,3.73316252080258e-05,0.0,0.0,0.0,0.0,-0.0019527357071638107,-0.005067429039627314,-0.0023541757836937904,0.999808669090271,0.0,0.0,0.0,0.32960277795791626,1.484610915184021,6.941204071044922,-59.658756256103516,0
1803.942000000001,-0.0002901502884924412,-0.00013013243733439595,4.4392563722794876e-05,0.0,0.0,0.0,0.0,-0.0007259724661707878,-0.0026911490131169558,-0.0010375623824074864,0.9999241232872009,0.0,0.0,0.0,0.32800430059432983,1.4742006063461304,6.937349319458008,-59.36942672729492,0
1813.8450000000012,-0.0002899438259191811,-6.823237345088273e-05,3.8694406612194143e-07,0.0,0.0,0.0,0.0,-0.0011084966827183962,0.00494373356923461,-0.000656508665997535,1.0005767345428467,0.0,0.0,0.0,0.3287861943244934,1.4835765361785889,6.933640480041504,-59.510955810546875,0
1823.7560000000012,-0.000341118429787457,-8.944877481553704e-05,4.638024165615207e-06,0.0,0.0,0.0,0.0,-5.418141881818883e-05,-0.0024996998254209757,-0.00291705341078341,1.0002565383911133,0.0,0.0,0.0,0.3278745412826538,1.4871485233306885,6.923366546630859,-59.345943450927734,0
1833.67,-0.00033586143399588764,-3.150940392515622e-05,-8.635062840767205e-05,0.0,0.0,0.0,0.0,0.0038002661895006895,0.0038415705785155296,0.0019653888884931803,0.9999926090240479,0.0,0.0,0.0,0.32678109407424927,1.4863141775131226,6.917531490325928,-59.14802551269531,0
1843.5800000000017,-0.0003890515072271228,-5.2849252824671566e-05,-8.805174729786813e-05,0.0,0.0,0.0,0.0,0.0014580122660845518,-0.0005275944713503122,0.002407446736469865,0.9993205666542053,0.0,0.0,0.0,0.32516390085220337,1.4833922386169434,6.906888008117676,-58.85531234741211,0
1853.491,-0.00041146957664750516,2.6789923140313476e-05,-0.00013727147597819567,0.0,0.0,0.0,0.0,-0.0005114767700433731,0.002547691809013486,0.0014028088189661503,0.9984306693077087,0.0,0.0,0.0,0.32596561312675476,1.4868710041046143,6.900341033935547,-59.00042724609375,0
1863.402,-0.0004689135239459574,6.492748070741072e-06,-0.00014320676564238966,0.0,0.0,0.0,0.0,-0.0032769786193966866,-0.0005409135483205318,-0.0026033364702016115,0.9999032616615295,0.0,0.0,0.0,0.32628563046455383,1.47944974899292,6.882696628570557,-59.058349609375,0
1873.3150000000005,-0.0004963955725543201,6.901926826685667e-05,-0.00020852466695941985,0.0,0.0,0.0,0.0,-0.0003669810830615461,-0.0002854223130270839,0.0004886719980277121,1.0004305839538574,0.0,0.0,0.0,0.32626602053642273,1.4777543544769287,6.878577709197998,-59.05479431152344,0
1883.232,-0.0005580635624937713,5.040138785261661e-05,-0.0002192377287428826,0.0,0.0,0.0,0.0,0.00015205547970253974,0.005267179571092129,-0.004680225625634193,1.0009418725967407,0.0,0.0,0.0,0.3256967067718506,1.4731169939041138,6.870288848876953,-58.951751708984375,0
1893.139000000001,-0.0005884335259906948,0.0001025102028506808,-0.00029368442483246326,0.0,0.0,0.0,0.0,0.0006464676116593182,0.004504552111029625,-0.0006976693985052407,0.9991414546966553,0.0,0.0,0.0,0.3243580758571625,1.4733827114105225,6.847202777862549,-58.70945739746094,0
1903.049000000001,-0.0006533973501063883,8.596289990236983e-05,-0.00030773240723647177,0.0,0.0,0.0,0.0,-0.000554432044737041,-0.0002068529138341546,-0.00030392184271477163,0.9995903968811035,0.0,0.0,0.0,0.32314062118530273,1.471814751625061,6.831821918487549,-58.48908996582031,0
1912.9700000000012,-0.0006782077834941447,0.0001134014455601573,-0.0004121518286410719,0.0,0.0,0.0,0.0,0.0004241115238983184,0.0031951807904988527,-0.00027432144270278513,0.9993990063667297,0.0,0.0,0.0,0.3226981461048126,1.4654940366744995,6.819080352783203,-58.40900421142578,0
1922.875,-0.0007439622422680259,9.651534492149949e-05,-0.0004326839989516884,0.0,0.0,0.0,0.0,0.0014720183098688722,0.0029393997974693775,0.001901487004943192,1.0007611513137817,0.0,0.0,0.0,0.3210848569869995,1.461974024772644,6.800917625427246,-58.11699676513672,0
1932.7840000000015,-0.0008117287652567029,7.723240560153499e-05,-0.00045325158862397075,0.0,0.0,0.0,0.0,0.006774112582206726,0.000543071364518255,-0.00033887557219713926,1.000211238861084,0.0,0.0,0.0,0.3213123679161072,1.4558091163635254,6.7954511642456055,-58.15817642211914,0
1942.6990000000005,-0.000837921688798815,0.00012149546091677621,-0.000547804229427129,0.0,0.0,0.0,0.0,-0.001046196324750781,0.001990492921322584,0.00038946542190387845,0.99847412109375,0.0,0.0,0.0,0.3210005760192871,1.4476901292800903,6.787621021270752,-58.10173797607422,0
1952.6080000000002,-0.0009068382205441594,0.0001027285834425129,-0.0005731832352466881,0.0,0.0,0.0,0.0,0.0016823388868942857,-0.0011175242252647877,0.0027497534174472094,0.9986249804496765,0.0,0.0,0.0,0.32012903690338135,1.4440827369689941,6.773301601409912,-57.943992614746094,0
1962.5220000000008,-0.0009258788777515292,0.00013960199430584908,-0.0006868598284199834,0.0,0.0,0.0,0.0,0.000496053253300488,-0.0012270817533135414,-0.0006410915520973504,0.9997579455375671,0.0,0.0,0.0,0.3191327154636383,1.4396761655807495,6.761270046234131,-57.76365280151367,0
1972.4370000000017,-0.0009946960490196943,0.0001236054813489318,-0.0007206756854429841,0.0,0.0,0.0,0.0,-0.0015225822571665049,0.00043301444384269416,-0.004870869219303131,1.0008578300476074,0.0,0.0,0.0,0.3181052803993225,1.4372358322143555,6.7561869621276855,-57.57768630981445,0
1982.3430000000008,-0.0010664095170795918,0.00010592219041427597,-0.0007542103412561119,0.0,0.0,0.0,0.0,-0.0011683879420161247,0.00020820015924982727,-0.002395413350313902,0.9998671412467957,0.0,0.0,0.0,0.3158717751502991,1.4379321336746216,6.74664831161499,-57.17341995239258,0
1992.255000000001,-0.0011035306379199028,0.00018290708248969167,-0.0008178292773663998,0.0,0.0,0.0,0.0,-0.0012383710127323866,0.0022684044670313597,-0.00032656642724759877,0.9984484314918518,0.0,0.0,0.0,0.3190751373767853,1.4732544422149658,6.755279541015625,-57.75323486328125,0
2002.1670000000013,-0.0011389126302674413,0.0001883276127045974,-0.0009153959690593183,0.0,0.0,0.0,0.0,0.0015091955428943038,0.0028807243797928095,-0.0019421670585870743,0.9992386102676392,0.0,0.0,0.0,0.3181722164154053,1.4678758382797241,6.749797821044922,-57.58980941772461,0
2012.0810000000001,-0.0012131936382502317,0.0001752603566274047,-0.0009561717743054032,0.0,0.0,0.0,0.0,0.001182463951408863,-0.003152290591970086,-0.006216785404831171,0.9993305802345276,0.0,0.0,0.0,0.3169124722480774,1.4627318382263184,6.737935543060303,-57.361785888671875,0
2021.9900000000016,-0.0012423578882589936,0.00022590933076571673,-0.001054070657119155,0.0,0.0,0.0,0.0,-0.0027969982475042343,0.003362066578119993,-0.0016903685173019767,1.0003129243850708,0.0,0.0,0.0,0.31534072756767273,1.467387080192566,6.729551792144775,-57.077293395996094,0
2031.902,-0.0013202335685491562,0.0002186477358918637,-0.0011005712440237403,0.0,0.0,0.0,0.0,-0.0023915802594274282,0.000358617544407025,0.0030363902915269136,1.0019396543502808,0.0,0.0,0.0,0.31289246678352356,1.465450406074524,6.7251200675964355,-56.634159088134766,0
2041.8220000000001,-0.0013725414173677564,0.00023354095173999667,-0.001180447405204177,0.0,0.0,0.0,0.0,-0.00012688727292697877,-0.0009155378211289644,-0.0030078766867518425,1.0017828941345215,0.0,0.0,0.0,0.3124317228794098,1.4717851877212524,6.720788955688477,-56.55076599121094,0
2051.7310000000016,-0.0014538279501721263,0.0002269579708809033,-0.001227068598382175,0.0,0.0,0.0,0.0,-0.0016083468217402697,-0.001015016809105873,-0.004635676275938749,1.0004709959030151,0.0,0.0,0.0,0.3116379976272583,1.4732816219329834,6.711777210235596,-56.4070930480957,0
2061.6440000000002,-0.001523696817457676,0.00022892499691806734,-0.0012978268787264824,0.0,0.0,0.0,0.0,0.0015814002836123109,-0.003555037546902895,0.0005724395159631968,0.9991377592086792,0.0,0.0,0.0,0.3112722337245941,1.469142198562622,6.703237056732178,-56.34089279174805,0
2071.558000000001,-0.0016103241359815001,0.00022025546059012413,-0.0013436402659863234,0.0,0.0,0.0,0.0,-0.0012305285781621933,-0.0021295412443578243,0.0015266225673258305,0.9992821216583252,0.0,0.0,0.0,0.30931082367897034,1.4757508039474487,6.703227996826172,-55.985877990722656,0
2081.4750000000004,-0.001685429597273469,0.0002684247156139463,-0.0013928912812843919,0.0,0.0,0.0,0.0,0.003655279753729701,0.005766728892922401,0.001653242390602827,0.9991955757141113,0.0,0.0,0.0,0.30950525403022766,1.472072720527649,6.706864833831787,-56.02106857299805,0
2091.381000000001,-0.0017772858263924718,0.00026024290127679706,-0.0014398691710084677,0.0,0.0,0.0,0.0,0.0007155928760766983,0.0011954640503972769,0.00353844347409904,0.9970954656600952,0.0,0.0,0.0,0.3094920814037323,1.4642571210861206,6.698703289031982,-56.018680572509766,0
2101.2840000000015,-0.0018722864333540201,0.0002499720430932939,-0.0014875043416395783,0.0,0.0,0.0,0.0,-0.001166718895547092,-0.003881283337250352,0.0022800969891250134,0.9992491006851196,0.0,0.0,0.0,0.3096022605895996,1.466234564781189,6.694990158081055,-56.03861999511719,0
2111.206,-0.0019704042933881283,0.0002381129452260211,-0.0015366333536803722,0.0,0.0,0.0,0.0,-0.0009091997053474188,0.0019803913310170174,0.001976086525246501,0.9998416304588318,0.0,0.0,0.0,0.30922573804855347,1.4591022729873657,6.679692268371582,-55.97047424316406,0
2121.1100000000006,-0.00202587409876287,0.0003215119941160083,-0.001611768500879407,0.0,0.0,0.0,0.0,-0.0024418840184807777,0.00035053634201176465,-0.0022631697356700897,1.0007296800613403,0.0,0.0,0.0,0.30400824546813965,1.5041033029556274,6.694027900695801,-55.026100158691406,0
2131.0300000000007,-0.0021269661374390125,0.0003140319022350013,-0.0016645074356347322,0.0,0.0,0.0,0.0,-0.0022784597240388393,-0.000552821671590209,0.0014176307013258338,1.0008426904678345,0.0,0.0,0.0,0.3036990761756897,1.5003979206085205,6.6915669441223145,-54.97013473510742,0
2140.934000000001,-0.0021770286839455366,0.00036178092705085874,-0.0017691024113446474,0.0,0.0,0.0,0.0,0.0011242928449064493,0.004702191799879074,-0.0023467717692255974,1.0004600286483765,0.0,0.0,0.0,0.30192670226097107,1.5053465366363525,6.684075355529785,-54.64933395385742,0
2150.857,-0.002281916793435812,0.00035632928484119475,-0.00182506931014359,0.0,0.0,0.0,0.0,0.0001075391483027488,-0.0004508748825173825,-0.00442636338993907,1.0010063648223877,0.0,0.0,0.0,0.3009091913700104,1.4985445737838745,6.672143936157227,-54.46516418457031,0
2160.756000000001,-0.002319677034392953,0.0004040597996208817,-0.0019344835309311748,0.0,0.0,0.0,0.0,-0.0007726993644610047,-0.00028460443718358874,0.0017451024614274502,0.9997979402542114,0.0,0.0,0.0,0.3004020154476166,1.4954171180725098,6.657410621643066,-54.37336349487305,0
2170.6670000000013,-0.0024258201010525227,0.00040326168527826667,-0.0019940047059208155,0.0,0.0,0.0,0.0,-0.002606973983347416,-0.0032632246147841215,-0.00607394939288497,1.0002347230911255,0.0,0.0,0.0,0.2994697391986847,1.498325228691101,6.653802871704102,-54.20461654663086,0
2180.5780000000013,-0.002466993872076273,0.00047416906454600394,-0.002105207648128271,0.0,0.0,0.0,0.0,-0.004033830948174,-0.003668765304610133,0.002013381337746978,0.9984527230262756,0.0,0.0,0.0,0.30025455355644226,1.4998664855957031,6.652858257293701,-54.34667205810547,0
2190.497000000001,-0.002574888989329338,0.0004778121365234256,-0.0021696207113564014,0.0,0.0,0.0,0.0,0.001204873202368617,0.0026739733293652534,0.004283412359654903,0.9976987242698669,0.0,0.0,0.0,0.2987709641456604,1.5095722675323486,6.655399799346924,-54.0781364440918,0
2200.4080000000013,-0.002632593037560582,0.0005371732404455543,-0.0022762760054320097,0.0,0.0,0.0,0.0,-0.0007524430402554572,-0.0010250600753352046,-0.0009457100532017648,1.0006897449493408,0.0,0.0,0.0,0.2987533509731293,1.5113575458526611,6.663730144500732,-54.074947357177734,0
2210.3330000000005,-0.0027464721351861954,0.0005445012939162552,-0.002346617169678211,0.0,0.0,0.0,0.0,-0.0023652235977351665,-0.0031773929949849844,0.001298696268349886,1.0006904602050781,0.0,0.0,0.0,0.2975374758243561,1.5093587636947632,6.655087947845459,-53.85487747192383,0
2220.2250000000004,-0.0028157669585198164,0.0005795886390842497,-0.002451973967254162,0.0,0.0,0.0,0.0,-0.00028789640055038035,-0.0043119098991155624,0.000434287590906024,1.001723289489746,0.0,0.0,0.0,0.2973729372024536,1.5164456367492676,6.646823406219482,-53.82509231567383,0
