timestamp,stateEstimate.x,stateEstimate.y,stateEstimate.z,controller.cmd_thrust,controller.cmd_roll,controller.cmd_pitch,controller.cmd_yaw,controller.r_roll,controller.r_pitch,controller.r_yaw,controller.accelz,controller.actuatorThrust,controller.roll,controller.pitch,controller.yaw,controller.rollRate,controller.pitchRate,controller.yawRate,controller.ctr_yaw
0.0,-0.011459482833743095,-0.012325258925557137,0.0029580884147435427,0.0,0.0,0.0,0.0,0.0019481913186609745,-0.0005253494018688798,-0.0014047235017642379,1.0002903938293457,0.0,0.0,0.0,-12.16391658782959,3.2122690677642822,5.63444709777832,2201.693115234375,0
9.930000000000291,-0.011696351692080498,-0.01228320598602295,0.002829190343618393,0.0,0.0,0.0,0.0,0.00025778895360417664,0.0005899127572774887,0.0016475246520712972,0.9985259771347046,0.0,0.0,0.0,-12.140702247619629,3.1995460987091064,5.646326541900635,2197.4912109375,0
19.82300000000032,-0.011696351692080498,-0.01228320598602295,0.002829190343618393,0.0,0.0,0.0,0.0,0.0013584274565801024,0.0007431604899466038,0.002281087450683117,0.9979248642921448,0.0,0.0,0.0,-12.140702247619629,3.1995460987091064,5.646326541900635,2197.4912109375,0
29.75300000000061,-0.011831160634756088,-0.012260369956493378,0.0027574985288083553,0.0,0.0,0.0,0.0,-0.0015141315525397658,0.002525185700505972,0.00012472319940570742,1.001051902770996,0.0,0.0,0.0,-12.128562927246094,3.1894195079803467,5.634395599365234,2195.2939453125,0
39.64799999999923,-0.01327754370868206,-0.011886373162269592,0.0014060850953683257,0.0,0.0,0.0,0.0,0.001905372948385775,-0.00031874209525994956,0.0016905867960304022,1.0000824928283691,0.0,0.0,0.0,-12.163703918457031,3.1950716972351074,5.629363059997559,2201.654541015625,0
49.56999999999971,-0.013415645807981491,-0.011861016973853111,0.0013235503574833274,0.0,0.0,0.0,0.0,-0.001606410602107644,0.001381261390633881,0.0025815549306571484,0.9999014139175415,0.0,0.0,0.0,-12.151894569396973,3.1922130584716797,5.618013858795166,2199.51708984375,0
59.472999999999956,-0.01493015605956316,-0.011477746069431305,-5.6884724472183734e-05,0.0,0.0,0.0,0.0,8.051881741266698e-05,-0.002870739670470357,-0.0027894126251339912,1.0023510456085205,0.0,0.0,0.0,-12.184098243713379,3.1958487033843994,5.617117881774902,2205.345947265625,0
69.39199999999983,-0.015085396356880665,-0.011450410820543766,-0.00015341627295129,0.0,0.0,0.0,0.0,0.0006331845070235431,0.0025263994466513395,0.0007289086934179068,1.001299500465393,0.0,0.0,0.0,-12.17150592803955,3.193873167037964,5.603954792022705,2203.06689453125,0
79.29299999999967,-0.015243563801050186,-0.011424054391682148,-0.0002481609699316323,0.0,0.0,0.0,0.0,-0.0035649610217660666,-0.0011846559355035424,0.0038384762592613697,1.0015897750854492,0.0,0.0,0.0,-12.159168243408203,3.192215919494629,5.604601860046387,2200.833740234375,0
89.21700000000055,-0.015403867699205875,-0.011398532427847385,-0.00034079173929058015,0.0,0.0,0.0,0.0,-0.001641847426071763,-0.00014109982294030488,-0.0018470719223842025,1.0006659030914307,0.0,0.0,0.0,-12.145386695861816,3.1886699199676514,5.604182720184326,2198.3388671875,0
99.1190000000006,-0.016908621415495872,-0.011004014872014523,-0.0017327865352854133,0.0,0.0,0.0,0.0,-0.001232137088663876,-0.0008291910635307431,0.004832611419260502,0.9981679320335388,0.0,0.0,0.0,-12.178420066833496,3.2062747478485107,5.603311538696289,2204.318359375,0
109.03600000000006,-0.017081866040825844,-0.010975416749715805,-0.0018392924685031176,0.0,0.0,0.0,0.0,0.0032562417909502983,0.002417600015178323,-0.0003749817842617631,0.9974482655525208,0.0,0.0,0.0,-12.166117668151855,3.1977832317352295,5.5981550216674805,2202.091796875,0
118.94000000000051,-0.017258144915103912,-0.01094767078757286,-0.0019466336816549301,0.0,0.0,0.0,0.0,0.0005572179215960205,0.0019808264914900064,-0.0006510135717689991,1.000629186630249,0.0,0.0,0.0,-12.15320873260498,3.1942436695098877,5.592998027801514,2199.7548828125,0
128.86399999999958,-0.017437385395169258,-0.010920832864940166,-0.002055612625554204,0.0,0.0,0.0,0.0,-0.0005036476068198681,0.0019312594085931778,0.001454228418879211,1.0021628141403198,0.0,0.0,0.0,-12.141563415527344,3.1892378330230713,5.5743937492370605,2197.64697265625,0
138.76300000000083,-0.01886136829853058,-0.010542463511228561,-0.0034096823073923588,0.0,0.0,0.0,0.0,-0.002390106674283743,-0.0020178102422505617,0.003362057963386178,1.000209927558899,0.0,0.0,0.0,-12.174933433532715,3.2034904956817627,5.576749324798584,2203.687255859375,0
148.6820000000007,-0.019053492695093155,-0.010512941516935825,-0.0035328897647559643,0.0,0.0,0.0,0.0,0.0018126254435628653,0.0013783401809632778,-0.002829100238159299,0.9989553689956665,0.0,0.0,0.0,-12.1627779006958,3.1958045959472656,5.569748878479004,2201.487060546875,0
158.58799999999974,-0.020569294691085815,-0.010116690769791603,-0.004923470783978701,0.0,0.0,0.0,0.0,-0.0003146919480059296,0.0033065006136894226,0.0030650896951556206,0.9996333122253418,0.0,0.0,0.0,-12.195061683654785,3.213846206665039,5.57425594329834,2207.33056640625,0
168.50400000000081,-0.020773813128471375,-0.010084412060678005,-0.005061397794634104,0.0,0.0,0.0,0.0,-0.0006273018661886454,9.348317689727992e-06,-0.004056302830576897,0.9993566274642944,0.0,0.0,0.0,-12.182607650756836,3.211483955383301,5.556379318237305,2205.076416015625,0
178.40999999999985,-0.020981499925255775,-0.010052967816591263,-0.005199531093239784,0.0,0.0,0.0,0.0,-0.000526913907378912,-0.004739807918667793,0.005475284531712532,0.9995126724243164,0.0,0.0,0.0,-12.169845581054688,3.2008848190307617,5.552308082580566,2202.766357421875,0
188.32400000000052,-0.02119225636124611,-0.010022183880209923,-0.005337891634553671,0.0,0.0,0.0,0.0,-0.001674786675721407,-0.001252983813174069,0.003345079952850938,0.9998837113380432,0.0,0.0,0.0,-12.157036781311035,3.20528244972229,5.55541467666626,2200.44775390625,0
198.23699999999917,-0.021406155079603195,-0.009992235340178013,-0.0054764701053500175,0.0,0.0,0.0,0.0,-0.003098004264757037,0.004688461311161518,-0.005807709414511919,0.9996994733810425,0.0,0.0,0.0,-12.14436149597168,3.199651002883911,5.551517963409424,2198.153564453125,0
208.14600000000064,-0.021623369306325912,-0.00996317807585001,-0.005615439265966415,0.0,0.0,0.0,0.0,-0.0013798961881548166,0.0008309128461405635,0.0037505750078707933,1.0004147291183472,0.0,0.0,0.0,-12.131867408752441,3.200101613998413,5.546128749847412,2195.89208984375,0
218.0599999999995,-0.022922368720173836,-0.009556361474096775,-0.006929699797183275,0.0,0.0,0.0,0.0,0.0008489217725582421,0.001730667077936232,0.002142807934433222,1.0021815299987793,0.0,0.0,0.0,-12.170212745666504,3.2366604804992676,5.545520782470703,2202.832763671875,0
227.97199999999975,-0.023147711530327797,-0.00952020101249218,-0.007085063960403204,0.0,0.0,0.0,0.0,0.00360273290425539,0.003947111777961254,0.004031571093946695,1.0005524158477783,0.0,0.0,0.0,-12.157588958740234,3.233438491821289,5.5407633781433105,2200.548095703125,0
237.8809999999994,-0.02400865964591503,-0.009204148314893246,-0.007950610481202602,0.0,0.0,0.0,0.0,-0.002913723001256585,-0.0032574201468378305,0.0017188817728310823,1.000996470451355,0.0,0.0,0.0,-12.171012878417969,3.272618293762207,5.539223670959473,2202.977783203125,0
247.79299999999967,-0.02423851005733013,-0.009159420616924763,-0.008113926276564598,0.0,0.0,0.0,0.0,-0.0005407104617916048,0.001414272002875805,-0.0003275290073361248,1.0000195503234863,0.0,0.0,0.0,-12.157970428466797,3.2599270343780518,5.530186653137207,2200.616943359375,0
257.71199999999953,-0.025708358734846115,-0.008798124268651009,-0.009451135993003845,0.0,0.0,0.0,0.0,0.0017358351033180952,0.0029567014425992966,-0.0003143432841170579,0.9986969232559204,0.0,0.0,0.0,-12.18646240234375,3.2689125537872314,5.524331569671631,2205.77392578125,0
267.6260000000002,-0.025950545445084572,-0.008750572800636292,-0.009625859558582306,0.0,0.0,0.0,0.0,0.0025736112147569656,-0.0011250050738453865,-0.0003594562294892967,1.0006201267242432,0.0,0.0,0.0,-12.17397689819336,3.2604711055755615,5.51198673248291,2203.51416015625,0
277.52800000000025,-0.026714157313108444,-0.008540656417608261,-0.010370802134275436,0.0,0.0,0.0,0.0,0.0014811840374022722,0.006200152914971113,-0.0052444362081587315,1.000770092010498,0.0,0.0,0.0,-12.186044692993164,3.2687106132507324,5.512667655944824,2205.6982421875,0
287.4390000000003,-0.02696426957845688,-0.008487148210406303,-0.010554485023021698,0.0,0.0,0.0,0.0,0.0007001397898420691,-0.002529106568545103,-0.00011632062523858622,1.0011473894119263,0.0,0.0,0.0,-12.174003601074219,3.2593514919281006,5.49251651763916,2203.518798828125,0
297.35100000000057,-0.028430644422769547,-0.008119644597172737,-0.011864716187119484,0.0,0.0,0.0,0.0,-0.0012742899125441909,-0.0004380015889182687,-0.003309856401756406,0.9988011121749878,0.0,0.0,0.0,-12.208094596862793,3.2657461166381836,5.483053684234619,2209.689208984375,0
307.2620000000006,-0.028963439166545868,-0.008009310811758041,-0.012252128683030605,0.0,0.0,0.0,0.0,0.001822665217332542,-0.0010903103975579143,-0.003489820286631584,0.9996286630630493,0.0,0.0,0.0,-12.184996604919434,3.260709047317505,5.4727654457092285,2205.508544921875,0
317.1740000000009,-0.028963439166545868,-0.008009310811758041,-0.012252128683030605,0.0,0.0,0.0,0.0,0.0021368865855038166,0.003071343759074807,-0.00045737720211036503,0.9985883831977844,0.0,0.0,0.0,-12.184996604919434,3.260709047317505,5.4727654457092285,2205.508544921875,0
327.09499999999935,-0.02951199933886528,-0.007901791483163834,-0.0126421507447958,0.0,0.0,0.0,0.0,8.179245924111456e-05,-0.00242028315551579,-0.0011616263072937727,0.9990947842597961,0.0,0.0,0.0,-12.161343574523926,3.252127170562744,5.442587852478027,2201.227294921875,0
336.9969999999994,-0.02951199933886528,-0.007901791483163834,-0.0126421507447958,0.0,0.0,0.0,0.0,0.00010078083141706884,-0.0016211336478590965,-0.0050799548625946045,1.0014333724975586,0.0,0.0,0.0,-12.161343574523926,3.252127170562744,5.442587852478027,2201.227294921875,0
346.90899999999965,-0.030071191489696503,-0.007793624885380268,-0.013033000752329826,0.0,0.0,0.0,0.0,-0.0008315824088640511,-0.0008218825096264482,-0.0019821731839329004,1.0025626420974731,0.0,0.0,0.0,-12.13900089263916,3.244821310043335,5.440520763397217,2197.18310546875,0
356.8209999999999,-0.030071191489696503,-0.007793624885380268,-0.013033000752329826,0.0,0.0,0.0,0.0,-0.0026467207353562117,0.003377479501068592,0.000673519738484174,1.0004256963729858,0.0,0.0,0.0,-12.13900089263916,3.244821310043335,5.440520763397217,2197.18310546875,0
366.7399999999998,-0.03038514032959938,-0.0077333711087703705,-0.013244528323411942,0.0,0.0,0.0,0.0,0.002055696677416563,-0.0018160162726417184,-0.0018799933604896069,0.9997378587722778,0.0,0.0,0.0,-12.127509117126465,3.2355449199676514,5.431661605834961,2195.103271484375,0
376.64600000000064,-0.030674917623400688,-0.007677982561290264,-0.013435250148177147,0.0,0.0,0.0,0.0,-0.004306864459067583,0.002379440702497959,0.0030114147812128067,0.998245894908905,0.0,0.0,0.0,-12.11462116241455,3.2354586124420166,5.433528900146484,2192.7705078125,0
386.5679999999993,-0.030969176441431046,-0.007622718811035156,-0.01362613309174776,0.0,0.0,0.0,0.0,0.0042048669420182705,0.0002536974207032472,-0.0024414462968707085,1.000859022140503,0.0,0.0,0.0,-12.103479385375977,3.2290849685668945,5.433599472045898,2190.753662109375,0
396.4840000000004,-0.03126733377575874,-0.007567808032035828,-0.01381788682192564,0.0,0.0,0.0,0.0,-0.0013237262610346079,-0.004772437736392021,0.0009999851463362575,0.999062716960907,0.0,0.0,0.0,-12.091109275817871,3.2299327850341797,5.422172546386719,2188.5146484375,0
406.3899999999994,-0.03156845644116402,-0.007512818090617657,-0.01400938630104065,0.0,0.0,0.0,0.0,5.3171122999629006e-05,0.0038919218350201845,-0.0001596713118487969,0.9973635077476501,0.0,0.0,0.0,-12.078696250915527,3.230242967605591,5.412481784820557,2186.26806640625,0
416.2999999999993,-0.03187326714396477,-0.007457089610397816,-0.014201411977410316,0.0,0.0,0.0,0.0,-0.004413164686411619,-0.003985374700278044,-0.0005571113433688879,1.0005854368209839,0.0,0.0,0.0,-12.066763877868652,3.2263710498809814,5.409870624542236,2184.1083984375,0
426.21399999999994,-0.0321824811398983,-0.007401723880320787,-0.014395016245543957,0.0,0.0,0.0,0.0,0.00016108373529277742,-0.004960696212947369,-0.0009970407700166106,1.0010645389556885,0.0,0.0,0.0,-12.054241180419922,3.2223939895629883,5.403275966644287,2181.841552734375,0
436.1219999999994,-0.03242797404527664,-0.0071581569500267506,-0.015192549675703049,0.0,0.0,0.0,0.0,0.0011351705761626363,0.0005618680152110755,-0.002801012247800827,1.0014076232910156,0.0,0.0,0.0,-12.103938102722168,3.2821030616760254,5.47187614440918,2190.836669921875,0
446.03600000000006,-0.0327250100672245,-0.007094081956893206,-0.015406896360218525,0.0,0.0,0.0,0.0,0.002009296091273427,-0.0007421121117658913,0.000831932295113802,1.0025858879089355,0.0,0.0,0.0,-12.092798233032227,3.2862560749053955,5.468048572540283,2188.820556640625,0
455.9509999999991,-0.03399277850985527,-0.00676081283017993,-0.016667064279317856,0.0,0.0,0.0,0.0,0.0007384603377431631,-0.00025321164866909385,-0.0004155138158239424,1.00101637840271,0.0,0.0,0.0,-12.136306762695312,3.297194004058838,5.484733581542969,2196.695556640625,0
465.8590000000004,-0.03429834917187691,-0.0066912174224853516,-0.016891006380319595,0.0,0.0,0.0,0.0,-0.0002558814885560423,0.0015108861261978745,-0.0010325382463634014,1.0001845359802246,0.0,0.0,0.0,-12.124106407165527,3.289367914199829,5.471593379974365,2194.4873046875,0
485.6880000000001,-0.03491978347301483,-0.006550137419253588,-0.017336135730147362,0.0,0.0,0.0,0.0,-0.0004972388851456344,0.0029492350295186043,0.003058884758502245,1.0008938312530518,0.0,0.0,0.0,-12.10083293914795,3.2826061248779297,5.461118698120117,2190.274658203125,0
495.58599999999933,-0.035234007984399796,-0.006478350609540939,-0.017558017745614052,0.0,0.0,0.0,0.0,0.0035059829242527485,-0.0016425848007202148,0.0028765422757714987,1.0007001161575317,0.0,0.0,0.0,-12.087688446044922,3.2793970108032227,5.454806327819824,2187.8955078125,0
505.5040000000008,-0.03555048257112503,-0.006406581960618496,-0.0177792739123106,0.0,0.0,0.0,0.0,-0.0014390790602192283,-0.0023236048873513937,-0.003638788126409054,1.0028280019760132,0.0,0.0,0.0,-12.075789451599121,3.2710161209106445,5.449695110321045,2185.741943359375,0
515.4189999999999,-0.035870566964149475,-0.0063358452171087265,-0.017999228090047836,0.0,0.0,0.0,0.0,0.0006750086904503405,0.004125988110899925,0.0019272526260465384,1.002429485321045,0.0,0.0,0.0,-12.063241958618164,3.2657880783081055,5.447892189025879,2183.470703125,0
525.3279999999995,-0.03619509935379028,-0.006266303826123476,-0.01821662113070488,0.0,0.0,0.0,0.0,-0.001975662773475051,-0.003286742838099599,0.0020659095607697964,1.001670002937317,0.0,0.0,0.0,-12.052701950073242,3.257256507873535,5.445042133331299,2181.56298828125,0
535.2399999999998,-0.036827944219112396,-0.006027085706591606,-0.019167859107255936,0.0,0.0,0.0,0.0,-0.00022357770649250597,-0.00016752618830651045,-0.00036380370147526264,1.000920057296753,0.0,0.0,0.0,-12.098010063171387,3.2915430068969727,5.493394374847412,2189.763916015625,0
545.1530000000002,-0.037149302661418915,-0.005956669338047504,-0.019398612901568413,0.0,0.0,0.0,0.0,0.0024402900598943233,0.001163114095106721,-0.0039282310754060745,1.000881314277649,0.0,0.0,0.0,-12.08506965637207,3.288774013519287,5.485132217407227,2187.421875,0
555.0679999999993,-0.038508351892232895,-0.005632517393678427,-0.020665593445301056,0.0,0.0,0.0,0.0,-0.00022888048260938376,0.003424137830734253,-0.0007857432356104255,1.0012993812561035,0.0,0.0,0.0,-12.12454605102539,3.2901322841644287,5.491238594055176,2194.56689453125,0
564.9879999999994,-0.03884116932749748,-0.0055629657581448555,-0.020904982462525368,0.0,0.0,0.0,0.0,0.000929686357267201,-0.002524058800190687,-0.0036624895874410868,0.99988853931427,0.0,0.0,0.0,-12.112648963928223,3.2819745540618896,5.480104923248291,2192.413330078125,0
574.9030000000002,-0.04034413397312164,-0.005184668581932783,-0.022262046113610268,0.0,0.0,0.0,0.0,0.002910414943471551,0.0003388745535630733,0.0019859247840940952,1.0001436471939087,0.0,0.0,0.0,-12.151368141174316,3.2907323837280273,5.473026275634766,2199.421875,0
584.7980000000007,-0.04068849980831146,-0.005113096442073584,-0.02251046523451805,0.0,0.0,0.0,0.0,0.00014219954027794302,0.0006605118396691978,-0.00040462121251039207,0.9972162842750549,0.0,0.0,0.0,-12.139134407043457,3.2852554321289062,5.471895217895508,2197.207275390625,0
594.7099999999991,-0.042179226875305176,-0.004733364097774029,-0.023824326694011688,0.0,0.0,0.0,0.0,0.00012452053488232195,-5.70554293517489e-05,7.896532770246267e-05,0.9986603856086731,0.0,0.0,0.0,-12.178091049194336,3.2908318042755127,5.467051982879639,2204.2587890625,0
604.6219999999994,-0.04253853112459183,-0.0046597751788794994,-0.02408440224826336,0.0,0.0,0.0,0.0,-0.0004915015306323767,-0.0004407158412504941,-0.0001651902566663921,0.9995999336242676,0.0,0.0,0.0,-12.166271209716797,3.284156560897827,5.459355354309082,2202.119384765625,0
614.5329999999994,-0.043832533061504364,-0.004338007420301437,-0.02524760738015175,0.0,0.0,0.0,0.0,0.0036232592537999153,0.0003692158206831664,-0.0021254820749163628,0.997911274433136,0.0,0.0,0.0,-12.20241641998291,3.294522762298584,5.4563751220703125,2208.661865234375,0
624.4380000000001,-0.044202446937561035,-0.004259316250681877,-0.025518348440527916,0.0,0.0,0.0,0.0,-0.00020938480156473815,-0.004235763568431139,-0.0007014955626800656,0.9997297525405884,0.0,0.0,0.0,-12.190651893615723,3.285637140274048,5.448546409606934,2206.5322265625,0
634.3580000000002,-0.045796770602464676,-0.0038622315041720867,-0.026873433962464333,0.0,0.0,0.0,0.0,0.00039017407107166946,0.00521865813061595,-0.002688518026843667,1.0005626678466797,0.0,0.0,0.0,-12.220592498779297,3.2904670238494873,5.447847366333008,2211.951416015625,0
644.2739999999994,-0.046182289719581604,-0.0037802145816385746,-0.027153227478265762,0.0,0.0,0.0,0.0,0.004337118938565254,-0.0026133661158382893,-0.0013338391436263919,0.9997100830078125,0.0,0.0,0.0,-12.209237098693848,3.2910916805267334,5.430509090423584,2209.89599609375,0
654.1800000000003,-0.04734956845641136,-0.003485738066956401,-0.028210114687681198,0.0,0.0,0.0,0.0,-0.0014168362831696868,-0.0024112658575177193,-0.0017419958021491766,0.9997872710227966,0.0,0.0,0.0,-12.233786582946777,3.292788505554199,5.4323649406433105,2214.33984375,0
664.0900000000001,-0.047745801508426666,-0.0034035181161016226,-0.028498029336333275,0.0,0.0,0.0,0.0,-0.0013278945116326213,0.005963586270809174,-0.0034092392306774855,1.0007219314575195,0.0,0.0,0.0,-12.222540855407715,3.2913215160369873,5.426125526428223,2212.30419921875,0
674.0059999999994,-0.04814590886235237,-0.00332142086699605,-0.0287857074290514,0.0,0.0,0.0,0.0,0.0016376355197280645,-0.006473603192716837,0.000271816534223035,0.999871551990509,0.0,0.0,0.0,-12.211186408996582,3.2910845279693604,5.405645847320557,2210.2490234375,0
683.9200000000001,-0.04854845628142357,-0.003239023732021451,-0.029072605073451996,0.0,0.0,0.0,0.0,-0.0010585789568722248,0.001253413618542254,0.001086428645066917,1.0000900030136108,0.0,0.0,0.0,-12.199103355407715,3.282297372817993,5.407658100128174,2208.06201171875,0
693.8269999999993,-0.04895405098795891,-0.003156313207000494,-0.029359104111790657,0.0,0.0,0.0,0.0,1.1827562957478222e-05,0.0006563275819644332,0.0019384333863854408,1.0003899335861206,0.0,0.0,0.0,-12.186982154846191,3.2807581424713135,5.400169849395752,2205.867919921875,0
703.741,-0.049364034086465836,-0.0030726678669452667,-0.029645154252648354,0.0,0.0,0.0,0.0,2.2694484869134612e-06,-0.003266408573836088,0.0005660628667101264,0.9984056353569031,0.0,0.0,0.0,-12.174219131469727,3.2779104709625244,5.391917705535889,2203.55810546875,0
713.6540000000005,-0.05000597611069679,-0.002836537081748247,-0.030463093891739845,0.0,0.0,0.0,0.0,0.0008711668779142201,0.0038618880789726973,-0.0033430620096623898,0.9984480142593384,0.0,0.0,0.0,-12.20508861541748,3.3154404163360596,5.431365489959717,2209.145263671875,0
723.5670000000009,-0.050412777811288834,-0.0027458062395453453,-0.030764807015657425,0.0,0.0,0.0,0.0,-0.0009823907166719437,9.218618652084842e-05,-0.004446881823241711,0.9989368319511414,0.0,0.0,0.0,-12.192365646362305,3.3109970092773438,5.419119358062744,2206.842529296875,0
733.4760000000006,-0.05082359164953232,-0.002652976429089904,-0.0310676209628582,0.0,0.0,0.0,0.0,-0.0003529115056153387,0.0017167282057926059,0.00110916281118989,0.9999731779098511,0.0,0.0,0.0,-12.181676864624023,3.3111324310302734,5.4089837074279785,2204.907958984375,0
743.3870000000006,-0.014814340509474277,-0.011585862375795841,0.00029645886388607323,0.0,0.0,0.0,0.0,0.00155750778503716,0.0012504244223237038,-0.0004004059883300215,0.9999663233757019,0.0,0.0,0.0,-12.211910247802734,3.2802305221557617,5.682625770568848,2210.3798828125,0
753.3029999999999,-0.014914285391569138,-0.011502289213240147,5.981320282444358e-05,0.0,0.0,0.0,0.0,0.002692754613235593,-0.00046121267951093614,0.0010716611286625266,1.0000228881835938,0.0,0.0,0.0,-12.240144729614258,3.2956466674804688,5.697422981262207,2215.490478515625,0
763.2150000000001,-0.015074414201080799,-0.011471657082438469,-4.465109668672085e-05,0.0,0.0,0.0,0.0,-0.005818841513246298,-0.0012761189136654139,-0.005379184149205685,1.0015809535980225,0.0,0.0,0.0,-12.227887153625488,3.2859528064727783,5.682239055633545,2213.27197265625,0
773.1180000000004,-0.015201494097709656,-0.011427585035562515,-0.0002274401776958257,0.0,0.0,0.0,0.0,-0.000663378625176847,-0.004829965531826019,-0.0012493218528106809,1.0016107559204102,0.0,0.0,0.0,-12.25592041015625,3.296166181564331,5.69946813583374,2218.345703125,0
783.0329999999994,-0.01536265667527914,-0.01139671728014946,-0.000333556963596493,0.0,0.0,0.0,0.0,-0.00132226652931422,0.004543401300907135,-0.002751854481175542,1.001334309577942,0.0,0.0,0.0,-12.242999076843262,3.2955029010772705,5.69926118850708,2216.007080078125,0
792.9410000000007,-0.015498464927077293,-0.011356309987604618,-0.0004964234540238976,0.0,0.0,0.0,0.0,-0.0007172679761424661,0.005166532937437296,-0.0008132666698656976,1.000401258468628,0.0,0.0,0.0,-12.26744556427002,3.2986340522766113,5.7007060050964355,2220.43212890625,0
802.8549999999996,-0.015661176294088364,-0.011325365863740444,-0.0006026246701367199,0.0,0.0,0.0,0.0,-0.0030994382686913013,0.0037074664141982794,0.00325866905041039,0.9994911551475525,0.0,0.0,0.0,-12.256721496582031,3.2959508895874023,5.685580730438232,2218.49072265625,0
812.7639999999992,-0.015786370262503624,-0.011291964910924435,-0.0007873295107856393,0.0,0.0,0.0,0.0,-0.0015897275879979134,0.00016656740626785904,-0.0030254540033638477,0.9987095594406128,0.0,0.0,0.0,-12.276738166809082,3.3050379753112793,5.690860271453857,2222.114013671875,0
822.6859999999997,-0.015951987355947495,-0.011261995881795883,-0.0008976939134299755,0.0,0.0,0.0,0.0,0.003493781201541424,0.0005423871916718781,-0.00011909772001672536,0.9992581605911255,0.0,0.0,0.0,-12.264851570129395,3.3054471015930176,5.6855058670043945,2219.96240234375,0
832.5859999999993,-0.016064483672380447,-0.01120126061141491,-0.0010953012388199568,0.0,0.0,0.0,0.0,-0.0012785173021256924,0.0020293830893933773,-0.0031422232277691364,0.9996579885482788,0.0,0.0,0.0,-12.284977912902832,3.3184404373168945,5.703974723815918,2223.605712890625,0
842.5,-0.016233718022704124,-0.011171219870448112,-0.0012121731415390968,0.0,0.0,0.0,0.0,-0.0028707615565508604,-0.0025636604987084866,-0.0018960852175951004,1.0013483762741089,0.0,0.0,0.0,-12.274596214294434,3.315735340118408,5.689908981323242,2221.726318359375,0
852.4079999999994,-0.016345100477337837,-0.011116201989352703,-0.0014062123373150826,0.0,0.0,0.0,0.0,0.0019076127791777253,0.005738675128668547,0.0003131749399472028,1.0000423192977905,0.0,0.0,0.0,-12.29714298248291,3.3332560062408447,5.713050365447998,2225.8076171875,0
862.3310000000001,-0.016514673829078674,-0.01108333095908165,-0.0015264158137142658,0.0,0.0,0.0,0.0,0.003244394436478615,0.003068530699238181,-0.001373698702082038,1.0006252527236938,0.0,0.0,0.0,-12.284253120422363,3.3234195709228516,5.702359199523926,2223.474365234375,0
872.2340000000004,-0.016676906496286392,-0.011049595661461353,-0.0016719821142032743,0.0,0.0,0.0,0.0,-8.541600982425734e-05,-0.0018665826646611094,0.0030258269980549812,1.0003982782363892,0.0,0.0,0.0,-12.304363250732422,3.3174939155578613,5.688153266906738,2227.1142578125,0
882.1530000000002,-0.016849253326654434,-0.011013396084308624,-0.0017929412424564362,0.0,0.0,0.0,0.0,-0.002815303159877658,2.559004133217968e-05,-0.00117659498937428,0.9993672370910645,0.0,0.0,0.0,-12.292322158813477,3.316545248031616,5.680542945861816,2224.934814453125,0
892.0619999999999,-0.01700397953391075,-0.010962934233248234,-0.0019439654424786568,0.0,0.0,0.0,0.0,-0.0005143651505932212,0.001043918076902628,0.0015687771374359727,0.9999848008155823,0.0,0.0,0.0,-12.315712928771973,3.325829267501831,5.682674407958984,2229.16845703125,0
901.9670000000006,-0.01718057133257389,-0.010924764908850193,-0.0020664965268224478,0.0,0.0,0.0,0.0,-0.003653771709650755,0.00443445798009634,-0.0025874245911836624,1.0007163286209106,0.0,0.0,0.0,-12.302352905273438,3.317790985107422,5.67419958114624,2226.75048828125,0
911.8770000000004,-0.017360223457217216,-0.010887924581766129,-0.0021889684721827507,0.0,0.0,0.0,0.0,-0.00023564670118503273,-0.0006153811700642109,0.0007429643301293254,0.9986251592636108,0.0,0.0,0.0,-12.290867805480957,3.3199102878570557,5.672262191772461,2224.67138671875,0
921.8070000000007,-0.017542434856295586,-0.010851873084902763,-0.0023110981564968824,0.0,0.0,0.0,0.0,0.0012607160024344921,0.0009533402044326067,-0.002034498145803809,0.9969354867935181,0.0,0.0,0.0,-12.280234336853027,3.3198795318603516,5.647784233093262,2222.746826171875,0
931.7000000000007,-0.017694108188152313,-0.010801230557262897,-0.0024759555235505104,0.0,0.0,0.0,0.0,-0.0007876926101744175,0.0005863199476152658,0.0009323031990788877,0.9986655712127686,0.0,0.0,0.0,-12.295500755310059,3.3311872482299805,5.669724464416504,2225.510009765625,0
941.6270000000004,-0.017880350351333618,-0.010763760656118393,-0.00260466942563653,0.0,0.0,0.0,0.0,0.0012916086707264185,-0.0035355619620531797,0.0009345595026388764,1.0013325214385986,0.0,0.0,0.0,-12.282740592956543,3.32814884185791,5.662524700164795,2223.20068359375,0
951.5349999999999,-0.018070152029395103,-0.010726339183747768,-0.0027340417727828026,0.0,0.0,0.0,0.0,-0.0004270256031304598,0.0024625135120004416,-0.00494956923648715,1.0008076429367065,0.0,0.0,0.0,-12.269975662231445,3.319272041320801,5.662498950958252,2220.89013671875,0
961.4429999999993,-0.018263913691043854,-0.010689429007470608,-0.0028625153936445713,0.0,0.0,0.0,0.0,-0.0001613973145140335,0.0019285219023004174,-0.00037734658690169454,1.0015134811401367,0.0,0.0,0.0,-12.258744239807129,3.3154520988464355,5.655716419219971,2218.857177734375,0
971.3469999999998,-0.01837785728275776,-0.010636446997523308,-0.0030536847189068794,0.0,0.0,0.0,0.0,-0.0002506143064238131,-0.002233379054814577,3.932311665266752e-05,1.000976800918579,0.0,0.0,0.0,-12.282329559326172,3.329447031021118,5.668174743652344,2223.126220703125,0
981.2720000000008,-0.018572652712464333,-0.010596820153295994,-0.003184671513736248,0.0,0.0,0.0,0.0,0.0009512822143733501,-0.0008296529413200915,-0.00119908363558352,1.0011008977890015,0.0,0.0,0.0,-12.270307540893555,3.3244519233703613,5.6700592041015625,2220.9501953125,0
991.1700000000001,-0.018796682357788086,-0.010543141514062881,-0.0033396987710148096,0.0,0.0,0.0,0.0,0.00037295877700671554,-0.00013217920786701143,0.0017764876829460263,1.00057852268219,0.0,0.0,0.0,-12.291387557983398,3.3286542892456055,5.6573662757873535,2224.765625,0
1001.0889999999999,-0.018998542800545692,-0.010499740019440651,-0.0034696445800364017,0.0,0.0,0.0,0.0,0.002322176471352577,-1.5534878912148997e-05,0.002458046656101942,1.0000312328338623,0.0,0.0,0.0,-12.278019905090332,3.3247931003570557,5.64747428894043,2222.34619140625,0
1010.9989999999998,-0.019139818847179413,-0.010443742386996746,-0.0036524012684822083,0.0,0.0,0.0,0.0,-0.0003530578105710447,0.003391803940758109,0.0028946001548320055,0.9999401569366455,0.0,0.0,0.0,-12.299214363098145,3.3308451175689697,5.6480560302734375,2226.182373046875,0
1020.9130000000005,-0.019341744482517242,-0.010397304780781269,-0.0037856565322726965,0.0,0.0,0.0,0.0,-0.001782706007361412,-0.0016998379724100232,0.00021810461475979537,0.9999915361404419,0.0,0.0,0.0,-12.285014152526855,3.3277812004089355,5.638672828674316,2223.612060546875,0
1030.8199999999997,-0.0195456612855196,-0.010351095348596573,-0.00391855975612998,0.0,0.0,0.0,0.0,0.0038345465436577797,-0.000765118864364922,-0.00021672302682418376,0.9998372197151184,0.0,0.0,0.0,-12.273134231567383,3.3231067657470703,5.636324405670166,2221.4619140625,0
1040.7430000000004,-0.019753286615014076,-0.010305219329893589,-0.0040512592531740665,0.0,0.0,0.0,0.0,0.0010847665835171938,0.002574142999947071,-0.0019439609022811055,1.0011203289031982,0.0,0.0,0.0,-12.261184692382812,3.3152782917022705,5.629361152648926,2219.298828125,0
1050.6470000000008,-0.01996503584086895,-0.010259270668029785,-0.0041834525763988495,0.0,0.0,0.0,0.0,-3.205376197001897e-05,-0.0005996841355226934,-0.00025820801965892315,1.0021328926086426,0.0,0.0,0.0,-12.247712135314941,3.3030612468719482,5.614816665649414,2216.8603515625,0
1060.5609999999997,-0.020180124789476395,-0.010213377885520458,-0.004314303398132324,0.0,0.0,0.0,0.0,0.0013384207850322127,0.0009081157040782273,0.0019471822306513786,1.0000487565994263,0.0,0.0,0.0,-12.234819412231445,3.3025143146514893,5.619704723358154,2214.526611328125,0
1070.4660000000003,-0.020215358585119247,-0.010165039449930191,-0.004518577829003334,0.0,0.0,0.0,0.0,-0.0026008805725723505,-0.009979717433452606,0.0020687715150415897,0.9994955062866211,0.0,0.0,0.0,-12.261802673339844,3.318977117538452,5.6471028327941895,2219.410400390625,0
1080.3850000000002,-0.02042607218027115,-0.010117359459400177,-0.004655240569263697,0.0,0.0,0.0,0.0,0.0016113537130877376,0.002951121423393488,-0.002028208924457431,1.0010019540786743,0.0,0.0,0.0,-12.249231338500977,3.3199868202209473,5.655908107757568,2217.135009765625,0
1090.2919999999995,-0.020627856254577637,-0.010068553499877453,-0.004852835088968277,0.0,0.0,0.0,0.0,-1.6619103917037137e-05,0.00013314117677509785,-0.0024706250987946987,1.0010039806365967,0.0,0.0,0.0,-12.275337219238281,3.3239121437072754,5.658452033996582,2221.860595703125,0
1100.2109999999993,-0.020841140300035477,-0.01002255454659462,-0.004991923924535513,0.0,0.0,0.0,0.0,0.001029590959660709,-0.0012872933875769377,-0.0022048400714993477,1.0013830661773682,0.0,0.0,0.0,-12.263405799865723,3.315204381942749,5.656101226806641,2219.70068359375,0
1110.1110000000008,-0.021063419058918953,-0.009963613003492355,-0.005191216245293617,0.0,0.0,0.0,0.0,0.0013115438632667065,0.0011922065168619156,7.825910142855719e-05,1.001446008682251,0.0,0.0,0.0,-12.288003921508789,3.3217499256134033,5.654686450958252,2224.153076171875,0
1120.0300000000007,-0.021283725276589394,-0.009916521608829498,-0.005330830346792936,0.0,0.0,0.0,0.0,0.0007994887419044971,0.003988299518823624,-0.0007562636164948344,1.0007799863815308,0.0,0.0,0.0,-12.275862693786621,3.321974992752075,5.655141353607178,2221.955810546875,0
1129.9359999999997,-0.021507320925593376,-0.009860911406576633,-0.005529368761926889,0.0,0.0,0.0,0.0,-0.0020046087447553873,-0.0008311871788464487,-0.0027762060053646564,0.9992945790290833,0.0,0.0,0.0,-12.295018196105957,3.319075345993042,5.642413139343262,2225.422607421875,0
1139.8559999999998,-0.021731924265623093,-0.009814314544200897,-0.005670309066772461,0.0,0.0,0.0,0.0,0.0027947097551077604,-0.0023540721740573645,0.001046365825459361,1.0005937814712524,0.0,0.0,0.0,-12.283699989318848,3.3144309520721436,5.632962703704834,2223.3740234375,0
1149.7600000000002,-0.021811552345752716,-0.009778711013495922,-0.0058639561757445335,0.0,0.0,0.0,0.0,-0.0009439813438802958,-0.0014862174866721034,0.001034002983942628,0.9994878172874451,0.0,0.0,0.0,-12.300409317016602,3.3283729553222656,5.661202430725098,2226.398681640625,0
1159.6769999999997,-0.02203415334224701,-0.009732083417475224,-0.006011501885950565,0.0,0.0,0.0,0.0,0.0022078114561736584,-0.0037111560814082623,0.0030766241252422333,1.0010621547698975,0.0,0.0,0.0,-12.28824520111084,3.3201327323913574,5.656489849090576,2224.19677734375,0
1169.5830000000005,-0.022180035710334778,-0.009688545018434525,-0.006214387249201536,0.0,0.0,0.0,0.0,0.0005036599468439817,0.0015928108477964997,0.0029129048343747854,0.9992451667785645,0.0,0.0,0.0,-12.306543350219727,3.327972888946533,5.675201892852783,2227.509033203125,0
1179.5100000000002,-0.022404763847589493,-0.009642497636377811,-0.00636660261079669,0.0,0.0,0.0,0.0,0.00015968456864356995,-0.0016012857668101788,0.004194679204374552,0.9967828989028931,0.0,0.0,0.0,-12.294331550598145,3.332500696182251,5.6677632331848145,2225.298583984375,0
1189.4050000000007,-0.02250288426876068,-0.009554589167237282,-0.006533763837069273,0.0,0.0,0.0,0.0,0.0018603065982460976,-0.0015444664750248194,0.00033132117823697627,1.0001485347747803,0.0,0.0,0.0,-12.292540550231934,3.3549599647521973,5.671474933624268,2224.974365234375,0
1199.325999999999,-0.022726546972990036,-0.009503660723567009,-0.006693135015666485,0.0,0.0,0.0,0.0,-0.0030277459882199764,0.0007951610605232418,5.009631820485083e-08,1.0000625848770142,0.0,0.0,0.0,-12.280271530151367,3.3422977924346924,5.667098522186279,2222.753662109375,0
1209.232,-0.022953808307647705,-0.009451567195355892,-0.006852720398455858,0.0,0.0,0.0,0.0,0.0012111800024285913,0.002714316826313734,0.0006831951322965324,0.9976039528846741,0.0,0.0,0.0,-12.26784896850586,3.3451008796691895,5.656718730926514,2220.505126953125,0
1219.1460000000006,-0.023184403777122498,-0.009398674592375755,-0.007012499496340752,0.0,0.0,0.0,0.0,0.0003607647668104619,0.00018323185213375837,0.0021566562354564667,0.9980332851409912,0.0,0.0,0.0,-12.254565238952637,3.330902576446533,5.6517014503479,2218.1005859375,0
1229.0550000000003,-0.023306773975491524,-0.0093609057366848,-0.007227965164929628,0.0,0.0,0.0,0.0,0.0021733208559453487,-0.002994029549881816,0.0030336808413267136,1.0011951923370361,0.0,0.0,0.0,-12.276737213134766,3.338912010192871,5.673487186431885,2222.11376953125,0
1238.9629999999997,-0.023536600172519684,-0.009306654334068298,-0.00739692198112607,0.0,0.0,0.0,0.0,-0.0002799712819978595,0.0010054234880954027,0.00027379149105399847,1.000059962272644,0.0,0.0,0.0,-12.263869285583496,3.3350830078125,5.669015884399414,2219.78466796875,0
1248.875,-0.023768186569213867,-0.009252024814486504,-0.007565527223050594,0.0,0.0,0.0,0.0,0.004250890109688044,0.0024880103301256895,-0.0005494926008395851,0.9983564019203186,0.0,0.0,0.0,-12.251171112060547,3.329491376876831,5.664591312408447,2217.486328125,0
1258.7919999999995,-0.02400292456150055,-0.009197184816002846,-0.007734131533652544,0.0,0.0,0.0,0.0,0.00017732605920173228,0.004286876879632473,-5.212075848248787e-05,0.9994897246360779,0.0,0.0,0.0,-12.239764213562012,3.3163580894470215,5.6528239250183105,2215.42138671875,0
1268.7070000000003,-0.02411378175020218,-0.009179135784506798,-0.0079581867903471,0.0,0.0,0.0,0.0,-0.00023733495618216693,0.000824271235615015,7.192211342044175e-05,1.0000672340393066,0.0,0.0,0.0,-12.259183883666992,3.3082385063171387,5.662289142608643,2218.936767578125,0
1278.6119999999992,-0.02435208112001419,-0.009123781695961952,-0.008134845644235611,0.0,0.0,0.0,0.0,0.0026188960764557123,-0.0014306801604107022,0.0012254011817276478,0.9995874762535095,0.0,0.0,0.0,-12.246825218200684,3.3068418502807617,5.661327838897705,2216.699462890625,0
1288.5220000000008,-0.02459385246038437,-0.009067409671843052,-0.008311590179800987,0.0,0.0,0.0,0.0,-0.002206109929829836,-0.0028715371154248714,-0.00017610231589060277,0.9999259114265442,0.0,0.0,0.0,-12.23532772064209,3.30300235748291,5.655162334442139,2214.618408203125,0
1298.438,-0.02483881451189518,-0.009011080488562584,-0.008488519117236137,0.0,0.0,0.0,0.0,0.001672088517807424,0.0007569625740870833,0.004062281455844641,1.001326560974121,0.0,0.0,0.0,-12.223015785217285,3.299138069152832,5.652956008911133,2212.39013671875,0
1308.3449999999993,-0.025087062269449234,-0.008955002762377262,-0.008664999157190323,0.0,0.0,0.0,0.0,0.0026208676863461733,-0.0034650114830583334,-0.0018450816860422492,1.0011552572250366,0.0,0.0,0.0,-12.211265563964844,3.2963767051696777,5.642348289489746,2210.26318359375,0
1318.2569999999996,-0.02533949911594391,-0.008898335509002209,-0.008840304799377918,0.0,0.0,0.0,0.0,0.0006387523026205599,0.00035763674532063305,0.0005080242408439517,1.0002228021621704,0.0,0.0,0.0,-12.198614120483398,3.2808077335357666,5.637604236602783,2207.973388671875,0
1328.1689999999999,-0.025596560910344124,-0.008841244503855705,-0.009014473296701908,0.0,0.0,0.0,0.0,0.0019303581211715937,0.0009587030508555472,0.0008809646242298186,0.9989964962005615,0.0,0.0,0.0,-12.186627388000488,3.276792526245117,5.620079040527344,2205.803955078125,0
1338.0810000000001,-0.025856688618659973,-0.008783544413745403,-0.009188496507704258,0.0,0.0,0.0,0.0,-0.0013964979443699121,-9.308281005360186e-05,0.0006210144492797554,1.0005614757537842,0.0,0.0,0.0,-12.174203872680664,3.269721746444702,5.60865592956543,2203.55517578125,0
1347.9920000000002,-0.026119133457541466,-0.00872503686696291,-0.009362850338220596,0.0,0.0,0.0,0.0,0.0002566713374108076,0.003709574695676565,0.001255291630513966,0.9998860359191895,0.0,0.0,0.0,-12.161137580871582,3.26279616355896,5.609126091003418,2201.190185546875,0
1357.9060000000009,-0.026385067030787468,-0.008665790781378746,-0.009536869823932648,0.0,0.0,0.0,0.0,0.0023784025106579065,-0.0003346291196066886,0.0011290250113233924,1.0005987882614136,0.0,0.0,0.0,-12.150327682495117,3.262138605117798,5.599388122558594,2199.2333984375,0
1367.8199999999997,-0.026654334738850594,-0.0086060157045722,-0.009710503742098808,0.0,0.0,0.0,0.0,-0.0005813766038045287,0.0025593219324946404,0.0035671223886311054,1.001420259475708,0.0,0.0,0.0,-12.137581825256348,3.265517234802246,5.5842976570129395,2196.92626953125,0
1377.7289999999994,-0.026925835758447647,-0.008546385914087296,-0.00988335907459259,0.0,0.0,0.0,0.0,-0.0012270051520317793,0.0007822553161531687,-0.006060776300728321,1.0010071992874146,0.0,0.0,0.0,-12.125164985656738,3.252485752105713,5.576109886169434,2194.6787109375,0
1387.6409999999996,-0.02654310129582882,-0.00858255848288536,-0.01004259567707777,0.0,0.0,0.0,0.0,-0.00128873938228935,-0.0005582181038334966,0.002478488953784108,0.9987955093383789,0.0,0.0,0.0,-12.163761138916016,3.2713725566864014,5.6361870765686035,2201.665283203125,0
1397.5519999999997,-0.026800692081451416,-0.008521697483956814,-0.010225970298051834,0.0,0.0,0.0,0.0,0.0009542018524371088,0.00045511795906350017,-0.0015741233946755528,1.0012145042419434,0.0,0.0,0.0,-12.152839660644531,3.2674310207366943,5.631497383117676,2199.688232421875,0
1407.4660000000003,-0.02712036669254303,-0.008452248759567738,-0.01055719144642353,0.0,0.0,0.0,0.0,0.0003453579847700894,-0.005925470031797886,0.0022869373206049204,1.0005238056182861,0.0,0.0,0.0,-12.191008567810059,3.2691683769226074,5.63484525680542,2206.5966796875,0
1417.3739999999998,-0.027384646236896515,-0.008391662500798702,-0.010744753293693066,0.0,0.0,0.0,0.0,-0.001727453083731234,-0.0029022502712905407,0.0002663512423168868,0.998932957649231,0.0,0.0,0.0,-12.179011344909668,3.264240264892578,5.631831645965576,2204.42529296875,0
1427.286,-0.0276707261800766,-0.008321089670062065,-0.01106720045208931,0.0,0.0,0.0,0.0,0.0009665765101090074,0.0004081512161064893,0.0003837131953332573,1.0001578330993652,0.0,0.0,0.0,-12.206466674804688,3.2656617164611816,5.643238067626953,2209.394775390625,0
1437.1980000000003,-0.02794107422232628,-0.008261464536190033,-0.011260011233389378,0.0,0.0,0.0,0.0,-0.00014858167560305446,0.004391963593661785,-0.0008861474343575537,1.0023748874664307,0.0,0.0,0.0,-12.193947792053223,3.261122703552246,5.641471862792969,2207.128662109375,0
1447.1090000000004,-0.028222639113664627,-0.008183578960597515,-0.011588270775973797,0.0,0.0,0.0,0.0,-0.001970083685591817,-0.0005481189000420272,0.0007906646351329982,1.002145528793335,0.0,0.0,0.0,-12.223735809326172,3.265932559967041,5.646111011505127,2212.5205078125,0
1457.0220000000008,-0.028526579961180687,-0.00810979399830103,-0.01191006787121296,0.0,0.0,0.0,0.0,0.0010441892081871629,-0.0017534812213853002,-0.0002442921104375273,1.0019232034683228,0.0,0.0,0.0,-12.252047538757324,3.271984100341797,5.649614334106445,2217.644775390625,0
1466.933000000001,-0.028800196945667267,-0.008045628666877747,-0.012109942734241486,0.0,0.0,0.0,0.0,0.0007740344735793769,0.0014456312637776136,0.003972518257796764,1.0005347728729248,0.0,0.0,0.0,-12.23847770690918,3.2594563961029053,5.643991947174072,2215.18896484375,0
1476.8449999999993,-0.02913694828748703,-0.007958117872476578,-0.012440565973520279,0.0,0.0,0.0,0.0,0.0007309925276786089,-0.005227955058217049,-0.0012580575421452522,1.001139521598816,0.0,0.0,0.0,-12.261780738830566,3.2580370903015137,5.640214443206787,2219.40673828125,0
1486.7639999999992,-0.029413364827632904,-0.00789328757673502,-0.012642618268728256,0.0,0.0,0.0,0.0,0.0010318165877833962,0.004434212576597929,-0.003892336506396532,0.9997450113296509,0.0,0.0,0.0,-12.250043869018555,3.2546675205230713,5.642734527587891,2217.2822265625,0
1496.6689999999999,-0.029756439849734306,-0.00779864052310586,-0.012982144951820374,0.0,0.0,0.0,0.0,-0.0004042533691972494,0.0017540025291964412,-0.0012105732457712293,1.000658392906189,0.0,0.0,0.0,-12.275138854980469,3.262681722640991,5.642892837524414,2221.82470703125,0
1506.5869999999995,-0.030036350712180138,-0.007732872385531664,-0.013188260607421398,0.0,0.0,0.0,0.0,0.0005728027317672968,-0.0025639482773840427,-0.0013996234629303217,1.0008004903793335,0.0,0.0,0.0,-12.263090133666992,3.2549874782562256,5.625546455383301,2219.643798828125,0
1516.4920000000002,-0.03034129925072193,-0.007644252385944128,-0.0135082071647048,0.0,0.0,0.0,0.0,9.16572316782549e-05,-0.00027328089345246553,-0.0017405307153239846,0.9992854595184326,0.0,0.0,0.0,-12.286508560180664,3.2670657634735107,5.631025314331055,2223.882568359375,0
1526.411,-0.030624158680438995,-0.00757592124864459,-0.013718871399760246,0.0,0.0,0.0,0.0,0.0021207428071647882,0.0011528482427820563,-0.0013746239710599184,0.9990633130073547,0.0,0.0,0.0,-12.275199890136719,3.2629265785217285,5.6288323402404785,2221.835693359375,0
1536.3150000000005,-0.030909592285752296,-0.007506986148655415,-0.01392971258610487,0.0,0.0,0.0,0.0,-0.0019139772048220038,0.001934344181790948,-0.0048810518346726894,1.0003849267959595,0.0,0.0,0.0,-12.26314926147461,3.2576050758361816,5.62791633605957,2219.654296875,0
1546.232,-0.03119773417711258,-0.007438871543854475,-0.014140905812382698,0.0,0.0,0.0,0.0,-0.0004691663198173046,0.0003295977076049894,0.000801874790340662,0.9990394711494446,0.0,0.0,0.0,-12.251582145690918,3.2526443004608154,5.623311996459961,2217.560791015625,0
1556.1489999999994,-0.031483642756938934,-0.007360339164733887,-0.01446444634348154,0.0,0.0,0.0,0.0,0.0009293251787312329,0.0017279009334743023,-0.002450205385684967,0.9991310834884644,0.0,0.0,0.0,-12.277666091918945,3.2609405517578125,5.636313438415527,2222.281982421875,0
1566.0499999999993,-0.031775228679180145,-0.007291861344128847,-0.01468229666352272,0.0,0.0,0.0,0.0,-0.0026152213104069233,0.0007956522167660296,0.000389572000131011,1.0027141571044922,0.0,0.0,0.0,-12.264728546142578,3.258563995361328,5.629520893096924,2219.940185546875,0
1575.964,-0.03207031637430191,-0.007224207744002342,-0.014900032430887222,0.0,0.0,0.0,0.0,-0.0026452585589140654,0.0028900972101837397,-0.004587579984217882,1.0017638206481934,0.0,0.0,0.0,-12.252878189086914,3.2475779056549072,5.620659351348877,2217.79541015625,0
1585.8809999999994,-0.032368484884500504,-0.007158047053962946,-0.015115824528038502,0.0,0.0,0.0,0.0,-0.0033548574429005384,0.0006317856023088098,-0.0009820660343393683,0.9982233047485352,0.0,0.0,0.0,-12.239994049072266,3.250164270401001,5.615080833435059,2215.463134765625,0
1595.7849999999999,-0.03245310112833977,-0.007029421627521515,-0.015323668718338013,0.0,0.0,0.0,0.0,-8.79739091033116e-05,-0.0028594895265996456,-0.0014178879791870713,0.9967243671417236,0.0,0.0,0.0,-12.25355339050293,3.299211025238037,5.63436222076416,2217.917236328125,0
1605.7039999999997,-0.03274839371442795,-0.006955394521355629,-0.015545779839158058,0.0,0.0,0.0,0.0,0.00419872161000967,-0.0028017833828926086,-0.0022764094173908234,0.9992405772209167,0.0,0.0,0.0,-12.241486549377441,3.296382427215576,5.6320414543151855,2215.7333984375,0
1615.6090000000004,-0.03310083597898483,-0.006883224472403526,-0.015925969928503036,0.0,0.0,0.0,0.0,0.00025974062737077475,0.0016563362441956997,0.0021502263844013214,0.99972003698349,0.0,0.0,0.0,-12.264936447143555,3.2900004386901855,5.6410112380981445,2219.977783203125,0
1625.5280000000002,-0.03340090438723564,-0.0068096439354121685,-0.016157548874616623,0.0,0.0,0.0,0.0,0.00021181679039727896,-1.6068750483100303e-05,-0.0021973445545881987,0.9988179802894592,0.0,0.0,0.0,-12.253039360046387,3.2830185890197754,5.6391682624816895,2217.824462890625,0
1635.4320000000007,-0.03383934870362282,-0.006718566175550222,-0.016579650342464447,0.0,0.0,0.0,0.0,0.003271772526204586,0.0030822751577943563,-0.00043252529576420784,0.9988294243812561,0.0,0.0,0.0,-12.278294563293457,3.2769763469696045,5.636910438537598,2222.395751953125,0
1645.3520000000008,-0.034147556871175766,-0.006646221503615379,-0.016817845404148102,0.0,0.0,0.0,0.0,-0.0003181491047143936,-0.005031506530940533,-0.004001433961093426,1.0000650882720947,0.0,0.0,0.0,-12.266206741333008,3.2763428688049316,5.634592056274414,2220.20751953125,0
1655.2549999999992,-0.03485113009810448,-0.006491522304713726,-0.017465509474277496,0.0,0.0,0.0,0.0,-0.0023349488619714975,0.005538031458854675,0.001525365631096065,1.0005428791046143,0.0,0.0,0.0,-12.273171424865723,3.268714427947998,5.6313347816467285,2221.468505859375,0
1665.174000000001,-0.03485113009810448,-0.006491522304713726,-0.017465509474277496,0.0,0.0,0.0,0.0,-9.662326192483306e-05,0.0018207665998488665,0.002883484121412039,0.9997826814651489,0.0,0.0,0.0,-12.273171424865723,3.268714427947998,5.6313347816467285,2221.468505859375,0
1675.0830000000005,-0.03548109531402588,-0.006357210222631693,-0.01795407570898533,0.0,0.0,0.0,0.0,-0.0008151912479661405,-0.0004610057803802192,0.0026506963185966015,0.9997732639312744,0.0,0.0,0.0,-12.248210906982422,3.256361722946167,5.612442970275879,2216.950439453125,0
1684.991,-0.03548109531402588,-0.006357210222631693,-0.01795407570898533,0.0,0.0,0.0,0.0,0.0011091306805610657,0.0020876447670161724,0.004373566247522831,0.9982612729072571,0.0,0.0,0.0,-12.248210906982422,3.256361722946167,5.612442970275879,2216.950439453125,0
1694.902,-0.03613065555691719,-0.006212635897099972,-0.018512258306145668,0.0,0.0,0.0,0.0,0.0006853237864561379,-0.004433388356119394,-0.00034106901148334146,0.9988656640052795,0.0,0.0,0.0,-12.275628089904785,3.2641518115997314,5.6127448081970215,2221.913330078125,0
1704.821,-0.03645788133144379,-0.006147309672087431,-0.01876259781420231,0.0,0.0,0.0,0.0,-0.0017593175871297717,0.004340858198702335,0.0007013329304754734,0.99934321641922,0.0,0.0,0.0,-12.262660026550293,3.2586069107055664,5.613128185272217,2219.565673828125,0
1714.7260000000006,-0.036788761615753174,-0.00608156668022275,-0.01901400461792946,0.0,0.0,0.0,0.0,-0.0016445451183244586,-0.0026715730782598257,-0.00026374682784080505,0.9998877644538879,0.0,0.0,0.0,-12.250776290893555,3.2578117847442627,5.615262031555176,2217.414794921875,0
1724.6470000000008,-0.03712150454521179,-0.00601594615727663,-0.019265633076429367,0.0,0.0,0.0,0.0,-0.0013532747980207205,0.0010480027412995696,0.002557100960984826,1.0004359483718872,0.0,0.0,0.0,-12.238107681274414,3.2574851512908936,5.613641738891602,2215.121826171875,0
1734.5509999999995,-0.03745561093091965,-0.005951817147433758,-0.01951702870428562,0.0,0.0,0.0,0.0,0.002299653133377433,-0.004599890671670437,0.005988622084259987,1.0017856359481812,0.0,0.0,0.0,-12.226633071899414,3.2612931728363037,5.60441255569458,2213.044921875,0
1744.4779999999992,-0.0377914234995842,-0.0058889067731797695,-0.019767403602600098,0.0,0.0,0.0,0.0,0.0014055982464924455,-0.0012818893883377314,0.0010138722136616707,1.0007786750793457,0.0,0.0,0.0,-12.214275360107422,3.25412917137146,5.602621078491211,2210.80810546875,0
1754.3799999999992,-0.03787868469953537,-0.00581388222053647,-0.020039990544319153,0.0,0.0,0.0,0.0,0.005037854891270399,0.003207910107448697,0.0023409768473356962,0.9983699321746826,0.0,0.0,0.0,-12.23984432220459,3.2750682830810547,5.6294145584106445,2215.43603515625,0
1764.2919999999995,-0.03820930793881416,-0.005746521987020969,-0.02029668539762497,0.0,0.0,0.0,0.0,-0.0014041113900020719,-1.61399530043127e-05,-0.0011079038958996534,1.0004645586013794,0.0,0.0,0.0,-12.22744369506836,3.2622430324554443,5.618108749389648,2213.191650390625,0
1774.196,-0.03860855847597122,-0.005627013277262449,-0.020744482055306435,0.0,0.0,0.0,0.0,-7.6172364060767e-05,-0.00217604567296803,-0.003185051726177335,1.0003522634506226,0.0,0.0,0.0,-12.2523775100708,3.278822660446167,5.621428489685059,2217.70458984375,0
1784.1170000000002,-0.038945358246564865,-0.0055573792196810246,-0.02100803144276142,0.0,0.0,0.0,0.0,-0.0005195994745008647,-0.002491454826667905,-0.0023627078626304865,0.999707818031311,0.0,0.0,0.0,-12.24036979675293,3.278499126434326,5.631686687469482,2215.531005859375,0
1794.0210000000006,-0.03946135193109512,-0.005421555135399103,-0.02150958590209484,0.0,0.0,0.0,0.0,-0.00203579175285995,-0.0003575576702132821,0.002519965637475252,0.9994232058525085,0.0,0.0,0.0,-12.264776229858398,3.281893014907837,5.635861873626709,2219.94873046875,0
1803.9429999999993,-0.039806731045246124,-0.005350361578166485,-0.021778477355837822,0.0,0.0,0.0,0.0,-0.00018784284475259483,0.0044052754528820515,-0.00133631587959826,0.9996917247772217,0.0,0.0,0.0,-12.2516450881958,3.2791504859924316,5.63552713394165,2217.572021484375,0
1813.8439999999991,-0.04032660275697708,-0.005204643588513136,-0.022279508411884308,0.0,0.0,0.0,0.0,-0.0013612768379971385,-0.0014110589399933815,0.002549853641539812,0.9994980692863464,0.0,0.0,0.0,-12.274852752685547,3.2950308322906494,5.630203723907471,2221.77294921875,0
1823.7620000000006,-0.04067831113934517,-0.005132304038852453,-0.02255474589765072,0.0,0.0,0.0,0.0,-0.0013527750270441175,-0.005571897141635418,0.000149953892105259,1.000685691833496,0.0,0.0,0.0,-12.263675689697266,3.286644220352173,5.626896381378174,2219.74951171875,0
1833.6679999999997,-0.04120069742202759,-0.00499918544664979,-0.023057764396071434,0.0,0.0,0.0,0.0,0.000986168161034584,-0.0005578277050517499,0.0011947214370593429,1.0009167194366455,0.0,0.0,0.0,-12.286789894104004,3.297004222869873,5.629817485809326,2223.933349609375,0
1843.5859999999993,-0.04155881702899933,-0.004927382804453373,-0.023337936028838158,0.0,0.0,0.0,0.0,0.002543346956372261,-0.0029667348135262728,0.0034205520059913397,0.9990354776382446,0.0,0.0,0.0,-12.274144172668457,3.2945492267608643,5.627501010894775,2221.64453125,0
1853.491,-0.04231470450758934,-0.004738531541079283,-0.02397088147699833,0.0,0.0,0.0,0.0,-0.001324400189332664,0.0021025671157985926,0.0034597846679389477,0.9972887635231018,0.0,0.0,0.0,-12.295498847961426,3.296992063522339,5.614464282989502,2225.509765625,0
1863.4210000000003,-0.04268307238817215,-0.004662738647311926,-0.02425551414489746,0.0,0.0,0.0,0.0,-0.001035350956954062,-0.0006405483582057059,0.00031130044953897595,0.9998568892478943,0.0,0.0,0.0,-12.28339958190918,3.289065361022949,5.609567165374756,2223.320068359375,0
1873.313,-0.04327531158924103,-0.004508479498326778,-0.02479630336165428,0.0,0.0,0.0,0.0,-0.0008258491870947182,-0.00032895838376134634,-0.0020881376694887877,1.0001360177993774,0.0,0.0,0.0,-12.297464370727539,3.291125774383545,5.614269256591797,2225.865478515625,0
1883.2379999999994,-0.043649476021528244,-0.004428629297763109,-0.025088144466280937,0.0,0.0,0.0,0.0,0.0030465431045740843,0.004142459481954575,-0.00337238609790802,1.0016422271728516,0.0,0.0,0.0,-12.285938262939453,3.2899415493011475,5.5945515632629395,2223.779296875,0
1893.1370000000006,-0.04438745975494385,-0.004229628015309572,-0.025710726156830788,0.0,0.0,0.0,0.0,-0.0007124206749722362,0.0008043180569075048,-0.00019442576740402728,0.9995472431182861,0.0,0.0,0.0,-12.311498641967773,3.293163776397705,5.578475475311279,2228.40576171875,0
1903.0589999999993,-0.04477189853787422,-0.004145856946706772,-0.026005012914538383,0.0,0.0,0.0,0.0,0.0009211348951794207,0.0010566627606749535,0.002215731656178832,0.9994856119155884,0.0,0.0,0.0,-12.299789428710938,3.2912304401397705,5.565128803253174,2226.28662109375,0
1912.9650000000001,-0.04516024887561798,-0.004062174819409847,-0.026299046352505684,0.0,0.0,0.0,0.0,-0.0025999725330621004,-0.0016446317313238978,-0.0028745222371071577,1.0011558532714844,0.0,0.0,0.0,-12.287450790405273,3.282083034515381,5.555366039276123,2224.052978515625,0
1922.8870000000006,-0.045552052557468414,-0.003979098983108997,-0.02659318782389164,0.0,0.0,0.0,0.0,0.003250961657613516,0.003211864037439227,-0.0015491420635953546,1.0018479824066162,0.0,0.0,0.0,-12.274825096130371,3.2819061279296875,5.558155536651611,2221.767822265625,0
1932.7829999999994,-0.0459464006125927,-0.003896572394296527,-0.026886239647865295,0.0,0.0,0.0,0.0,0.004465283825993538,0.000531720754224807,0.0009862449951469898,1.0004451274871826,0.0,0.0,0.0,-12.261870384216309,3.2811174392700195,5.549746990203857,2219.4228515625,0
1942.7019999999993,-0.04634270444512367,-0.0038137403316795826,-0.027177710086107254,0.0,0.0,0.0,0.0,0.0028710586484521627,0.0009342675330117345,-0.0003992140991613269,0.9991766214370728,0.0,0.0,0.0,-12.250349044799805,3.2739670276641846,5.543482303619385,2217.337646484375,0
1952.607,-0.04674135148525238,-0.003731249598786235,-0.027468552812933922,0.0,0.0,0.0,0.0,-0.0005606597987934947,0.004368211142718792,-0.0019410139648243785,1.0002944469451904,0.0,0.0,0.0,-12.238280296325684,3.258551597595215,5.531670093536377,2215.15283203125,0
1962.5259999999998,-0.047142479568719864,-0.0036499053239822388,-0.02775971032679081,0.0,0.0,0.0,0.0,0.0019755202811211348,-0.005318954586982727,0.0017486278666183352,1.0000946521759033,0.0,0.0,0.0,-12.226901054382324,3.251807451248169,5.52249813079834,2213.09326171875,0
1972.433000000001,-0.04698855057358742,-0.003588346764445305,-0.027905749157071114,0.0,0.0,0.0,0.0,-0.003249736502766609,0.0023040405940264463,-0.0013925411039963365,1.0004587173461914,0.0,0.0,0.0,-12.257393836975098,3.292341709136963,5.5615034103393555,2218.61279296875,0
1982.3420000000006,-0.04737880825996399,-0.0034997668117284775,-0.028206275776028633,0.0,0.0,0.0,0.0,0.00266473600640893,-0.0005069089820608497,0.0006604408845305443,1.0012959241867065,0.0,0.0,0.0,-12.244953155517578,3.2831146717071533,5.567228317260742,2216.36083984375,0
1992.2610000000004,-0.048102281987667084,-0.0032803602516651154,-0.0289315152913332,0.0,0.0,0.0,0.0,0.0017523338319733739,0.003166061593219638,4.210209954180755e-05,1.0013837814331055,0.0,0.0,0.0,-12.260305404663086,3.294584274291992,5.5688347816467285,2219.139404296875,0
2002.1759999999995,-0.048102281987667084,-0.0032803602516651154,-0.0289315152913332,0.0,0.0,0.0,0.0,0.002157660899683833,-0.0012583369389176369,-0.0029801293276250362,1.0016652345657349,0.0,0.0,0.0,-12.260305404663086,3.294584274291992,5.5688347816467285,2219.139404296875,0
2012.0859999999993,-0.048677511513233185,-0.0031081007327884436,-0.029557516798377037,0.0,0.0,0.0,0.0,0.0013043482322245836,0.004408434499055147,-0.002470821375027299,1.0022202730178833,0.0,0.0,0.0,-12.272237777709961,3.302419662475586,5.578082084655762,2221.299560546875,0
2021.9930000000004,-0.048677511513233185,-0.0031081007327884436,-0.029557516798377037,0.0,0.0,0.0,0.0,-0.0008171761874109507,-0.001997194020077586,-0.00037465186323970556,1.0012260675430298,0.0,0.0,0.0,-12.272237777709961,3.302419662475586,5.578082084655762,2221.299560546875,0
2031.9009999999998,-0.04889081418514252,-0.003030190011486411,-0.02980203367769718,0.0,0.0,0.0,0.0,0.0016011284897103906,-0.0017912626499310136,-0.0030921739526093006,0.9997891187667847,0.0,0.0,0.0,-12.277158737182617,3.3124494552612305,5.596113204956055,2222.190185546875,0
2041.8150000000005,-0.049286603927612305,-0.002936658216640353,-0.03010982647538185,0.0,0.0,0.0,0.0,-0.0015307682333514094,-0.0025128680281341076,-0.0041027129627764225,1.0007483959197998,0.0,0.0,0.0,-12.265203475952148,3.3088748455047607,5.584702968597412,2220.026123046875,0
2051.733,-0.04968639090657234,-0.0028436649590730667,-0.030417408794164658,0.0,0.0,0.0,0.0,0.0007582870894111693,-0.0013596166390925646,-0.001368318684399128,1.0005393028259277,0.0,0.0,0.0,-12.252459526062012,3.3003108501434326,5.58986234664917,2217.71923828125,0
2061.6450000000004,-0.050089091062545776,-0.0027513790410012007,-0.030724484473466873,0.0,0.0,0.0,0.0,-0.0005835253396071494,-0.0003997851745225489,-0.0013463252689689398,1.0011483430862427,0.0,0.0,0.0,-12.240178108215332,3.302603006362915,5.593740463256836,2215.49658203125,0
2071.553,-0.05059124156832695,-0.002638021018356085,-0.031219786033034325,0.0,0.0,0.0,0.0,-0.002366825705394149,0.006862591952085495,-0.00045712076826021075,1.000225305557251,0.0,0.0,0.0,-12.260675430297852,3.304903507232666,5.599782943725586,2219.20654296875,0
2081.459999999999,-0.05099867284297943,-0.0025474929716438055,-0.03153073787689209,0.0,0.0,0.0,0.0,0.0018580735195428133,0.005502441432327032,0.002004899550229311,1.0018372535705566,0.0,0.0,0.0,-12.24946403503418,3.3000502586364746,5.587441921234131,2217.177490234375,0
2091.3729999999996,-0.05140944942831993,-0.0024572196416556835,-0.03184055909514427,0.0,0.0,0.0,0.0,0.0004642603453248739,-0.0018528032815083861,0.0063033574260771275,0.9990943074226379,0.0,0.0,0.0,-12.235597610473633,3.297975778579712,5.574804306030273,2214.66748046875,0
2101.2829999999994,-0.051823072135448456,-0.0023676452692598104,-0.032149333506822586,0.0,0.0,0.0,0.0,0.00046197185292840004,-0.0057121808640658855,0.0008997366530820727,1.001139760017395,0.0,0.0,0.0,-12.22398567199707,3.293400287628174,5.57499885559082,2212.56591796875,0
2111.196,-0.05254318565130234,-0.0021812182385474443,-0.03277492895722389,0.0,0.0,0.0,0.0,0.0005630687810480595,0.0002623304899316281,-0.0006697114440612495,1.0006325244903564,0.0,0.0,0.0,-12.252333641052246,3.303050994873047,5.568664073944092,2217.696533203125,0
2121.1139999999996,-0.052963875234127045,-0.0020885434933006763,-0.033087898045778275,0.0,0.0,0.0,0.0,0.00024279364151880145,-4.1051582229556516e-05,0.0026297704316675663,0.9987061619758606,0.0,0.0,0.0,-12.238958358764648,3.298469305038452,5.573976039886475,2215.27587890625,0
2131.0249999999996,-0.0533880852162838,-0.0019942340441048145,-0.03340035676956177,0.0,0.0,0.0,0.0,-0.0007151395548135042,0.0007480965577997267,-0.004069425631314516,0.9987956285476685,0.0,0.0,0.0,-12.227421760559082,3.298768997192383,5.564486980438232,2213.1875,0
2140.9300000000003,-0.05381503328680992,-0.001899362076073885,-0.03371351957321167,0.0,0.0,0.0,0.0,-8.413942123297602e-05,-0.00022628884471487254,-0.003105197101831436,0.9981152415275574,0.0,0.0,0.0,-12.2153959274292,3.289839506149292,5.552096366882324,2211.010986328125,0
2150.8430000000008,-0.054245010018348694,-0.0018051957013085485,-0.034027840942144394,0.0,0.0,0.0,0.0,0.0021833537612110376,-0.004137076437473297,-0.001036717090755701,0.9985156059265137,0.0,0.0,0.0,-12.203106880187988,3.2844631671905518,5.553952217102051,2208.786865234375,0
2160.7559999999994,-0.05467863380908966,-0.0017123892903327942,-0.034343503415584564,0.0,0.0,0.0,0.0,-0.0017049129819497466,0.0020505168940871954,-0.0014198367716744542,0.9999886155128479,0.0,0.0,0.0,-12.19192886352539,3.280697822570801,5.5538153648376465,2206.763427734375,0
