timestamp,stateEstimate.x,stateEstimate.y,stateEstimate.z,controller.cmd_thrust,controller.cmd_roll,controller.cmd_pitch,controller.cmd_yaw,controller.r_roll,controller.r_pitch,controller.r_yaw,controller.accelz,controller.actuatorThrust,controller.roll,controller.pitch,controller.yaw,controller.rollRate,controller.pitchRate,controller.yawRate,controller.ctr_yaw
0.0,0.004434108268469572,-0.00913989171385765,7.021886995062232e-05,0.0,0.0,0.0,0.0,0.0016355158295482397,0.004047749098390341,0.00033758149947971106,1.0002641677856445,0.0,0.0,0.0,7.430657863616943,3.182703733444214,5.272764682769775,-1344.9639892578125,0
9.903000000000247,0.004426246974617243,-0.009096554480493069,5.931614214205183e-05,0.0,0.0,0.0,0.0,0.001497491612099111,-0.00038598160608671606,-0.0014618805143982172,0.9990720748901367,0.0,0.0,0.0,7.424337387084961,3.171356678009033,5.258716106414795,-1343.81982421875,0
19.828999999999724,0.004463116638362408,-0.009117480367422104,8.434043411398306e-05,0.0,0.0,0.0,0.0,0.0032168107572942972,0.00021722099336329848,-0.001522144302725792,0.9980729222297668,0.0,0.0,0.0,7.424884796142578,3.1637182235717773,5.259314060211182,-1343.9189453125,0
29.737999999999374,0.004479576367884874,-0.009059712290763855,4.42260097770486e-05,0.0,0.0,0.0,0.0,0.000555988575797528,-0.0003534903225954622,0.0011315644951537251,0.9981113076210022,0.0,0.0,0.0,7.429226875305176,3.1757657527923584,5.267735004425049,-1344.704833984375,0
39.65400000000045,0.004527510143816471,-0.009075118228793144,7.309198554139584e-05,0.0,0.0,0.0,0.0,0.0005797315388917923,0.003875103546306491,0.0015060548903420568,1.000798225402832,0.0,0.0,0.0,7.429623126983643,3.174943685531616,5.284306526184082,-1344.776611328125,0
49.55799999999908,0.00454497616738081,-0.00901965145021677,2.8826676498283632e-05,0.0,0.0,0.0,0.0,-0.0008660926250740886,-0.00023485581914428622,0.0020402430091053247,0.9987802505493164,0.0,0.0,0.0,7.4304633140563965,3.1799144744873047,5.277824401855469,-1344.9285888671875,0
59.47400000000016,0.004519271664321423,-0.009042862802743912,2.0063309420947917e-05,0.0,0.0,0.0,0.0,0.0002390906010987237,-0.006744914688169956,0.0027072117663919926,1.0004044771194458,0.0,0.0,0.0,7.4315690994262695,3.168814182281494,5.2651872634887695,-1345.12890625,0
69.3739999999998,0.004468362778425217,-0.00905454158782959,3.188246046192944e-05,0.0,0.0,0.0,0.0,0.0006463777972385287,-0.007469271309673786,0.0030754816252738237,1.0021052360534668,0.0,0.0,0.0,7.4316935539245605,3.171860933303833,5.277347564697266,-1345.1513671875,0
79.29299999999967,0.0045439088717103004,-0.00914319884032011,4.213308420730755e-05,0.0,0.0,0.0,0.0,0.0021958784200251102,0.003739999607205391,0.0005385992117226124,0.9999139308929443,0.0,0.0,0.0,7.423269271850586,3.1705965995788574,5.284398555755615,-1343.6265869140625,0
89.19900000000052,0.0045479536056518555,-0.009083351120352745,1.980691376957111e-05,0.0,0.0,0.0,0.0,0.003181926906108856,-0.0028482689522206783,0.0024034089874476194,0.9995282292366028,0.0,0.0,0.0,7.426814556121826,3.1758129596710205,5.2919602394104,-1344.2681884765625,0
99.12099999999919,0.004506898112595081,-0.009089053608477116,1.3858375496056397e-05,0.0,0.0,0.0,0.0,0.001776131335645914,0.003432442666962743,-0.001970874611288309,0.9993701577186584,0.0,0.0,0.0,7.42926549911499,3.1707019805908203,5.283117294311523,-1344.7117919921875,0
109.02000000000044,0.004506157245486975,-0.009063394740223885,-1.939768117154017e-05,0.0,0.0,0.0,0.0,-0.0006277945940382779,0.0027253087610006332,-6.934288830962032e-05,0.9985462427139282,0.0,0.0,0.0,7.429335594177246,3.1736702919006348,5.290617942810059,-1344.724609375,0
118.9419999999991,0.004550065379589796,-0.009064879268407822,8.392364179599099e-06,0.0,0.0,0.0,0.0,0.0033739041537046432,-0.0018082523019984365,0.0011351540451869369,0.9998196959495544,0.0,0.0,0.0,7.429208278656006,3.175429344177246,5.2870001792907715,-1344.701416015625,0
128.84299999999894,0.004500914365053177,-0.0090764369815588,2.4087414203677326e-05,0.0,0.0,0.0,0.0,-0.0031065563671290874,0.003176160855218768,-0.005599909462034702,0.9990899562835693,0.0,0.0,0.0,7.430046081542969,3.1698269844055176,5.282576560974121,-1344.853271484375,0
138.76900000000023,0.004544831346720457,-0.009088333696126938,5.116537431604229e-05,0.0,0.0,0.0,0.0,0.0004643932043109089,0.0017671473324298859,-0.0030463291332125664,0.9997783899307251,0.0,0.0,0.0,7.429746150970459,3.1680307388305664,5.29150390625,-1344.798828125,0
148.66899999999987,0.004561613313853741,-0.009048562496900558,8.38091000332497e-06,0.0,0.0,0.0,0.0,0.004870298784226179,-0.0012521275784820318,0.0018384939758107066,0.9984757900238037,0.0,0.0,0.0,7.435702800750732,3.179692029953003,5.289730548858643,-1345.8770751953125,0
158.58599999999933,0.004522706847637892,-0.00905144028365612,5.253910444480425e-07,0.0,0.0,0.0,0.0,0.004667941015213728,0.005036323796957731,0.0009493445395492017,0.9975022077560425,0.0,0.0,0.0,7.434321403503418,3.1776020526885986,5.291029930114746,-1345.6270751953125,0
168.48999999999978,0.004475456662476063,-0.009067910723388195,1.2667810551647563e-05,0.0,0.0,0.0,0.0,-0.002758278511464596,-0.003151513868942857,0.0017025473061949015,0.9993550777435303,0.0,0.0,0.0,7.432387828826904,3.163923501968384,5.2723917961120605,-1345.277099609375,0
178.41399999999885,0.004538192413747311,-0.009078878909349442,4.312328019295819e-05,0.0,0.0,0.0,0.0,0.003384143579751253,0.0014859371585771441,-0.0010041355853900313,0.997990071773529,0.0,0.0,0.0,7.425761699676514,3.159806251525879,5.278119087219238,-1344.07763671875,0
188.3140000000003,0.004492565058171749,-0.009127682074904442,4.162975528743118e-05,0.0,0.0,0.0,0.0,0.00046676877536810935,-0.0031378637067973614,0.001471948460675776,0.9982684850692749,0.0,0.0,0.0,7.426048278808594,3.148742198944092,5.262364387512207,-1344.1295166015625,0
198.23199999999997,0.004476462956517935,-0.00908071268349886,6.296855281107128e-05,0.0,0.0,0.0,0.0,0.0008983060251921415,0.005997321102768183,-0.0022762110456824303,1.000181794166565,0.0,0.0,0.0,7.430410385131836,3.1510932445526123,5.255196571350098,-1344.919189453125,0
208.13600000000042,0.004449313506484032,-0.00906294770538807,6.634477176703513e-05,0.0,0.0,0.0,0.0,0.004252690821886063,0.0009294220944866538,-0.0018582554766908288,0.9987112283706665,0.0,0.0,0.0,7.433402061462402,3.1557445526123047,5.242749214172363,-1345.460693359375,0
218.0630000000001,0.004450755659490824,-0.009033148176968098,8.849940059008077e-05,0.0,0.0,0.0,0.0,0.0016197098884731531,-0.0018309913575649261,0.0016186415450647473,0.9983850717544556,0.0,0.0,0.0,7.433373928070068,3.151869773864746,5.229292869567871,-1345.4554443359375,0
227.95999999999913,0.004431119188666344,-0.009028307162225246,7.783831097185612e-05,0.0,0.0,0.0,0.0,0.0013043041108176112,0.0021096847485750914,0.0020908843725919724,0.9996979832649231,0.0,0.0,0.0,7.437468528747559,3.144078254699707,5.219414710998535,-1346.196533203125,0
237.8829999999998,0.004462073091417551,-0.009063922800123692,8.754666487220675e-05,0.0,0.0,0.0,0.0,-0.0003491925308480859,0.0006562075577676296,-0.0002082411083392799,1.0001418590545654,0.0,0.0,0.0,7.436359405517578,3.1300911903381348,5.226378440856934,-1345.995849609375,0
247.78700000000026,0.004438657313585281,-0.009054327383637428,8.312841964652762e-05,0.0,0.0,0.0,0.0,0.00025596318300813437,0.00015007235924713314,-0.004076963756233454,1.000779390335083,0.0,0.0,0.0,7.436286926269531,3.1298911571502686,5.222321033477783,-1345.982666015625,0
257.71199999999953,0.0044047534465789795,-0.009077701717615128,7.91993152233772e-05,0.0,0.0,0.0,0.0,-0.00203600712120533,0.0016559659270569682,0.0011104572331532836,1.0001217126846313,0.0,0.0,0.0,7.429162979125977,3.1289143562316895,5.219108581542969,-1344.6932373046875,0
267.6139999999996,0.004421736113727093,-0.009039451368153095,2.4190827389247715e-05,0.0,0.0,0.0,0.0,0.0010825319914147258,-0.0020167632028460503,-0.0008852679166011512,0.9984468221664429,0.0,0.0,0.0,7.43533992767334,3.1354784965515137,5.237991809844971,-1345.811279296875,0
277.53499999999985,0.004486395046114922,-0.009075085632503033,6.057004793547094e-05,0.0,0.0,0.0,0.0,0.002291295677423477,-0.001717252074740827,-0.00015980147873051465,0.999427855014801,0.0,0.0,0.0,7.436491966247559,3.125817060470581,5.250040531158447,-1346.019775390625,0
287.4380000000001,0.004496303386986256,-0.009044434875249863,1.7140260752057657e-05,0.0,0.0,0.0,0.0,0.0023166590835899115,0.004448035731911659,0.0009766905568540096,0.9996016025543213,0.0,0.0,0.0,7.4411468505859375,3.1364846229553223,5.259599685668945,-1346.8623046875,0
297.35599999999977,0.004488695878535509,-0.009013890288770199,3.5658638807944953e-05,0.0,0.0,0.0,0.0,0.0009867781773209572,-0.0033611624967306852,0.0008497007074765861,1.0005698204040527,0.0,0.0,0.0,7.439860820770264,3.1314499378204346,5.257051467895508,-1346.629638671875,0
307.253999999999,0.0044722226448357105,-0.009018453769385815,1.352625167783117e-05,0.0,0.0,0.0,0.0,-0.0020220750011503696,-0.0035317924339324236,0.00016830091772135347,0.9997978210449219,0.0,0.0,0.0,7.445083141326904,3.1278138160705566,5.2554030418396,-1347.574951171875,0
317.17299999999886,0.004492116626352072,-0.009042796678841114,1.8907752746599726e-05,0.0,0.0,0.0,0.0,0.0009305266430601478,-0.002390295034274459,-0.0005117987748235464,0.999182403087616,0.0,0.0,0.0,7.44586706161499,3.125838279724121,5.254343032836914,-1347.7166748046875,0
327.0769999999993,0.004477339331060648,-0.009040935896337032,-2.8805723104596836e-06,0.0,0.0,0.0,0.0,-0.00028250738978385925,-0.00132174591999501,-0.0019111665897071362,1.0000405311584473,0.0,0.0,0.0,7.438128471374512,3.1283814907073975,5.24375057220459,-1346.3160400390625,0
337.0119999999988,0.004441254306584597,-0.00901983305811882,-2.4143928385456093e-06,0.0,0.0,0.0,0.0,0.0018459738930687308,-0.0027843033894896507,-0.0014655895065516233,0.9993680715560913,0.0,0.0,0.0,7.441267967224121,3.137279987335205,5.247013092041016,-1346.88427734375,0
346.90200000000004,0.004425460938364267,-0.009014641866087914,-2.6959387469105422e-05,0.0,0.0,0.0,0.0,-0.0028292383067309856,0.0011414552573114634,-0.0028926164377480745,1.000017523765564,0.0,0.0,0.0,7.4470109939575195,3.128887176513672,5.240237236022949,-1347.923828125,0
356.8289999999997,0.004461850039660931,-0.008994683623313904,7.209910563688027e-06,0.0,0.0,0.0,0.0,0.0007176561048254371,0.0005397812929004431,0.001697931787930429,0.9978836178779602,0.0,0.0,0.0,7.446969985961914,3.1350932121276855,5.254090309143066,-1347.9163818359375,0
366.72400000000016,0.004455118905752897,-0.008996021933853626,-2.7973279429716058e-05,0.0,0.0,0.0,0.0,0.0009429086348973215,0.0018845986342057586,0.0005199986626394093,1.001495122909546,0.0,0.0,0.0,7.450443267822266,3.130234479904175,5.248365879058838,-1348.5450439453125,0
376.65999999999985,0.004495782312005758,-0.009025892242789268,-1.700042594166007e-05,0.0,0.0,0.0,0.0,-0.0006911716191098094,0.0030629660468548536,0.0014312771381810308,1.0011804103851318,0.0,0.0,0.0,7.452037334442139,3.1216471195220947,5.2545928955078125,-1348.8336181640625,0
386.5470000000005,0.0044425600208342075,-0.009100337512791157,-1.6624397176201455e-05,0.0,0.0,0.0,0.0,-0.004299198277294636,-0.0004495394532568753,0.002158427145332098,0.9991689920425415,0.0,0.0,0.0,7.444624900817871,3.1125245094299316,5.242763996124268,-1347.491943359375,0
396.46700000000055,0.004461629316210747,-0.009109476581215858,1.784692074124905e-07,0.0,0.0,0.0,0.0,-0.0025169849395751953,0.00149952108040452,-0.003348925383761525,0.9989588260650635,0.0,0.0,0.0,7.443535327911377,3.1118481159210205,5.2461724281311035,-1347.2947998046875,0
406.375,0.004437493160367012,-0.009132935665547848,-1.440257256035693e-05,0.0,0.0,0.0,0.0,-0.0006626210524700582,-0.002639195416122675,-0.0028334595263004303,0.9991791844367981,0.0,0.0,0.0,7.442595481872559,3.104904890060425,5.2439351081848145,-1347.12451171875,0
416.2950000000001,0.004448643419891596,-0.009122442454099655,8.392720701522194e-06,0.0,0.0,0.0,0.0,0.00022570861619897187,-0.0011878394288942218,0.0015760129317641258,0.9986616969108582,0.0,0.0,0.0,7.440804958343506,3.1173341274261475,5.240009307861328,-1346.8004150390625,0
426.20600000000013,0.00438810745254159,-0.009138447232544422,4.294431346352212e-05,0.0,0.0,0.0,0.0,0.006327581591904163,0.0022210371680557728,0.0028642306569963694,1.0006012916564941,0.0,0.0,0.0,7.442263126373291,3.1191506385803223,5.234293460845947,-1347.064453125,0
436.1139999999996,0.004411356523633003,-0.00907452404499054,9.767848678166047e-05,0.0,0.0,0.0,0.0,0.003217573743313551,0.00251154531724751,-0.00020408749696798623,1.0013900995254517,0.0,0.0,0.0,7.446014881134033,3.131258487701416,5.255152702331543,-1347.7435302734375,0
446.02399999999943,0.004447120241820812,-0.00903598964214325,3.150941847707145e-05,0.0,0.0,0.0,0.0,0.0034239026717841625,0.00427538575604558,-0.0001875721209216863,1.001736044883728,0.0,0.0,0.0,7.453330039978027,3.121856451034546,5.251650810241699,-1349.0675048828125,0
455.9390000000003,0.0044863587245345116,-0.009051254019141197,5.8338631788501516e-05,0.0,0.0,0.0,0.0,0.0006194090819917619,0.0014524224679917097,0.001676493207924068,0.9995610117912292,0.0,0.0,0.0,7.456030368804932,3.114596128463745,5.241929531097412,-1349.5562744140625,0
465.84200000000055,0.004456019960343838,-0.0090642673894763,6.772276537958533e-05,0.0,0.0,0.0,0.0,5.377960405894555e-05,0.0023802476935088634,0.0011556815588846803,0.9997122883796692,0.0,0.0,0.0,7.448086738586426,3.108649730682373,5.234886646270752,-1348.1185302734375,0
495.59200000000055,0.004470378626137972,-0.00902057345956564,0.00011174476821906865,0.0,0.0,0.0,0.0,0.004303650464862585,0.0018689885037019849,-0.0013925951207056642,1.0018768310546875,0.0,0.0,0.0,7.456418991088867,3.1215195655822754,5.238235950469971,-1349.6265869140625,0
505.4879999999994,0.004435558803379536,-0.009080681018531322,0.00010190912144025788,0.0,0.0,0.0,0.0,0.0014467184664681554,-0.0034370122011750937,-0.002297244733199477,1.000706672668457,0.0,0.0,0.0,7.458893775939941,3.11049485206604,5.226801872253418,-1350.07470703125,0
515.4069999999992,0.00447618355974555,-0.009113816544413567,0.00013092625886201859,0.0,0.0,0.0,0.0,-0.0011122553842142224,0.0036168922670185566,0.002324467757716775,1.0014704465866089,0.0,0.0,0.0,7.45810079574585,3.100534439086914,5.230260372161865,-1349.93115234375,0
525.3109999999997,0.004434993490576744,-0.009165332652628422,0.00012508276267908514,0.0,0.0,0.0,0.0,0.0013953805901110172,-0.001463695545680821,-0.0021217954345047474,0.9989473223686218,0.0,0.0,0.0,7.449603080749512,3.0936384201049805,5.215945720672607,-1348.3929443359375,0
535.2349999999988,0.004447285085916519,-0.009114954620599747,0.00014342281792778522,0.0,0.0,0.0,0.0,-0.0015365321887657046,-0.002761106938123703,0.0008278812747448683,0.998543918132782,0.0,0.0,0.0,7.459287643432617,3.1007566452026367,5.216285705566406,-1350.1458740234375,0
545.1399999999994,0.00441709253937006,-0.009108053520321846,0.00014001646195538342,0.0,0.0,0.0,0.0,0.00024460721760988235,0.005142595618963242,-0.0016958925407379866,0.9984622001647949,0.0,0.0,0.0,7.45158576965332,3.0991013050079346,5.21878719329834,-1348.7518310546875,0
555.0560000000005,0.0044470289722085,-0.009114967659115791,0.00014361421926878393,0.0,0.0,0.0,0.0,0.002026650821790099,-0.003461958607658744,0.0033106496557593346,0.997207522392273,0.0,0.0,0.0,7.45158576965332,3.0991013050079346,5.21878719329834,-1348.7518310546875,0
564.9580000000005,0.004500070121139288,-0.00903815496712923,7.346581696765497e-05,0.0,0.0,0.0,0.0,4.372911007521907e-06,0.0015376018127426505,-0.0008205482736229897,0.9970790147781372,0.0,0.0,0.0,7.460449695587158,3.101494312286377,5.224551200866699,-1350.356201171875,0
574.893,0.004491749219596386,-0.009051893837749958,7.818409358151257e-05,0.0,0.0,0.0,0.0,0.0007525485125370324,-0.0048768711276352406,0.00202853768132627,0.9986291527748108,0.0,0.0,0.0,7.4636335372924805,3.0977163314819336,5.230186462402344,-1350.9326171875,0
584.7880000000005,0.004495255649089813,-0.009040801785886288,4.0892795368563384e-05,0.0,0.0,0.0,0.0,-0.002655577380210161,-0.002440506825223565,0.0030233636498451233,0.997711718082428,0.0,0.0,0.0,7.469326972961426,3.0973286628723145,5.234062194824219,-1351.9630126953125,0
594.7049999999999,0.00454320665448904,-0.009061813354492188,6.326021684799343e-05,0.0,0.0,0.0,0.0,-0.00031066115479916334,-0.004585089161992073,-0.0013348261127248406,1.0003224611282349,0.0,0.0,0.0,7.468377113342285,3.097113609313965,5.23859977722168,-1351.7911376953125,0
604.616,0.004536862950772047,-0.009047156199812889,4.4415744923753664e-05,0.0,0.0,0.0,0.0,0.0038244922179728746,0.0011546349851414561,0.0004646285087801516,1.0002411603927612,0.0,0.0,0.0,7.472973823547363,3.10906720161438,5.247336387634277,-1352.6231689453125,0
614.5290000000005,0.004517528228461742,-0.00907178781926632,3.801252751145512e-05,0.0,0.0,0.0,0.0,-0.0013682724675163627,-0.0017907952424138784,0.003115920117124915,0.9989515542984009,0.0,0.0,0.0,7.465028285980225,3.107170820236206,5.24345064163208,-1351.1849365234375,0
624.4310000000005,0.004510945174843073,-0.009064419195055962,1.1125947821710724e-05,0.0,0.0,0.0,0.0,0.0004012460703961551,0.004010619595646858,-0.0004016100720036775,0.9984408617019653,0.0,0.0,0.0,7.469829082489014,3.10135817527771,5.247057914733887,-1352.0538330078125,0
634.3510000000006,0.004498457070440054,-0.009022381156682968,3.4337284887442365e-05,0.0,0.0,0.0,0.0,0.0023919162340462208,0.0007719570421613753,0.0006865761242806911,1.000909447669983,0.0,0.0,0.0,7.470325946807861,3.114597797393799,5.244745254516602,-1352.143798828125,0
644.2520000000004,0.004452321212738752,-0.009056922048330307,3.632224252214655e-05,0.0,0.0,0.0,0.0,-0.00024215216399170458,-0.0002408005530014634,-0.0007980570662766695,0.9993627071380615,0.0,0.0,0.0,7.468871116638184,3.102001667022705,5.22299861907959,-1351.8804931640625,0
654.1710000000003,0.004517972469329834,-0.009081082418560982,7.02613324392587e-05,0.0,0.0,0.0,0.0,0.0009996125008910894,-0.0006714599439874291,0.004577867686748505,0.999250590801239,0.0,0.0,0.0,7.461613178253174,3.0982542037963867,5.221426486968994,-1350.5667724609375,0
664.0740000000005,0.004472763743251562,-0.009126419201493263,7.043172809062526e-05,0.0,0.0,0.0,0.0,0.0014839936047792435,0.0008943018037825823,-0.0032653689850121737,0.9986265897750854,0.0,0.0,0.0,7.461202621459961,3.0895674228668213,5.210366249084473,-1350.492431640625,0
673.9939999999988,0.004457755945622921,-0.009061106480658054,0.00011125871969852597,0.0,0.0,0.0,0.0,-0.0015452958177775145,-0.00022631449974142015,0.001820220029912889,0.9991017580032349,0.0,0.0,0.0,7.463473796844482,3.101304292678833,5.216957092285156,-1350.9036865234375,0
683.9069999999992,0.004437336232513189,-0.009049772284924984,9.814603254199028e-05,0.0,0.0,0.0,0.0,-0.0009774758946150541,0.00019603202235884964,0.0014116069069132209,0.9998133778572083,0.0,0.0,0.0,7.463118553161621,3.1019678115844727,5.206336498260498,-1350.8392333984375,0
693.8189999999995,0.004456087481230497,-0.009096384979784489,0.00010814140841830522,0.0,0.0,0.0,0.0,-0.004029720090329647,-0.0021534913685172796,-0.0024613896384835243,1.0012065172195435,0.0,0.0,0.0,7.4573163986206055,3.1030941009521484,5.205966472625732,-1349.7890625,0
703.7219999999998,0.004438780713826418,-0.009072847664356232,9.826450695982203e-05,0.0,0.0,0.0,0.0,-0.0009566173539496958,0.002763723488897085,0.000605449138674885,0.9998990297317505,0.0,0.0,0.0,7.458309173583984,3.1107542514801025,5.211750507354736,-1349.96875,0
713.6409999999996,0.004386478569358587,-0.009054078720510006,0.00010592369653750211,0.0,0.0,0.0,0.0,0.0035196784883737564,-0.002250579884275794,-0.000160769879585132,1.0000578165054321,0.0,0.0,0.0,7.46164083480835,3.125126600265503,5.202873229980469,-1350.5718994140625,0
723.5450000000001,0.004372431430965662,-0.009030148386955261,8.809052815195173e-05,0.0,0.0,0.0,0.0,-0.0019824900664389133,0.001379663124680519,0.0025159826036542654,0.9981597661972046,0.0,0.0,0.0,7.4624199867248535,3.127638578414917,5.2015910148620605,-1350.7127685546875,0
733.4709999999995,0.004430278670042753,-0.009080310352146626,0.00011414595792302862,0.0,0.0,0.0,0.0,-0.001221242593601346,0.0019672412890940905,-0.0013605690328404307,0.9996833205223083,0.0,0.0,0.0,7.463399410247803,3.1187331676483154,5.216833114624023,-1350.89013671875,0
743.3689999999988,0.004409267101436853,-0.009070140309631824,0.00010491752618690953,0.0,0.0,0.0,0.0,0.0015478841960430145,-0.002778917085379362,-0.00017804134404286742,1.001531958580017,0.0,0.0,0.0,7.456777572631836,3.118090867996216,5.221309185028076,-1349.691650390625,0
753.2909999999993,0.004437238443642855,-0.009112823754549026,0.00012204513768665493,0.0,0.0,0.0,0.0,-0.0049692196771502495,0.001117355772294104,-0.0011020932579413056,0.997832179069519,0.0,0.0,0.0,7.4563984870910645,3.1109492778778076,5.222866058349609,-1349.6229248046875,0
763.1949999999997,0.0044260588474571705,-0.00913985911756754,8.373906894121319e-05,0.0,0.0,0.0,0.0,-0.0021824652794748545,-0.00360506703145802,0.0017528040334582329,0.9973278641700745,0.0,0.0,0.0,7.454957485198975,3.107369899749756,5.2175517082214355,-1349.362060546875,0
773.1119999999992,0.004483196884393692,-0.00915145967155695,0.0001270151842618361,0.0,0.0,0.0,0.0,0.001357033266685903,-0.0017077295342460275,0.0013754620449617505,0.999055802822113,0.0,0.0,0.0,7.44713830947876,3.106475830078125,5.216614246368408,-1347.9468994140625,0
783.0149999999994,0.0045172483660280704,-0.009087404236197472,6.949214730411768e-05,0.0,0.0,0.0,0.0,-0.0017996716778725386,0.002722290111705661,0.00016834717825986445,0.9997650384902954,0.0,0.0,0.0,7.453997611999512,3.1175596714019775,5.225064277648926,-1349.1883544921875,0
792.9380000000001,0.0044938428327441216,-0.009104951284825802,6.904581823619083e-05,0.0,0.0,0.0,0.0,7.206180453067645e-05,-0.0004139054799452424,0.000895716599188745,1.0001834630966187,0.0,0.0,0.0,7.455397605895996,3.1165380477905273,5.218175888061523,-1349.44189453125,0
802.8389999999999,0.00451600132510066,-0.009051128290593624,1.5240646462189034e-05,0.0,0.0,0.0,0.0,-0.0014120585983619094,-0.0014657194260507822,-0.001403690199367702,0.9978668689727783,0.0,0.0,0.0,7.45791482925415,3.1322426795959473,5.218050479888916,-1349.8973388671875,0
812.7579999999998,0.004550487268716097,-0.009079266339540482,3.1767183827469125e-05,0.0,0.0,0.0,0.0,-0.003397588152438402,0.0009443287854082882,0.0023467964492738247,0.9978306293487549,0.0,0.0,0.0,7.450070381164551,3.129389524459839,5.22255802154541,-1348.4775390625,0
822.6620000000003,0.004540450405329466,-0.009051674976944923,7.292730515473522e-06,0.0,0.0,0.0,0.0,0.0012029766803607345,0.0028129618149250746,0.0011639430886134505,1.0001648664474487,0.0,0.0,0.0,7.450160980224609,3.1389312744140625,5.2276716232299805,-1348.493896484375,0
832.5849999999991,0.0045157670974731445,-0.009051133878529072,7.713353625149466e-06,0.0,0.0,0.0,0.0,-0.0017571948701515794,0.0013849937822669744,-0.005489388946443796,0.9995330572128296,0.0,0.0,0.0,7.45324182510376,3.138413667678833,5.223943710327148,-1349.0516357421875,0
842.491,0.004519231151789427,-0.009019351564347744,-3.785278750001453e-05,0.0,0.0,0.0,0.0,0.0017418580828234553,0.0023259695153683424,-0.002842369955033064,1.0003979206085205,0.0,0.0,0.0,7.451876640319824,3.150522470474243,5.218567848205566,-1348.8045654296875,0
852.4040000000005,0.004523145966231823,-0.009031948633491993,-3.1139621569309384e-05,0.0,0.0,0.0,0.0,0.0026796101592481136,-0.0002895395737141371,-0.0018578515155240893,0.9992227554321289,0.0,0.0,0.0,7.451138496398926,3.143950939178467,5.218600273132324,-1348.6708984375,0
862.3099999999995,0.004476264584809542,-0.009044105187058449,-8.395313489018008e-05,0.0,0.0,0.0,0.0,0.0011763565707951784,-0.004490937106311321,0.0015269394498318434,0.9991670846939087,0.0,0.0,0.0,7.444644451141357,3.1379032135009766,5.226200103759766,-1347.4954833984375,0
872.2309999999998,0.00451522134244442,-0.008973360061645508,-4.543991599348374e-05,0.0,0.0,0.0,0.0,0.0035741757601499557,-0.0018101171590387821,0.0021847644820809364,1.0001602172851562,0.0,0.0,0.0,7.453086853027344,3.14772629737854,5.231825351715088,-1349.0235595703125,0
882.1360000000004,0.0044282712042331696,-0.009036891162395477,-6.928063521627337e-05,0.0,0.0,0.0,0.0,0.003928560297936201,-0.0003311792388558388,0.00015666575927753001,0.999442994594574,0.0,0.0,0.0,7.438879013061523,3.1337196826934814,5.2352294921875,-1346.451904296875,0
892.0509999999995,0.0044447691179811954,-0.00900103896856308,-5.569288259721361e-05,0.0,0.0,0.0,0.0,-0.0016608007717877626,0.0019664603751152754,3.891299638780765e-05,0.9987368583679199,0.0,0.0,0.0,7.449654579162598,3.14133358001709,5.237216949462891,-1348.4022216796875,0
901.9560000000001,0.004392498638480902,-0.009037015028297901,-6.749355816282332e-05,0.0,0.0,0.0,0.0,-0.0022001503966748714,0.003827871521934867,-7.880719203967601e-05,0.9990275502204895,0.0,0.0,0.0,7.442041397094727,3.1348812580108643,5.2324538230896,-1347.0242919921875,0
911.8799999999992,0.004393022041767836,-0.009035695344209671,-5.757186590926722e-05,0.0,0.0,0.0,0.0,-0.003369217971339822,3.846795516437851e-05,-0.0006938019068911672,1.0000230073928833,0.0,0.0,0.0,7.445834636688232,3.1364026069641113,5.236696720123291,-1347.7109375,0
921.7819999999992,0.004344247281551361,-0.009069368243217468,-6.810224294895306e-05,0.0,0.0,0.0,0.0,0.0019921951461583376,0.0015045368345454335,-0.0016080746427178383,0.998649001121521,0.0,0.0,0.0,7.437733173370361,3.1317193508148193,5.227956295013428,-1346.2445068359375,0
931.7029999999995,0.00439379271119833,-0.009089951403439045,-5.066422090749256e-05,0.0,0.0,0.0,0.0,-0.0004365346976555884,-0.00066959741525352,0.0017312521813437343,0.9993599057197571,0.0,0.0,0.0,7.438359260559082,3.127107858657837,5.248856067657471,-1346.3577880859375,0
941.6049999999996,0.00434891926124692,-0.009124509058892727,-5.942464849795215e-05,0.0,0.0,0.0,0.0,-0.00016879082249943167,-0.0021438542753458023,-0.0009798327228054404,1.000849962234497,0.0,0.0,0.0,7.431396484375,3.1247336864471436,5.252480983734131,-1345.0975341796875,0
951.527,0.004347188863903284,-0.009098077192902565,-3.721260873135179e-05,0.0,0.0,0.0,0.0,-0.0006329466123133898,-0.0018313879845663905,0.0015399644616991282,0.9988903403282166,0.0,0.0,0.0,7.434783458709717,3.1448862552642822,5.269470691680908,-1345.7105712890625,0
961.4390000000003,0.004303698427975178,-0.009129307232797146,-4.332956450525671e-05,0.0,0.0,0.0,0.0,0.0024271307047456503,0.006572345271706581,0.00028777820989489555,1.0033437013626099,0.0,0.0,0.0,7.4277448654174805,3.1479196548461914,5.263452053070068,-1344.436767578125,0
971.3459999999995,0.004395473748445511,-0.009132658131420612,4.023494057037169e-06,0.0,0.0,0.0,0.0,0.0025692523922771215,0.0009562323102727532,-0.0012173389550298452,1.001475214958191,0.0,0.0,0.0,7.426916122436523,3.1374528408050537,5.316375255584717,-1344.28662109375,0
981.259,0.004362660925835371,-0.009164773859083652,5.634856734104687e-06,0.0,0.0,0.0,0.0,-0.0021633922588080168,-0.0010508941486477852,-0.0024361240211874247,1.0005916357040405,0.0,0.0,0.0,7.419766426086426,3.132493019104004,5.310533046722412,-1342.9925537109375,0
991.1749999999993,0.004382627084851265,-0.009168985299766064,4.3207524868194014e-05,0.0,0.0,0.0,0.0,-0.00023610549396835268,0.0006879835855215788,-0.0019979681819677353,0.9994162917137146,0.0,0.0,0.0,7.424983024597168,3.136857032775879,5.330682277679443,-1343.936767578125,0
1001.0820000000003,0.004353660624474287,-0.009200634434819221,5.073063221061602e-05,0.0,0.0,0.0,0.0,0.0007273727678693831,-0.0013476043241098523,-0.0025178948417305946,0.999106228351593,0.0,0.0,0.0,7.4181365966796875,3.1307621002197266,5.332674026489258,-1342.697509765625,0
1010.9920000000002,0.004363479558378458,-0.009202788583934307,8.909521420719102e-05,0.0,0.0,0.0,0.0,-0.0021384316496551037,-0.0032371641136705875,-0.0003780473780352622,0.998714804649353,0.0,0.0,0.0,7.419950008392334,3.135619878768921,5.333517551422119,-1343.0257568359375,0
1020.905999999999,0.004339809063822031,-0.00923184398561716,9.843934822129086e-05,0.0,0.0,0.0,0.0,0.0003020554140675813,8.609198266640306e-05,0.0019914470613002777,0.9970171451568604,0.0,0.0,0.0,7.412476062774658,3.1286633014678955,5.327576160430908,-1341.6728515625,0
1030.824999999999,0.004393159877508879,-0.009207796305418015,0.0001653422659728676,0.0,0.0,0.0,0.0,-0.0023736211005598307,-0.0006086936919018626,-0.00037156566395424306,0.9999369382858276,0.0,0.0,0.0,7.41548490524292,3.1421396732330322,5.374709606170654,-1342.2174072265625,0
1040.7309999999998,0.004373769275844097,-0.00923357717692852,0.00017655300325714052,0.0,0.0,0.0,0.0,0.0024762656539678574,-0.004367207642644644,0.00225240271538496,1.0002323389053345,0.0,0.0,0.0,7.406650543212891,3.136805772781372,5.3693623542785645,-1340.6185302734375,0
1050.6360000000004,0.004375610500574112,-0.009232718497514725,0.00021520091104321182,0.0,0.0,0.0,0.0,-0.00010554263280937448,-0.002892302116379142,0.0035759422462433577,1.0001665353775024,0.0,0.0,0.0,7.4000725746154785,3.1361138820648193,5.37166690826416,-1339.427734375,0
1060.5479999999989,0.004355500917881727,-0.00925732683390379,0.0002290648699272424,0.0,0.0,0.0,0.0,-0.0010824943892657757,0.004289715550839901,1.6602933101239614e-05,1.000271201133728,0.0,0.0,0.0,7.3927154541015625,3.1314475536346436,5.374504566192627,-1338.0963134765625,0
1070.4560000000001,0.004349498078227043,-0.00925240945070982,0.00026953796623274684,0.0,0.0,0.0,0.0,0.0020940296817570925,0.0017796469619497657,-0.0034439165610820055,0.998874306678772,0.0,0.0,0.0,7.394683361053467,3.1392500400543213,5.369814872741699,-1338.452392578125,0
1080.3779999999988,0.00432933634147048,-0.009275196120142937,0.00028608867432922125,0.0,0.0,0.0,0.0,0.0018916837871074677,0.0009556138538755476,0.0007319655851460993,0.9998807311058044,0.0,0.0,0.0,7.38636589050293,3.126412868499756,5.3608574867248535,-1336.947021484375,0
1090.2970000000005,0.004308020696043968,-0.009298767894506454,0.00030197022715583444,0.0,0.0,0.0,0.0,-0.0010766761843115091,0.002745586447417736,-0.0029974153731018305,1.0011190176010132,0.0,0.0,0.0,7.378095626831055,3.124743700027466,5.354259014129639,-1335.449951171875,0
1100.1990000000005,0.0042853401973843575,-0.00932328775525093,0.0003177298931404948,0.0,0.0,0.0,0.0,-0.0006877703708596528,-0.0032481735106557608,0.0028979326598346233,0.9979580044746399,0.0,0.0,0.0,7.370169162750244,3.1173176765441895,5.341794967651367,-1334.015380859375,0
1110.107,0.004261010326445103,-0.009348295629024506,0.0003337111556902528,0.0,0.0,0.0,0.0,0.0002867572766263038,0.0023135191295295954,0.002028990536928177,0.9982977509498596,0.0,0.0,0.0,7.363647937774658,3.1109635829925537,5.34897518157959,-1332.8349609375,0
1120.0249999999996,0.004499520640820265,-0.009064486250281334,-0.0002149169595213607,0.0,0.0,0.0,0.0,7.949684368213639e-05,0.0002055322693195194,0.0009687397396191955,0.9982293844223022,0.0,0.0,0.0,7.375417232513428,3.158254384994507,5.3971781730651855,-1334.9652099609375,0
1129.9310000000005,0.004484673961997032,-0.009075552225112915,-0.00022189259470906109,0.0,0.0,0.0,0.0,4.6272307372419164e-05,-0.00020606030011549592,0.0026976040098816156,0.99970543384552,0.0,0.0,0.0,7.368683338165283,3.1586272716522217,5.3889384269714355,-1333.7464599609375,0
1139.8580000000002,0.00446706498041749,-0.009019918739795685,-0.00016955408500507474,0.0,0.0,0.0,0.0,-0.00036725070094689727,0.0008341027423739433,8.200355659937486e-05,0.9995763897895813,0.0,0.0,0.0,7.3772406578063965,3.169924736022949,5.385515213012695,-1335.295166015625,0
1149.7520000000004,0.0044510806910693645,-0.009028568863868713,-0.0001745085173752159,0.0,0.0,0.0,0.0,0.0002819602086674422,-0.0004968922003172338,0.000771781022194773,1.0028976202011108,0.0,0.0,0.0,7.37060022354126,3.1693196296691895,5.377652168273926,-1334.0933837890625,0
1159.6729999999989,0.004408322274684906,-0.009037497453391552,-0.00010714218660723418,0.0,0.0,0.0,0.0,0.002034868113696575,-0.002641502767801285,-0.0009823081782087684,1.0006930828094482,0.0,0.0,0.0,7.370975971221924,3.1660823822021484,5.3709397315979,-1334.1612548828125,0
1169.5789999999997,0.004388187080621719,-0.00904808472841978,-0.00010621371620800346,0.0,0.0,0.0,0.0,-0.002542028669267893,-0.0021643650252372026,-0.00017862522508949041,1.0021859407424927,0.0,0.0,0.0,7.363124370574951,3.164625406265259,5.367257595062256,-1332.7401123046875,0
1179.4930000000004,0.0043608322739601135,-0.009035809896886349,-7.671979983570054e-05,0.0,0.0,0.0,0.0,-0.00029676291160285473,0.005360217299312353,0.0017636277480050921,0.9999845623970032,0.0,0.0,0.0,7.37011194229126,3.168593406677246,5.369956016540527,-1334.0050048828125,0
1189.4049999999988,0.004338496830314398,-0.009046506136655807,-7.056282629491761e-05,0.0,0.0,0.0,0.0,8.068025636021048e-05,-0.0043373629450798035,-0.0038793927524238825,0.9987190365791321,0.0,0.0,0.0,7.3609771728515625,3.1658780574798584,5.362212181091309,-1332.3516845703125,0
1199.3150000000005,0.004293172154575586,-0.009043779224157333,-4.697509575635195e-05,0.0,0.0,0.0,0.0,0.001077186199836433,0.001669841120019555,-0.004302141722291708,0.9991881251335144,0.0,0.0,0.0,7.357112884521484,3.162946939468384,5.345404624938965,-1331.652099609375,0
1209.2189999999991,0.004293172154575586,-0.009043779224157333,-4.697509575635195e-05,0.0,0.0,0.0,0.0,-9.634705929784104e-05,-2.2984408133197576e-05,0.0018248845590278506,0.9990697503089905,0.0,0.0,0.0,7.357112884521484,3.162946939468384,5.345404624938965,-1331.652099609375,0
1219.137999999999,0.004222704563289881,-0.009089555591344833,6.8681779339385685e-06,0.0,0.0,0.0,0.0,-0.0012273016618564725,-0.004769043531268835,-0.00018299063958693296,0.9983091354370117,0.0,0.0,0.0,7.357423782348633,3.145895481109619,5.331053256988525,-1331.7083740234375,0
1229.0419999999995,0.004222704563289881,-0.009089555591344833,6.8681779339385685e-06,0.0,0.0,0.0,0.0,-0.001810601563192904,0.002046074951067567,-0.001694865757599473,0.998853862285614,0.0,0.0,0.0,7.357423782348633,3.145895481109619,5.331053256988525,-1331.7083740234375,0
1238.9609999999993,0.004186437930911779,-0.00912955217063427,1.7017933714669198e-05,0.0,0.0,0.0,0.0,0.002522358438000083,0.0015597883611917496,0.0014926264993846416,0.99837726354599,0.0,0.0,0.0,7.361544132232666,3.1369524002075195,5.330570220947266,-1332.4542236328125,0
1248.8670000000002,0.004159150179475546,-0.009148361161351204,2.3088818124961108e-05,0.0,0.0,0.0,0.0,0.000603600696194917,-0.0011556665413081646,0.0032272222451865673,0.998522937297821,0.0,0.0,0.0,7.353277206420898,3.1380460262298584,5.312704086303711,-1330.957763671875,0
1258.7909999999993,0.004171053878962994,-0.009126854129135609,-2.5995042960857973e-05,0.0,0.0,0.0,0.0,-0.0017310291295871139,0.003940941300243139,-0.004234134219586849,0.9997727274894714,0.0,0.0,0.0,7.360006332397461,3.140021800994873,5.315335750579834,-1332.17578125,0
1268.691999999999,0.0041477312333881855,-0.009144632145762444,-2.7528931241249666e-05,0.0,0.0,0.0,0.0,-0.0012462714221328497,-0.0006163148791529238,-0.0012739304220303893,1.000001311302185,0.0,0.0,0.0,7.352621555328369,3.139127492904663,5.31492280960083,-1330.8389892578125,0
1278.6099999999988,0.004155481234192848,-0.009080461226403713,-4.2762716475408524e-05,0.0,0.0,0.0,0.0,-0.0012100694002583623,0.005557044874876738,0.0014151233481243253,1.001625657081604,0.0,0.0,0.0,7.358159065246582,3.15669846534729,5.31759786605835,-1331.8414306640625,0
1288.518,0.004132292233407497,-0.009095795452594757,-4.612621705746278e-05,0.0,0.0,0.0,0.0,-0.0007004725048318505,-0.00358534324914217,3.483569889795035e-05,0.9995012283325195,0.0,0.0,0.0,7.349943161010742,3.156301259994507,5.314478397369385,-1330.354248046875,0
1298.4480000000003,0.00413313927128911,-0.009064001962542534,-6.482173193944618e-05,0.0,0.0,0.0,0.0,0.0006424383609555662,-0.0016115661710500717,0.0008943580323830247,0.9995691180229187,0.0,0.0,0.0,7.358345985412598,3.164872884750366,5.320118427276611,-1331.875244140625,0
1308.3349999999991,0.004110093228518963,-0.00907859019935131,-6.903768371557817e-05,0.0,0.0,0.0,0.0,-0.0001620426046429202,-0.0012398394756019115,-0.0008435227791778743,1.000015377998352,0.0,0.0,0.0,7.34929084777832,3.163221836090088,5.315880298614502,-1330.2362060546875,0
1318.253999999999,0.004125174134969711,-0.0090434355661273,-0.00011035874194931239,0.0,0.0,0.0,0.0,0.0021674581803381443,0.002494081621989608,-0.0034595346078276634,1.0005943775177002,0.0,0.0,0.0,7.360916614532471,3.180935859680176,5.331681728363037,-1332.3406982421875,0
1328.1579999999994,0.004403390921652317,-0.009117077104747295,0.00014197076961863786,0.0,0.0,0.0,0.0,-0.0008439284283667803,0.0029583799187093973,0.0024996569845825434,0.9978092312812805,0.0,0.0,0.0,7.36836051940918,3.1555826663970947,5.383073806762695,-1333.68798828125,0
1338.0849999999991,0.0044607436284422874,-0.009027032181620598,7.367470243480057e-05,0.0,0.0,0.0,0.0,0.00031779479468241334,-0.0035176905803382397,-0.0006193379522301257,0.9993066191673279,0.0,0.0,0.0,7.380828380584717,3.1618261337280273,5.397397994995117,-1335.944580078125,0
1347.9969999999994,0.004570006858557463,-0.009030464105308056,8.018589142011479e-05,0.0,0.0,0.0,0.0,-0.0005541675491258502,0.0012566382065415382,-0.00039140693843364716,0.9986482858657837,0.0,0.0,0.0,7.399582386016846,3.1557505130767822,5.402719974517822,-1339.339111328125,0
1357.905999999999,0.004563530907034874,-0.009041352197527885,7.484239904442802e-05,0.0,0.0,0.0,0.0,0.0010889011900871992,-0.00399120943620801,-0.0008942331769503653,0.9996281266212463,0.0,0.0,0.0,7.393097877502441,3.1556859016418457,5.396054744720459,-1338.16552734375,0
1367.8060000000005,0.004491976462304592,-0.008983602747321129,1.237249125551898e-05,0.0,0.0,0.0,0.0,0.001638746471144259,0.0007662401767447591,-0.0002204704942414537,0.9973081946372986,0.0,0.0,0.0,7.42116641998291,3.1580893993377686,5.390198230743408,-1343.245849609375,0
1377.7209999999995,0.004479455761611462,-0.008996131829917431,1.4691777323605493e-06,0.0,0.0,0.0,0.0,0.001853025401942432,0.004239176400005817,-0.00032071073655970395,0.99845290184021,0.0,0.0,0.0,7.4133195877075195,3.157248020172119,5.38547420501709,-1341.8255615234375,0
1387.628999999999,0.004462194629013538,-0.00906437635421753,5.9816288739966694e-06,0.0,0.0,0.0,0.0,0.0001474645541748032,-0.0009978209855034947,-0.0021710891742259264,0.9975665211677551,0.0,0.0,0.0,7.425127983093262,3.1399104595184326,5.367218971252441,-1343.9630126953125,0
1397.5429999999997,0.004445822909474373,-0.009083027020096779,-7.5055518209410366e-06,0.0,0.0,0.0,0.0,-0.00017800924251787364,0.0007943856180645525,-0.0015424818266183138,0.9984418749809265,0.0,0.0,0.0,7.417872905731201,3.1351311206817627,5.359050750732422,-1342.6497802734375,0
1407.4529999999995,0.004451326560229063,-0.009084980934858322,1.185192377306521e-05,0.0,0.0,0.0,0.0,0.0005544389714486897,-0.0011476307408884168,0.00029612588696181774,1.000950574874878,0.0,0.0,0.0,7.438926696777344,3.126307964324951,5.358627796173096,-1346.4605712890625,0
1417.3639999999996,0.004432274028658867,-0.009105774573981762,-1.6742560546845198e-06,0.0,0.0,0.0,0.0,-0.0009922191966325045,0.002226428594440222,0.0041092634201049805,1.0018706321716309,0.0,0.0,0.0,7.431039810180664,3.12054443359375,5.355259895324707,-1345.032958984375,0
1427.2759999999998,0.004456133581697941,-0.009093069471418858,1.851825072662905e-05,0.0,0.0,0.0,0.0,0.0006592805148102343,-0.0074544320814311504,-0.0003795259108301252,1.0021309852600098,0.0,0.0,0.0,7.44129753112793,3.1237807273864746,5.352864742279053,-1346.8897705078125,0
1437.191999999999,0.004435358103364706,-0.009115832857787609,1.066394179360941e-05,0.0,0.0,0.0,0.0,0.000624540785793215,0.0028116623871028423,-0.0005906224832870066,1.0003900527954102,0.0,0.0,0.0,7.433255195617676,3.1248533725738525,5.352846145629883,-1345.4339599609375,0
1447.0990000000002,0.004457877948880196,-0.009117580950260162,2.1496247427421622e-05,0.0,0.0,0.0,0.0,-0.001933527528308332,-0.004382216837257147,-0.0008305666851811111,0.9974005222320557,0.0,0.0,0.0,7.445399284362793,3.1230483055114746,5.3558878898620605,-1347.632080078125,0
1457.0110000000004,0.004435342270880938,-0.009141205810010433,1.6798598153400235e-05,0.0,0.0,0.0,0.0,0.00017407830455340445,0.002479242393746972,-0.0028359494172036648,0.9992232322692871,0.0,0.0,0.0,7.438222408294678,3.1219663619995117,5.35382604598999,-1346.3330078125,0
1466.9229999999989,0.004490501247346401,-0.009004508145153522,2.0594423403963447e-05,0.0,0.0,0.0,0.0,-0.00011981935676885769,0.003989716526120901,0.0016809700755402446,0.9992137551307678,0.0,0.0,0.0,7.4548258781433105,3.13546085357666,5.365261077880859,-1349.33837890625,0
1476.833999999999,0.004466156009584665,-0.009026948362588882,1.4132645446807146e-05,0.0,0.0,0.0,0.0,-0.001963222399353981,-0.0023297579027712345,-0.0006302595720626414,1.0002634525299072,0.0,0.0,0.0,7.447547435760498,3.133267402648926,5.3612961769104,-1348.0208740234375,0
1486.7459999999992,0.004526532720774412,-0.009006846696138382,-8.008833901840262e-06,0.0,0.0,0.0,0.0,-0.001429761410690844,0.0010315871331840754,-0.000683225633110851,1.0003461837768555,0.0,0.0,0.0,7.467536926269531,3.135573387145996,5.360771656036377,-1351.638916015625,0
1496.6569999999992,0.004500341601669788,-0.009030923247337341,-1.5715702829766087e-05,0.0,0.0,0.0,0.0,-0.001388793345540762,-0.003472438780590892,0.0009317764197476208,0.9983527660369873,0.0,0.0,0.0,7.459956169128418,3.131120204925537,5.360150337219238,-1350.2669677734375,0
1506.5699999999997,0.0045071737840771675,-0.009036283940076828,-1.4380467291630339e-05,0.0,0.0,0.0,0.0,0.0005538865807466209,0.0004150029562879354,-0.0019612594041973352,0.9999053478240967,0.0,0.0,0.0,7.4719672203063965,3.1323864459991455,5.3619890213012695,-1352.4407958984375,0
1516.4809999999998,0.004480378702282906,-0.009061932563781738,-2.229606980108656e-05,0.0,0.0,0.0,0.0,0.002572908066213131,0.0052168904803693295,0.0024839823599904776,0.9986735582351685,0.0,0.0,0.0,7.46406888961792,3.1219375133514404,5.363678932189941,-1351.01123046875,0
1526.393,0.004492111969739199,-0.009040504693984985,-6.211585059645586e-06,0.0,0.0,0.0,0.0,-0.0002705883525777608,-0.0006450904184021056,-0.00047749056830070913,0.9991585612297058,0.0,0.0,0.0,7.477965831756592,3.1192879676818848,5.353983402252197,-1353.5267333984375,0
1536.3150000000005,0.0044630724005401134,-0.009066789411008358,-1.3209368262323551e-05,0.0,0.0,0.0,0.0,0.0021648514084517956,0.006970122456550598,-0.004658860620111227,0.9999650716781616,0.0,0.0,0.0,7.47068977355957,3.1179678440093994,5.345548629760742,-1352.2095947265625,0
1546.2160000000003,0.004524897318333387,-0.009065017104148865,-3.799328987952322e-05,0.0,0.0,0.0,0.0,-0.0030298649799078703,-0.00010243738506687805,0.0008823045063763857,1.00188148021698,0.0,0.0,0.0,7.478835582733154,3.1139745712280273,5.346834182739258,-1353.6842041015625,0
1556.1279999999988,0.004493675194680691,-0.009091890417039394,-4.675429954659194e-05,0.0,0.0,0.0,0.0,-0.0011006806744262576,-0.000532807782292366,-0.0017844262765720487,0.999640941619873,0.0,0.0,0.0,7.4700751304626465,3.110917806625366,5.335374355316162,-1352.098388671875,0
1566.0470000000005,0.0044982535764575005,-0.0090641425922513,-5.643195618176833e-05,0.0,0.0,0.0,0.0,0.0004534459440037608,0.00040308479219675064,0.001372697064653039,1.0009320974349976,0.0,0.0,0.0,7.476703643798828,3.115644693374634,5.332239151000977,-1353.298095703125,0
1575.9719999999998,0.004513484425842762,-0.009074075147509575,-4.2513474909355864e-05,0.0,0.0,0.0,0.0,0.0017651007510721684,-0.007931733503937721,0.0002962062135338783,1.0014071464538574,0.0,0.0,0.0,7.469956398010254,3.114511013031006,5.33853816986084,-1352.076904296875,0
1585.8649999999998,0.004468915052711964,-0.009082987904548645,-2.675810355867725e-05,0.0,0.0,0.0,0.0,-0.00017697921430226415,-0.00010135352931683883,0.002076407428830862,1.0010623931884766,0.0,0.0,0.0,7.462237358093262,3.1179778575897217,5.335067272186279,-1350.6798095703125,0
1595.777,0.004433557391166687,-0.00910759624093771,-2.8427848519640975e-05,0.0,0.0,0.0,0.0,-0.0009390460909344256,-0.0027228612452745438,0.0013341761659830809,0.9987155795097351,0.0,0.0,0.0,7.455475330352783,3.1075708866119385,5.344772815704346,-1349.4559326171875,0
1605.691999999999,0.0044464534148573875,-0.009068376384675503,1.1943630852329079e-05,0.0,0.0,0.0,0.0,-0.00024614777066744864,0.0002688250388018787,0.002804645337164402,1.0008695125579834,0.0,0.0,0.0,7.467894554138184,3.11613392829895,5.348977565765381,-1351.7037353515625,0
1615.601999999999,0.004467620048671961,-0.00907955877482891,3.791408380493522e-05,0.0,0.0,0.0,0.0,-0.0009165029041469097,-0.00033806703868322074,-0.0002532507642172277,1.0006539821624756,0.0,0.0,0.0,7.469640254974365,3.1137843132019043,5.349979877471924,-1352.019775390625,0
1625.5200000000004,0.004437164403498173,-0.009071677923202515,4.741379962069914e-05,0.0,0.0,0.0,0.0,0.0028537760954350233,0.001692288788035512,-0.0002799885405693203,0.9997982978820801,0.0,0.0,0.0,7.471554756164551,3.1130146980285645,5.35132360458374,-1352.3662109375,0
1635.4310000000005,0.004467246122658253,-0.009074852801859379,8.236592111643404e-05,0.0,0.0,0.0,0.0,0.002989090047776699,-6.729732558596879e-05,-0.0028869807720184326,1.0009771585464478,0.0,0.0,0.0,7.474656581878662,3.1107378005981445,5.355796813964844,-1352.9276123046875,0
1645.3469999999998,0.004472382832318544,-0.009044826962053776,6.223320087883621e-05,0.0,0.0,0.0,0.0,-0.0020787131506949663,0.0008669677772559226,0.0001986092684092,1.0009212493896484,0.0,0.0,0.0,7.477696895599365,3.1130356788635254,5.354740142822266,-1353.4781494140625,0
1655.244999999999,0.004484442062675953,-0.009077209047973156,7.866198575356975e-05,0.0,0.0,0.0,0.0,-0.0006795787485316396,-0.003017769893631339,0.002866163616999984,1.0007026195526123,0.0,0.0,0.0,7.4698710441589355,3.1145334243774414,5.351870536804199,-1352.0614013671875,0
1665.1639999999989,0.004469487816095352,-0.009064238518476486,8.198391151381657e-05,0.0,0.0,0.0,0.0,-0.0020857644267380238,-0.006480515003204346,-0.004163790959864855,1.0016729831695557,0.0,0.0,0.0,7.469311714172363,3.12054705619812,5.358010768890381,-1351.9603271484375,0
1675.071,0.004412658978253603,-0.009051698260009289,8.91481977305375e-05,0.0,0.0,0.0,0.0,0.0013602207181975245,-0.004442629870027304,0.0011670971289277077,1.0008277893066406,0.0,0.0,0.0,7.469105243682861,3.123659133911133,5.351169109344482,-1351.9228515625,0
1684.9959999999992,0.004343146923929453,-0.00913721788674593,0.00012051339581375942,0.0,0.0,0.0,0.0,-0.00015848844486754388,0.005026168189942837,-0.0024525707121938467,1.0004092454910278,0.0,0.0,0.0,7.46975564956665,3.1102819442749023,5.355008602142334,-1352.04052734375,0
1694.8959999999988,0.004392426460981369,-0.009130049496889114,0.0001777428697096184,0.0,0.0,0.0,0.0,-0.0013119878713041544,-0.0017129735788330436,0.0009743944392539561,0.9992831349372864,0.0,0.0,0.0,7.473820686340332,3.113870859146118,5.361326217651367,-1352.7763671875,0
1704.8099999999995,0.004361873958259821,-0.009163564071059227,0.00018958050350192934,0.0,0.0,0.0,0.0,5.4215365707932506e-06,-0.006572278216481209,-0.00015926139894872904,1.000760793685913,0.0,0.0,0.0,7.464909076690674,3.108229637145996,5.3581743240356445,-1351.163330078125,0
1714.7150000000001,0.004453265108168125,-0.00922398641705513,0.00024222437059506774,0.0,0.0,0.0,0.0,-0.001500563696026802,0.0023828388657420874,0.0026915923226624727,1.0000959634780884,0.0,0.0,0.0,7.465254783630371,3.0958566665649414,5.372768878936768,-1351.2259521484375,0
1724.634,0.004434817936271429,-0.009231791831552982,0.0002571521035861224,0.0,0.0,0.0,0.0,-0.0015869070775806904,-0.0005946070305071771,-0.0006745397113263607,1.0000265836715698,0.0,0.0,0.0,7.46879768371582,3.0991814136505127,5.375789165496826,-1351.8671875,0
1734.5380000000005,0.004503051750361919,-0.009275844320654869,0.0003086288343183696,0.0,0.0,0.0,0.0,-0.0004452365974429995,-0.00040068532689474523,-0.0006320176180452108,0.9991534948348999,0.0,0.0,0.0,7.461909770965576,3.096585988998413,5.366888523101807,-1350.6204833984375,0
1744.4570000000003,0.004513602238148451,-0.009211496450006962,0.0003233259485568851,0.0,0.0,0.0,0.0,0.0005627170321531594,-0.003639182774350047,0.00023599473934154958,1.0017489194869995,0.0,0.0,0.0,7.465671062469482,3.1033670902252197,5.371568202972412,-1351.3013916015625,0
1754.3639999999996,0.00450870580971241,-0.009275618940591812,0.00033695693127810955,0.0,0.0,0.0,0.0,0.001639972673729062,0.0008126770844683051,-0.003845097729936242,1.001503586769104,0.0,0.0,0.0,7.471412181854248,3.08935284614563,5.369999408721924,-1352.3404541015625,0
1764.289999999999,0.00455600768327713,-0.009225715883076191,0.0002913917996920645,0.0,0.0,0.0,0.0,-0.001135139144025743,0.0034832609817385674,-0.0033205465879291296,0.9991650581359863,0.0,0.0,0.0,7.471346378326416,3.096269130706787,5.37988805770874,-1352.32861328125,0
1774.1849999999995,0.0044428021647036076,-0.009176571853458881,0.000303854001685977,0.0,0.0,0.0,0.0,0.003158406587317586,-0.0017278458690270782,-0.0003306304570287466,0.9989401698112488,0.0,0.0,0.0,7.472979545593262,3.103853702545166,5.347102165222168,-1352.6241455078125,0
1784.1090000000004,0.004518874920904636,-0.00907280296087265,0.00023454756592400372,0.0,0.0,0.0,0.0,0.001503518084064126,0.001241616322658956,0.001284560770727694,0.9981537461280823,0.0,0.0,0.0,7.4749755859375,3.117511749267578,5.363090515136719,-1352.9853515625,0
1794.0079999999998,0.004456232767552137,-0.009043456986546516,0.0002512133796699345,0.0,0.0,0.0,0.0,0.0010182454716414213,0.0010062555084004998,0.003749196184799075,0.9981866478919983,0.0,0.0,0.0,7.467773914337158,3.103580951690674,5.352039813995361,-1351.681884765625,0
1803.9310000000005,0.004456972703337669,-0.009035400114953518,0.00023021952074486762,0.0,0.0,0.0,0.0,-0.0010666069574654102,0.0032348246313631535,-0.004869729280471802,0.9990074038505554,0.0,0.0,0.0,7.466640472412109,3.1017088890075684,5.35252046585083,-1351.4766845703125,0
1813.8320000000003,0.004438125528395176,-0.00904078595340252,0.00024460005806759,0.0,0.0,0.0,0.0,0.0031853639520704746,-0.00042180600576102734,-0.0016070002457126975,0.9994542598724365,0.0,0.0,0.0,7.466540336608887,3.102470874786377,5.351873397827148,-1351.4586181640625,0
1823.753999999999,0.004483041353523731,-0.009010223671793938,0.00017022334213834256,0.0,0.0,0.0,0.0,0.0018849213374778628,-0.0005014676135033369,0.004225921351462603,0.9986146688461304,0.0,0.0,0.0,7.472163200378418,3.11000394821167,5.354032039642334,-1352.4764404296875,0
1833.6569999999992,0.004474432673305273,-0.00905484240502119,0.00016456122102681547,0.0,0.0,0.0,0.0,-0.00026926741702482104,0.001841981546021998,-0.0035822002682834864,0.9978461265563965,0.0,0.0,0.0,7.471536636352539,3.0897374153137207,5.344361782073975,-1352.3629150390625,0
1843.574999999999,0.0044661471620202065,-0.009056305512785912,0.0001420152111677453,0.0,0.0,0.0,0.0,0.00040123361395671964,-0.004048747010529041,-0.0008006911375559866,0.9997845888137817,0.0,0.0,0.0,7.4712653160095215,3.084636926651001,5.345758438110352,-1352.31396484375,0
1853.4879999999994,0.004448926541954279,-0.009027066640555859,0.00015930742665659636,0.0,0.0,0.0,0.0,0.0018856306560337543,-0.00393068790435791,-0.0016395405400544405,1.0007543563842773,0.0,0.0,0.0,7.470726490020752,3.0888664722442627,5.33401346206665,-1352.21630859375,0
1863.405999999999,0.004465579520910978,-0.00900790374726057,0.00010905742965405807,0.0,0.0,0.0,0.0,-0.0014781972859054804,0.0008641280001029372,0.0010893840808421373,0.9993000030517578,0.0,0.0,0.0,7.473005294799805,3.088937997817993,5.341039657592773,-1352.6287841796875,0
1873.3019999999997,0.004448064137250185,-0.00901428796350956,0.00012488639913499355,0.0,0.0,0.0,0.0,0.001335709705017507,0.004299875348806381,0.0019160006195306778,0.9964754581451416,0.0,0.0,0.0,7.469173431396484,3.0827181339263916,5.332479476928711,-1351.9351806640625,0
1883.223,0.004491371568292379,-0.008978119120001793,8.003034599823877e-05,0.0,0.0,0.0,0.0,0.004527283366769552,-0.003901465330272913,0.0005597480922006071,1.0000989437103271,0.0,0.0,0.0,7.47998046875,3.0861263275146484,5.341310501098633,-1353.891357421875,0
1893.1329999999998,0.004432222805917263,-0.009030957706272602,5.6220531405415386e-05,0.0,0.0,0.0,0.0,-0.0010433160932734609,0.0015838717808946967,0.002192563144490123,1.000255823135376,0.0,0.0,0.0,7.465674877166748,3.071963310241699,5.334105491638184,-1351.302001953125,0
1903.0479999999989,0.004426822531968355,-0.009037207812070847,6.107489753048867e-05,0.0,0.0,0.0,0.0,0.0002007455623243004,0.0015795030631124973,2.4752447643550113e-05,0.9993517994880676,0.0,0.0,0.0,7.472787380218506,3.0703060626983643,5.332690715789795,-1352.5892333984375,0
1912.9519999999993,0.004457445349544287,-0.009088831953704357,6.891787779750302e-05,0.0,0.0,0.0,0.0,0.0019488406833261251,0.002399852266535163,-0.0022886183578521013,0.9984334707260132,0.0,0.0,0.0,7.464865207672119,3.0694758892059326,5.324077606201172,-1351.1553955078125,0
1922.8729999999996,0.0044374349527060986,-0.009085694327950478,5.904021600144915e-05,0.0,0.0,0.0,0.0,-0.0001406336232321337,-0.002689800225198269,-0.005352781154215336,0.9992847442626953,0.0,0.0,0.0,7.457531452178955,3.066697120666504,5.322036266326904,-1349.828125,0
1932.7749999999996,0.004455372225493193,-0.009114989079535007,6.575949373655021e-05,0.0,0.0,0.0,0.0,0.002011256292462349,-0.005641885567456484,-0.00014246099453885108,0.9995543956756592,0.0,0.0,0.0,7.456021785736084,3.0545778274536133,5.319515705108643,-1349.5546875,0
1942.699999999999,0.004493255168199539,-0.009040571749210358,5.4218971854425035e-06,0.0,0.0,0.0,0.0,-0.0027778123039752245,-0.002539107808843255,0.0013727199984714389,0.9990114569664001,0.0,0.0,0.0,7.460039138793945,3.0688159465789795,5.336081027984619,-1350.2818603515625,0
1952.598,0.00450880778953433,-0.009079859592020512,4.6897628180886386e-07,0.0,0.0,0.0,0.0,0.0008908666204661131,0.005483277142047882,-0.00013244934962131083,0.998033344745636,0.0,0.0,0.0,7.4531636238098145,3.063110113143921,5.342006683349609,-1349.037353515625,0
1962.5169999999998,0.004469959530979395,-0.009089739061892033,6.045592272130307e-06,0.0,0.0,0.0,0.0,0.002219296293333173,0.004615829326212406,0.0006517533911392093,0.9961145520210266,0.0,0.0,0.0,7.452622413635254,3.0694282054901123,5.331411361694336,-1348.939453125,0
1972.4300000000003,0.0044826483353972435,-0.009089685045182705,1.5721050658612512e-05,0.0,0.0,0.0,0.0,-0.004676664248108864,-0.003496732097119093,0.0011132718063890934,0.9983428716659546,0.0,0.0,0.0,7.455911636352539,3.0658750534057617,5.331023693084717,-1349.5347900390625,0
1982.3439999999991,0.004491874016821384,-0.0090507622808218,-2.4635179215692915e-05,0.0,0.0,0.0,0.0,0.0014451643219217658,-0.0034895511344075203,-2.932854840764776e-05,0.9979591369628906,0.0,0.0,0.0,7.463377952575684,3.0673365592956543,5.335361480712891,-1350.88623046875,0
1992.2430000000004,0.0045627932995557785,-0.009113709442317486,-1.984955270017963e-05,0.0,0.0,0.0,0.0,-0.002457883907482028,-0.002294001169502735,0.0013586831046268344,0.9998218417167664,0.0,0.0,0.0,7.456232070922852,3.0704598426818848,5.331568241119385,-1349.5928955078125,0
2002.1630000000005,0.0045623998157680035,-0.009081023745238781,-4.8880396207096055e-05,0.0,0.0,0.0,0.0,-0.0017999614356085658,-0.0005713441642001271,0.0034124385565519333,1.0001096725463867,0.0,0.0,0.0,7.463949203491211,3.0723137855529785,5.333605766296387,-1350.9896240234375,0
2012.0689999999995,0.004536105319857597,-0.009047504514455795,-4.645092485588975e-05,0.0,0.0,0.0,0.0,0.003790191374719143,-0.001084420713596046,1.2459831850719638e-05,1.0015029907226562,0.0,0.0,0.0,7.468207836151123,3.090240478515625,5.331090450286865,-1351.7603759765625,0
2021.991,0.004514389671385288,-0.009052056819200516,-6.13245356362313e-05,0.0,0.0,0.0,0.0,0.000166475452715531,-0.0018807824235409498,-0.0018499981379136443,1.0014675855636597,0.0,0.0,0.0,7.469547271728516,3.085965394973755,5.3263373374938965,-1352.0028076171875,0
2031.905999999999,0.004570731893181801,-0.009073944762349129,-4.0876620914787054e-05,0.0,0.0,0.0,0.0,-4.860785702476278e-05,-0.0004847575619351119,0.004042861983180046,0.9992873072624207,0.0,0.0,0.0,7.463168144226074,3.078568935394287,5.322457313537598,-1350.8482666015625,0
2041.8089999999993,0.004573164042085409,-0.009052990935742855,-6.862019654363394e-05,0.0,0.0,0.0,0.0,-0.0014827776467427611,-0.00012371123011689633,-0.002259814413264394,0.9999833106994629,0.0,0.0,0.0,7.464995861053467,3.0830864906311035,5.328944206237793,-1351.1790771484375,0
2051.7129999999997,0.004538930952548981,-0.009058323688805103,-7.849322719266638e-05,0.0,0.0,0.0,0.0,0.0017987274331972003,-0.007424503099173307,0.0023247746285051107,1.000288963317871,0.0,0.0,0.0,7.457866191864014,3.078822135925293,5.321840763092041,-1349.8885498046875,0
2061.6360000000004,0.0045388503931462765,-0.00903651025146246,-0.0001049581405823119,0.0,0.0,0.0,0.0,0.0011272900737822056,0.0009599451441317797,-0.0002210510865552351,0.9986904859542847,0.0,0.0,0.0,7.460800647735596,3.089320421218872,5.329509735107422,-1350.419677734375,0
2071.536,0.0045144022442400455,-0.008979437872767448,-8.724849612917751e-05,0.0,0.0,0.0,0.0,-5.812381277792156e-05,-0.0029456329066306353,0.0022196394857019186,0.9993276596069336,0.0,0.0,0.0,7.463250160217285,3.094007730484009,5.33890438079834,-1350.8631591796875,0
2081.455,0.004495358094573021,-0.008990703150629997,-0.00010554920299910009,0.0,0.0,0.0,0.0,0.00040055756107904017,0.0016038442263379693,-0.0010789905209094286,0.9994483590126038,0.0,0.0,0.0,7.46698522567749,3.089881658554077,5.33469295501709,-1351.5390625,0
2091.3599999999988,0.004463227465748787,-0.008970673196017742,-0.00010600000678095967,0.0,0.0,0.0,0.0,-0.0007146333227865398,-0.0037449777591973543,0.002113055670633912,0.999122679233551,0.0,0.0,0.0,7.4709296226501465,3.10251784324646,5.328301906585693,-1352.2530517578125,0
2101.285,0.004396893084049225,-0.009025147184729576,-8.401361264986917e-05,0.0,0.0,0.0,0.0,-0.0029742326587438583,-0.0015093034598976374,-0.0020896065980196,1.0001932382583618,0.0,0.0,0.0,7.471816539764404,3.1005783081054688,5.323164939880371,-1352.4136962890625,0
2111.188,0.004414963535964489,-0.009007522836327553,-5.931122359470464e-05,0.0,0.0,0.0,0.0,0.0009979279711842537,-0.00396067276597023,0.0006606679526157677,1.0003312826156616,0.0,0.0,0.0,7.473272323608398,3.1065144538879395,5.320981025695801,-1352.6771240234375,0
2121.101999999999,0.004365546628832817,-0.009069022722542286,-5.960699854767881e-05,0.0,0.0,0.0,0.0,0.0022753982339054346,6.4686259975133e-06,-0.0003326305595692247,0.9992735981941223,0.0,0.0,0.0,7.4734578132629395,3.1018521785736084,5.317425727844238,-1352.710693359375,0
2131.0059999999994,0.004436456598341465,-0.009096335619688034,-2.553395097493194e-05,0.0,0.0,0.0,0.0,-0.0016138575738295913,-0.0018675128230825067,-0.0013400636380538344,0.9997578859329224,0.0,0.0,0.0,7.473480701446533,3.0946390628814697,5.329259395599365,-1352.71484375,0
2140.9300000000003,0.004416254349052906,-0.0090917544439435,-2.5563562303432263e-05,0.0,0.0,0.0,0.0,0.0018713464960455894,0.0028342753648757935,-0.0009045877959579229,0.999765932559967,0.0,0.0,0.0,7.472427845001221,3.09051251411438,5.319311618804932,-1352.5242919921875,0
2150.8369999999995,0.0044350395910441875,-0.009051533415913582,1.7155120076495223e-05,0.0,0.0,0.0,0.0,0.0024579493328928947,0.002487807534635067,-0.002542876871302724,0.9990782737731934,0.0,0.0,0.0,7.4714035987854,3.0929388999938965,5.311070919036865,-1352.3388671875,0
2160.749,0.004393717739731073,-0.009128383360803127,6.886587016197154e-06,0.0,0.0,0.0,0.0,0.0005488651804625988,-0.0004361380124464631,0.00252925930544734,1.0001097917556763,0.0,0.0,0.0,7.4774603843688965,3.085209846496582,5.297236442565918,-1353.4351806640625,0
2170.66,0.004428547341376543,-0.009132732637226582,4.1042178054340184e-05,0.0,0.0,0.0,0.0,-0.0019518611952662468,0.000515670282766223,0.0008612741366960108,1.0002089738845825,0.0,0.0,0.0,7.475183963775635,3.0811989307403564,5.297904014587402,-1353.0230712890625,0
2180.5779999999995,0.0044228737242519855,-0.009110165759921074,3.078906229347922e-05,0.0,0.0,0.0,0.0,0.0005517395911738276,0.0011829138966277242,-0.0007115264306776226,0.9993472695350647,0.0,0.0,0.0,7.476587772369385,3.084519863128662,5.2924113273620605,-1353.2772216796875,0
