timestamp,stateEstimate.x,stateEstimate.y,stateEstimate.z,controller.cmd_thrust,controller.cmd_roll,controller.cmd_pitch,controller.cmd_yaw,controller.r_roll,controller.r_pitch,controller.r_yaw,controller.accelz,controller.actuatorThrust,controller.roll,controller.pitch,controller.yaw,controller.rollRate,controller.pitchRate,controller.yawRate,controller.ctr_yaw
0.0,-2.48197447945131e-05,-7.238784746732563e-06,-0.00022087852994445711,0.0,0.0,0.0,0.0,-0.0031878198496997356,-0.0055545116774737835,-0.00038226324249990284,0.9984751343727112,0.0,0.0,0.0,0.32912522554397583,2.6079657077789307,4.15038537979126,-59.572322845458984,0
9.902000000000044,2.583114564913558e-06,-4.219040056341328e-05,-0.0002192009415011853,0.0,0.0,0.0,0.0,0.0004926288966089487,-0.0026438783388584852,0.000887080212123692,0.999748945236206,0.0,0.0,0.0,0.32887256145477295,2.599137306213379,4.1532063484191895,-59.526588439941406,0
19.8179999999993,-3.549992834450677e-05,-3.246392952860333e-05,-0.0002478057285770774,0.0,0.0,0.0,0.0,0.0016315901884809136,0.0056721302680671215,0.0006146981031633914,1.0012197494506836,0.0,0.0,0.0,0.3361867666244507,2.6016159057617188,4.167657375335693,-60.85047149658203,0
29.726000000000568,-2.782810952339787e-06,-6.538286106660962e-05,-0.00024288499844260514,0.0,0.0,0.0,0.0,-0.004112623631954193,-0.00473630940541625,0.0009551364928483963,0.998784601688385,0.0,0.0,0.0,0.3363129198551178,2.5978870391845703,4.162786483764648,-60.87330627441406,0
39.655000000000655,-6.791207852074876e-05,-6.476456474047154e-05,-0.00023667830100748688,0.0,0.0,0.0,0.0,-0.0023787047248333693,0.0021832557395100594,-0.0010244986042380333,0.9989690184593201,0.0,0.0,0.0,0.33697956800460815,2.5928311347961426,4.155645847320557,-60.99397277832031,0
49.550999999999476,-8.76831472851336e-05,-6.475867121480405e-05,-0.0002286262169945985,0.0,0.0,0.0,0.0,0.0031487676315009594,-0.00474995281547308,-0.0003221255901735276,0.999217689037323,0.0,0.0,0.0,0.3311454951763153,2.5995898246765137,4.161688327789307,-59.93799591064453,0
59.47199999999975,-0.00013894679432269186,-4.6148292312864214e-05,-0.00024028602638281882,0.0,0.0,0.0,0.0,0.0022392349783331156,0.002792221726849675,0.0008467320003546774,0.999698281288147,0.0,0.0,0.0,0.3295101523399353,2.5962252616882324,4.158366680145264,-59.64199447631836,0
69.37700000000041,-4.45357509306632e-05,-7.881723286118358e-05,-0.00020892346219625324,0.0,0.0,0.0,0.0,-0.0022619273513555527,-0.0021039284765720367,-0.0012639014748856425,1.0003645420074463,0.0,0.0,0.0,0.32914498448371887,2.582775354385376,4.140554904937744,-59.575897216796875,0
79.29700000000048,-0.00010397806181572378,-6.967593071749434e-05,-0.00021007133182138205,0.0,0.0,0.0,0.0,0.0004531009471975267,-0.0006678291247226298,-0.0007107242709025741,1.00202214717865,0.0,0.0,0.0,0.33587247133255005,2.5888512134552,4.136834621429443,-60.79358673095703,0
89.19900000000052,-7.574530900456011e-05,-5.0783055485226214e-05,-0.00017156875401269644,0.0,0.0,0.0,0.0,-0.000944168190471828,-0.002385667059570551,-0.0014657411957159638,1.0001444816589355,0.0,0.0,0.0,0.3348906636238098,2.5928003787994385,4.138819217681885,-60.615882873535156,0
99.1190000000006,-0.00018041071598418057,-3.2659878343110904e-05,-0.00018218427430838346,0.0,0.0,0.0,0.0,0.0013878950849175453,0.0017818580381572247,0.0019129900028929114,0.9983976483345032,0.0,0.0,0.0,0.3326692581176758,2.5919835567474365,4.140466213226318,-60.21379852294922,0
109.02700000000004,-3.218577694497071e-05,-6.0701986512867734e-05,-0.00014657653809990734,0.0,0.0,0.0,0.0,0.0006694933981634676,-0.005571301560848951,0.0017782858340069652,0.9984838962554932,0.0,0.0,0.0,0.3326692581176758,2.5919835567474365,4.140466213226318,-60.21379852294922,0
118.95000000000073,-0.00014467340952251107,-9.810835035750642e-05,-0.00015853956574574113,0.0,0.0,0.0,0.0,-0.0014342027716338634,0.004190338309854269,-0.0023811087012290955,1.0007559061050415,0.0,0.0,0.0,0.32377171516418457,2.5743415355682373,4.126656532287598,-58.60332489013672,0
128.85199999999895,-1.1970981177000795e-05,-0.00012664913083426654,-0.00012892895028926432,0.0,0.0,0.0,0.0,0.0014135116944089532,-0.003963531460613012,0.002953598042950034,1.0008680820465088,0.0,0.0,0.0,0.32377171516418457,2.5743415355682373,4.126656532287598,-58.60332489013672,0
138.76800000000003,-9.223459346685559e-05,-0.00010094774916069582,-0.0001441975764464587,0.0,0.0,0.0,0.0,-0.0016240712720900774,0.00029118379461579025,-0.0018328700680285692,0.999108612537384,0.0,0.0,0.0,0.3245633542537689,2.573225975036621,4.118988990783691,-58.74660873413086,0
148.67799999999988,-5.528588008019142e-05,-7.075253233779222e-05,-0.00011796512262662873,0.0,0.0,0.0,0.0,0.002004232257604599,-0.0024913907982409,0.0012746796710416675,0.9993430972099304,0.0,0.0,0.0,0.3245633542537689,2.573225975036621,4.118988990783691,-58.74660873413086,0
158.60299999999916,-0.00013899577606935054,-0.00010919012856902555,-9.910313383443281e-05,0.0,0.0,0.0,0.0,-0.0014328502584248781,-0.0015376809751614928,-0.001110563171096146,1.0009433031082153,0.0,0.0,0.0,0.31712284684181213,2.5700554847717285,4.114331245422363,-57.399864196777344,0
168.5079999999998,-0.00012010835052933544,-0.0001323627366218716,-7.084558455972001e-05,0.0,0.0,0.0,0.0,-9.222477092407644e-05,0.0035236275289207697,-0.0031451403629034758,0.9991529583930969,0.0,0.0,0.0,0.3176276981830597,2.561598062515259,4.114816188812256,-57.49124526977539,0
178.42799999999988,-0.00012385466834530234,-6.2245198932942e-05,-0.00010619498061714694,0.0,0.0,0.0,0.0,-0.0045158579014241695,-0.004020681604743004,0.0024731329176574945,0.9996000528335571,0.0,0.0,0.0,0.31788983941078186,2.553338050842285,4.114711761474609,-57.538692474365234,0
188.33499999999913,-0.00010921971988864243,-9.47149092098698e-05,-8.745272498345003e-05,0.0,0.0,0.0,0.0,0.0003279217635281384,0.0018254701280966401,0.001745156361721456,0.9999923706054688,0.0,0.0,0.0,0.31782862544059753,2.557225227355957,4.106747627258301,-57.52761459350586,0
198.2520000000004,-0.00013445320655591786,-5.748506373493001e-05,-0.00011015835480066016,0.0,0.0,0.0,0.0,-0.0007297926349565387,0.0018654586747288704,-0.0032931743189692497,0.9990003705024719,0.0,0.0,0.0,0.3241726756095886,2.5655665397644043,4.115036487579346,-58.6759033203125,0
208.15200000000004,-4.251635982654989e-05,-5.363700256566517e-05,-5.1112005166942254e-05,0.0,0.0,0.0,0.0,-0.0002794142346829176,-0.0010200532851740718,-0.004012018907815218,0.9989801645278931,0.0,0.0,0.0,0.3240477740764618,2.5598134994506836,4.104094505310059,-58.65329360961914,0
218.0669999999991,-7.586429273942485e-05,-4.180395626462996e-05,-6.98330914019607e-05,0.0,0.0,0.0,0.0,-3.4550052077975124e-05,0.000175742112332955,-0.004396914970129728,0.9983960390090942,0.0,0.0,0.0,0.33074629306793213,2.5645487308502197,4.112242221832275,-59.8657341003418,0
227.97899999999936,-2.722229874052573e-05,-9.212197619490325e-05,-5.05098287248984e-05,0.0,0.0,0.0,0.0,-0.003403379814699292,0.0007251306087709963,-0.00022714749502483755,0.9993223547935486,0.0,0.0,0.0,0.3299868702888489,2.5626983642578125,4.107987880706787,-59.728275299072266,0
237.89899999999943,-2.410991510259919e-05,-4.669987174565904e-05,-0.0001040792849380523,0.0,0.0,0.0,0.0,0.0028409878723323345,-0.00397713016718626,0.0014765135711058974,0.9990375638008118,0.0,0.0,0.0,0.3202778100967407,2.5701136589050293,4.099308013916016,-57.97092056274414,0
247.8119999999999,2.451288492011372e-05,-9.909529762808233e-05,-9.218339255312458e-05,0.0,0.0,0.0,0.0,-0.004802469164133072,-0.0020469233859330416,-0.002611919306218624,0.9995157718658447,0.0,0.0,0.0,0.3190006911754608,2.567606210708618,4.093139171600342,-57.7397575378418,0
257.72299999999996,1.0357744940847624e-05,-6.42418090137653e-05,-0.00012785939907189459,0.0,0.0,0.0,0.0,-0.0018925864715129137,-0.005445577669888735,0.0015122967306524515,0.9993698000907898,0.0,0.0,0.0,0.3109668791294098,2.569528579711914,4.104722023010254,-56.28562545776367,0
267.6299999999992,1.411368248227518e-05,-0.00010161275713471696,-0.00012553394481074065,0.0,0.0,0.0,0.0,-0.0010582173708826303,-0.0023678471334278584,0.00423305993899703,0.9987263083457947,0.0,0.0,0.0,0.30980053544044495,2.5747690200805664,4.103618144989014,-56.07450866699219,0
277.54199999999946,-3.778220616368344e-07,-6.197521724971011e-05,-0.00016558310016989708,0.0,0.0,0.0,0.0,-0.00022467522649094462,0.0012512854300439358,0.000476850284030661,1.000951886177063,0.0,0.0,0.0,0.31003791093826294,2.5756313800811768,4.117966175079346,-56.11748123168945,0
287.46399999999994,2.8428690711734816e-05,-9.893793321680278e-05,-0.00015690847067162395,0.0,0.0,0.0,0.0,-0.00032656529219821095,0.0035772689152508974,-0.0009574894211255014,0.9974378943443298,0.0,0.0,0.0,0.3103131949901581,2.5772223472595215,4.117868900299072,-56.16730499267578,0
297.3680000000004,4.577001675443171e-07,-8.741472265683115e-05,-0.0001920271897688508,0.0,0.0,0.0,0.0,-0.004006995353847742,-0.0038552992045879364,-0.0010671962518244982,0.999484121799469,0.0,0.0,0.0,0.31009694933891296,2.565671920776367,4.1137824058532715,-56.1281623840332,0
307.28099999999904,-9.7637515864335e-05,-7.345389894908294e-05,-0.00020251832029316574,0.0,0.0,0.0,0.0,-0.0015916450647637248,-0.0030727675184607506,-0.0007186282309703529,0.999010443687439,0.0,0.0,0.0,0.30903148651123047,2.5700197219848633,4.098329067230225,-55.93531036376953,0
317.1939999999995,-0.00014212988025974482,-3.8871614378876984e-05,-0.00021629715047311038,0.0,0.0,0.0,0.0,0.0006324068526737392,0.001187227899208665,-0.00395478680729866,0.9987847208976746,0.0,0.0,0.0,0.3090832829475403,2.5732672214508057,4.106278896331787,-55.9446907043457,0
327.1080000000002,-0.0001229777408298105,-2.236294312751852e-05,-0.00018332690524403006,0.0,0.0,0.0,0.0,1.3878525351174176e-05,-0.0016792401438578963,0.003972305450588465,1.000128984451294,0.0,0.0,0.0,0.3086041808128357,2.569498300552368,4.1119771003723145,-55.857967376708984,0
337.01900000000023,-0.00016869780665729195,-4.044915840495378e-06,-0.00020531879272311926,0.0,0.0,0.0,0.0,-0.0014648943906649947,0.004350695293396711,0.0002956682874355465,0.9988576769828796,0.0,0.0,0.0,0.3026084303855896,2.56943416595459,4.105720043182373,-54.77273178100586,0
346.9339999999993,-0.0001262374862562865,-1.8263319816469448e-06,-0.00017157381807919592,0.0,0.0,0.0,0.0,0.0033449821639806032,0.0005153129459358752,0.00015782116679474711,0.9998022317886353,0.0,0.0,0.0,0.30222681164741516,2.561959981918335,4.105803489685059,-54.70365524291992,0
356.84900000000016,-0.00022270940826274455,-6.551501428475603e-05,-0.0001588881277712062,0.0,0.0,0.0,0.0,0.00038936486816965044,-0.0018017367692664266,-0.0017021398525685072,0.9997959733009338,0.0,0.0,0.0,0.30694785714149475,2.549259662628174,4.094552040100098,-55.55817413330078,0
366.7569999999996,-8.415547927143052e-05,-8.877523941919208e-05,-0.00010356774146202952,0.0,0.0,0.0,0.0,-0.0032415769528597593,0.0019985733088105917,-4.393022754811682e-05,1.0001167058944702,0.0,0.0,0.0,0.30770769715309143,2.5477607250213623,4.099433422088623,-55.695701599121094,0
376.67399999999907,-0.00011234462726861238,-6.123517960077152e-05,-0.00013237158418633044,0.0,0.0,0.0,0.0,0.0018310492159798741,-0.007421912159770727,0.0001316545094596222,0.9996581673622131,0.0,0.0,0.0,0.30779027938842773,2.544534921646118,4.091000556945801,-55.71064758300781,0
386.58300000000054,-7.545431344624376e-06,-0.00012364661961328238,-0.00010725385800469667,0.0,0.0,0.0,0.0,-0.00035198224941268563,-0.004618068691343069,0.002044207416474819,0.9983986020088196,0.0,0.0,0.0,0.30725720524787903,2.54321551322937,4.100175857543945,-55.614166259765625,0
396.4979999999996,-5.2605377277359366e-05,-0.0001298647403018549,-0.00012007103214273229,0.0,0.0,0.0,0.0,-0.002545190742239356,6.202205258887261e-05,-0.0010160397505387664,0.9978698492050171,0.0,0.0,0.0,0.3065355122089386,2.5497820377349854,4.102802276611328,-55.48353958129883,0
406.41300000000047,-4.926683322992176e-05,-0.00013211801706347615,-0.00010006395314121619,0.0,0.0,0.0,0.0,0.0009955177083611488,-0.004013473633676767,-0.0017551822820678353,0.9989332556724548,0.0,0.0,0.0,0.30707356333732605,2.543642044067383,4.101283073425293,-55.58092498779297,0
416.3209999999999,-0.00012699631042778492,-9.673652675701305e-05,-0.0001304454926867038,0.0,0.0,0.0,0.0,0.0009992803679779172,0.001690484001301229,0.001679265988059342,1.00168776512146,0.0,0.0,0.0,0.3067447543144226,2.541008472442627,4.090598106384277,-55.52141571044922,0
426.2340000000004,-2.5319475753349252e-05,-0.0001119863081839867,-0.00010275375825585797,0.0,0.0,0.0,0.0,-0.0008365852991119027,-0.0024156204890459776,0.0018487456254661083,0.9984768033027649,0.0,0.0,0.0,0.3067447543144226,2.541008472442627,4.090598106384277,-55.52141571044922,0
436.14899999999943,-8.57032646308653e-05,-8.706277003511786e-05,-0.00016372348181903362,0.0,0.0,0.0,0.0,0.0021505190525203943,0.0034171834122389555,0.0027167126536369324,0.9991925358772278,0.0,0.0,0.0,0.311541348695755,2.5460681915283203,4.087049961090088,-56.38959884643555,0
446.0599999999995,-1.5899104255368002e-05,-9.9152784969192e-05,-0.00014669469965156168,0.0,0.0,0.0,0.0,0.0017124827718362212,0.0030613422859460115,-0.0006183318328112364,0.9996103048324585,0.0,0.0,0.0,0.311541348695755,2.5460681915283203,4.087049961090088,-56.38959884643555,0
455.97899999999936,-0.0001190044786198996,-0.00010198297241004184,-0.00016723055159673095,0.0,0.0,0.0,0.0,0.0005713011487387121,-0.0020758495666086674,0.005915664602071047,0.9992443919181824,0.0,0.0,0.0,0.31150323152542114,2.5355801582336426,4.0730695724487305,-56.3827018737793,0
465.8870000000006,2.0694990325864637e-06,-0.00012603341019712389,-0.00013927568215876818,0.0,0.0,0.0,0.0,-0.0002899196115322411,0.004765911493450403,0.0009567504748702049,1.0010638236999512,0.0,0.0,0.0,0.31150323152542114,2.5355801582336426,4.0730695724487305,-56.3827018737793,0
475.8089999999993,-4.4970980525249615e-05,-0.00011017850192729384,-0.0001517507917014882,0.0,0.0,0.0,0.0,-0.0018790970789268613,0.0017174979439005256,-0.004102050326764584,1.0006097555160522,0.0,0.0,0.0,0.3198990523815155,2.5401487350463867,4.07127046585083,-57.90237045288086,0
485.71999999999935,-2.6054147383547388e-05,-0.00011847582209156826,-0.00012518824951257557,0.0,0.0,0.0,0.0,-0.00010675451630959287,0.0016061400528997183,0.00024294035392813385,0.9998100996017456,0.0,0.0,0.0,0.31992918252944946,2.5387697219848633,4.0528788566589355,-57.90781784057617,0
495.64400000000023,-4.097730197827332e-05,-4.243602597853169e-05,-0.00014389658463187516,0.0,0.0,0.0,0.0,0.00011125174205517396,0.002580576576292515,0.0015374531503766775,1.00070321559906,0.0,0.0,0.0,0.3207836449146271,2.539473295211792,4.05272102355957,-58.062477111816406,0
505.53900000000067,-7.420487236231565e-05,-5.955855522188358e-05,-0.00013920645869802684,0.0,0.0,0.0,0.0,0.0010295076062902808,-0.00241922028362751,-0.003068633610382676,1.0003511905670166,0.0,0.0,0.0,0.3126506507396698,2.534067392349243,4.046562194824219,-56.590389251708984,0
515.4619999999995,-0.00010949432180495933,-3.6166940844850615e-05,-0.00016134747420437634,0.0,0.0,0.0,0.0,-0.002010677009820938,-0.00023048235743772238,-0.003793309908360243,0.999500572681427,0.0,0.0,0.0,0.3125057518482208,2.536949396133423,4.0388336181640625,-56.56416320800781,0
525.3719999999994,-7.068301783874631e-05,-3.784379077842459e-05,-0.0001217526150867343,0.0,0.0,0.0,0.0,-0.0011310204863548279,0.002053205156698823,0.0007477696635760367,0.9997890591621399,0.0,0.0,0.0,0.31275203824043274,2.5354058742523193,4.0310492515563965,-56.60873794555664,0
535.2829999999994,-0.00010922670480795205,-6.455105904024094e-06,-0.0001358415902359411,0.0,0.0,0.0,0.0,-0.00332299224101007,0.00154996442142874,-0.0027641586493700743,1.0004264116287231,0.0,0.0,0.0,0.3130325675010681,2.536172866821289,4.028213024139404,-56.65951919555664,0
545.1890000000003,-4.4518856157083064e-05,-3.422104782657698e-05,-9.685631812317297e-05,0.0,0.0,0.0,0.0,-0.000737557711545378,-0.006268481258302927,0.0011570424539968371,1.0008301734924316,0.0,0.0,0.0,0.3119399845600128,2.5326154232025146,4.025114059448242,-56.46175765991211,0
555.1080000000002,-9.085879719350487e-05,-2.83187491731951e-05,-0.00011288116365903988,0.0,0.0,0.0,0.0,0.0016206002328544855,-0.004188538063317537,0.0016381792956963181,0.9999411702156067,0.0,0.0,0.0,0.3182239532470703,2.5355331897735596,4.028483867645264,-57.59917068481445,0
565.0200000000004,-5.915354995522648e-05,-4.73835134471301e-05,-7.695170643273741e-05,0.0,0.0,0.0,0.0,0.002453672466799617,0.001841288642026484,0.0030115048866719007,0.9970683455467224,0.0,0.0,0.0,0.3184328079223633,2.5347514152526855,4.037030220031738,-57.6369743347168,0
574.9349999999995,-8.896954386727884e-05,8.295273801195435e-06,-9.347876039100811e-05,0.0,0.0,0.0,0.0,0.0011686646612361073,-0.00012202613288536668,-0.0033420349936932325,0.9985918402671814,0.0,0.0,0.0,0.324577271938324,2.5449557304382324,4.043399810791016,-58.7491340637207,0
584.8490000000002,2.1283851310727187e-05,-5.7020220992853865e-05,-5.5960208555916324e-05,0.0,0.0,0.0,0.0,0.0012040225556120276,0.0044960263185203075,-0.00012526375940069556,1.0004886388778687,0.0,0.0,0.0,0.3252861797809601,2.53844952583313,4.0392656326293945,-58.87744903564453,0
594.7600000000002,-3.685546471388079e-05,-7.090044528013095e-05,-6.148235115688294e-05,0.0,0.0,0.0,0.0,-0.002345156855881214,-0.0063081723637878895,-0.0007445220835506916,1.0000745058059692,0.0,0.0,0.0,0.3304213583469391,2.5321006774902344,4.0301666259765625,-59.80692672729492,0
604.6749999999993,-5.346686884877272e-05,-7.076101610437036e-05,-2.9718890800722875e-05,0.0,0.0,0.0,0.0,0.000699756492394954,-0.0025482154451310635,0.0004171413602307439,0.996208906173706,0.0,0.0,0.0,0.32917138934135437,2.5242109298706055,4.024844169616699,-59.58068084716797,0
614.5920000000006,-7.667892350582406e-05,-3.478375219856389e-05,-6.238625792320818e-05,0.0,0.0,0.0,0.0,0.003538568038493395,-0.0025802457239478827,0.0008297204622067511,0.9996215105056763,0.0,0.0,0.0,0.32217276096343994,2.5347955226898193,4.034992694854736,-58.31391525268555,0
624.5069999999996,-0.00011495445505715907,-7.08447041688487e-05,-6.125364598119631e-05,0.0,0.0,0.0,0.0,-0.002868859563022852,0.0029075643979012966,-0.0009265842381864786,1.0003676414489746,0.0,0.0,0.0,0.3210785984992981,2.5330727100372314,4.0355095863342285,-58.11586380004883,0
634.4110000000001,-0.0001447268296033144,-3.548377571860328e-05,-9.883445454761386e-05,0.0,0.0,0.0,0.0,0.00013962785305920988,-0.003154999576508999,0.0027126928325742483,1.0006531476974487,0.0,0.0,0.0,0.3282519578933716,2.5440890789031982,4.036895275115967,-59.41426086425781,0
644.3269999999993,-6.235083128558472e-05,-5.826459528179839e-05,-5.258735836832784e-05,0.0,0.0,0.0,0.0,-0.0006320607499219477,-0.0008907343144528568,-0.004098232369869947,0.9988389015197754,0.0,0.0,0.0,0.3230642080307007,2.5381860733032227,4.059451580047607,-58.47526168823242,0
654.2459999999992,-9.981040784623474e-05,-3.2244213798549026e-05,-8.106215682346374e-05,0.0,0.0,0.0,0.0,0.0005395931075327098,0.0035755105782300234,-0.0016335599357262254,0.9961972832679749,0.0,0.0,0.0,0.3222324848175049,2.543705940246582,4.058213233947754,-58.32472229003906,0
664.1620000000003,-9.750384924700484e-05,-9.136695007327944e-05,-7.72478524595499e-05,0.0,0.0,0.0,0.0,-0.0022691464982926846,0.0038950759917497635,0.0027167159132659435,0.9988296627998352,0.0,0.0,0.0,0.32108139991760254,2.540814161300659,4.04896879196167,-58.116371154785156,0
674.0609999999997,-0.00012742119724862278,-5.980231435387395e-05,-0.00011892761540366337,0.0,0.0,0.0,0.0,0.0004790582461282611,0.00040436588460579515,-0.0001365008210996166,1.0008296966552734,0.0,0.0,0.0,0.32093146443367004,2.5344760417938232,4.047614097595215,-58.089237213134766,0
683.9750000000004,-8.433366747340187e-05,-7.446900417562574e-05,-8.468372834613547e-05,0.0,0.0,0.0,0.0,-0.0005928304744884372,-0.000830422097351402,-0.0008097222307696939,1.0002249479293823,0.0,0.0,0.0,0.32031768560409546,2.5313477516174316,4.0397748947143555,-57.97813415527344,0
693.8989999999994,-0.00012580535258166492,-5.533448711503297e-05,-0.00012349605094641447,0.0,0.0,0.0,0.0,-0.0027977086137980223,-0.005623473785817623,0.0001244417071575299,0.9987143874168396,0.0,0.0,0.0,0.32590609788894653,2.543868064880371,4.040813446044922,-58.989654541015625,0
703.8060000000005,-7.314609683817253e-05,-0.00012509932275861502,-0.00010619955719448626,0.0,0.0,0.0,0.0,0.00011992671352345496,-0.006165285594761372,0.0017354448791593313,0.9992344975471497,0.0,0.0,0.0,0.3196220397949219,2.5429718494415283,4.061450481414795,-57.852230072021484,0
713.7139999999999,-0.00011394770990591496,-0.00010361378372181207,-0.00013220234541222453,0.0,0.0,0.0,0.0,0.0005171937518753111,0.006788913160562515,0.0015501443995162845,0.9985066056251526,0.0,0.0,0.0,0.32695433497428894,2.550403594970703,4.076775550842285,-59.17938232421875,0
723.628999999999,-6.700336234644055e-05,-0.00015613483265042305,-0.00011485176219139248,0.0,0.0,0.0,0.0,0.00017502372793387622,-0.00415161345154047,0.0025785400066524744,1.0009870529174805,0.0,0.0,0.0,0.3274531364440918,2.547703266143799,4.068382740020752,-59.26966857910156,0
733.5429999999997,-7.935028406791389e-05,-0.00011054279457312077,-0.0001679342531133443,0.0,0.0,0.0,0.0,-0.0025318509433418512,0.0035540983080863953,-0.0023715945426374674,0.9997273087501526,0.0,0.0,0.0,0.3278757333755493,2.542229413986206,4.068844318389893,-59.34616470336914,0
743.4549999999999,-0.00011063258716603741,-0.00010158099757973105,-0.00014734372962266207,0.0,0.0,0.0,0.0,-0.000961625890340656,-0.002283366397023201,-0.00014620617730543017,1.0000845193862915,0.0,0.0,0.0,0.32774731516838074,2.5401298999786377,4.055149078369141,-59.32291793823242,0
753.3670000000002,-0.00017010344890877604,-0.00012576668814290315,-0.00016915147716645151,0.0,0.0,0.0,0.0,-0.001561080222018063,-0.0032482671085745096,0.0013465214287862182,1.0008845329284668,0.0,0.0,0.0,0.32183656096458435,2.542738437652588,4.0667572021484375,-58.25305938720703,0
763.2829999999994,-0.00010890512203332037,-0.00015177595196291804,-0.00013036435120739043,0.0,0.0,0.0,0.0,-0.00012587856326717883,-0.00476712454110384,-0.0006357074016705155,1.0017051696777344,0.0,0.0,0.0,0.322129487991333,2.536287307739258,4.0698723793029785,-58.30607986450195,0
773.1939999999995,-0.00014641211600974202,-0.0001257696421816945,-0.00015776148939039558,0.0,0.0,0.0,0.0,-0.001984179485589266,-0.002864004345610738,-0.002274015685543418,1.002012014389038,0.0,0.0,0.0,0.327597051858902,2.5465798377990723,4.084003925323486,-59.29572296142578,0
783.1049999999996,-0.00014063616981729865,-0.00011467938747955486,-0.00011340434866724536,0.0,0.0,0.0,0.0,-0.002698187017813325,0.002034036908298731,-0.0002908963360823691,1.0011951923370361,0.0,0.0,0.0,0.3266293406486511,2.5445332527160645,4.091161251068115,-59.12056350708008,0
793.0229999999992,-0.0001439356419723481,-6.904733891133219e-05,-0.00018103553156834096,0.0,0.0,0.0,0.0,0.0016620896058157086,-0.004750171210616827,0.002575724385678768,1.0005038976669312,0.0,0.0,0.0,0.32675737142562866,2.5464072227478027,4.081756114959717,-59.143733978271484,0
802.9339999999993,-9.869561472442001e-05,-0.000104299106169492,-0.0001459986378904432,0.0,0.0,0.0,0.0,-0.004307967610657215,0.0010853471467271447,-0.0020814307499676943,0.998583197593689,0.0,0.0,0.0,0.3271600902080536,2.5453107357025146,4.089211463928223,-59.21662521362305,0
812.8469999999998,-0.00010926867253147066,-2.7857870009029284e-05,-0.0001876184978755191,0.0,0.0,0.0,0.0,-0.0012251469306647778,0.004548513796180487,0.003000208642333746,0.9985230565071106,0.0,0.0,0.0,0.3264678716659546,2.544485330581665,4.085912704467773,-59.09133529663086,0
822.7600000000002,-0.00017603879678063095,-4.4112020987086e-05,-0.00018871069187298417,0.0,0.0,0.0,0.0,-0.00030336901545524597,-0.005819796584546566,-0.0011885218555107713,0.9991870522499084,0.0,0.0,0.0,0.3276653289794922,2.5451269149780273,4.083525657653809,-59.30807876586914,0
832.6710000000003,-0.0002347873814869672,-3.6082754377275705e-05,-0.00020610268984455615,0.0,0.0,0.0,0.0,-0.001546344137750566,-0.0008585925679653883,0.0033560586161911488,0.9996286630630493,0.0,0.0,0.0,0.32621902227401733,2.5435736179351807,4.087734222412109,-59.046287536621094,0
842.5830000000005,-0.0002515185624361038,-2.75210495601641e-05,-0.00017546532035339624,0.0,0.0,0.0,0.0,-0.0016793073154985905,-0.0024523911997675896,0.000773620035033673,0.9985668063163757,0.0,0.0,0.0,0.3267122507095337,2.5446054935455322,4.093630313873291,-59.13557052612305,0
852.4920000000002,-0.0002949267509393394,4.416669980855659e-06,-0.00020757153106387705,0.0,0.0,0.0,0.0,0.000901841907761991,0.003932086285203695,-9.912209497997537e-05,0.9995028972625732,0.0,0.0,0.0,0.32659223675727844,2.544995069503784,4.099610805511475,-59.11384201049805,0
862.4079999999994,-0.00025640620151534677,-3.1089775802684017e-06,-0.000167558784596622,0.0,0.0,0.0,0.0,-0.0023029139265418053,0.0032975375652313232,-0.0016102454392239451,1.0002492666244507,0.0,0.0,0.0,0.3265368640422821,2.5440659523010254,4.089044094085693,-59.103816986083984,0
872.3299999999999,-0.000336197845172137,6.419331839424558e-06,-0.00015708064893260598,0.0,0.0,0.0,0.0,-0.001407361589372158,-0.0009934440022334456,-0.0026560528203845024,1.0027353763580322,0.0,0.0,0.0,0.32547420263290405,2.548358917236328,4.072773456573486,-58.91147994995117,0
882.235999999999,-0.00018591225671116263,-3.8794045394752175e-05,-9.212298027705401e-05,0.0,0.0,0.0,0.0,-0.0010164662962779403,-0.0012485493207350373,0.002176170237362385,1.0009878873825073,0.0,0.0,0.0,0.3246271014213562,2.551579475402832,4.069258689880371,-58.758148193359375,0
892.1419999999998,-0.00022957107285037637,-1.2456310287234373e-05,-0.00011772925063269213,0.0,0.0,0.0,0.0,0.002501567592844367,-0.003764015855267644,0.005362656898796558,1.0006896257400513,0.0,0.0,0.0,0.3179135024547577,2.566960096359253,4.0710930824279785,-57.54297637939453,0
902.0640000000003,-0.00015555514255538583,-4.532276943791658e-05,-6.643841334152967e-05,0.0,0.0,0.0,0.0,0.0023754010908305645,-0.0014284421922639012,0.0004434230213519186,0.9997340440750122,0.0,0.0,0.0,0.31962481141090393,2.5621917247772217,4.076404094696045,-57.852725982666016,0
911.9740000000002,-0.0002045511791948229,-3.307532097096555e-05,-8.592216181568801e-05,0.0,0.0,0.0,0.0,0.0015046164626255631,-0.002384828170761466,-0.0006041477899998426,1.0015462636947632,0.0,0.0,0.0,0.3247237205505371,2.565821647644043,4.089785575866699,-58.775634765625,0
921.8860000000004,-0.00015034026000648737,-6.731010944349691e-05,-4.1044451791094616e-05,0.0,0.0,0.0,0.0,0.001636906759813428,0.003432752564549446,-0.004441439639776945,1.0001263618469238,0.0,0.0,0.0,0.32515749335289,2.5547990798950195,4.090509414672852,-58.854148864746094,0
931.7929999999997,-0.0001967598800547421,-7.30188621673733e-05,-6.825095624662936e-05,0.0,0.0,0.0,0.0,-0.0015153101412579417,0.0007409601239487529,0.0018681386718526483,1.0010509490966797,0.0,0.0,0.0,0.32372424006462097,2.5470774173736572,4.085907936096191,-58.594730377197266,0
941.7119999999995,-7.693903899053112e-05,-0.00012725481064990163,-8.548197001800872e-06,0.0,0.0,0.0,0.0,-0.002867716597393155,0.0013720763381570578,0.003311692737042904,0.9992176294326782,0.0,0.0,0.0,0.3233838975429535,2.548433303833008,4.08198356628418,-58.53313064575195,0
951.6239999999998,-8.357403567060828e-05,-7.673703657928854e-05,-5.707643867935985e-05,0.0,0.0,0.0,0.0,-0.0021447825711220503,-0.0004149553133174777,-0.0004991274327039719,0.9969379901885986,0.0,0.0,0.0,0.32269254326820374,2.5483815670013428,4.076857089996338,-58.40799331665039,0
961.5360000000001,-7.512200681958348e-05,-0.00012500767479650676,-3.355128865223378e-05,0.0,0.0,0.0,0.0,0.002492309082299471,0.002513967687264085,-0.00029650700162164867,1.0009509325027466,0.0,0.0,0.0,0.3221502900123596,2.5450525283813477,4.078301429748535,-58.309844970703125,0
971.4439999999995,-8.929239265853539e-05,-9.478847641730681e-05,-9.043164027389139e-05,0.0,0.0,0.0,0.0,0.0006809112965129316,-0.0021710919681936502,0.002826079959049821,1.0011777877807617,0.0,0.0,0.0,0.3275265395641327,2.552616834640503,4.08170223236084,-59.282955169677734,0
981.3510000000006,-0.00010378650040365756,-0.00013305687753017992,-7.641199044883251e-05,0.0,0.0,0.0,0.0,0.0012223399244248867,0.0017926468281075358,0.0014968171017244458,1.0022187232971191,0.0,0.0,0.0,0.3280695378780365,2.5533173084259033,4.0826544761657715,-59.38124084472656,0
991.2780000000002,-0.0001126497081713751,-9.407332254340872e-05,-0.00013977220805827528,0.0,0.0,0.0,0.0,-8.412142778979614e-05,0.002068618079647422,0.001447130343876779,1.0005967617034912,0.0,0.0,0.0,0.33340704441070557,2.5542662143707275,4.0915608406066895,-60.34734344482422,0
1001.1810000000005,-9.907013736665249e-05,-0.00012956082355231047,-0.0001146065624197945,0.0,0.0,0.0,0.0,-0.0018025286262854934,-0.004247105680406094,0.003838922129943967,0.9993993639945984,0.0,0.0,0.0,0.3330850601196289,2.5468573570251465,4.0865325927734375,-60.289058685302734,0
1011.0990000000002,-6.0356047470122576e-05,-1.9368279026821256e-05,-0.00021031213691458106,0.0,0.0,0.0,0.0,-0.002825353993102908,-0.004809331614524126,0.003085386473685503,0.9989122748374939,0.0,0.0,0.0,0.33411839604377747,2.5466701984405518,4.083752155303955,-60.47609329223633,0
1021.0030000000006,-6.747215957148e-05,-6.401797145372257e-05,-0.00020572738139890134,0.0,0.0,0.0,0.0,0.0011149072088301182,-0.001079378416761756,-0.00039371734601445496,1.0009503364562988,0.0,0.0,0.0,0.3354437053203583,2.542587995529175,4.091274261474609,-60.71597671508789,0
1030.9259999999995,-0.00011184703907929361,-6.551270053023472e-05,-0.00023822793446015567,0.0,0.0,0.0,0.0,-0.0005988813354633749,0.0019463648786768317,0.0004859014297835529,1.0000629425048828,0.0,0.0,0.0,0.33453038334846497,2.540259838104248,4.084897041320801,-60.550662994384766,0
1040.83,-0.00011658534640446305,-5.66938761039637e-05,-0.0002046801382675767,0.0,0.0,0.0,0.0,0.0001578840019647032,-0.0030753479804843664,-0.003374726977199316,0.9981647729873657,0.0,0.0,0.0,0.33414238691329956,2.538604974746704,4.0822367668151855,-60.48043441772461,0
1050.7489999999998,-0.00015405438898596913,-4.0561280911788344e-05,-0.00023903429973870516,0.0,0.0,0.0,0.0,0.00011267966328887269,0.00034456452704034746,-0.0034365584142506123,0.998193621635437,0.0,0.0,0.0,0.3336241543292999,2.534044027328491,4.085832118988037,-60.386634826660156,0
1060.6540000000005,-0.00016032381972763687,-1.2026809599774424e-05,-0.00019594479817897081,0.0,0.0,0.0,0.0,-0.00024142519396264106,-0.0002671085821930319,0.0009780131513252854,1.0005419254302979,0.0,0.0,0.0,0.3331742286682129,2.5355801582336426,4.081724166870117,-60.30520248413086,0
1070.5720000000001,-0.00023108925961423665,-7.374861525022425e-06,-0.00019182125106453896,0.0,0.0,0.0,0.0,0.000873237440828234,-0.0041951690800487995,0.000771745340898633,1.0003248453140259,0.0,0.0,0.0,0.33378323912620544,2.531834602355957,4.078074932098389,-60.41543197631836,0
1080.4789999999994,-0.00019639669335447252,-1.728194001771044e-05,-0.00014764603110961616,0.0,0.0,0.0,0.0,0.002163390861824155,0.003646559314802289,-3.588096660678275e-06,1.0000722408294678,0.0,0.0,0.0,0.3331504166126251,2.5219149589538574,4.076267242431641,-60.30088806152344,0
1090.393,-0.00024641165509819984,2.0099068933632225e-06,-0.000164437762578018,0.0,0.0,0.0,0.0,-0.00010658602695912123,-0.0031917779706418514,0.0021523497998714447,0.9992676377296448,0.0,0.0,0.0,0.33251088857650757,2.521338701248169,4.061810493469238,-60.18512725830078,0
1100.3050000000003,-0.00020012486493214965,-4.746260674437508e-05,-0.00014010729501023889,0.0,0.0,0.0,0.0,-0.0007578675867989659,0.00024355773348361254,0.00022263270511757582,0.9996041655540466,0.0,0.0,0.0,0.332853764295578,2.515793561935425,4.068965435028076,-60.24720001220703,0
1110.2219999999998,-0.0002439607196720317,-1.7629343346925452e-05,-0.00015628529945388436,0.0,0.0,0.0,0.0,0.00038510002195835114,0.002316045807674527,0.0012678002240136266,0.9988510608673096,0.0,0.0,0.0,0.3268180787563324,2.5211403369903564,4.063117027282715,-59.15471649169922,0
1120.1299999999992,-0.00013158979709260166,-7.480125350411981e-05,-0.00011423786054365337,0.0,0.0,0.0,0.0,0.0010467555839568377,4.407108917803271e-06,-0.003610632847994566,1.0018937587738037,0.0,0.0,0.0,0.32656511664390564,2.521040201187134,4.05600118637085,-59.10893630981445,0
1130.0519999999997,-0.00017768447287380695,-5.168160714674741e-05,-0.00013036526797804981,0.0,0.0,0.0,0.0,-0.0008863965049386024,-0.001196288038045168,-0.0005096925306133926,1.0021518468856812,0.0,0.0,0.0,0.32628485560417175,2.509443998336792,4.052319526672363,-59.05821228027344,0
1139.9629999999997,-0.00015614293806720525,-9.982044866774231e-05,-0.00010630428732838482,0.0,0.0,0.0,0.0,-0.003835635492578149,-0.002234688261523843,0.001996035221964121,1.000303864479065,0.0,0.0,0.0,0.32479000091552734,2.508589267730713,4.048608779907227,-58.787635803222656,0
1149.869999999999,-0.00020063339616172016,-0.00011946417362196371,-0.00013282692816574126,0.0,0.0,0.0,0.0,0.001529446803033352,-0.0004961314843967557,0.001174742472358048,0.998258650302887,0.0,0.0,0.0,0.31892308592796326,2.5128285884857178,4.054885387420654,-57.725711822509766,0
1159.780999999999,-0.0001579626987222582,-0.00012047073687426746,-7.6643904321827e-05,0.0,0.0,0.0,0.0,-0.0010083719389513135,0.005416286177933216,-0.00398337421938777,1.0015982389450073,0.0,0.0,0.0,0.31786057353019714,2.5107288360595703,4.054137706756592,-57.53339767456055,0
1169.6990000000005,-0.00015367596643045545,-5.878085357835516e-05,-0.0001356758875772357,0.0,0.0,0.0,0.0,-0.00023965415311977267,-0.004422520287334919,0.000528577365912497,1.0019147396087646,0.0,0.0,0.0,0.3166801929473877,2.51033091545105,4.04753303527832,-57.31974411010742,0
1179.607,-0.0001571680186316371,-9.142627823166549e-05,-0.00011285101209068671,0.0,0.0,0.0,0.0,-0.0005593373207375407,-0.004645535256713629,-0.003271105233579874,1.0005837678909302,0.0,0.0,0.0,0.3077821433544159,2.5076911449432373,4.054803848266602,-55.70917892456055,0
1189.521999999999,-0.00018604123033583164,-5.6830311223166063e-05,-0.0001350560924038291,0.0,0.0,0.0,0.0,-0.0006142277852632105,-0.0017843896057456732,0.004484714008867741,0.9996525049209595,0.0,0.0,0.0,0.3066534996032715,2.506812572479248,4.062621116638184,-55.50489044189453,0
1199.4519999999993,-8.529356273356825e-05,-8.01309070084244e-05,-4.971077214577235e-05,0.0,0.0,0.0,0.0,0.001854410395026207,0.003246759995818138,-0.0011380151845514774,0.999608039855957,0.0,0.0,0.0,0.3140130639076233,2.5139079093933105,4.0653605461120605,-56.83699417114258,0
1209.3500000000004,-0.00014948354510124773,-0.00010450620902702212,-3.811405986198224e-05,0.0,0.0,0.0,0.0,-0.004051636904478073,0.0026490080635994673,0.0017043576808646321,0.9987435340881348,0.0,0.0,0.0,0.3132086992263794,2.508635997772217,4.04996919631958,-56.69139862060547,0
1219.2690000000002,-7.1144550020108e-06,-0.00011580638238228858,-4.150496533839032e-05,0.0,0.0,0.0,0.0,0.0009186668903566897,0.0045378804206848145,-0.0019805990159511566,1.000445008277893,0.0,0.0,0.0,0.3130246102809906,2.513307809829712,4.048076152801514,-56.658077239990234,0
1229.1710000000003,-6.867185584269464e-05,-0.00014123943401500583,-3.186711546732113e-05,0.0,0.0,0.0,0.0,-0.0010620392858982086,0.002922750310972333,0.003959329333156347,1.0013518333435059,0.0,0.0,0.0,0.31245195865631104,2.5043222904205322,4.035001754760742,-56.55442428588867,0
1239.0869999999995,5.785186658613384e-06,-0.00014530929911416024,-3.4370219509582967e-05,0.0,0.0,0.0,0.0,-7.674739754293114e-05,0.0011436983477324247,-0.00247675902210176,1.0000299215316772,0.0,0.0,0.0,0.31772223114967346,2.51723051071167,4.035789966583252,-57.50836181640625,0
1248.9969999999994,-5.5086427892092615e-05,-0.0001705750182736665,-2.4396860681008548e-05,0.0,0.0,0.0,0.0,-0.0014882232062518597,0.00427924282848835,0.0005005555576644838,1.0012807846069336,0.0,0.0,0.0,0.31656187772750854,2.520517587661743,4.0329179763793945,-57.2983283996582,0
1258.9099999999999,-2.755736386461649e-05,-0.00010967524576699361,-3.0808492738287896e-05,0.0,0.0,0.0,0.0,0.0015538393054157495,-0.0033644947689026594,0.0004959062207490206,0.9989893436431885,0.0,0.0,0.0,0.31616777181625366,2.5225017070770264,4.0137505531311035,-57.22699737548828,0
1268.8220000000001,-8.869310840964317e-05,-0.00013174503692425787,-2.1000792912673205e-05,0.0,0.0,0.0,0.0,0.0003567015228327364,-0.007485970389097929,-0.0004068044072482735,0.9987674951553345,0.0,0.0,0.0,0.315110445022583,2.5171024799346924,4.010768413543701,-57.03561782836914,0
1278.7369999999992,-7.998930232133716e-05,-5.547773253056221e-05,-2.8097820177208632e-05,0.0,0.0,0.0,0.0,-0.0017283502966165543,-0.00037180414074100554,0.0021663475781679153,1.0016902685165405,0.0,0.0,0.0,0.3150794208049774,2.5103092193603516,4.023992538452148,-57.03000259399414,0
1288.6530000000002,-0.00014336490130517632,-7.601645484101027e-05,-2.0621220755856484e-05,0.0,0.0,0.0,0.0,0.0025320006534457207,0.001621878007426858,0.001808210276067257,0.9993034601211548,0.0,0.0,0.0,0.3161214292049408,2.510150909423828,4.015191078186035,-57.21861267089844,0
1298.5650000000005,-0.00014208494394551963,1.2657152183237486e-05,-9.027581108966842e-05,0.0,0.0,0.0,0.0,6.570036930497736e-05,-0.00029402633663266897,0.001456082914955914,1.0011698007583618,0.0,0.0,0.0,0.3073591887950897,2.517552614212036,4.010295391082764,-55.63262176513672,0
1308.4779999999992,-0.0002103082515532151,-5.665051503456198e-06,-8.778894698480144e-05,0.0,0.0,0.0,0.0,0.0029004723764955997,0.0025043736677616835,0.0021615661680698395,1.002631664276123,0.0,0.0,0.0,0.30763089656829834,2.5159687995910645,4.005537509918213,-55.68180465698242,0
1318.3909999999996,-0.00015866186004132032,2.597485035948921e-05,-6.662937084911391e-05,0.0,0.0,0.0,0.0,-0.002369209658354521,-0.005327912978827953,0.0035647584591060877,0.9982061386108398,0.0,0.0,0.0,0.31342530250549316,2.5131137371063232,3.9928877353668213,-56.7306022644043,0
1328.298999999999,-0.0002273415302624926,5.571188012254424e-06,-6.033368845237419e-05,0.0,0.0,0.0,0.0,-0.003458297811448574,-0.0023978319950401783,0.0045614093542099,0.9971199035644531,0.0,0.0,0.0,0.31411832571029663,2.516136407852173,3.995870351791382,-56.856040954589844,0
1338.214,-0.0002288526011398062,-5.412988684838638e-05,-4.6521810872945935e-05,0.0,0.0,0.0,0.0,0.0014108505565673113,-0.00022500679187942296,0.0002843369438778609,0.9997457265853882,0.0,0.0,0.0,0.3157753646373749,2.519472360610962,3.9949254989624023,-57.155975341796875,0
1348.1260000000002,-0.0002977788681164384,-7.7998818596825e-05,-4.3207524868194014e-05,0.0,0.0,0.0,0.0,0.00035094175837002695,-0.00017740156908985227,0.0003218335041310638,1.0005844831466675,0.0,0.0,0.0,0.3154536485671997,2.519564390182495,3.991692304611206,-57.097740173339844,0
1358.0390000000007,-0.0002009210002142936,-0.00010953089076792821,-3.3467822504462674e-05,0.0,0.0,0.0,0.0,-0.0011340846540406346,-0.003127780742943287,-0.00033122755121439695,1.0019866228103638,0.0,0.0,0.0,0.30724066495895386,2.5270273685455322,3.99282169342041,-55.611175537109375,0
1367.9500000000007,-0.00026904448168352246,-0.00013450597180053592,-2.9284146876307204e-05,0.0,0.0,0.0,0.0,0.0021796911023557186,-0.00038224144373089075,-0.0006461961893364787,1.0017067193984985,0.0,0.0,0.0,0.30767276883125305,2.523108720779419,3.9949371814727783,-55.68938064575195,0
1377.8729999999996,-0.00010928461415460333,-5.61952474527061e-05,-1.515817075414816e-05,0.0,0.0,0.0,0.0,0.0007716550026088953,-0.0026345013175159693,0.0005359577480703592,0.9997580647468567,0.0,0.0,0.0,0.3065928816795349,2.5171279907226562,3.987445116043091,-55.49392318725586,0
1387.7759999999998,-0.00017453169857617468,-7.792142423568293e-05,-6.891402335895691e-06,0.0,0.0,0.0,0.0,-0.004079204984009266,-0.0008258444722741842,0.0037771540228277445,0.999427855014801,0.0,0.0,0.0,0.3067936301231384,2.515519618988037,3.983034610748291,-55.53025817871094,0
1397.6939999999995,-4.516649278230034e-05,-8.919429092202336e-05,-1.9626844732556492e-05,0.0,0.0,0.0,0.0,-0.0030555513221770525,-0.0019233773928135633,0.001780607271939516,0.997597873210907,0.0,0.0,0.0,0.3076663911342621,2.516103744506836,3.9870941638946533,-55.688228607177734,0
1407.601999999999,-0.00010724276944529265,-0.0001110871453420259,-1.4123892469797283e-05,0.0,0.0,0.0,0.0,-0.0008969258051365614,-0.001332147279754281,-0.0026851624716073275,0.9990806579589844,0.0,0.0,0.0,0.3074055016040802,2.5141396522521973,3.990417957305908,-55.64100646972656,0
1417.5239999999994,-2.5885145078063942e-05,-8.41522851260379e-05,-8.222055475926027e-05,0.0,0.0,0.0,0.0,-0.0009437517146579921,0.0008747050305828452,0.00219117384403944,0.997948169708252,0.0,0.0,0.0,0.3071576654911041,2.5103225708007812,3.988964557647705,-55.59614944458008,0
1427.4269999999997,-8.493279165122658e-05,-0.00010551618470344692,-8.579837594879791e-05,0.0,0.0,0.0,0.0,0.0006665530381724238,0.0018944443436339498,0.002287492388859391,1.000459909439087,0.0,0.0,0.0,0.30751410126686096,2.50807785987854,3.977438449859619,-55.660667419433594,0
1437.3420000000006,1.0240111805615015e-05,-8.970867202151567e-05,-0.00012970140960533172,0.0,0.0,0.0,0.0,-0.0009421763243153691,-0.0019471208797767758,0.002451761160045862,1.0005987882614136,0.0,0.0,0.0,0.3132983446121216,2.517322540283203,3.978869915008545,-56.70762634277344,0
1447.2549999999992,-5.246744694886729e-05,-0.00011454203922767192,-0.0001380132307531312,0.0,0.0,0.0,0.0,-0.00018241368525195867,-0.0038541611284017563,-0.0019922293722629547,1.0012131929397583,0.0,0.0,0.0,0.3137305974960327,2.5152509212493896,3.968672513961792,-56.78586196899414,0
1457.1730000000007,-2.545722782087978e-05,-8.143901504809037e-05,-0.00017497040971647948,0.0,0.0,0.0,0.0,0.0011421344242990017,0.003940118942409754,-0.0012985828798264265,1.0008563995361328,0.0,0.0,0.0,0.3124975860118866,2.51259183883667,3.978219747543335,-56.56268310546875,0
1467.0830000000005,7.535216718679294e-05,-0.00013504843809641898,-0.00014489451132249087,0.0,0.0,0.0,0.0,0.0003304732672404498,0.0003231263835914433,-0.00062987906858325,0.9997831583023071,0.0,0.0,0.0,0.31252843141555786,2.5084407329559326,3.9816057682037354,-56.568267822265625,0
1476.991,2.7070307623944245e-05,-0.00012874920503236353,-0.00014762877253815532,0.0,0.0,0.0,0.0,0.0008718613535165787,0.0015481880400329828,0.0022841044701635838,0.9993125200271606,0.0,0.0,0.0,0.31223925948143005,2.5068883895874023,3.9699504375457764,-56.51593017578125,0
1486.9159999999993,6.699360528727993e-05,-0.00016121554654091597,-0.0001231895585078746,0.0,0.0,0.0,0.0,-0.002382062841206789,-0.0015444965101778507,0.0009583880309946835,0.9998334050178528,0.0,0.0,0.0,0.312612384557724,2.5077857971191406,3.970115900039673,-56.583465576171875,0
1496.8189999999995,2.1336820282158442e-05,-0.0001444000081392005,-0.00012074232654413208,0.0,0.0,0.0,0.0,-0.002388911321759224,-0.0003884475154336542,-0.0004756766720674932,1.000465750694275,0.0,0.0,0.0,0.3121575713157654,2.509516954421997,3.962153434753418,-56.50114059448242,0
1506.735999999999,-1.9641229300759733e-05,-0.00011362470831954852,-8.591945515945554e-05,0.0,0.0,0.0,0.0,-0.001730702118948102,-0.004159173928201199,0.003557441756129265,0.9992220997810364,0.0,0.0,0.0,0.3115389943122864,2.5088515281677246,3.963881731033325,-56.3891716003418,0
1516.6489999999994,-1.9193861589883454e-05,-7.128949073376134e-05,-0.00013831016258336604,0.0,0.0,0.0,0.0,-2.280631633766461e-05,0.0010514184832572937,0.00025982194347307086,0.9982278943061829,0.0,0.0,0.0,0.30483144521713257,2.5242936611175537,3.980313301086426,-55.17509460449219,0
1526.5599999999995,-4.595324207912199e-05,-7.06435093889013e-05,-0.0001185778237413615,0.0,0.0,0.0,0.0,-0.0015383175341412425,-0.0009140446782112122,-0.0011786781251430511,0.9997679591178894,0.0,0.0,0.0,0.3052403926849365,2.5212879180908203,3.9828765392303467,-55.249122619628906,0
1536.4689999999991,-8.26711329864338e-05,-5.5882701417431235e-05,-0.00013998015492688864,0.0,0.0,0.0,0.0,-5.6984994444064796e-05,-3.1952265999279916e-05,0.002946669701486826,1.0010157823562622,0.0,0.0,0.0,0.30505380034446716,2.5158588886260986,3.9703762531280518,-55.2153434753418,0
1546.3860000000004,-7.490903954021633e-05,-5.699049506802112e-05,-0.00011012145841959864,0.0,0.0,0.0,0.0,-0.0009282363462261856,-0.003475734731182456,0.0014395583420991898,1.0006147623062134,0.0,0.0,0.0,0.30581727623939514,2.509244441986084,3.963200569152832,-55.35353469848633,0
1556.2939999999999,-0.00011549141345312819,-4.825765790883452e-05,-0.0001311478845309466,0.0,0.0,0.0,0.0,-0.0004838200402446091,0.0007182048866525292,-0.002674431074410677,0.9976212382316589,0.0,0.0,0.0,0.3113611936569214,2.515279531478882,3.968716621398926,-56.35699462890625,0
1566.214,-0.00015051563968881965,-3.476587517070584e-05,-0.00010551156447036192,0.0,0.0,0.0,0.0,-0.002820764435455203,0.0026388082187622786,-0.0014520918484777212,0.9985311627388,0.0,0.0,0.0,0.31115198135375977,2.507896900177002,3.9801390171051025,-56.319129943847656,0
1576.1239999999998,-0.00017613040108699352,4.474552497413242e-06,-0.00013928224507253617,0.0,0.0,0.0,0.0,0.001925949938595295,0.0015305326087400317,0.0038899779319763184,0.9987199902534485,0.0,0.0,0.0,0.3103092908859253,2.5106287002563477,3.9682652950286865,-56.166595458984375,0
1586.0429999999997,-0.00010293948434991762,-6.682805633317912e-06,-9.409636550117284e-05,0.0,0.0,0.0,0.0,-0.00266654952429235,-0.007501896470785141,-0.0014233043184503913,0.997968316078186,0.0,0.0,0.0,0.3109520375728607,2.5038669109344482,3.961635112762451,-56.282936096191406,0
1595.955,-0.00014158787962514907,5.425667495728703e-06,-0.00012268377759028226,0.0,0.0,0.0,0.0,-0.003178092883899808,-3.1372474040836096e-05,-0.0013696018140763044,0.9984282851219177,0.0,0.0,0.0,0.31112217903137207,2.5038106441497803,3.9768049716949463,-56.3137321472168,0
1605.866,-0.0001550660381326452,-8.29857435746817e-06,-0.00011034025374101475,0.0,0.0,0.0,0.0,-0.0016228283056989312,0.0014323898358270526,-0.002973573049530387,1.0000367164611816,0.0,0.0,0.0,0.311576247215271,2.5091934204101562,3.962536096572876,-56.39591979980469,0
1615.7870000000003,-0.0001930605503730476,2.04563530132873e-05,-0.00013796314306091517,0.0,0.0,0.0,0.0,0.0020719661843031645,-0.003812836715951562,0.004418238531798124,1.000088095664978,0.0,0.0,0.0,0.31067904829978943,2.510044574737549,3.972313642501831,-56.23352813720703,0
1625.6900000000005,-7.893797737779096e-05,-2.2779631763114594e-05,-9.753914491739124e-05,0.0,0.0,0.0,0.0,0.001464793342165649,0.0010562688112258911,-0.0037230097223073244,1.0013355016708374,0.0,0.0,0.0,0.3106769621372223,2.5083436965942383,3.9694480895996094,-56.233150482177734,0
1635.6100000000006,-0.00012172167043900117,-4.655946213460993e-06,-0.00011386676487745717,0.0,0.0,0.0,0.0,0.003998163156211376,0.003592696040868759,-0.0022415469866245985,1.0027669668197632,0.0,0.0,0.0,0.31011658906936646,2.4971442222595215,3.965071678161621,-56.13172149658203,0
1645.5159999999996,-3.455449768807739e-05,-6.592556019313633e-05,-8.748322579776868e-05,0.0,0.0,0.0,0.0,-0.0015226290561258793,-0.00016075801977422088,-0.0029075893107801676,1.000570297241211,0.0,0.0,0.0,0.31023460626602173,2.492777109146118,3.9512672424316406,-56.15308380126953,0
1655.441999999999,-6.998588651185855e-05,-4.258277112967335e-05,-0.00010105263208970428,0.0,0.0,0.0,0.0,-0.0008134200470522046,-0.0020912920590490103,-0.0021923792082816362,1.0002437829971313,0.0,0.0,0.0,0.3100132644176483,2.4898016452789307,3.9550042152404785,-56.11301803588867,0
1665.3469999999998,-7.715692481724545e-05,-8.038333908189088e-05,-8.977228571893647e-05,0.0,0.0,0.0,0.0,-0.0012612774735316634,0.00047729420475661755,0.0010610974859446287,0.99965900182724,0.0,0.0,0.0,0.30796706676483154,2.48394513130188,3.953584671020508,-55.742645263671875,0
1675.2669999999998,-0.00011385055404389277,-7.482030196115375e-05,-0.00011482226545922458,0.0,0.0,0.0,0.0,-0.0004503329109866172,-0.0015528856310993433,-0.00021055330580566078,0.9996219873428345,0.0,0.0,0.0,0.30218929052352905,2.4889442920684814,3.9443089962005615,-54.696861267089844,0
1685.1659999999993,-7.850192923797294e-05,-8.045027789194137e-05,-7.367929356405511e-05,0.0,0.0,0.0,0.0,0.0021781413815915585,0.0016996758058667183,0.003774382406845689,0.9995819926261902,0.0,0.0,0.0,0.3012903928756714,2.4892449378967285,3.9458601474761963,-54.53416061401367,0
1695.0920000000006,-0.00010785894119180739,-5.947098907199688e-05,-9.965226490749046e-05,0.0,0.0,0.0,0.0,0.0003198515623807907,0.0007627573795616627,7.451605483765888e-07,0.9984631538391113,0.0,0.0,0.0,0.3073212504386902,2.490971326828003,3.9466662406921387,-55.62575912475586,0
1705.003999999999,-7.164842099882662e-05,-7.071207073749974e-05,-6.24007370788604e-05,0.0,0.0,0.0,0.0,0.00021244493837002665,8.636777783976868e-05,0.0033048533368855715,1.0001893043518066,0.0,0.0,0.0,0.3073246479034424,2.4850456714630127,3.9366226196289062,-55.626373291015625,0
1714.9179999999997,-9.640806820243597e-05,-3.784845466725528e-05,-8.983512088889256e-05,0.0,0.0,0.0,0.0,0.003848571330308914,-0.0011984205339103937,-0.0005547853652387857,0.998923122882843,0.0,0.0,0.0,0.30755019187927246,2.4834651947021484,3.9393303394317627,-55.66719436645508,0
1724.8220000000001,-8.180696022463962e-05,-4.6116841986076906e-05,-6.097003279137425e-05,0.0,0.0,0.0,0.0,0.0009706674609333277,-0.0008943114662542939,0.0028694355860352516,1.000251054763794,0.0,0.0,0.0,0.30726075172424316,2.475752830505371,3.929974317550659,-55.61480712890625,0
1734.7530000000006,-0.00011355920287314802,-2.6697767680161633e-05,-8.722271741135046e-05,0.0,0.0,0.0,0.0,1.3375721209740732e-05,-0.0037662999238818884,-0.00013772433158010244,0.9996395707130432,0.0,0.0,0.0,0.3078687787055969,2.4668030738830566,3.9304606914520264,-55.72486114501953,0
1744.6440000000002,-4.8420490202261135e-05,-5.754224912379868e-05,-5.075986700830981e-05,0.0,0.0,0.0,0.0,0.0005793736781924963,0.0024825858417898417,-0.0016148104332387447,1.000197410583496,0.0,0.0,0.0,0.30753281712532043,2.467846393585205,3.926492214202881,-55.6640510559082,0
1754.5609999999997,-8.04863084340468e-05,-4.447293758857995e-05,-7.517841731896624e-05,0.0,0.0,0.0,0.0,-0.00028411534731276333,0.0017514924984425306,-0.0035543323028832674,0.9989042282104492,0.0,0.0,0.0,0.3079322576522827,2.464799165725708,3.9199090003967285,-55.736351013183594,0
1764.4709999999995,-4.768474536831491e-05,-7.618957170052454e-05,-4.731920125777833e-05,0.0,0.0,0.0,0.0,-0.0003073356347158551,-0.0037690105382353067,-0.00016779606812633574,0.9979554414749146,0.0,0.0,0.0,0.30439135432243347,2.466747283935547,3.9200103282928467,-55.09543991088867,0
1774.4030000000002,-5.2307728765299544e-05,-3.751609256141819e-05,-9.518691513221711e-05,0.0,0.0,0.0,0.0,-0.0005133890081197023,0.0007712272345088422,0.0008362565422430634,0.9964343309402466,0.0,0.0,0.0,0.3041086792945862,2.4630515575408936,3.925891876220703,-55.04427719116211,0
1784.2939999999999,1.4306881894299295e-05,-0.00010142505925614387,-8.030633034650236e-05,0.0,0.0,0.0,0.0,-0.0007979415822774172,-0.0007737342384643853,-0.00283955130726099,0.9987756609916687,0.0,0.0,0.0,0.3052052855491638,2.4589202404022217,3.9214959144592285,-55.242759704589844,0
1794.2109999999993,-2.880856663978193e-05,-7.849476241972297e-05,-8.408547728322446e-05,0.0,0.0,0.0,0.0,0.001173224183730781,-0.0026242982130497694,-0.0012651539873331785,0.9983272552490234,0.0,0.0,0.0,0.3039369583129883,2.4549460411071777,3.920100688934326,-55.0131950378418,0
1804.1190000000006,-3.7428286304930225e-05,-8.921008702600375e-05,-7.096451008692384e-05,0.0,0.0,0.0,0.0,0.0005615200498141348,-0.0011960932752117515,-0.0003790944174397737,0.9981461763381958,0.0,0.0,0.0,0.30243730545043945,2.449644088745117,3.92777156829834,-54.741756439208984,0
1814.0499999999993,-6.513290281873196e-05,-5.801985753350891e-05,-9.677889465820044e-05,0.0,0.0,0.0,0.0,-0.0009307105792686343,-0.001248993561603129,0.0008595209219492972,1.0011365413665771,0.0,0.0,0.0,0.3093537986278534,2.460737943649292,3.9359922409057617,-55.99365234375,0
1823.941999999999,8.322493158630095e-06,-0.00012152871204307303,-8.516948582837358e-05,0.0,0.0,0.0,0.0,0.0006871322402730584,0.0009200475760735571,0.0015011796494945884,1.0008480548858643,0.0,0.0,0.0,0.30943402647972107,2.462294578552246,3.940706491470337,-56.008174896240234,0
1833.8709999999992,-7.879953773226589e-05,-0.0001700909633655101,-6.271862366702408e-05,0.0,0.0,0.0,0.0,-0.0006007710471749306,-0.0012868655612692237,0.0005314704030752182,0.9999758005142212,0.0,0.0,0.0,0.3096258342266083,2.462916851043701,3.931999683380127,-56.04288864135742,0
1843.7739999999994,-4.173628622083925e-05,-0.00016187284199986607,-1.726689333736431e-05,0.0,0.0,0.0,0.0,0.005685409996658564,0.0020344872027635574,-0.0035688825882971287,0.9987073540687561,0.0,0.0,0.0,0.3102055788040161,2.462999105453491,3.93196439743042,-56.1478271484375,0
1853.696,-8.484413410769776e-05,-0.0001248957123607397,-1.1547973372216802e-05,0.0,0.0,0.0,0.0,0.00029978452948853374,-0.0011923820711672306,-0.0003932782565243542,0.9992170333862305,0.0,0.0,0.0,0.30002954602241516,2.4706454277038574,3.9249966144561768,-54.305946350097656,0
1863.5920000000006,-6.908389332238585e-05,-0.00013110389409121126,2.110746572725475e-05,0.0,0.0,0.0,0.0,0.0014116097008809447,-0.0010903627844527364,0.0009600886260159314,0.999969482421875,0.0,0.0,0.0,0.29878512024879456,2.472874402999878,3.920910120010376,-54.0806999206543,0
1873.5149999999994,-6.863897579023615e-05,-7.709232886554673e-05,-2.7251748178969137e-05,0.0,0.0,0.0,0.0,-0.0026327159721404314,0.0015163292409852147,-0.002972255228087306,0.999058187007904,0.0,0.0,0.0,0.30586299300193787,2.479909896850586,3.918980360031128,-55.36180877685547,0
1883.4179999999997,-7.333535904763266e-05,-7.948182610562071e-05,-4.668397195928264e-06,0.0,0.0,0.0,0.0,-0.0016836558934301138,0.0011076093651354313,-0.0008993129595182836,0.9991070628166199,0.0,0.0,0.0,0.303943395614624,2.477745771408081,3.914968967437744,-55.01436233520508,0
1893.3469999999998,-6.172247231006622e-05,-2.5549881684128195e-05,-6.992977432673797e-05,0.0,0.0,0.0,0.0,0.0032902772072702646,0.0021774775814265013,0.0010901880450546741,1.0000170469284058,0.0,0.0,0.0,0.296392560005188,2.495018720626831,3.9206833839416504,-53.647640228271484,0
1903.2469999999994,-3.419182803554577e-06,-9.175542072625831e-05,-6.450582441175357e-05,0.0,0.0,0.0,0.0,0.0004884410882368684,0.0006913480465300381,-0.002206555102020502,0.999458909034729,0.0,0.0,0.0,0.29540637135505676,2.4877076148986816,3.913930654525757,-53.46914291381836,0
1913.1630000000005,-3.794266012846492e-05,-7.914582238299772e-05,-9.055463306140155e-05,0.0,0.0,0.0,0.0,0.00022259523393586278,0.001725034206174314,0.0010797923896461725,1.0010907649993896,0.0,0.0,0.0,0.30108290910720825,2.492476224899292,3.9211831092834473,-54.49660110473633,0
1923.0730000000003,-4.6263998228823766e-05,-0.00015157619782257825,-0.00010733331146184355,0.0,0.0,0.0,0.0,-0.0006022130837664008,0.004529506899416447,0.003956329543143511,1.0012190341949463,0.0,0.0,0.0,0.30077263712882996,2.493755340576172,3.9217822551727295,-54.44044494628906,0
1932.9930000000004,-7.934957830002531e-05,-0.00011277288285782561,-0.0001277886622119695,0.0,0.0,0.0,0.0,-0.0006531306426040828,-0.000589205592405051,0.001092610415071249,0.9991664886474609,0.0,0.0,0.0,0.3065522313117981,2.5003702640533447,3.915449857711792,-55.48656463623047,0
1942.8979999999992,-6.015941380610457e-06,-0.0001529167202534154,-9.965788194676861e-05,0.0,0.0,0.0,0.0,-0.001236381591297686,0.004632216412574053,0.0014000610681250691,0.9996827244758606,0.0,0.0,0.0,0.306491494178772,2.4957680702209473,3.910409450531006,-55.47557067871094,0
1952.8160000000007,-4.2931151256198063e-05,-0.00013082068471703678,-0.00012041581067023799,0.0,0.0,0.0,0.0,-0.00031180671066977084,0.0006299769738689065,-0.0010834417771548033,0.9988911151885986,0.0,0.0,0.0,0.30713212490081787,2.4925830364227295,3.902294635772705,-55.59152603149414,0
1962.7289999999994,-6.549444515258074e-05,-0.00011457669461378828,-9.5855284598656e-05,0.0,0.0,0.0,0.0,0.0010623455746099353,0.005832658614963293,-0.002314645331352949,0.9993547797203064,0.0,0.0,0.0,0.30794015526771545,2.4951562881469727,3.901974678039551,-55.7377815246582,0
1972.6399999999994,-0.00010696346726035699,-7.904113590484485e-05,-0.00010910785931628197,0.0,0.0,0.0,0.0,0.0007508253329433501,0.000626739056315273,0.0013536004116758704,0.9995798468589783,0.0,0.0,0.0,0.31595051288604736,2.501784563064575,3.8921332359313965,-57.18767166137695,0
1982.5439999999999,-7.499888306483626e-05,-8.007922588149086e-05,-7.29655148461461e-05,0.0,0.0,0.0,0.0,0.0004711093206424266,-0.0009113747510127723,0.0017185647739097476,0.9984642267227173,0.0,0.0,0.0,0.31616926193237305,2.4966444969177246,3.8844480514526367,-57.227264404296875,0
1992.4629999999997,-0.00011130252096336335,-6.0002043028362095e-05,-0.00010139650839846581,0.0,0.0,0.0,0.0,-0.0020000922959297895,0.0029620362911373377,-0.006517468951642513,0.9987282752990723,0.0,0.0,0.0,0.314807653427124,2.4961977005004883,3.887044668197632,-56.98081588745117,0
2002.3739999999998,-5.96546997257974e-05,-0.00010164929699385539,-8.120170241454616e-05,0.0,0.0,0.0,0.0,0.0056788744404911995,-0.0021326649002730846,-0.002645788947120309,0.9988085031509399,0.0,0.0,0.0,0.31423473358154297,2.4966018199920654,3.882080078125,-56.87710952758789,0
2012.2909999999993,-6.602462235605344e-05,-5.926204539719038e-05,-0.00014493627531919628,0.0,0.0,0.0,0.0,-0.0041908691637218,0.0006301391404122114,-0.001057814690284431,0.998771071434021,0.0,0.0,0.0,0.313294917345047,2.4906365871429443,3.8805999755859375,-56.707000732421875,0
2022.200999999999,-2.221182694484014e-05,-0.00010126709094038233,-0.00013016069715376943,0.0,0.0,0.0,0.0,-0.00013440796465147287,0.002494633197784424,-0.0015284946421161294,0.9995105266571045,0.0,0.0,0.0,0.31268033385276794,2.497910261154175,3.8773982524871826,-56.59576416015625,0
2032.1100000000006,-4.6247023419709876e-05,-7.469949923688546e-05,-0.00018097771680913866,0.0,0.0,0.0,0.0,7.465491944458336e-05,-0.0002095753443427384,0.0012387121096253395,0.9999201893806458,0.0,0.0,0.0,0.31820017099380493,2.5069127082824707,3.878852128982544,-57.59486770629883,0
2042.0210000000006,-6.0960221162531525e-05,-4.871265628025867e-05,-0.00015294029435608536,0.0,0.0,0.0,0.0,0.0006163932848721743,0.0005056361551396549,-0.002516619162634015,1.0000360012054443,0.0,0.0,0.0,0.3183765113353729,2.506589651107788,3.8744962215423584,-57.62678146362305,0
2051.937,-9.228038834407926e-05,-2.3520835384260863e-05,-0.00019768491620197892,0.0,0.0,0.0,0.0,-0.0017905158456414938,0.0016573932953178883,0.00018263369565829635,1.0032784938812256,0.0,0.0,0.0,0.3099224269390106,2.5136239528656006,3.8779356479644775,-56.09657669067383,0
2061.8469999999998,-6.839007983217016e-05,-2.9762031772406772e-05,-0.00017323566135019064,0.0,0.0,0.0,0.0,0.0006665645050816238,0.0004591500328388065,-0.0014924044953659177,1.0006977319717407,0.0,0.0,0.0,0.3093162775039673,2.5110013484954834,3.8793699741363525,-55.98685836791992,0
2071.76,-0.00013357220450416207,-3.302480763522908e-05,-0.0001849509571911767,0.0,0.0,0.0,0.0,-0.0019724576268345118,-0.005071229301393032,-0.000742780917789787,1.00078547000885,0.0,0.0,0.0,0.3085659444332123,2.507946729660034,3.8766536712646484,-55.85104751586914,0
2081.6720000000005,-5.8486439229454845e-05,-6.212801963556558e-05,-0.00014656865096185356,0.0,0.0,0.0,0.0,0.00019552242883946747,-0.0053968606516718864,2.1217372704995796e-05,0.9982700943946838,0.0,0.0,0.0,0.3082304000854492,2.5062458515167236,3.87497878074646,-55.790313720703125,0
2091.592999999999,-0.00011903102131327614,-4.5759046770399436e-05,-0.00016360451991204172,0.0,0.0,0.0,0.0,-0.001448290073312819,0.0026488190051168203,0.002029821975156665,0.9973547458648682,0.0,0.0,0.0,0.30866897106170654,2.503276824951172,3.8825249671936035,-55.869693756103516,0
2101.504999999999,-7.409112004097551e-05,-5.1290458941366524e-05,-0.00012124908244004473,0.0,0.0,0.0,0.0,-0.0010304114548489451,-0.0021369499154388905,0.0010926404502242804,0.9992492198944092,0.0,0.0,0.0,0.30841773748397827,2.503159523010254,3.8843588829040527,-55.82422637939453,0
