timestamp,stateEstimate.x,stateEstimate.y,stateEstimate.z,controller.cmd_thrust,controller.cmd_roll,controller.cmd_pitch,controller.cmd_yaw,controller.r_roll,controller.r_pitch,controller.r_yaw,controller.accelz,controller.actuatorThrust,controller.roll,controller.pitch,controller.yaw,controller.rollRate,controller.pitchRate,controller.yawRate,controller.ctr_yaw
0.0,-0.020067190751433372,0.004648849368095398,-0.0006858141277916729,0.0,0.0,0.0,0.0,0.0012596372980624437,-0.00011346180690452456,0.0023054841440171003,1.000553011894226,0.0,0.0,0.0,5.544212341308594,0.8815457224845886,5.804378986358643,-1003.513427734375,0
9.917999999999665,-0.02005716972053051,0.00461791455745697,-0.00067605369258672,0.0,0.0,0.0,0.0,-0.0008416424971073866,-0.00144986342638731,0.003655535401776433,1.0012062788009644,0.0,0.0,0.0,5.549333095550537,0.8673499226570129,5.804525375366211,-1004.4403686523438,0
19.826999999999316,-0.02008700557053089,0.0046097589656710625,-0.0006615519523620605,0.0,0.0,0.0,0.0,0.005180899519473314,0.0026997290551662445,0.003008053405210376,1.000011920928955,0.0,0.0,0.0,5.544658660888672,0.8670661449432373,5.796992778778076,-1003.59423828125,0
29.74200000000019,-0.02001388743519783,0.004580636043101549,-0.000630503345746547,0.0,0.0,0.0,0.0,0.0018790450412780046,0.0009729795274324715,-0.0012127264635637403,1.000307559967041,0.0,0.0,0.0,5.5400285720825195,0.8664721250534058,5.7728729248046875,-1002.7562255859375,0
39.64600000000064,-0.020039964467287064,0.004572335630655289,-0.0006149521796032786,0.0,0.0,0.0,0.0,0.0003080389287788421,-0.0008607205818407238,-0.0007254336960613728,0.9992549419403076,0.0,0.0,0.0,5.534223556518555,0.8608139157295227,5.762622356414795,-1001.7053833007812,0
49.55799999999908,-0.020029917359352112,0.004558822140097618,-0.000581858737859875,0.0,0.0,0.0,0.0,-0.0021660216152668,0.00041036371840164065,0.00129843526519835,0.997590184211731,0.0,0.0,0.0,5.541993618011475,0.8540450930595398,5.7664570808410645,-1003.1118774414062,0
59.46899999999914,-0.020056139677762985,0.004549491684883833,-0.0005674880812875926,0.0,0.0,0.0,0.0,0.0009698527283035219,0.00212225248105824,-0.0026874272152781487,0.9970709085464478,0.0,0.0,0.0,5.536343574523926,0.8597456812858582,5.770035266876221,-1002.0891723632812,0
69.38299999999981,-0.020011410117149353,0.004505685064941645,-0.0005397037020884454,0.0,0.0,0.0,0.0,-0.0014861426316201687,0.0039818077348172665,-0.0013660063268616796,0.9972306489944458,0.0,0.0,0.0,5.536467552185059,0.8450926542282104,5.780055999755859,-1002.1116333007812,0
79.29399999999987,-0.02003416232764721,0.004491545259952545,-0.0005300246994011104,0.0,0.0,0.0,0.0,0.0009666627738624811,-0.0014303242787718773,0.00017447717254981399,0.9997721910476685,0.0,0.0,0.0,5.529999732971191,0.8406070470809937,5.765312194824219,-1000.94091796875,0
89.20499999999993,-0.02003454603254795,0.004473805893212557,-0.0005077017121948302,0.0,0.0,0.0,0.0,0.0001091753802029416,-0.006479850970208645,0.0035063077230006456,0.9991995096206665,0.0,0.0,0.0,5.542289733886719,0.8378233313560486,5.779634475708008,-1003.1654663085938,0
99.11399999999958,-0.02005676180124283,0.00445648143067956,-0.0004986025160178542,0.0,0.0,0.0,0.0,-0.0016184380510821939,-0.005501813720911741,0.0013564774999395013,0.9995447397232056,0.0,0.0,0.0,5.537235736846924,0.838589072227478,5.78064489364624,-1002.2506103515625,0
109.04000000000087,-0.02004416286945343,0.004439644981175661,-0.0004626821319106966,0.0,0.0,0.0,0.0,-0.0032151807099580765,0.002814134117215872,-0.0032543237321078777,0.9994202852249146,0.0,0.0,0.0,5.543745517730713,0.8378785252571106,5.813403129577637,-1003.428955078125,0
118.94800000000032,-0.020066579803824425,0.0044215708039700985,-0.0004530021396931261,0.0,0.0,0.0,0.0,0.004465984646230936,0.0009868216002359986,0.0019348756177350879,0.9990266561508179,0.0,0.0,0.0,5.5369672775268555,0.838446319103241,5.799630641937256,-1002.2020263671875,0
128.86199999999917,-0.02008717879652977,0.0044017997570335865,-0.0004330011724960059,0.0,0.0,0.0,0.0,0.0016662038397043943,0.0020281437318772078,-0.0016767316265031695,0.9979631304740906,0.0,0.0,0.0,5.537575721740723,0.8385346531867981,5.792012691497803,-1002.312255859375,0
138.76300000000083,-0.02011246606707573,0.004383079707622528,-0.00042535652755759656,0.0,0.0,0.0,0.0,0.0017910487949848175,0.0027852212078869343,-0.0031526305247098207,1.0000946521759033,0.0,0.0,0.0,5.531353950500488,0.8383955955505371,5.77771520614624,-1001.18603515625,0
148.6820000000007,-0.0201207734644413,0.0043680379167199135,-0.0003931771498173475,0.0,0.0,0.0,0.0,-0.00220261188223958,-0.0030690820422023535,-0.0003029895306099206,0.9999028444290161,0.0,0.0,0.0,5.526187896728516,0.8371802568435669,5.768706321716309,-1000.2509765625,0
158.58699999999953,-0.020147498697042465,0.004348462447524071,-0.0003842713194899261,0.0,0.0,0.0,0.0,-0.00038547615986317396,0.0006794046494178474,-0.0005120020941831172,0.999386727809906,0.0,0.0,0.0,5.520125865936279,0.8413766622543335,5.767692565917969,-999.1537475585938,0
168.51300000000083,-0.02010655216872692,0.004302616696804762,-0.0003434726095292717,0.0,0.0,0.0,0.0,0.00112376909237355,0.004935148637741804,-0.0010324821341782808,0.9989541172981262,0.0,0.0,0.0,5.53249454498291,0.8330764174461365,5.789273738861084,-1001.3924560546875,0
178.40999999999985,-0.02008139155805111,0.004470201674848795,-0.0007100193179212511,0.0,0.0,0.0,0.0,-2.81521806755336e-07,-0.002147891093045473,-0.003035204252228141,0.99809330701828,0.0,0.0,0.0,5.527060508728027,0.8318376541137695,5.779980182647705,-1000.4088745117188,0
188.32999999999993,-0.019987624138593674,0.004437246825546026,-0.0006427611806429923,0.0,0.0,0.0,0.0,0.0013221941189840436,0.005172576289623976,-0.0007161511457525194,0.9980559945106506,0.0,0.0,0.0,5.52865743637085,0.8295925855636597,5.785930633544922,-1000.697998046875,0
198.23099999999977,-0.02000960148870945,0.0044233473017811775,-0.0006441327277570963,0.0,0.0,0.0,0.0,-0.004570302553474903,-0.0031024133786559105,-0.0005516749224625528,0.9996011853218079,0.0,0.0,0.0,5.5240654945373535,0.8315844535827637,5.776726722717285,-999.8668823242188,0
208.15899999999965,-0.019947294145822525,0.004426771309226751,-0.000613303214777261,0.0,0.0,0.0,0.0,0.0028829737566411495,-0.0030683225486427546,-0.0008477435330860317,0.9999562501907349,0.0,0.0,0.0,5.53981351852417,0.8405799269676208,5.778977870941162,-1002.7173461914062,0
218.0550000000003,-0.019925560802221298,0.004476430360227823,-0.0007262327126227319,0.0,0.0,0.0,0.0,0.002658868907019496,0.0007858176250010729,-0.003889571176841855,0.9990207552909851,0.0,0.0,0.0,5.5323686599731445,0.8361163139343262,5.773122310638428,-1001.3696899414062,0
227.97700000000077,-0.01997346803545952,0.004532448947429657,-0.0006992947310209274,0.0,0.0,0.0,0.0,0.001220562495291233,0.001734414603561163,0.001174778095446527,0.9977696537971497,0.0,0.0,0.0,5.53700065612793,0.8446894288063049,5.762872695922852,-1002.2081298828125,0
237.8809999999994,-0.01997346803545952,0.004532448947429657,-0.0006992947310209274,0.0,0.0,0.0,0.0,-0.0025876418221741915,-0.003048723330721259,-0.0014325875090435147,0.9978978633880615,0.0,0.0,0.0,5.53700065612793,0.8446894288063049,5.762872695922852,-1002.2081298828125,0
247.80199999999968,-0.020026393234729767,0.00452394038438797,-0.0007039544871076941,0.0,0.0,0.0,0.0,0.0058569274842739105,-0.003169372910633683,-0.0009744479320943356,0.9975681900978088,0.0,0.0,0.0,5.538089752197266,0.8349205255508423,5.744608402252197,-1002.4052124023438,0
257.7029999999995,-0.020026393234729767,0.00452394038438797,-0.0007039544871076941,0.0,0.0,0.0,0.0,-0.0001715172256808728,0.002527981298044324,-0.006896637845784426,1.0002086162567139,0.0,0.0,0.0,5.538089752197266,0.8349205255508423,5.744608402252197,-1002.4052124023438,0
267.6200000000008,-0.020035691559314728,0.004531940910965204,-0.0006940770545043051,0.0,0.0,0.0,0.0,0.0016071787104010582,0.003941059578210115,-0.00017195245891343802,1.00148344039917,0.0,0.0,0.0,5.5355224609375,0.8355199098587036,5.740728855133057,-1001.9404907226562,0
277.52900000000045,-0.020035691559314728,0.004531940910965204,-0.0006940770545043051,0.0,0.0,0.0,0.0,-0.003003953257575631,0.0016031438717618585,-0.0013685317244380713,1.001569390296936,0.0,0.0,0.0,5.5355224609375,0.8355199098587036,5.740728855133057,-1001.9404907226562,0
287.4509999999991,-0.01998165249824524,0.004535723943263292,-0.0006800080300308764,0.0,0.0,0.0,0.0,-0.0020161920692771673,0.0008500497206114233,0.0026725262869149446,0.997602105140686,0.0,0.0,0.0,5.5463175773620605,0.8393387794494629,5.739789009094238,-1003.89453125,0
297.3590000000004,-0.020012259483337402,0.004526893142610788,-0.000682205194607377,0.0,0.0,0.0,0.0,0.0002943478466477245,-0.0024197297170758247,-0.002807922661304474,0.9988698363304138,0.0,0.0,0.0,5.540297031402588,0.8424399495124817,5.734935283660889,-1002.8048095703125,0
307.26900000000023,-0.020022833719849586,0.004528100602328777,-0.000671741203404963,0.0,0.0,0.0,0.0,-0.0018607499077916145,-0.0009249616996385157,0.003407867858186364,1.001958966255188,0.0,0.0,0.0,5.5422844886779785,0.849352240562439,5.735490798950195,-1003.16455078125,0
317.1810000000005,-0.020055411383509636,0.004519897047430277,-0.000674016191624105,0.0,0.0,0.0,0.0,0.002181368414312601,0.002359881065785885,-0.006110010668635368,1.0023986101150513,0.0,0.0,0.0,5.536192893981934,0.845684289932251,5.7292914390563965,-1002.0619506835938,0
327.09300000000076,-0.020073456689715385,0.004540903493762016,-0.0006378518301062286,0.0,0.0,0.0,0.0,-0.0021324465051293373,-0.004473321605473757,-0.00011953403009101748,0.9993192553520203,0.0,0.0,0.0,5.543332576751709,0.8611053228378296,5.728228569030762,-1003.3543090820312,0
337.0,-0.020107798278331757,0.004536820109933615,-0.0006333019700832665,0.0,0.0,0.0,0.0,0.00275538326241076,-0.0023851480800658464,0.0023183776065707207,0.9988789558410645,0.0,0.0,0.0,5.537003993988037,0.8547465801239014,5.7330427169799805,-1002.208740234375,0
346.9210000000003,-0.020066244527697563,0.004563427530229092,-0.0005829029832966626,0.0,0.0,0.0,0.0,-0.0013027805835008621,0.0016802008030936122,-0.000655585085041821,1.0009526014328003,0.0,0.0,0.0,5.542895317077637,0.8724514842033386,5.741288185119629,-1003.2750854492188,0
356.8269999999993,-0.020101388916373253,0.0045623197220265865,-0.0005747178220190108,0.0,0.0,0.0,0.0,0.0014007629361003637,0.001242240541614592,-0.0004206372832413763,1.0008971691131592,0.0,0.0,0.0,5.53706693649292,0.8708199858665466,5.7354559898376465,-1002.2201538085938,0
366.7399999999998,-0.020058905705809593,0.004539538640528917,-0.0005814320757053792,0.0,0.0,0.0,0.0,0.0017907897708937526,0.0024139941670000553,-0.004377164412289858,0.9996066689491272,0.0,0.0,0.0,5.543061256408691,0.8651129007339478,5.7395148277282715,-1003.3051147460938,0
376.64999999999964,-0.020095450803637505,0.004533836152404547,-0.0005732006975449622,0.0,0.0,0.0,0.0,-0.0034106101375073195,0.002160011325031519,-0.002931291703134775,1.0006623268127441,0.0,0.0,0.0,5.536393165588379,0.8634091019630432,5.7337541580200195,-1002.0982055664062,0
386.5660000000007,-0.020074399188160896,0.00452101556584239,-0.0005634519620798528,0.0,0.0,0.0,0.0,0.0008064315770752728,0.0003926446661353111,0.001966167241334915,0.9989614486694336,0.0,0.0,0.0,5.53782320022583,0.858320951461792,5.733362197875977,-1002.35693359375,0
396.47299999999996,-0.02011052705347538,0.00451465230435133,-0.0005551462527364492,0.0,0.0,0.0,0.0,0.0013666694285348058,0.0013806292554363608,0.0036654919385910034,0.9999271631240845,0.0,0.0,0.0,5.531421184539795,0.8557999134063721,5.723249435424805,-1001.1982421875,0
406.3870000000006,-0.020028283819556236,0.004480522591620684,-0.0005576655967161059,0.0,0.0,0.0,0.0,0.0002619846782181412,-0.0011377512710168958,0.0003223618259653449,1.0005545616149902,0.0,0.0,0.0,5.533501625061035,0.8381608724594116,5.735226631164551,-1001.5747680664062,0
416.2980000000007,-0.020061971619725227,0.004471506457775831,-0.0005505461595021188,0.0,0.0,0.0,0.0,-0.004734592512249947,-0.0002995447430294007,-0.0019261169945821166,0.9988069534301758,0.0,0.0,0.0,5.528438568115234,0.8307622671127319,5.72916841506958,-1000.658447265625,0
426.21299999999974,-0.01999465934932232,0.004462359473109245,-0.0005288991960696876,0.0,0.0,0.0,0.0,-0.0004411882546264678,0.0008203545003198087,-0.000732465588953346,0.9994552731513977,0.0,0.0,0.0,5.530383586883545,0.8279733061790466,5.743600368499756,-1001.0104370117188,0
436.1209999999992,-0.020029211416840553,0.004457088187336922,-0.000520518166013062,0.0,0.0,0.0,0.0,-0.0001154542769654654,0.0009146130178123713,0.0009901048615574837,0.9990414381027222,0.0,0.0,0.0,5.5244059562683105,0.8282631635665894,5.741605281829834,-999.928466796875,0
446.03600000000006,-0.02001551352441311,0.004466071724891663,-0.00048238071030937135,0.0,0.0,0.0,0.0,-0.0018266889965161681,-0.0003292021865490824,-0.0007285905885510147,0.999102771282196,0.0,0.0,0.0,5.533015251159668,0.8340176343917847,5.740355014801025,-1001.4867553710938,0
455.9490000000005,-0.020053472369909286,0.004460433032363653,-0.00047328529763035476,0.0,0.0,0.0,0.0,-0.0016831489047035575,0.00020969532488379627,-0.0031713100615888834,1.0010267496109009,0.0,0.0,0.0,5.528532028198242,0.8310480713844299,5.729807376861572,-1000.67529296875,0
465.8580000000002,-0.020063772797584534,0.004444656893610954,-0.00046033758553676307,0.0,0.0,0.0,0.0,0.0010553280590102077,0.0065811011008918285,-0.00010702865256462246,0.9995641708374023,0.0,0.0,0.0,5.533935546875,0.8281296491622925,5.740175247192383,-1001.6532592773438,0
475.76900000000023,-0.020102687180042267,0.004436169285327196,-0.00045111143845133483,0.0,0.0,0.0,0.0,-0.0001972486061276868,0.0033227037638425827,0.0006961136241443455,0.9996158480644226,0.0,0.0,0.0,5.52785062789917,0.8235957622528076,5.725443363189697,-1000.552001953125,0
485.6869999999999,-0.020091906189918518,0.004420082550495863,-0.00043012225069105625,0.0,0.0,0.0,0.0,0.0031871837563812733,0.003077897010371089,-0.00035149266477674246,1.0001802444458008,0.0,0.0,0.0,5.5287322998046875,0.8202261924743652,5.7203826904296875,-1000.7114868164062,0
495.59300000000076,-0.020128952339291573,0.0044086468406021595,-0.0004205940058454871,0.0,0.0,0.0,0.0,-0.00029421100043691695,-0.00209680269472301,-0.005076066590845585,1.0008291006088257,0.0,0.0,0.0,5.522546768188477,0.8237101435661316,5.7119598388671875,-999.5919189453125,0
505.4969999999994,-0.020107703283429146,0.0044201635755598545,-0.00037504808278754354,0.0,0.0,0.0,0.0,-0.0019383952021598816,-0.002278813859447837,-0.000621116254478693,1.0008347034454346,0.0,0.0,0.0,5.531300067901611,0.8307777643203735,5.723756313323975,-1001.1763305664062,0
515.4130000000005,-0.020143991336226463,0.004408573731780052,-0.00036116986302658916,0.0,0.0,0.0,0.0,-0.0016711928183212876,0.0009597669704817235,0.0024148463271558285,1.0005720853805542,0.0,0.0,0.0,5.525374889373779,0.8300690054893494,5.720853328704834,-1000.1038208007812,0
525.3169999999991,-0.020132288336753845,0.0043868874199688435,-0.00032276747515425086,0.0,0.0,0.0,0.0,0.000530289311427623,0.0015684528043493629,-0.004014574456959963,0.9994553327560425,0.0,0.0,0.0,5.5211968421936035,0.8359999656677246,5.717885971069336,-999.34765625,0
535.2489999999998,-0.020166728645563126,0.004374153912067413,-0.0003065346390940249,0.0,0.0,0.0,0.0,0.0029275547713041306,-0.001446068286895752,0.002383605809882283,0.9990404844284058,0.0,0.0,0.0,5.516581058502197,0.8393294215202332,5.712759494781494,-998.5121459960938,0
545.1460000000006,-0.020187702029943466,0.004332304000854492,-0.00024930425570346415,0.0,0.0,0.0,0.0,-0.0032894217874854803,-0.001136415870860219,-0.0027345174457877874,0.9995753169059753,0.0,0.0,0.0,5.506059169769287,0.8388502597808838,5.701783657073975,-996.607666015625,0
555.0609999999997,-0.020187702029943466,0.004332304000854492,-0.00024930425570346415,0.0,0.0,0.0,0.0,0.0028264475986361504,-0.002054467797279358,-0.002025917172431946,0.9991875290870667,0.0,0.0,0.0,5.506059169769287,0.8388502597808838,5.701783657073975,-996.607666015625,0
564.9639999999999,-0.020192159339785576,0.004284090828150511,-0.0001806500949896872,0.0,0.0,0.0,0.0,-0.0035884419921785593,-0.000626509718131274,0.0010580599773675203,1.00242280960083,0.0,0.0,0.0,5.508192539215088,0.8266503214836121,5.726373672485352,-996.9937744140625,0
574.8870000000006,-0.020192159339785576,0.004284090828150511,-0.0001806500949896872,0.0,0.0,0.0,0.0,0.0006502114702016115,0.0012693839380517602,-0.0025309419725090265,1.0030301809310913,0.0,0.0,0.0,5.508192539215088,0.8266503214836121,5.726373672485352,-996.9937744140625,0
584.7860000000001,-0.020177295431494713,0.004249413497745991,-0.00012729565787594765,0.0,0.0,0.0,0.0,0.0023108909372240305,-0.0022097209002822638,0.0015191014390438795,1.0006262063980103,0.0,0.0,0.0,5.508825302124023,0.8234078288078308,5.747951507568359,-997.1083984375,0
594.7090000000007,-0.02020242251455784,0.004229351412504911,-0.00010405502689536661,0.0,0.0,0.0,0.0,-0.0015008127084001899,-0.001706745126284659,0.002745437901467085,1.00019371509552,0.0,0.0,0.0,5.503863334655762,0.8177516460418701,5.743841171264648,-996.2102661132812,0
604.6139999999996,-0.020174561068415642,0.004216894041746855,-3.5422730434220284e-05,0.0,0.0,0.0,0.0,-0.002801142167299986,-0.0007881327765062451,0.0019953977316617966,0.998423159122467,0.0,0.0,0.0,5.511821746826172,0.8239209651947021,5.777065277099609,-997.6506958007812,0
614.5360000000001,-0.020196624100208282,0.004198863636702299,-8.437542419414967e-06,0.0,0.0,0.0,0.0,0.0008958122925832868,-0.005430353805422783,0.004542749375104904,1.0004191398620605,0.0,0.0,0.0,5.5059590339660645,0.8255874514579773,5.770226955413818,-996.5895385742188,0
624.4390000000003,-0.020146774128079414,0.0041546388529241085,4.685181556851603e-05,0.0,0.0,0.0,0.0,0.0013503829250112176,-0.0021187588572502136,-0.002755690598860383,1.0001734495162964,0.0,0.0,0.0,5.512869834899902,0.8089436292648315,5.813009738922119,-997.8404541015625,0
634.3549999999996,-0.020162299275398254,0.0041357711888849735,7.464445661753416e-05,0.0,0.0,0.0,0.0,-0.0008070042240433395,0.001615275745280087,-0.0021884911693632603,0.9992457032203674,0.0,0.0,0.0,5.5068464279174805,0.8133953213691711,5.818556308746338,-996.7501220703125,0
644.2569999999996,-0.020148713141679764,0.00408195098862052,0.00011398725473554805,0.0,0.0,0.0,0.0,-0.002393491333350539,-0.0007089137798175216,-0.0011228215880692005,1.0000017881393433,0.0,0.0,0.0,5.5143327713012695,0.8039292097091675,5.823653221130371,-998.105224609375,0
654.1820000000007,-0.020162833854556084,0.004058206453919411,0.0001409878022968769,0.0,0.0,0.0,0.0,-0.0006448850617744029,0.005529426503926516,0.0004881229833699763,0.9992756843566895,0.0,0.0,0.0,5.509514808654785,0.8044762015342712,5.824963569641113,-997.233154296875,0
664.0799999999999,-0.020139412954449654,0.004028558265417814,0.00018524558981880546,0.0,0.0,0.0,0.0,-0.0005008215084671974,0.002144572790712118,0.002517342334613204,0.9998226761817932,0.0,0.0,0.0,5.5229363441467285,0.797077476978302,5.826296806335449,-999.6624755859375,0
673.9920000000002,-0.02015036903321743,0.004004868678748608,0.00021242635557428002,0.0,0.0,0.0,0.0,-0.0031269309110939503,-0.0030211687553673983,-0.0024750083684921265,0.9995484948158264,0.0,0.0,0.0,5.5178303718566895,0.7992502450942993,5.806385517120361,-998.73828125,0
683.9030000000002,-0.02012636326253414,0.004030438140034676,0.0002595927508082241,0.0,0.0,0.0,0.0,-0.0023680368904024363,-0.004594852216541767,-0.000461052666651085,1.0006141662597656,0.0,0.0,0.0,5.52911376953125,0.8157673478126526,5.822342395782471,-1000.780517578125,0
693.8269999999993,-0.0201376061886549,0.004008011426776648,0.00028992010629735887,0.0,0.0,0.0,0.0,0.00032719483715482056,0.0014062095433473587,-0.00505418237298727,1.0009140968322754,0.0,0.0,0.0,5.524013996124268,0.8239625096321106,5.813759803771973,-999.8575439453125,0
703.7270000000008,-0.020171627402305603,0.003987051080912352,0.0003408393822610378,0.0,0.0,0.0,0.0,0.002493956359103322,0.002397372620180249,-0.004819332156330347,1.0002754926681519,0.0,0.0,0.0,5.524801731109619,0.8228424191474915,5.803308010101318,-1000.0000610351562,0
713.6499999999996,-0.020188845694065094,0.003960472997277975,0.00037347152829170227,0.0,0.0,0.0,0.0,0.0017061828402802348,-0.0033444061409682035,0.0021405804436653852,1.0004653930664062,0.0,0.0,0.0,5.518276214599609,0.8178771734237671,5.788358688354492,-998.8189697265625,0
723.5490000000009,-0.020188212394714355,0.003944321069866419,0.00042727217078208923,0.0,0.0,0.0,0.0,0.0011395876063033938,-0.002758656395599246,-0.0009627387044019997,0.9995526075363159,0.0,0.0,0.0,5.5303144454956055,0.8126448392868042,5.794827461242676,-1000.9978637695312,0
733.4760000000006,-0.020001519471406937,0.004624935332685709,-0.0009222332737408578,0.0,0.0,0.0,0.0,-0.0008462509140372276,-0.0015052109956741333,-0.0018604598008096218,0.9984604716300964,0.0,0.0,0.0,5.523318290710449,0.8671730756759644,5.822668075561523,-999.7315673828125,0
743.3790000000008,-0.020014984533190727,0.004626870155334473,-0.000911170442122966,0.0,0.0,0.0,0.0,0.004244543612003326,-0.0005183623870834708,-9.205525566358119e-05,0.9975455403327942,0.0,0.0,0.0,5.5232110023498535,0.8702555894851685,5.821578025817871,-999.7122192382812,0
753.2890000000007,-0.020017273724079132,0.004637346137315035,-0.0009533488773740828,0.0,0.0,0.0,0.0,-0.0008943484863266349,-0.004305771552026272,-0.001568049076013267,1.000470757484436,0.0,0.0,0.0,5.526310920715332,0.8701727390289307,5.817257881164551,-1000.2732543945312,0
763.2009999999991,-0.019981473684310913,0.004658895544707775,-0.000908536952920258,0.0,0.0,0.0,0.0,-0.0017867872957140207,0.004870050121098757,-0.0005380374495871365,0.9997469782829285,0.0,0.0,0.0,5.533069133758545,0.8741599917411804,5.817962169647217,-1001.4965209960938,0
773.1190000000006,-0.019999561831355095,0.004649914801120758,-0.0009079223382286727,0.0,0.0,0.0,0.0,0.0022224625572562218,0.003713156096637249,-0.003015565685927868,0.9987228512763977,0.0,0.0,0.0,5.5263237953186035,0.8721957206726074,5.816587448120117,-1000.275634765625,0
783.0229999999992,-0.02001057378947735,0.004682916682213545,-0.0008803171804174781,0.0,0.0,0.0,0.0,-0.0014094136422500014,-0.00045624884660355747,0.003514067968353629,0.9982701539993286,0.0,0.0,0.0,5.536571025848389,0.8777020573616028,5.7972564697265625,-1002.13037109375,0
792.9439999999995,-0.020031088963150978,0.004676260519772768,-0.0008787396363914013,0.0,0.0,0.0,0.0,0.002076859585940838,0.002009263029322028,-0.00035547101288102567,0.9985645413398743,0.0,0.0,0.0,5.531979560852051,0.8790031671524048,5.793832778930664,-1001.29931640625,0
802.8430000000008,-0.02002326212823391,0.004661377985030413,-0.0008814072934910655,0.0,0.0,0.0,0.0,0.0010905131930485368,-0.002032609423622489,-0.005304879974573851,0.9993983507156372,0.0,0.0,0.0,5.535159587860107,0.8731819987297058,5.792570114135742,-1001.8748168945312,0
812.7690000000002,-0.020045554265379906,0.004653418902307749,-0.0008828435675241053,0.0,0.0,0.0,0.0,-0.002173460554331541,0.004610332660377026,0.0009298005024902523,1.0017367601394653,0.0,0.0,0.0,5.5289740562438965,0.869414210319519,5.7908782958984375,-1000.7552490234375,0
822.6679999999997,-0.019944626837968826,0.004638483747839928,-0.0008828243589960039,0.0,0.0,0.0,0.0,0.0016298574628308415,-0.002947442699223757,0.002195129869505763,1.000775694847107,0.0,0.0,0.0,5.531067848205566,0.8688236474990845,5.791438579559326,-1001.1342163085938,0
832.5959999999995,-0.019967442378401756,0.0046296012587845325,-0.0008829662692733109,0.0,0.0,0.0,0.0,0.0021602092310786247,0.002015905687585473,-0.001697801286354661,0.9991492629051208,0.0,0.0,0.0,5.526796340942383,0.8707049489021301,5.7744669914245605,-1000.361083984375,0
842.4940000000006,-0.019947363063693047,0.0046440474689006805,-0.000856157741509378,0.0,0.0,0.0,0.0,-5.9085359680466354e-05,4.353656913735904e-05,-0.0020954571664333344,1.0003924369812012,0.0,0.0,0.0,5.5362324714660645,0.8834554553031921,5.784327983856201,-1002.069091796875,0
852.4159999999993,-0.019971242174506187,0.004637102596461773,-0.0008536420064046979,0.0,0.0,0.0,0.0,-0.003602673066779971,0.00023464382684323937,-0.0001905780954984948,1.0011296272277832,0.0,0.0,0.0,5.530650615692139,0.8860452771186829,5.7790656089782715,-1001.0587768554688,0
862.3179999999993,-0.019977839663624763,0.004646786488592625,-0.0008301683701574802,0.0,0.0,0.0,0.0,0.0028148996643722057,-0.0020194232929497957,0.0009730527526699007,1.0012730360031128,0.0,0.0,0.0,5.535792827606201,0.8985819220542908,5.780389785766602,-1001.989501953125,0
872.2350000000006,-0.020002951845526695,0.0046436237171292305,-0.0008243168122135103,0.0,0.0,0.0,0.0,-0.0007889714324846864,0.0023599606938660145,0.00046044582268223166,0.9993137121200562,0.0,0.0,0.0,5.530439376831055,0.8943620920181274,5.776418209075928,-1001.0204467773438,0
882.1409999999996,-0.020018117502331734,0.004636190831661224,-0.0008176521514542401,0.0,0.0,0.0,0.0,0.0008256200235337019,0.0004983522230759263,0.00030025295563973486,0.9988518357276917,0.0,0.0,0.0,5.524458408355713,0.8907915949821472,5.768499374389648,-999.9379272460938,0
892.0630000000001,-0.020044056698679924,0.004630660638213158,-0.000810932251624763,0.0,0.0,0.0,0.0,0.0008417940116487443,-0.0012845966266468167,-0.002299655694514513,1.0000803470611572,0.0,0.0,0.0,5.519208908081055,0.8925446271896362,5.761351585388184,-998.9877319335938,0
901.9599999999991,-0.020039845257997513,0.004659568890929222,-0.000758031674195081,0.0,0.0,0.0,0.0,0.0007702879956923425,0.003314483677968383,0.0008338146144524217,1.0009088516235352,0.0,0.0,0.0,5.526244640350342,0.9080475568771362,5.765657424926758,-1000.26123046875,0
911.8770000000004,-0.020069150254130363,0.004657035693526268,-0.0007477601175196469,0.0,0.0,0.0,0.0,0.002142502460628748,-0.0014697796432301402,0.0011748844990506768,1.0008529424667358,0.0,0.0,0.0,5.520369529724121,0.906527578830719,5.7461466789245605,-999.1978149414062,0
921.7829999999994,-0.020064257085323334,0.0046675121411681175,-0.0007135682972148061,0.0,0.0,0.0,0.0,-0.0026097865775227547,0.00840711034834385,6.379515252774581e-05,1.000657320022583,0.0,0.0,0.0,5.52797794342041,0.912401556968689,5.75142765045166,-1000.574951171875,0
931.7019999999993,-0.020097024738788605,0.0046650744043290615,-0.0006994428113102913,0.0,0.0,0.0,0.0,0.0017077025258913636,-0.003817383898422122,-0.0002998078998643905,1.0029237270355225,0.0,0.0,0.0,5.523757457733154,0.9148829579353333,5.734421253204346,-999.8110961914062,0
941.6059999999998,-0.020065968856215477,0.004633641801774502,-0.000701455632224679,0.0,0.0,0.0,0.0,-0.003065353026613593,0.0012476991396397352,-0.0012579741887748241,1.0002074241638184,0.0,0.0,0.0,5.526704788208008,0.8995386362075806,5.749547481536865,-1000.3445434570312,0
951.5220000000008,-0.020097587257623672,0.0046272012405097485,-0.0006854344392195344,0.0,0.0,0.0,0.0,-0.00010434531577629969,0.00046641266089864075,-0.0010476140305399895,1.0002361536026,0.0,0.0,0.0,5.519896984100342,0.9007042646408081,5.746918678283691,-999.1123046875,0
961.4320000000007,-0.019989054650068283,0.004597153980284929,-0.0006693075993098319,0.0,0.0,0.0,0.0,-0.0031265413854271173,-0.0021509816870093346,-0.0032950674649327993,0.9997701644897461,0.0,0.0,0.0,5.522457599639893,0.8892824053764343,5.759111404418945,-999.5758666992188,0
971.3449999999993,-0.02002032659947872,0.004587613977491856,-0.0006515606073662639,0.0,0.0,0.0,0.0,-0.001975670224055648,-0.0027678569313138723,-0.001524874591268599,0.9997181296348572,0.0,0.0,0.0,5.5167927742004395,0.8879824876785278,5.767553806304932,-998.5504760742188,0
981.2620000000006,-0.0199695136398077,0.004552443046122789,-0.0006408437038771808,0.0,0.0,0.0,0.0,-0.0014625705080106854,-0.005872190464287996,0.002955331699922681,0.9986269474029541,0.0,0.0,0.0,5.5199761390686035,0.877983033657074,5.793929576873779,-999.126708984375,0
991.1710000000003,-0.020000319927930832,0.004540098365396261,-0.0006257289787754416,0.0,0.0,0.0,0.0,-0.0005959334084764123,0.004391130059957504,-0.001654391293413937,0.9979739785194397,0.0,0.0,0.0,5.515822887420654,0.8814325928688049,5.788909912109375,-998.3749389648438,0
1001.0820000000003,-0.01998770609498024,0.00450230622664094,-0.0006167819956317544,0.0,0.0,0.0,0.0,0.0020589048508554697,0.0035775776486843824,0.00035278938594274223,0.9990756511688232,0.0,0.0,0.0,5.5294904708862305,0.8659460544586182,5.796562194824219,-1000.8487548828125,0
1011.0049999999992,-0.020020809024572372,0.0044881911017000675,-0.0006054634577594697,0.0,0.0,0.0,0.0,-6.384858716046438e-05,0.0002469246683176607,-0.006358176004141569,1.0002037286758423,0.0,0.0,0.0,5.523500442504883,0.8642346262931824,5.790211200714111,-999.7645263671875,0
1020.9040000000005,-0.02003815397620201,0.004492431413382292,-0.0005641081952489913,0.0,0.0,0.0,0.0,-0.0010116365738213062,-0.001483924686908722,0.0004012269200757146,0.999515175819397,0.0,0.0,0.0,5.5289788246154785,0.8752462863922119,5.78776216506958,-1000.7561645507812,0
1030.813,-0.020074382424354553,0.004476827569305897,-0.0005512060015462339,0.0,0.0,0.0,0.0,-0.0008465441060252488,0.002754861954599619,-0.00014556790119968355,0.9993751049041748,0.0,0.0,0.0,5.5236358642578125,0.876093864440918,5.789312362670898,-999.7891235351562,0
1040.7219999999998,-0.020067188888788223,0.004466455429792404,-0.0005138093838468194,0.0,0.0,0.0,0.0,0.00037523149512708187,0.0010762822348624468,0.0021023161243647337,1.0000826120376587,0.0,0.0,0.0,5.532425880432129,0.8793994188308716,5.786393642425537,-1001.380126953125,0
1050.6350000000002,-0.0201040618121624,0.004447169601917267,-0.0004992328467778862,0.0,0.0,0.0,0.0,-0.0005935407243669033,-0.0037051949184387922,-0.00014640110020991415,1.0012117624282837,0.0,0.0,0.0,5.527744770050049,0.8701274394989014,5.774713039398193,-1000.5327758789062,0
1060.5460000000003,-0.02009567804634571,0.004436134826391935,-0.0004524643300101161,0.0,0.0,0.0,0.0,-0.0028726905584335327,-0.0006637059268541634,0.0004524547839537263,0.9981185793876648,0.0,0.0,0.0,5.534409999847412,0.8740987777709961,5.795610427856445,-1001.7391967773438,0
1070.4599999999991,-0.020133832469582558,0.004419023636728525,-0.00043477019062265754,0.0,0.0,0.0,0.0,-0.0022798185236752033,-0.0009203405934385955,-0.0013261705171316862,1.0008740425109863,0.0,0.0,0.0,5.5292158126831055,0.8700337409973145,5.794329643249512,-1000.7990112304688,0
1080.3690000000006,-0.020109884440898895,0.004418594762682915,-0.00037734973011538386,0.0,0.0,0.0,0.0,-0.0002064819127554074,-0.0012859373819082975,0.004265424329787493,1.0025153160095215,0.0,0.0,0.0,5.523433685302734,0.8750457763671875,5.788933753967285,-999.7525634765625,0
1090.2800000000007,-0.020147068426012993,0.004402050748467445,-0.0003561507910490036,0.0,0.0,0.0,0.0,0.002087447326630354,0.003584513906389475,-0.0008765822858549654,1.0020675659179688,0.0,0.0,0.0,5.518917560577393,0.8750407695770264,5.784316539764404,-998.9351196289062,0
1100.2019999999993,-0.020136507228016853,0.004338749684393406,-0.00030987587524577975,0.0,0.0,0.0,0.0,0.0015990284737199545,-0.0011972474167123437,-0.0015963416080921888,1.001552939414978,0.0,0.0,0.0,5.519207954406738,0.8560935258865356,5.797074794769287,-998.9876098632812,0
1110.1049999999996,-0.020171385258436203,0.004322003107517958,-0.0002843333641067147,0.0,0.0,0.0,0.0,8.782629379311402e-07,0.0019306946778669953,0.0022804674226790667,0.9997973442077637,0.0,0.0,0.0,5.511440753936768,0.8510075807571411,5.787300109863281,-997.581787109375,0
1120.0220000000008,-0.020121881738305092,0.004291546996682882,-0.00020552206842694432,0.0,0.0,0.0,0.0,0.0005279051256366074,0.0037529803812503815,-0.0002695793518796563,0.9973553419113159,0.0,0.0,0.0,5.512181282043457,0.8429507613182068,5.822348117828369,-997.7158813476562,0
1129.9279999999999,-0.020150789991021156,0.004275691695511341,-0.0001763261534506455,0.0,0.0,0.0,0.0,-0.0032310103997588158,-2.9351158445933834e-05,0.006067648995667696,1.0001356601715088,0.0,0.0,0.0,5.506272792816162,0.8396903276443481,5.8140130043029785,-996.6463012695312,0
1139.839,-0.020146749913692474,0.004223573487251997,-0.0001194991054944694,0.0,0.0,0.0,0.0,-0.0025521644856780767,-0.005245286971330643,0.0017715997528284788,1.001507043838501,0.0,0.0,0.0,5.507969856262207,0.831565797328949,5.831840515136719,-996.9534912109375,0
1149.7569999999996,-0.02017471008002758,0.004207198042422533,-9.106833022087812e-05,0.0,0.0,0.0,0.0,0.0038552293553948402,0.004337528254836798,0.0010315696708858013,1.0000030994415283,0.0,0.0,0.0,5.502768516540527,0.8355215191841125,5.831227779388428,-996.011962890625,0
1159.6630000000005,-0.02016022987663746,0.004212419968098402,-3.469155490165576e-05,0.0,0.0,0.0,0.0,0.003206272143870592,0.0024890676140785217,0.003073745872825384,1.0019344091415405,0.0,0.0,0.0,5.511104106903076,0.8346419334411621,5.8370842933654785,-997.5208740234375,0
1169.5740000000005,-0.020184656605124474,0.004198101349174976,-2.1603991626761854e-06,0.0,0.0,0.0,0.0,-0.00017073005437850952,0.00043709922465495765,0.00042180600576102734,1.0037384033203125,0.0,0.0,0.0,5.507387161254883,0.8227435350418091,5.826319217681885,-996.8479614257812,0
1179.4899999999998,-0.020186573266983032,0.004174636676907539,5.371215956984088e-05,0.0,0.0,0.0,0.0,0.0009075811831280589,-0.0006020973087288439,-0.0003709322481881827,1.0016155242919922,0.0,0.0,0.0,5.514200687408447,0.8177664279937744,5.833885192871094,-998.081298828125,0
1189.3970000000008,-0.020210374146699905,0.004160222597420216,9.239062637789175e-05,0.0,0.0,0.0,0.0,0.004275871906429529,0.0022596342023462057,0.0008316541789099574,1.0009942054748535,0.0,0.0,0.0,5.5086493492126465,0.8193656206130981,5.833703994750977,-997.0764770507812,0
1199.321,-0.020198341459035873,0.004179365001618862,0.00014962945715524256,0.0,0.0,0.0,0.0,0.002171267056837678,0.0007425036747008562,0.0005272090202197433,1.0004234313964844,0.0,0.0,0.0,5.518500804901123,0.8240460753440857,5.842756271362305,-998.859619140625,0
1209.2209999999995,-0.02022365666925907,0.0041647786274552345,0.00019358648569323123,0.0,0.0,0.0,0.0,-0.0010524099925532937,0.003830213798210025,0.000494574720505625,1.0004802942276,0.0,0.0,0.0,5.513940334320068,0.8219338059425354,5.838423252105713,-998.0341186523438,0
1219.1399999999994,-0.020225048065185547,0.004174634348601103,0.00026133516803383827,0.0,0.0,0.0,0.0,0.0032687580678611994,-0.0018998779123649001,-0.0004553085018415004,0.9984858632087708,0.0,0.0,0.0,5.521284103393555,0.8281097412109375,5.837832927703857,-999.3633422851562,0
1229.0499999999993,-0.02025318518280983,0.004161742981523275,0.0003076687571592629,0.0,0.0,0.0,0.0,0.002627044217661023,0.0005836512427777052,0.0009647624683566391,1.0005919933319092,0.0,0.0,0.0,5.515936851501465,0.8258322477340698,5.8323845863342285,-998.3955688476562,0
1238.9650000000001,-0.020231416448950768,0.004115155898034573,0.000380923185730353,0.0,0.0,0.0,0.0,0.0013865415239706635,0.0015135748544707894,0.00021880515851080418,0.9999150633811951,0.0,0.0,0.0,5.522273063659668,0.8056350946426392,5.844215393066406,-999.5424194335938,0
1248.8670000000002,-0.020258620381355286,0.004101180005818605,0.0004273858212400228,0.0,0.0,0.0,0.0,-0.0013766236370429397,-0.0040740701369941235,-0.0004698498814832419,0.9977895021438599,0.0,0.0,0.0,5.516895294189453,0.8043993711471558,5.840500831604004,-998.5690307617188,0
1258.7880000000005,-0.020231196656823158,0.004059396684169769,0.0005011225584894419,0.0,0.0,0.0,0.0,0.0035039300564676523,0.0001863481884356588,0.0016424042405560613,0.9997277855873108,0.0,0.0,0.0,5.52522087097168,0.7924118041992188,5.8671674728393555,-1000.0759887695312,0
1268.6949999999997,-0.02025539241731167,0.004044040571898222,0.0005470594041980803,0.0,0.0,0.0,0.0,0.00038399454206228256,-0.0024907351471483707,-0.00013704381126444787,1.0000824928283691,0.0,0.0,0.0,5.5191240310668945,0.7865660786628723,5.86183500289917,-998.972412109375,0
1278.6139999999996,-0.02026047371327877,0.003990467172116041,0.0006132457638159394,0.0,0.0,0.0,0.0,-0.0002418022049823776,-0.002607215428724885,0.002275929320603609,0.9997565746307373,0.0,0.0,0.0,5.526918411254883,0.7778805494308472,5.866060256958008,-1000.3831787109375,0
1288.518,-0.02028489112854004,0.0039703380316495895,0.0006585238152183592,0.0,0.0,0.0,0.0,0.0008522052085027099,2.1653495423379354e-05,-0.0011734642321243882,0.9992132186889648,0.0,0.0,0.0,5.521729469299316,0.7718414068222046,5.862454891204834,-999.4439697265625,0
1298.4410000000007,-0.020285138860344887,0.003913927357643843,0.0007308772765100002,0.0,0.0,0.0,0.0,-1.8520235244068317e-05,-0.0006902253953740001,-0.0015107557410374284,0.9992523789405823,0.0,0.0,0.0,5.531443119049072,0.7602820992469788,5.871359348297119,-1001.2022094726562,0
1308.3449999999993,-0.020311489701271057,0.00388721632771194,0.000775166554376483,0.0,0.0,0.0,0.0,0.0006735327187925577,0.0012141410261392593,0.0012752952752634883,1.0011847019195557,0.0,0.0,0.0,5.526105880737305,0.7583047747612,5.858079433441162,-1000.236083984375,0
1318.2639999999992,-0.020298577845096588,0.0038486553821712732,0.0008359003695659339,0.0,0.0,0.0,0.0,-6.32653827778995e-05,-0.0018469514325261116,0.00021140156604815274,0.9998370409011841,0.0,0.0,0.0,5.531937122344971,0.7560063004493713,5.877455711364746,-1001.2916870117188,0
1328.1640000000007,-0.02032267488539219,0.003820874961093068,0.0008815796463750303,0.0,0.0,0.0,0.0,-0.00477211968973279,0.0013591685565188527,0.0031518684700131416,0.9978761076927185,0.0,0.0,0.0,5.52525520324707,0.7539854645729065,5.873007297515869,-1000.0822143554688,0
1338.0859999999993,-0.02030688151717186,0.0037855610717087984,0.0009417018154636025,0.0,0.0,0.0,0.0,-0.003365417942404747,-0.0025867207441478968,-0.0005062157870270312,0.997849702835083,0.0,0.0,0.0,5.531015396118164,0.7508608102798462,5.889341354370117,-1001.124755859375,0
1348.0069999999996,-0.02027898281812668,0.0037268451415002346,0.0009953354019671679,0.0,0.0,0.0,0.0,-0.0021538131404668093,-0.0010725435568019748,0.000663768732920289,0.9970841407775879,0.0,0.0,0.0,5.5453057289123535,0.7405067682266235,5.908690452575684,-1003.71142578125,0
1357.9079999999994,-0.020297406241297722,0.0036946889013051987,0.0010385368950664997,0.0,0.0,0.0,0.0,-0.0014454455813392997,0.0012038836721330881,-0.000560283602681011,0.9994841814041138,0.0,0.0,0.0,5.539962291717529,0.7431705594062805,5.909379959106445,-1002.7442016601562,0
1367.807999999999,-0.020261283963918686,0.003659504931420088,0.0010813383851200342,0.0,0.0,0.0,0.0,-0.001023817458190024,0.0014005345292389393,-0.003285358427092433,0.9997488260269165,0.0,0.0,0.0,5.552640914916992,0.7362125515937805,5.9302520751953125,-1005.0390625,0
1377.7309999999998,-0.02027643471956253,0.003623782191425562,0.001122623449191451,0.0,0.0,0.0,0.0,-0.0007150728488340974,-0.0005125958123244345,0.0022699327673763037,0.9986072182655334,0.0,0.0,0.0,5.54787540435791,0.7385621666908264,5.9222846031188965,-1004.1764526367188,0
1387.6309999999994,-0.020292405039072037,0.0035852943547070026,0.0011635900009423494,0.0,0.0,0.0,0.0,-0.0005713300779461861,-0.0038285148330032825,0.0016958724008873105,0.9977864027023315,0.0,0.0,0.0,5.542385101318359,0.7421696782112122,5.914849758148193,-1003.1827392578125,0
1397.554,-0.020309297367930412,0.0035447252448648214,0.0012033628299832344,0.0,0.0,0.0,0.0,0.00012875505490228534,0.0026482208631932735,-0.0037758161779493093,1.0011062622070312,0.0,0.0,0.0,5.537716388702393,0.7368469834327698,5.913696765899658,-1002.3377075195312,0
1407.4609999999993,-0.020327331498265266,0.0035033358726650476,0.0012420769780874252,0.0,0.0,0.0,0.0,0.0012904308969154954,0.0017113116336986423,-0.003270153421908617,1.0008949041366577,0.0,0.0,0.0,5.531030178070068,0.734043300151825,5.901494979858398,-1001.1273803710938,0
1417.3719999999994,-0.020346585661172867,0.0034618228673934937,0.001281379722058773,0.0,0.0,0.0,0.0,0.0026044922415167093,-0.0066322023048996925,0.00021083492902107537,0.9981263875961304,0.0,0.0,0.0,5.523931503295898,0.7357048392295837,5.8938751220703125,-999.8425903320312,0
1427.2829999999994,-0.020366815850138664,0.003420391585677862,0.001321375253610313,0.0,0.0,0.0,0.0,-0.001138385501690209,-0.000807408825494349,0.0033024416770786047,0.9977666735649109,0.0,0.0,0.0,5.51882791519165,0.7352976202964783,5.891221523284912,-998.9188232421875,0
1437.1990000000005,-0.020387748256325722,0.0033782445825636387,0.001360171241685748,0.0,0.0,0.0,0.0,-0.0004976537311449647,-0.0012054293183609843,-0.0025358812417834997,1.0024064779281616,0.0,0.0,0.0,5.513781547546387,0.7309961318969727,5.897840976715088,-998.0054321289062,0
1447.1020000000008,-0.020408960059285164,0.0033346170093864202,0.001398168271407485,0.0,0.0,0.0,0.0,-0.0016379535663872957,0.005892512854188681,-0.00166398286819458,1.0027607679367065,0.0,0.0,0.0,5.508078098297119,0.730549693107605,5.888636112213135,-996.9730224609375,0
1457.0210000000006,-0.020429592579603195,0.003289701184257865,0.0014382246881723404,0.0,0.0,0.0,0.0,0.0003093345439992845,-0.008438320830464363,2.5866775104077533e-05,0.9985492825508118,0.0,0.0,0.0,5.502233028411865,0.7299929261207581,5.877010822296143,-995.9151611328125,0
1466.9249999999993,-0.020450176671147346,0.0032434978056699038,0.0014803579542785883,0.0,0.0,0.0,0.0,0.00013380905147641897,-0.002713435562327504,0.002133721951395273,0.9981508851051331,0.0,0.0,0.0,5.496358394622803,0.7308935523033142,5.885052680969238,-994.8517456054688,0
1476.8449999999993,-0.020472371950745583,0.0031958390027284622,0.001521935104392469,0.0,0.0,0.0,0.0,-0.0032718644943088293,-0.004242071881890297,0.0010329103097319603,0.9988497495651245,0.0,0.0,0.0,5.491106033325195,0.7255651354789734,5.888171195983887,-993.9011840820312,0
1486.7569999999996,-0.020059464499354362,0.004604897927492857,-0.001131523633375764,0.0,0.0,0.0,0.0,-0.0009636415052227676,0.0003484376356936991,-0.0002447853039484471,0.9986220002174377,0.0,0.0,0.0,5.484617710113525,0.8160872459411621,5.936077117919922,-992.726806640625,0
1496.6769999999997,-0.020077534019947052,0.0045850989408791065,-0.0011384031968191266,0.0,0.0,0.0,0.0,-0.0025247500743716955,0.002497130772098899,-0.0028732975479215384,0.9998942613601685,0.0,0.0,0.0,5.479016304016113,0.8170132637023926,5.9346137046813965,-991.712890625,0
1506.571,-0.020096557214856148,0.004564425442367792,-0.0011463770642876625,0.0,0.0,0.0,0.0,-0.000807492877356708,-0.0015621508937329054,-4.637573056243127e-06,1.0005251169204712,0.0,0.0,0.0,5.473036766052246,0.8187322616577148,5.928858757019043,-990.6304931640625,0
1516.4940000000006,-0.02011544443666935,0.004542885348200798,-0.0011542725842446089,0.0,0.0,0.0,0.0,-0.00035193440271541476,-0.0010108368005603552,0.0015174589352682233,0.9986294507980347,0.0,0.0,0.0,5.467353820800781,0.8184261918067932,5.929603099822998,-989.6019287109375,0
1526.3940000000002,-0.020134337246418,0.004520129878073931,-0.0011621880112215877,0.0,0.0,0.0,0.0,0.0006548239034600556,0.0027395107317715883,-0.0007261153659783304,0.9995650053024292,0.0,0.0,0.0,5.461272239685059,0.8122127056121826,5.928708076477051,-988.5011596679688,0
1536.325999999999,-0.02015412598848343,0.00449673505499959,-0.001171022653579712,0.0,0.0,0.0,0.0,0.0018811195623129606,-0.001422691042535007,-0.000460370589280501,1.0001329183578491,0.0,0.0,0.0,5.455448150634766,0.8085894584655762,5.920936107635498,-987.4469604492188,0
1546.2199999999993,-0.020175393670797348,0.004472631961107254,-0.0011804811656475067,0.0,0.0,0.0,0.0,-0.0009061794262379408,0.0005667452933266759,-0.0006149392575025558,1.0008151531219482,0.0,0.0,0.0,5.449610710144043,0.8052687048912048,5.916943073272705,-986.3904418945312,0
1556.1389999999992,-0.020198723301291466,0.004447221290320158,-0.001189637929201126,0.0,0.0,0.0,0.0,-0.004469854291528463,0.00034540551132522523,-0.00021070758521091193,1.000447154045105,0.0,0.0,0.0,5.444482803344727,0.8019274473190308,5.910883903503418,-985.462158203125,0
1566.0409999999993,-0.020224258303642273,0.0044216434471309185,-0.0011980277486145496,0.0,0.0,0.0,0.0,0.0011698739835992455,0.0021464235614985228,-0.0022855328861624002,1.0002046823501587,0.0,0.0,0.0,5.439639091491699,0.8063914775848389,5.908109188079834,-984.58544921875,0
1575.9670000000006,-0.020251594483852386,0.004396233707666397,-0.001205797540023923,0.0,0.0,0.0,0.0,0.0019480749033391476,0.00016200097161345184,0.0012364820577204227,1.000270128250122,0.0,0.0,0.0,5.433993816375732,0.8041373491287231,5.901638984680176,-983.5636596679688,0
1585.8700000000008,-0.020280025899410248,0.004369777627289295,-0.0012131587136536837,0.0,0.0,0.0,0.0,-0.00018409611948300153,0.0014833970926702023,0.005282414145767689,1.0012402534484863,0.0,0.0,0.0,5.428775310516357,0.7973878383636475,5.8893327713012695,-982.6190795898438,0
1595.7839999999997,-0.02030962146818638,0.004341829568147659,-0.001219690078869462,0.0,0.0,0.0,0.0,-0.0005189272342249751,-0.00038772515836171806,0.0013356858398765326,1.0002421140670776,0.0,0.0,0.0,5.423608303070068,0.7982251644134521,5.876754283905029,-981.683837890625,0
1605.688,-0.020341472700238228,0.004312123171985149,-0.001225269166752696,0.0,0.0,0.0,0.0,-0.002381912199780345,-0.0033035993110388517,-0.002197933616116643,0.9995376467704773,0.0,0.0,0.0,5.419936656951904,0.7974379062652588,5.876858711242676,-981.0193481445312,0
1615.6039999999994,-0.020375462248921394,0.004280969966202974,-0.0012305109994485974,0.0,0.0,0.0,0.0,-0.0014756957534700632,-0.0014388953568413854,0.00023145962040871382,1.0008420944213867,0.0,0.0,0.0,5.414363861083984,0.7999932765960693,5.8783464431762695,-980.0106811523438,0
1625.5110000000004,-0.019923975691199303,0.004423174541443586,-0.0006391640054062009,0.0,0.0,0.0,0.0,-0.001281262026168406,6.0896789364051074e-05,0.0018501316662877798,0.9997396469116211,0.0,0.0,0.0,5.443655014038086,0.8424760103225708,5.995694637298584,-985.3123779296875,0
1635.4259999999995,-0.019934633746743202,0.00440402515232563,-0.000623731582891196,0.0,0.0,0.0,0.0,-0.0018298783106729388,0.002138900337740779,0.0013243285939097404,0.999244749546051,0.0,0.0,0.0,5.4382734298706055,0.8491203784942627,5.988112449645996,-984.3382568359375,0
1645.3359999999993,-0.020012259483337402,0.004435140173882246,-0.0005762396031059325,0.0,0.0,0.0,0.0,-6.70177978463471e-05,-0.0025513998698443174,0.00022858053853269666,1.0018346309661865,0.0,0.0,0.0,5.450363636016846,0.8610114455223083,5.960168361663818,-986.5266723632812,0
1655.2489999999998,-0.020024020224809647,0.004420015029609203,-0.0005594835383817554,0.0,0.0,0.0,0.0,-0.004727805498987436,0.0026448960416018963,-0.0007198232924565673,0.9996764063835144,0.0,0.0,0.0,5.4444499015808105,0.8609502911567688,5.961026668548584,-985.4562377929688,0
1665.1589999999997,-0.020051006227731705,0.004465768579393625,-0.0004830476245842874,0.0,0.0,0.0,0.0,0.0033234492875635624,0.004246699158102274,0.00279062008485198,0.9988442659378052,0.0,0.0,0.0,5.46512508392334,0.8782361745834351,5.954998970031738,-989.1985473632812,0
1675.0730000000003,-0.020063981413841248,0.004455107264220715,-0.00046179420314729214,0.0,0.0,0.0,0.0,-0.0008827812853269279,0.0007377116708084941,0.0020376367028802633,0.9998778104782104,0.0,0.0,0.0,5.458664417266846,0.8746925592422485,5.939996719360352,-988.0291137695312,0
1684.9809999999998,-0.020116979256272316,0.004475183319300413,-0.00040930105024017394,0.0,0.0,0.0,0.0,-0.00013400465832091868,0.0033060957212001085,-0.0009519109153188765,1.0003644227981567,0.0,0.0,0.0,5.465863227844238,0.8837080597877502,5.929298400878906,-989.3320922851562,0
1694.893,-0.020134150981903076,0.004467613995075226,-0.0003867092600557953,0.0,0.0,0.0,0.0,-0.0031582622323185205,0.00015191892453003675,-0.004014655947685242,1.0001695156097412,0.0,0.0,0.0,5.460787773132324,0.8841177225112915,5.918719291687012,-988.4134521484375,0
1704.804,-0.02010142244398594,0.004445566330105066,-0.0003674982872325927,0.0,0.0,0.0,0.0,0.0011039074743166566,-0.004369404632598162,0.0009385530720464885,1.0001589059829712,0.0,0.0,0.0,5.467062473297119,0.8815466165542603,5.920036792755127,-989.5491333007812,0
1714.7160000000003,-0.02011900767683983,0.004437803756445646,-0.00034470533137209713,0.0,0.0,0.0,0.0,-0.0018059739377349615,0.004515872336924076,-0.0011912948684766889,1.0017242431640625,0.0,0.0,0.0,5.463736057281494,0.8824041485786438,5.926060199737549,-988.9470825195312,0
1724.6280000000006,-0.02010662853717804,0.004413284827023745,-0.0003235760668758303,0.0,0.0,0.0,0.0,-0.001263042096979916,0.002953809220343828,-0.0004616685910150409,1.0006955862045288,0.0,0.0,0.0,5.473257064819336,0.8776161074638367,5.915588855743408,-990.67041015625,0
1734.5400000000009,-0.02012336067855358,0.0044005559757351875,-0.0002992152876686305,0.0,0.0,0.0,0.0,-0.002155040856450796,0.0023716273717582226,0.0014880577800795436,0.9993489980697632,0.0,0.0,0.0,5.467878341674805,0.8700227737426758,5.909005165100098,-989.69677734375,0
1744.455,-0.02011004462838173,0.004379884339869022,-0.00026946482830680907,0.0,0.0,0.0,0.0,0.0037019432056695223,0.0012332582846283913,-0.0007655841764062643,0.9999887943267822,0.0,0.0,0.0,5.470419883728027,0.8667911291122437,5.896228790283203,-990.1567993164062,0
1754.3629999999994,-0.020124292001128197,0.004363341256976128,-0.0002442082914058119,0.0,0.0,0.0,0.0,-0.0015496633714064956,0.0016455748118460178,0.001964158844202757,0.9986191391944885,0.0,0.0,0.0,5.46487283706665,0.8644506931304932,5.8784499168396,-989.15283203125,0
1764.2739999999994,-0.020094092935323715,0.004343245178461075,-0.0002117679687216878,0.0,0.0,0.0,0.0,-0.0011019650846719742,-0.00039352348539978266,0.0020475946366786957,0.9972355365753174,0.0,0.0,0.0,5.480706691741943,0.8618744015693665,5.885005950927734,-992.0188598632812,0
1774.1859999999997,-0.020106241106987,0.0043230787850916386,-0.00018697819905355573,0.0,0.0,0.0,0.0,0.0014946178998798132,-0.0036819959059357643,0.0051148817874491215,0.9987781047821045,0.0,0.0,0.0,5.475611209869385,0.8615623712539673,5.883882522583008,-991.0964965820312,0
1784.098,-0.020091403275728226,0.004313864279538393,-0.00015488419739995152,0.0,0.0,0.0,0.0,0.0031037917360663414,-0.0015389365144073963,1.1312148672004696e-05,1.0012084245681763,0.0,0.0,0.0,5.4878058433532715,0.8640217185020447,5.894651412963867,-993.3037719726562,0
1794.0100000000002,-0.020104942843317986,0.004293124657124281,-0.0001314181281486526,0.0,0.0,0.0,0.0,0.0001228809851454571,0.0021308488212525845,-0.0027300710789859295,1.000593662261963,0.0,0.0,0.0,5.481876850128174,0.8605476021766663,5.880987167358398,-992.2305908203125,0
1803.9230000000007,-0.02005634270608425,0.0042825485579669476,-9.323046106146649e-05,0.0,0.0,0.0,0.0,-0.0014188591158017516,-0.0018762553809210658,0.003331769723445177,0.998957633972168,0.0,0.0,0.0,5.493636131286621,0.858264148235321,5.901359558105469,-994.3590087890625,0
1813.8340000000007,-0.020066099241375923,0.0042628077790141106,-6.581092748092487e-05,0.0,0.0,0.0,0.0,0.0019364160252735019,0.0011749679688364267,-0.00032710281084291637,1.00107741355896,0.0,0.0,0.0,5.48800802230835,0.8520397543907166,5.895709037780762,-993.3403930664062,0
1823.7530000000006,-0.02004854939877987,0.004238020163029432,-3.5565546568250284e-05,0.0,0.0,0.0,0.0,0.0013460249174386263,-0.004203625489026308,0.0016896668821573257,1.0006812810897827,0.0,0.0,0.0,5.492339134216309,0.8397164344787598,5.906518936157227,-994.1243286132812,0
1833.6599999999999,-0.020056096836924553,0.004217957146465778,-7.342805474763736e-06,0.0,0.0,0.0,0.0,0.00222403253428638,0.0036859423853456974,-0.002564439084380865,0.9979574084281921,0.0,0.0,0.0,5.485925674438477,0.8409103155136108,5.9068708419799805,-992.9634399414062,0
1843.5679999999993,-0.02003389410674572,0.004198567476123571,3.032971108041238e-05,0.0,0.0,0.0,0.0,0.0015991312684491277,0.0003428270574659109,-0.0010354015976190567,1.0001038312911987,0.0,0.0,0.0,5.505374908447266,0.8354994654655457,5.926575183868408,-996.4837646484375,0
1853.4809999999998,-0.02004200965166092,0.004177631810307503,5.8779114624485373e-05,0.0,0.0,0.0,0.0,-0.002054833108559251,0.001261125085875392,0.0005592956440523267,1.0004255771636963,0.0,0.0,0.0,5.499804496765137,0.8344317078590393,5.916408061981201,-995.4755249023438,0
1863.3909999999996,-0.020041555166244507,0.004143696743994951,9.229420538758859e-05,0.0,0.0,0.0,0.0,-0.0011031967587769032,0.0015728911384940147,-0.0024135049898177385,0.9990977048873901,0.0,0.0,0.0,5.503258228302002,0.8266842365264893,5.907973289489746,-996.1006469726562,0
1873.304,-0.02005128562450409,0.004121263977140188,0.00012023207818856463,0.0,0.0,0.0,0.0,-0.0002602982276584953,-0.0012613246217370033,0.0035650848876684904,0.9990366101264954,0.0,0.0,0.0,5.497477054595947,0.8250464200973511,5.902824878692627,-995.0542602539062,0
1883.214,-0.02007831446826458,0.0041194879449903965,0.0001610001636436209,0.0,0.0,0.0,0.0,-0.0009048631181940436,0.00026927547878585756,0.0006210883730091155,0.9984822869300842,0.0,0.0,0.0,5.507607460021973,0.8298380970954895,5.879775047302246,-996.887939453125,0
1893.1260000000002,-0.020094193518161774,0.0040974086150527,0.00018869216728489846,0.0,0.0,0.0,0.0,-0.001400646404363215,0.0008995988173410296,-6.828025652794167e-05,0.9999921321868896,0.0,0.0,0.0,5.5028276443481445,0.829608678817749,5.87666654586792,-996.022705078125,0
1903.0419999999995,-0.02012707106769085,0.004070638213306665,0.00022023529163561761,0.0,0.0,0.0,0.0,0.0019867178052663803,0.0011867629364132881,-0.0008179384167306125,0.9982366561889648,0.0,0.0,0.0,5.510134696960449,0.8303020596504211,5.8582611083984375,-997.3453369140625,0
1912.9490000000005,-0.020151181146502495,0.0040470608510077,0.00024591994588263333,0.0,0.0,0.0,0.0,-0.000887115893419832,-0.0006989422254264355,-0.0013258324470371008,0.9972081780433655,0.0,0.0,0.0,5.505274295806885,0.8281546831130981,5.847464084625244,-996.465576171875,0
1922.8610000000008,-0.020165827125310898,0.004070146940648556,0.0002714474103413522,0.0,0.0,0.0,0.0,0.0004226838063914329,0.0010596087668091059,-0.00798037089407444,0.9988889694213867,0.0,0.0,0.0,5.517607688903809,0.8424146771430969,5.84644889831543,-998.697998046875,0
1932.7720000000008,-0.020194385200738907,0.004046970512717962,0.00029652658849954605,0.0,0.0,0.0,0.0,-0.00021574377024080604,-0.0012585712829604745,-0.0008854324696585536,1.0006903409957886,0.0,0.0,0.0,5.5108771324157715,0.8451169729232788,5.844224452972412,-997.479736328125,0
1942.6839999999993,-0.020206362009048462,0.004071658477187157,0.0003210143477190286,0.0,0.0,0.0,0.0,0.001085904659703374,0.0008278199238702655,-0.001447206479497254,0.9987477660179138,0.0,0.0,0.0,5.523136615753174,0.8548452258110046,5.851119041442871,-999.6986694335938,0
1952.6010000000006,-0.02023819461464882,0.004051528871059418,0.0003473818942438811,0.0,0.0,0.0,0.0,-0.0007060759817250073,-0.002353067509829998,-0.0037305664736777544,0.9979122281074524,0.0,0.0,0.0,5.517271041870117,0.856869101524353,5.846248626708984,-998.6370849609375,0
1962.5110000000004,-0.02023487351834774,0.0040809293277561665,0.0003731647157110274,0.0,0.0,0.0,0.0,0.00089494843268767,-0.00365829817019403,0.00121106521692127,0.9987102150917053,0.0,0.0,0.0,5.529944896697998,0.865862250328064,5.860445022583008,-1000.9310913085938,0
1972.4210000000003,-0.020265815779566765,0.004066703841090202,0.00039975758409127593,0.0,0.0,0.0,0.0,0.0005903146229684353,0.00063415797194466,0.0018099733861163259,0.9996606111526489,0.0,0.0,0.0,5.5243377685546875,0.8700760006904602,5.864130973815918,-999.9160766601562,0
1982.3459999999995,-0.020237179473042488,0.004047798924148083,0.00044252886436879635,0.0,0.0,0.0,0.0,0.001761381863616407,0.0035506547428667545,-0.00010597687651170418,1.0000793933868408,0.0,0.0,0.0,5.530542373657227,0.8614542484283447,5.8944993019104,-1001.0391235351562,0
1992.2459999999992,-0.02026407979428768,0.004035092890262604,0.0004697246477007866,0.0,0.0,0.0,0.0,0.004003829322755337,-0.0026295166462659836,0.0034907888621091843,0.9982757568359375,0.0,0.0,0.0,5.525437831878662,0.8541119694709778,5.884110450744629,-1000.115234375,0
2002.1620000000003,-0.020233385264873505,0.00402918690815568,0.0004935486940667033,0.0,0.0,0.0,0.0,-0.0006133515853434801,-0.005820074118673801,0.00032219901913776994,1.00013267993927,0.0,0.0,0.0,5.530946731567383,0.8477015495300293,5.907573223114014,-1001.1123046875,0
2012.0660000000007,-0.020256368443369865,0.004013974219560623,0.0005206255591474473,0.0,0.0,0.0,0.0,-0.002354308497160673,9.89213222055696e-05,-0.0001009052648441866,0.9998024106025696,0.0,0.0,0.0,5.5255584716796875,0.8373574018478394,5.904038429260254,-1000.1370239257812,0
2021.9860000000008,-0.02024744637310505,0.003934117034077644,0.0005768287810496986,0.0,0.0,0.0,0.0,-0.0017572297947481275,-0.00037918565794825554,-0.001067231292836368,1.0020023584365845,0.0,0.0,0.0,5.5308146476745605,0.8168030977249146,5.9177021980285645,-1001.0884399414062,0
2031.8940000000002,-0.020268330350518227,0.003912858199328184,0.0006028063362464309,0.0,0.0,0.0,0.0,-0.0017435726476833224,-0.0010557645000517368,0.00134604936465621,0.9980098605155945,0.0,0.0,0.0,5.525355339050293,0.8170772194862366,5.917630195617676,-1000.1002807617188,0
2041.8099999999995,-0.020254436880350113,0.0038866004906594753,0.0006421701400540769,0.0,0.0,0.0,0.0,0.0016610438469797373,0.0018378660315647721,0.0007330002263188362,0.9982205629348755,0.0,0.0,0.0,5.538736343383789,0.8163531422615051,5.924060821533203,-1002.522216796875,0
2051.7129999999997,-0.020275045186281204,0.00386505457572639,0.0006690964801236987,0.0,0.0,0.0,0.0,0.0014810747234150767,-0.00015961111057549715,-0.00023860301007516682,1.000605583190918,0.0,0.0,0.0,5.532104969024658,0.8100066184997559,5.9155354499816895,-1001.3219604492188,0
2061.6309999999994,-0.02024432085454464,0.0038243215531110764,0.0007129913428798318,0.0,0.0,0.0,0.0,-0.0032771292608231306,0.0016155330231413245,0.002405717736110091,0.9989382028579712,0.0,0.0,0.0,5.533855438232422,0.7955581545829773,5.934422492980957,-1001.6387939453125,0
2071.5370000000003,-0.0202639177441597,0.0037975923623889685,0.0007395824650302529,0.0,0.0,0.0,0.0,0.00016801392484921962,-0.0007819547317922115,7.903391087893397e-05,0.9981479644775391,0.0,0.0,0.0,5.528592586517334,0.7966246604919434,5.934805870056152,-1000.686279296875,0
2081.4629999999997,-0.02023683488368988,0.003774996381253004,0.0007768365321680903,0.0,0.0,0.0,0.0,-0.0015852522337809205,-0.004725127015262842,8.750268898438662e-05,0.9985346794128418,0.0,0.0,0.0,5.523549556732178,0.8034173250198364,5.919808864593506,-999.7734375,0
2091.3590000000004,-0.02025144174695015,0.0037463295739144087,0.0008029249147512019,0.0,0.0,0.0,0.0,0.002009805291891098,-0.0014745937660336494,0.00047496697516180575,0.9995484948158264,0.0,0.0,0.0,5.518251895904541,0.8083862066268921,5.915116786956787,-998.8145141601562,0
2101.2800000000007,-0.02023940160870552,0.003751165233552456,0.0008317817701026797,0.0,0.0,0.0,0.0,0.00497479597106576,0.0009502866887487471,-0.0007654079818166792,1.0010830163955688,0.0,0.0,0.0,5.526215076446533,0.813895046710968,5.935368061065674,-1000.2559204101562,0
2111.182999999999,-0.020251378417015076,0.0037249685265123844,0.0008586345938965678,0.0,0.0,0.0,0.0,-0.00010997746721841395,-0.00017465994460508227,-0.0028550419956445694,1.0001918077468872,0.0,0.0,0.0,5.519640922546387,0.8126236796379089,5.937629222869873,-999.0659790039062,0
2121.1020000000008,-0.020246032625436783,0.003722629975527525,0.0009006719337776303,0.0,0.0,0.0,0.0,-0.001945589086972177,-0.005207846872508526,0.0007744829053990543,0.9988917112350464,0.0,0.0,0.0,5.528961181640625,0.8191404342651367,5.940060138702393,-1000.7529907226562,0
2131.0110000000004,-0.020256269723176956,0.0036985711194574833,0.0009300143574364483,0.0,0.0,0.0,0.0,0.0021370204631239176,0.0026887329295277596,0.0011640834854915738,1.0026187896728516,0.0,0.0,0.0,5.523749828338623,0.8153451681137085,5.9405694007873535,-999.8096923828125,0
2140.928,-0.020240262150764465,0.0037132075522094965,0.0009646204416640103,0.0,0.0,0.0,0.0,-0.0035485641565173864,0.0017674402333796024,-2.4307173589477316e-05,1.0012353658676147,0.0,0.0,0.0,5.531335830688477,0.8249650597572327,5.950284004211426,-1001.1827392578125,0
2150.83,-0.020249610766768456,0.0036909710615873337,0.0009973335545510054,0.0,0.0,0.0,0.0,-0.00011723048373823985,0.0024262808728963137,0.00013359231525100768,0.9976890087127686,0.0,0.0,0.0,5.525918960571289,0.8343662619590759,5.93489408493042,-1000.2022705078125,0
