timestamp,stateEstimate.x,stateEstimate.y,stateEstimate.z,controller.cmd_thrust,controller.cmd_roll,controller.cmd_pitch,controller.cmd_yaw,controller.r_roll,controller.r_pitch,controller.r_yaw,controller.accelz,controller.actuatorThrust,controller.roll,controller.pitch,controller.yaw,controller.rollRate,controller.pitchRate,controller.yawRate,controller.ctr_yaw
0.0,-0.009651482105255127,0.0009593908325769007,-0.0027762912213802338,0.0,0.0,0.0,0.0,-0.001078875153325498,-0.0019423962803557515,0.0025895058643072844,0.9960708618164062,0.0,0.0,0.0,-1.5292623043060303,2.6542952060699463,5.218776702880859,276.79949951171875,0
9.904000000000451,-0.009820898994803429,0.0009759452077560127,-0.0028551467694342136,0.0,0.0,0.0,0.0,0.002526093041524291,0.0019738739356398582,0.0028746207244694233,0.9985876679420471,0.0,0.0,0.0,-1.5276992321014404,2.6522414684295654,5.226193904876709,276.5166015625,0
19.822000000000116,-0.009978258982300758,0.00099034677259624,-0.002929269801825285,0.0,0.0,0.0,0.0,-0.0002848610747605562,-0.001348983496427536,0.001781932543963194,1.001160740852356,0.0,0.0,0.0,-1.5255974531173706,2.657088279724121,5.215564250946045,276.1361999511719,0
29.72900000000118,-0.010137870907783508,0.0010031333658844233,-0.003004792844876647,0.0,0.0,0.0,0.0,-0.002437291434034705,7.999699300853536e-05,-0.002859668107703328,0.9994722008705139,0.0,0.0,0.0,-1.5230624675750732,2.6459271907806396,5.208855628967285,275.6773376464844,0
39.65700000000106,-0.010299907997250557,0.001014404697343707,-0.0030799685046076775,0.0,0.0,0.0,0.0,0.0004767882055602968,-0.0012215431779623032,0.002092772861942649,1.0007672309875488,0.0,0.0,0.0,-1.5212335586547852,2.643660306930542,5.215023040771484,275.3463134765625,0
49.552999999999884,-0.010464729741215706,0.0010246626334264874,-0.003154858248308301,0.0,0.0,0.0,0.0,-0.003496360033750534,-0.0007047559483908117,0.0003531360416673124,1.000640869140625,0.0,0.0,0.0,-1.520262598991394,2.6467275619506836,5.214352607727051,275.17059326171875,0
59.46900000000096,-0.010633144527673721,0.001033372594974935,-0.0032290355302393436,0.0,0.0,0.0,0.0,0.0029389129485934973,-0.00241437298245728,0.004033237230032682,0.9993513822555542,0.0,0.0,0.0,-1.5183595418930054,2.6459500789642334,5.212314128875732,274.8261413574219,0
69.3739999999998,-0.010805013589560986,0.0010398149024695158,-0.0033023860305547714,0.0,0.0,0.0,0.0,0.0009994509164243937,-0.002759336493909359,-0.0005791247240267694,0.9973351955413818,0.0,0.0,0.0,-1.515685796737671,2.6418275833129883,5.212394714355469,274.3421325683594,0
79.29900000000089,-0.01097957044839859,0.0010445788502693176,-0.003376344684511423,0.0,0.0,0.0,0.0,-0.002628372749313712,-0.003875951049849391,0.0025862830225378275,0.9973705410957336,0.0,0.0,0.0,-1.5146799087524414,2.636706590652466,5.213990688323975,274.1600646972656,0
89.20300000000134,-0.011157916858792305,0.001048628706485033,-0.0034522563219070435,0.0,0.0,0.0,0.0,0.0011375341564416885,-0.001231609145179391,-0.000704582198522985,1.0004271268844604,0.0,0.0,0.0,-1.513297438621521,2.6373817920684814,5.214529991149902,273.9098205566406,0
99.11599999999999,-0.0113413380458951,0.0010526011465117335,-0.0035298659931868315,0.0,0.0,0.0,0.0,-0.001438212231732905,0.003152867779135704,4.263054142938927e-05,1.0003595352172852,0.0,0.0,0.0,-1.5106450319290161,2.6319169998168945,5.20650053024292,273.4297790527344,0
109.02300000000105,-0.011529525741934776,0.001056768698617816,-0.0036075166426599026,0.0,0.0,0.0,0.0,-0.00021838871180079877,-0.001969723030924797,0.0026600034907460213,0.9999794960021973,0.0,0.0,0.0,-1.5098992586135864,2.6334645748138428,5.202428817749023,273.2947692871094,0
118.95100000000093,-0.01172137726098299,0.0010609810706228018,-0.003684506518766284,0.0,0.0,0.0,0.0,-0.0034424271434545517,0.00415001017972827,-0.003898421535268426,0.9991884231567383,0.0,0.0,0.0,-1.508663296699524,2.6335926055908203,5.192697525024414,273.071044921875,0
128.84500000000116,-0.011916705407202244,0.0010648315073922276,-0.0037615750916302204,0.0,0.0,0.0,0.0,-0.00012528330262284726,-0.0009472662932239473,0.0001372279366478324,0.9977363348007202,0.0,0.0,0.0,-1.5065643787384033,2.636063814163208,5.183253765106201,272.691162109375,0
138.77000000000044,-0.0063178762793540955,-0.0004697030526585877,0.0004490614519454539,0.0,0.0,0.0,0.0,0.0017400066135451198,0.003096268977969885,0.004425477236509323,0.9988641738891602,0.0,0.0,0.0,-1.5096030235290527,2.580120325088501,5.707885265350342,273.24114990234375,0
148.6760000000013,-0.0062738582491874695,-0.00046201367513276637,0.0005566535401158035,0.0,0.0,0.0,0.0,0.0038639730773866177,0.005661672912538052,1.8279086361872032e-05,1.0009821653366089,0.0,0.0,0.0,-1.5073210000991821,2.573990821838379,5.702779769897461,272.8280944824219,0
158.59400000000096,-0.0063095660880208015,-0.0004904379602521658,0.0005757155595347285,0.0,0.0,0.0,0.0,0.00017630498041398823,0.004180741962045431,0.0017221093876287341,0.9993343949317932,0.0,0.0,0.0,-1.5046157836914062,2.5649094581604004,5.6997175216674805,272.3384704589844,0
168.4940000000006,-0.006284076254814863,-0.0004904301022179425,0.0006352838827297091,0.0,0.0,0.0,0.0,-0.003693236969411373,0.00432700477540493,0.0017632654635235667,0.9988407492637634,0.0,0.0,0.0,-1.5034923553466797,2.562120199203491,5.683200836181641,272.1351318359375,0
178.41400000000067,-0.006319815292954445,-0.0005198817234486341,0.0006571004050783813,0.0,0.0,0.0,0.0,0.0013168532168492675,-0.00037927174707874656,0.002132152672857046,1.0016249418258667,0.0,0.0,0.0,-1.5024604797363281,2.566772222518921,5.6577677726745605,271.9483337402344,0
188.31900000000132,-0.006308981217443943,-0.0005256387521512806,0.000689924054313451,0.0,0.0,0.0,0.0,0.001773474388755858,0.0005169770447537303,0.0012123639462515712,1.0018422603607178,0.0,0.0,0.0,-1.4996880292892456,2.5639920234680176,5.659821510314941,271.446533203125,0
198.2380000000012,-0.006345358211547136,-0.000556831480935216,0.00071531324647367,0.0,0.0,0.0,0.0,0.001558036427013576,-0.0017202708404511213,0.0016039173351600766,0.9991797804832458,0.0,0.0,0.0,-1.4976930618286133,2.5645015239715576,5.650235176086426,271.0854187011719,0
208.14100000000144,-0.006383638828992844,-0.000588709837757051,0.0007419294561259449,0.0,0.0,0.0,0.0,0.0026104378048330545,-0.0021453280933201313,-0.0017428949940949678,1.0002702474594116,0.0,0.0,0.0,-1.4964861869812012,2.5629239082336426,5.654761791229248,270.8669738769531,0
218.0630000000001,-0.006424542050808668,-0.0006214503082446754,0.0007683507283218205,0.0,0.0,0.0,0.0,0.0026285022031515837,-0.004891176242381334,0.0017197027336806059,1.0012884140014648,0.0,0.0,0.0,-1.4936505556106567,2.5517516136169434,5.647462844848633,270.3537292480469,0
227.96600000000035,-0.0063161770813167095,-0.000546605559065938,0.0007045581587590277,0.0,0.0,0.0,0.0,0.0031718257814645767,0.0028701447881758213,0.0017548976466059685,0.9985730648040771,0.0,0.0,0.0,-1.5108858346939087,2.561727523803711,5.737107753753662,273.47332763671875,0
237.88500000000022,-0.006348116789013147,-0.0005792048759758472,0.0007356193382292986,0.0,0.0,0.0,0.0,-0.0004923581727780402,-0.000721735181286931,-0.00046326351002790034,0.9971275925636292,0.0,0.0,0.0,-1.5079245567321777,2.5509581565856934,5.737914085388184,272.9373474121094,0
247.79500000000007,-0.006296406965702772,-0.0005481033585965633,0.0007273094961419702,0.0,0.0,0.0,0.0,0.0005416501662693918,0.004044027533382177,7.539014768553898e-05,0.9990770220756531,0.0,0.0,0.0,-1.5211164951324463,2.558763265609741,5.780416965484619,275.32513427734375,0
257.71299999999974,-0.006322625558823347,-0.0005813728785142303,0.0007581851677969098,0.0,0.0,0.0,0.0,-0.00036733265733346343,-0.004323999863117933,0.0018716843333095312,0.9992831349372864,0.0,0.0,0.0,-1.5186553001403809,2.5565738677978516,5.775139331817627,274.8796691894531,0
267.6140000000014,-0.006350393872708082,-0.0006153660942800343,0.000787879282142967,0.0,0.0,0.0,0.0,-0.0024350755847990513,-0.0047300150617957115,0.0006150120752863586,1.0005688667297363,0.0,0.0,0.0,-1.5162785053253174,2.5481817722320557,5.777843952178955,274.4494323730469,0
277.53900000000067,-0.006380094215273857,-0.0006494006374850869,0.000817295687738806,0.0,0.0,0.0,0.0,-0.001396214822307229,-0.00443529337644577,-0.0006636501057073474,1.0005347728729248,0.0,0.0,0.0,-1.5144832134246826,2.5412065982818604,5.773900508880615,274.1244812011719,0
287.4400000000005,-0.006250221282243729,-0.0006478255381807685,0.0007749536889605224,0.0,0.0,0.0,0.0,0.0023334764409810305,0.00225325976498425,0.0038697021082043648,1.0004866123199463,0.0,0.0,0.0,-1.5073996782302856,2.535165309906006,5.870203495025635,272.84234619140625,0
297.3640000000014,-0.006268057506531477,-0.0006826317403465509,0.0008069229079410434,0.0,0.0,0.0,0.0,-0.0011437322245910764,-0.002549482509493828,-0.0024901407305151224,0.9988189935684204,0.0,0.0,0.0,-1.5062766075134277,2.5335512161254883,5.865269660949707,272.6390686035156,0
307.2600000000002,-0.006235615350306034,-0.0006686788401566446,0.000852264987770468,0.0,0.0,0.0,0.0,0.0019272177014499903,0.0012030733050778508,0.0009098644368350506,0.9997645020484924,0.0,0.0,0.0,-1.5043630599975586,2.5312602519989014,5.855865955352783,272.292724609375,0
317.1910000000007,-0.006250583101063967,-0.0007010518456809223,0.0008873260812833905,0.0,0.0,0.0,0.0,0.001635933294892311,-0.0018392304191365838,-0.0032038509380072355,1.0007160902023315,0.0,0.0,0.0,-1.5023759603500366,2.5300886631011963,5.845792293548584,271.9330139160156,0
327.08600000000115,-0.00624197069555521,-0.0007088616257533431,0.0009608583641238511,0.0,0.0,0.0,0.0,-0.0008580090361647308,0.0035404022783041,-3.4691289329202846e-05,0.9980841875076294,0.0,0.0,0.0,-1.5019432306289673,2.5284218788146973,5.839736461639404,271.85467529296875,0
337.009,-0.006256050895899534,-0.0007400301983579993,0.0010000765323638916,0.0,0.0,0.0,0.0,-0.00031210400629788637,-0.000784804520662874,-0.0047845905646681786,1.0007052421569824,0.0,0.0,0.0,-1.5017870664596558,2.525369167327881,5.82794189453125,271.826416015625,0
346.91300000000047,-0.006063856650143862,6.977714656386524e-05,-0.00040902895852923393,0.0,0.0,0.0,0.0,0.0019835936836898327,0.0024184444919228554,0.0037852933164685965,1.003118634223938,0.0,0.0,0.0,-1.4950788021087646,2.6216397285461426,5.846386432647705,270.6122131347656,0
356.83600000000115,-0.006075863726437092,6.486966594820842e-05,-0.0004017848987132311,0.0,0.0,0.0,0.0,0.003415471874177456,-0.0018586450023576617,0.0008477796800434589,1.0019136667251587,0.0,0.0,0.0,-1.493224024772644,2.6190366744995117,5.833149433135986,270.27655029296875,0
366.7350000000006,-0.006067900452762842,0.00011666212958516553,-0.0004046316316816956,0.0,0.0,0.0,0.0,-0.0006301734829321504,-0.0026728413067758083,0.0003204700187779963,0.9995312690734863,0.0,0.0,0.0,-1.4981166124343872,2.614802360534668,5.834630489349365,271.162109375,0
376.65700000000106,-0.006084390915930271,0.00011318433826090768,-0.0003925215860363096,0.0,0.0,0.0,0.0,-0.0009917874122038484,0.0022581550292670727,0.0012912275269627571,0.9990954995155334,0.0,0.0,0.0,-1.4970300197601318,2.613779067993164,5.828591346740723,270.96539306640625,0
386.5580000000009,-0.00605018762871623,8.241190516855568e-05,-0.000326617737300694,0.0,0.0,0.0,0.0,-0.0032215449027717113,-0.0013015441363677382,1.697807056189049e-05,0.9976431727409363,0.0,0.0,0.0,-1.502280354499817,2.6051430702209473,5.824731349945068,271.91571044921875,0
396.47500000000036,-0.006070266477763653,7.87854878581129e-05,-0.000312795746140182,0.0,0.0,0.0,0.0,0.0004504663811530918,0.0003035542322322726,-0.0017065124120563269,0.9975742101669312,0.0,0.0,0.0,-1.5003397464752197,2.6069893836975098,5.819174766540527,271.5644836425781,0
406.3829999999998,-0.006048163864761591,3.9619990275241435e-05,-0.0002738296752795577,0.0,0.0,0.0,0.0,-0.0024753089528530836,0.00044033609447069466,-0.00033323251409456134,1.0007619857788086,0.0,0.0,0.0,-1.5116726160049438,2.5988776683807373,5.8159260749816895,273.6157531738281,0
416.3070000000007,-0.006072111427783966,3.262040263507515e-05,-0.00026131048798561096,0.0,0.0,0.0,0.0,0.0008654266130179167,-0.002728441497310996,-0.001694918959401548,1.0003917217254639,0.0,0.0,0.0,-1.5100665092468262,2.5969443321228027,5.80111026763916,273.3250427246094,0
426.20900000000074,-0.0060252039693295956,-4.092576273251325e-05,-0.00026264728512614965,0.0,0.0,0.0,0.0,0.0029509523883461952,-0.0013567301211878657,-7.55789878894575e-05,0.9994905591011047,0.0,0.0,0.0,-1.508216142654419,2.5941123962402344,5.802772045135498,272.9901123046875,0
436.1220000000012,-0.006051052827388048,-4.9070320528699085e-05,-0.00025056867161765695,0.0,0.0,0.0,0.0,0.003043968928977847,0.0007216907106339931,0.0012245909310877323,0.9984233975410461,0.0,0.0,0.0,-1.5070613622665405,2.5893290042877197,5.801823139190674,272.7810974121094,0
446.03200000000106,-0.00604592589661479,-8.863982657203451e-05,-0.00021009682677686214,0.0,0.0,0.0,0.0,0.00019664320279844105,-0.0016729339258745313,0.0031130709685385227,1.0013800859451294,0.0,0.0,0.0,-1.5048208236694336,2.5754501819610596,5.793089389801025,272.3755798339844,0
455.95100000000093,-0.006075234152376652,-9.871913061942905e-05,-0.0001970235607586801,0.0,0.0,0.0,0.0,0.002760775852948427,-0.0007229331531561911,-0.0008877586806192994,1.0009868144989014,0.0,0.0,0.0,-1.503373146057129,2.5694546699523926,5.789562702178955,272.113525390625,0
465.853000000001,-0.005997354630380869,-8.481268741888925e-05,-0.0001893493754323572,0.0,0.0,0.0,0.0,-0.00028976600151509047,-0.004901641048491001,-0.00015395463560707867,0.9995002746582031,0.0,0.0,0.0,-1.5080029964447021,2.567042589187622,5.784333229064941,272.9515380859375,0
475.77800000000025,-0.0060294573195278645,-9.35610369197093e-05,-0.0001748366339597851,0.0,0.0,0.0,0.0,-0.002504338975995779,-0.0005262367776595056,0.0009186667739413679,1.0004123449325562,0.0,0.0,0.0,-1.5081247091293335,2.5643351078033447,5.784402370452881,272.97357177734375,0
485.6790000000001,-0.005962118040770292,-2.8761307476088405e-05,-0.0002269672986585647,0.0,0.0,0.0,0.0,-0.0016516450559720397,-0.0010569874430075288,-0.0019326936453580856,0.9981956481933594,0.0,0.0,0.0,-1.5066440105438232,2.565192699432373,5.792267799377441,272.70556640625,0
495.59799999999996,-0.005994443316012621,-3.574785660021007e-05,-0.0002178377762902528,0.0,0.0,0.0,0.0,0.0019257036037743092,0.003648321842774749,0.0004661658895201981,1.0011075735092163,0.0,0.0,0.0,-1.5042190551757812,2.5643770694732666,5.785694122314453,272.2666320800781,0
505.5,-0.0059624710120260715,1.2771395176969236e-06,-0.0002548730990383774,0.0,0.0,0.0,0.0,0.0003608851693570614,0.000339105143211782,0.0010251023340970278,1.0016353130340576,0.0,0.0,0.0,-1.5034061670303345,2.5637333393096924,5.781123161315918,272.1195373535156,0
515.4230000000007,-0.00597338005900383,1.4979511433921289e-05,-0.00027943181339651346,0.0,0.0,0.0,0.0,-0.0023249713703989983,0.0006764045101590455,0.0008574656676501036,0.9988800883293152,0.0,0.0,0.0,-1.5015513896942139,2.555954933166504,5.766997814178467,271.78375244140625,0
525.3340000000007,-0.005972083192318678,1.5758592780912295e-05,-0.00027245344244875014,0.0,0.0,0.0,0.0,0.0010399798629805446,0.0015514626866206527,-0.002940121805295348,1.0018788576126099,0.0,0.0,0.0,-1.499099850654602,2.5594637393951416,5.759657382965088,271.34002685546875,0
535.2440000000006,-0.006011360790580511,9.092525942833163e-06,-0.00026749089010991156,0.0,0.0,0.0,0.0,0.00046088400995358825,-0.0009490950033068657,0.0008278471068479121,1.0013383626937866,0.0,0.0,0.0,-1.4979890584945679,2.556098461151123,5.751955986022949,271.1390075683594,0
545.1560000000009,-0.006083879619836807,5.362753654480912e-05,-0.00023320435138884932,0.0,0.0,0.0,0.0,-0.001137512270361185,0.0023636850528419018,0.0022753356024622917,1.000171422958374,0.0,0.0,0.0,-1.5119227170944214,2.5609138011932373,5.733621597290039,273.6610107421875,0
555.0720000000001,-0.0061145564541220665,1.4072394151298795e-05,-0.0002614296099636704,0.0,0.0,0.0,0.0,0.00043213670141994953,-0.00028119495254941285,0.0003576043527573347,0.9996402859687805,0.0,0.0,0.0,-1.5109866857528687,2.558511972427368,5.726969242095947,273.4915771484375,0
564.9800000000014,-0.006104959640651941,3.8407753891078755e-05,-0.00023013417376205325,0.0,0.0,0.0,0.0,0.001264238846488297,6.155904702609405e-05,-0.004171844106167555,0.9996641278266907,0.0,0.0,0.0,-1.5089267492294312,2.552042245864868,5.723324775695801,273.1187438964844,0
574.9070000000011,-0.006095115095376968,7.141555397538468e-05,-0.0002827380085363984,0.0,0.0,0.0,0.0,-0.002452300861477852,-0.002654955256730318,0.0015935339033603668,1.0019572973251343,0.0,0.0,0.0,-1.5075217485427856,2.545997142791748,5.728237628936768,272.86444091796875,0
584.7960000000003,-0.006084991618990898,8.141303987940773e-05,-0.0002609874645713717,0.0,0.0,0.0,0.0,-0.0012821769341826439,-0.0047695934772491455,-0.004358585923910141,1.0011576414108276,0.0,0.0,0.0,-1.5064021348953247,2.5465152263641357,5.723537921905518,272.66180419921875,0
594.7240000000002,-0.0060907453298568726,8.550414349883795e-05,-0.0003085737116634846,0.0,0.0,0.0,0.0,-0.00042802843381650746,-0.0036574555560946465,0.002417053561657667,1.001038670539856,0.0,0.0,0.0,-1.5041840076446533,2.5494613647460938,5.723794460296631,272.26031494140625,0
604.621000000001,-0.006097413133829832,8.263887866633013e-05,-0.0002940651902463287,0.0,0.0,0.0,0.0,0.0018498627468943596,2.8230177122168243e-05,0.0011822663946077228,0.9979974627494812,0.0,0.0,0.0,-1.5022733211517334,2.557260513305664,5.7250800132751465,271.9144287109375,0
614.5500000000011,-0.0061121247708797455,8.153823728207499e-05,-0.0003379082481842488,0.0,0.0,0.0,0.0,-0.0023417568299919367,0.0028332576621323824,-0.0012442735023796558,1.0020190477371216,0.0,0.0,0.0,-1.5092912912368774,2.555783271789551,5.727319240570068,273.18475341796875,0
624.4440000000013,-0.006084933876991272,9.622567449696362e-05,-0.00029950059251859784,0.0,0.0,0.0,0.0,-0.0010296584805473685,-0.0017442138632759452,0.0005466074217110872,1.0019103288650513,0.0,0.0,0.0,-1.513479471206665,2.5538296699523926,5.734340190887451,273.9427795410156,0
634.3649999999998,-0.006088609807193279,0.00012134010466979817,-0.00034732508356682956,0.0,0.0,0.0,0.0,-0.0009810400661081076,0.0008903297130018473,0.00022664763673674315,1.0008193254470825,0.0,0.0,0.0,-1.512998104095459,2.5601279735565186,5.7239227294921875,273.8556823730469,0
644.268,-0.006040935404598713,9.572631097398698e-05,-0.0003326383011881262,0.0,0.0,0.0,0.0,0.002254691207781434,-0.00012795583461411297,0.0029253435786813498,1.0017449855804443,0.0,0.0,0.0,-1.5112742185592651,2.551050901412964,5.725292682647705,273.54364013671875,0
654.1869999999999,-0.006068005692213774,9.7501470008865e-05,-0.0003531658439897001,0.0,0.0,0.0,0.0,0.0008670382667332888,0.0008727640379220247,0.000747163372579962,1.0010203123092651,0.0,0.0,0.0,-1.5097947120666504,2.543151617050171,5.7114458084106445,273.2758483886719,0
664.0930000000008,-0.006016839761286974,7.557957724202424e-05,-0.00032275603734888136,0.0,0.0,0.0,0.0,-0.001312114531174302,0.0004182755365036428,0.0030907376203686,1.000826120376587,0.0,0.0,0.0,-1.5173852443695068,2.537992477416992,5.715610504150391,274.64971923828125,0
674.0120000000006,-0.006039799656718969,8.021644316613674e-05,-0.0003421823203098029,0.0,0.0,0.0,0.0,-0.0013510232092812657,-0.00284776883199811,0.001651691971346736,1.0001832246780396,0.0,0.0,0.0,-1.516761302947998,2.53641414642334,5.7087812423706055,274.5367736816406,0
683.9189999999999,-0.0059816292487084866,1.816840267565567e-05,-0.0003298066440038383,0.0,0.0,0.0,0.0,-0.0002543051086831838,0.0026725949719548225,-0.0035998199600726366,1.000541090965271,0.0,0.0,0.0,-1.5221840143203735,2.5263614654541016,5.7201008796691895,275.51837158203125,0
693.8320000000003,-0.0059896837919950485,2.8202563044033013e-05,-0.0003688294382300228,0.0,0.0,0.0,0.0,0.0002704509242903441,-0.0035171988420188427,0.0037362060975283384,0.9994497895240784,0.0,0.0,0.0,-1.521954894065857,2.524962902069092,5.7148356437683105,275.47686767578125,0
703.7470000000012,-0.005963857751339674,2.0499765014392324e-05,-0.0003478594298940152,0.0,0.0,0.0,0.0,0.00026933455956168473,0.0022232651244848967,-0.003650943050161004,1.0012873411178589,0.0,0.0,0.0,-1.5197908878326416,2.5190155506134033,5.706780910491943,275.0851745605469,0
713.6530000000002,-0.006030898075550795,-9.990592843678314e-06,-0.00032793261925689876,0.0,0.0,0.0,0.0,0.0010566371493041515,-0.0006845127209089696,-0.0007420844631269574,1.0001381635665894,0.0,0.0,0.0,-1.5195127725601196,2.518343687057495,5.699892997741699,275.0348205566406,0
723.5640000000003,-0.005989032797515392,-5.656162102241069e-06,-0.000287795381154865,0.0,0.0,0.0,0.0,-0.0007741493172943592,0.0016238096868619323,0.003682547714561224,1.0010994672775269,0.0,0.0,0.0,-1.5183125734329224,2.5128939151763916,5.703916549682617,274.8175964355469,0
733.4760000000006,-0.006032878533005714,-6.899610980326543e-06,-0.00028556433971971273,0.0,0.0,0.0,0.0,-0.002315341494977474,0.0003514061972964555,-0.001118287444114685,1.0012882947921753,0.0,0.0,0.0,-1.5181483030319214,2.5117321014404297,5.695476055145264,274.787841796875,0
743.3900000000012,-0.006096171215176582,-3.056700370507315e-05,-0.000281824788544327,0.0,0.0,0.0,0.0,-0.0006757061928510666,0.00011724868090823293,0.000919528363738209,1.0001157522201538,0.0,0.0,0.0,-1.5160337686538696,2.5126540660858154,5.688525676727295,274.40509033203125,0
753.3010000000013,-0.006119732279330492,-1.1436682143539656e-05,-0.00030452205101028085,0.0,0.0,0.0,0.0,0.0006488239741884172,-0.00029654277022928,-0.001048789476044476,0.9983826875686646,0.0,0.0,0.0,-1.5141706466674805,2.5109293460845947,5.6831536293029785,274.06787109375,0
763.2120000000014,-0.006075642071664333,-1.3494612176145893e-05,-0.0002619420120026916,0.0,0.0,0.0,0.0,-0.0015949001535773277,-0.004892065655440092,-0.0008200944284908473,1.000260591506958,0.0,0.0,0.0,-1.512199878692627,2.5080819129943848,5.684112071990967,273.7112121582031,0
773.1239999999998,-0.006098761223256588,2.777105009954539e-06,-0.0002879395615309477,0.0,0.0,0.0,0.0,0.0001763490290613845,0.0036964581813663244,0.0016509763663634658,0.9995343089103699,0.0,0.0,0.0,-1.5122556686401367,2.5097150802612305,5.698452949523926,273.7212829589844,0
783.0400000000009,-0.006103877909481525,2.465052602929063e-05,-0.0002411222376395017,0.0,0.0,0.0,0.0,0.0003533955605234951,-0.0008663753978908062,-0.00022493484721053392,0.9999659061431885,0.0,0.0,0.0,-1.5106887817382812,2.506624937057495,5.6847429275512695,273.4376525878906,0
792.9490000000005,-0.006106748711317778,5.524433436221443e-05,-0.00029029781580902636,0.0,0.0,0.0,0.0,0.0013026181841269135,0.0020283779595047235,0.0016010485123842955,0.9999063611030579,0.0,0.0,0.0,-1.5090707540512085,2.5000665187835693,5.670766353607178,273.1448059082031,0
802.8630000000012,-0.006086395122110844,3.036099769815337e-05,-0.0002710082335397601,0.0,0.0,0.0,0.0,-0.0001266984036192298,-0.0033253433648496866,0.0004154485650360584,0.9988173246383667,0.0,0.0,0.0,-1.5082288980484009,2.4926981925964355,5.665184497833252,272.9924621582031,0
812.7810000000009,-0.006094777025282383,6.039723666617647e-05,-0.00031964926165528595,0.0,0.0,0.0,0.0,7.699146226514131e-05,-0.001615449320524931,0.001193816540762782,0.9987534284591675,0.0,0.0,0.0,-1.5053097009658813,2.4824423789978027,5.654414176940918,272.46405029296875,0
822.6840000000011,-0.00605576578527689,3.813128569163382e-05,-0.00028893310809507966,0.0,0.0,0.0,0.0,-0.0009347013547085226,-0.0009227091213688254,0.0007073382730595767,0.999198317527771,0.0,0.0,0.0,-1.5027459859848022,2.486119508743286,5.655464172363281,272.0,0
832.5960000000014,-0.00606484105810523,5.9239257097942755e-05,-0.00034701533149927855,0.0,0.0,0.0,0.0,0.0004432271816767752,-0.0057008834555745125,-0.0005197974969632924,0.9993476867675781,0.0,0.0,0.0,-1.5018370151519775,2.4852235317230225,5.651226043701172,271.83544921875,0
842.514000000001,-0.006093124393373728,9.395121014676988e-05,-0.00031386775663122535,0.0,0.0,0.0,0.0,-0.0012692052405327559,-0.0004532820894382894,0.0011423483956605196,1.000089168548584,0.0,0.0,0.0,-1.5085474252700806,2.4927914142608643,5.647457599639893,273.0500793457031,0
852.4210000000003,-0.006153907626867294,7.337134593399242e-05,-0.0003278543008491397,0.0,0.0,0.0,0.0,0.0005618655704893172,-0.0004669494228437543,-0.004660862497985363,0.9995192289352417,0.0,0.0,0.0,-1.5062010288238525,2.4914863109588623,5.651095867156982,272.6253662109375,0
862.3330000000005,-0.006109192967414856,7.481990178348497e-05,-0.00028322250000201166,0.0,0.0,0.0,0.0,0.0004096424672752619,-0.002663560211658478,-0.0029332246631383896,0.9984110593795776,0.0,0.0,0.0,-1.5043901205062866,2.4886698722839355,5.655206680297852,272.297607421875,0
872.2440000000006,-0.006155034527182579,5.9569480072241277e-05,-0.0003105280047748238,0.0,0.0,0.0,0.0,-0.0020968064200133085,-0.0013109920546412468,0.0008215768611989915,1.000619649887085,0.0,0.0,0.0,-1.5042725801467896,2.4881651401519775,5.644967555999756,272.2763366699219,0
882.1550000000007,-0.006081261206418276,2.1505660697584972e-05,-0.0002749591658357531,0.0,0.0,0.0,0.0,0.002885779831558466,0.006143567617982626,0.001596612622961402,1.0027700662612915,0.0,0.0,0.0,-1.5083640813827515,2.488722801208496,5.667619228363037,273.0168762207031,0
892.0730000000003,-0.006137043237686157,-3.0022914870642126e-05,-0.00029721358441747725,0.0,0.0,0.0,0.0,0.0005187025526538491,0.0008387700072489679,-0.0010021794587373734,0.9996644854545593,0.0,0.0,0.0,-1.50649893283844,2.4807140827178955,5.647455215454102,272.6793212890625,0
901.9800000000014,-0.006027894094586372,-3.974696301156655e-05,-0.00024079566355794668,0.0,0.0,0.0,0.0,0.0007138670771382749,-0.004808804951608181,0.004186995793133974,0.99959397315979,0.0,0.0,0.0,-1.5046136379241943,2.47819447517395,5.632876873016357,272.33807373046875,0
911.8960000000006,-0.006055349484086037,-3.3171396353282034e-05,-0.0002696553710848093,0.0,0.0,0.0,0.0,-0.0007648583850823343,-0.0010280862916260958,-0.0011702077463269234,1.0006744861602783,0.0,0.0,0.0,-1.5035266876220703,2.4761695861816406,5.635661602020264,272.1413269042969,0
921.8050000000003,-0.006039309315383434,-5.952580613666214e-05,-0.0002499030961189419,0.0,0.0,0.0,0.0,-0.004946860019117594,0.0041531771421432495,0.002735324203968048,1.000355839729309,0.0,0.0,0.0,-1.5012296438217163,2.476701259613037,5.640434741973877,271.7255554199219,0
931.7219999999998,-0.0060806795954704285,-7.807151268934831e-05,-0.0002805871481541544,0.0,0.0,0.0,0.0,0.0008387338602915406,0.002156617119908333,-0.00019055559823755175,1.000808596611023,0.0,0.0,0.0,-1.4994652271270752,2.4772372245788574,5.634967803955078,271.40618896484375,0
941.634,-0.006041114218533039,-9.65918370638974e-05,-0.0002481144620105624,0.0,0.0,0.0,0.0,0.0013648218009620905,0.0007875583251006901,-0.0002237524022348225,1.0003397464752197,0.0,0.0,0.0,-1.497377634048462,2.478334665298462,5.630715847015381,271.0283203125,0
951.5439999999999,-0.006069360766559839,-5.773708107881248e-05,-0.00026817043544724584,0.0,0.0,0.0,0.0,-0.0005970635102130473,0.002572687342762947,0.0018985405331477523,1.0007824897766113,0.0,0.0,0.0,-1.4960731267929077,2.474189281463623,5.616031646728516,270.7922058105469,0
961.4510000000009,-0.006114766001701355,-7.807939255144447e-05,-0.00025394049589522183,0.0,0.0,0.0,0.0,-0.002352295210584998,-0.005605572368949652,0.0036488629411906004,0.9983762502670288,0.0,0.0,0.0,-1.4941246509552002,2.4724509716033936,5.606520175933838,270.4395446777344,0
971.3720000000012,-0.006135512143373489,-3.046016900043469e-05,-0.0002863619301933795,0.0,0.0,0.0,0.0,-0.0020623563323169947,0.0014621104346588254,-0.004701306112110615,0.9979186654090881,0.0,0.0,0.0,-1.5002758502960205,2.480742931365967,5.611526966094971,271.5528869628906,0
981.277,-0.006093028467148542,-2.8278629542910494e-05,-0.00024404174473602325,0.0,0.0,0.0,0.0,-0.0017374287126585841,-0.00021150849352125078,0.0007551646558567882,0.9984365701675415,0.0,0.0,0.0,-1.4975547790527344,2.4894909858703613,5.616652488708496,271.06036376953125,0
991.2010000000009,-0.006119650788605213,2.590971007521148e-06,-0.00028247060254216194,0.0,0.0,0.0,0.0,0.002359033329412341,-0.0016341275768354535,0.00022962679213378578,0.9992966651916504,0.0,0.0,0.0,-1.4969497919082642,2.4904367923736572,5.604286193847656,270.95086669921875,0
1001.0990000000002,-0.0061207483522593975,-4.585028364090249e-05,-0.0002713389112614095,0.0,0.0,0.0,0.0,-0.005243801046162844,-0.0015620002523064613,0.004395801108330488,0.9965637922286987,0.0,0.0,0.0,-1.4965318441390991,2.4891879558563232,5.592541694641113,270.8752136230469,0
1011.027,-0.00611158786341548,1.513220377091784e-05,-0.00035097249201498926,0.0,0.0,0.0,0.0,-0.0005450032185763121,0.0008394756587222219,0.0016621010145172477,0.998528003692627,0.0,0.0,0.0,-1.4938873052597046,2.4884984493255615,5.5876288414001465,270.3965759277344,0
1020.9269999999997,-0.006018349435180426,9.094842425838578e-07,-0.00031177085475064814,0.0,0.0,0.0,0.0,0.0006711412570439279,0.00015659445489291102,-0.0014345695963129401,0.9988308548927307,0.0,0.0,0.0,-1.4922311305999756,2.4934396743774414,5.582375526428223,270.0968322753906,0
1030.8450000000012,-0.006049078423529863,1.3519320418708958e-05,-0.0003585302038118243,0.0,0.0,0.0,0.0,0.0003837841795757413,0.0009898487478494644,-0.00018523758626542985,0.9990640878677368,0.0,0.0,0.0,-1.4909414052963257,2.4899332523345947,5.580706596374512,269.8633728027344,0
1040.7620000000006,-0.006029549520462751,-3.1440936254512053e-06,-0.0003339768445584923,0.0,0.0,0.0,0.0,0.0010070685530081391,-0.0001897989131975919,-0.0001306396588915959,1.0007705688476562,0.0,0.0,0.0,-1.4984298944473267,2.489899158477783,5.590092658996582,271.2187805175781,0
1050.6670000000013,-0.006090411450713873,-1.0125036169483792e-05,-0.0003470024967100471,0.0,0.0,0.0,0.0,-0.0025820995215326548,-0.003735226346179843,0.0002558291598688811,0.9987978339195251,0.0,0.0,0.0,-1.5059925317764282,2.5004892349243164,5.589293003082275,272.587646484375,0
1060.5730000000003,-0.005997259169816971,-1.902500298456289e-05,-0.0003028889186680317,0.0,0.0,0.0,0.0,-0.0023392040748149157,0.004861781373620033,-0.0032203129958361387,0.9986906051635742,0.0,0.0,0.0,-1.5046566724777222,2.4961228370666504,5.587588310241699,272.34588623046875,0
1070.4950000000008,-0.006026361603289843,-2.55314421337971e-06,-0.00034361908910796046,0.0,0.0,0.0,0.0,-0.0006807088502682745,-0.0027596799191087484,-0.0029183493461459875,0.9991596937179565,0.0,0.0,0.0,-1.5036890506744385,2.4928956031799316,5.579678535461426,272.17071533203125,0
1080.398000000001,-0.005995414685457945,-7.185749836935429e-06,-0.0003184668312314898,0.0,0.0,0.0,0.0,-0.002281380817294121,0.002366007538512349,-0.0015480929287150502,1.0005943775177002,0.0,0.0,0.0,-1.502934217453003,2.501800060272217,5.56893253326416,272.0340881347656,0
1090.3199999999997,-0.006027317605912685,9.007963853946421e-06,-0.00035899956128560007,0.0,0.0,0.0,0.0,-0.0023734255228191614,-0.003731547389179468,-0.002913812641054392,1.0021617412567139,0.0,0.0,0.0,-1.5018693208694458,2.4941792488098145,5.563838958740234,271.8413391113281,0
1100.2200000000012,-0.0060510956682264805,1.3895819392928388e-05,-0.0003487974463496357,0.0,0.0,0.0,0.0,-1.1762500434997492e-05,-0.0021424598526209593,0.0025275656953454018,1.000857949256897,0.0,0.0,0.0,-1.5008500814437866,2.4965083599090576,5.556994438171387,271.6568298339844,0
1110.1450000000004,-0.0061080362647771835,4.419128345034551e-06,-0.00036716973409056664,0.0,0.0,0.0,0.0,-0.0021593684796243906,-0.00065118249040097,0.0006175748421810567,0.9991321563720703,0.0,0.0,0.0,-1.4996328353881836,2.492934226989746,5.5593366622924805,271.4365234375,0
1120.0439999999999,-0.005996789317578077,-1.768752008501906e-05,-0.0003231157024856657,0.0,0.0,0.0,0.0,-0.0021290453150868416,-0.001232194947078824,0.00363251194357872,1.000235915184021,0.0,0.0,0.0,-1.4974365234375,2.4906373023986816,5.5576653480529785,271.0389709472656,0
1129.9680000000008,-0.006058780010789633,-2.9265331249916926e-05,-0.00032922104583121836,0.0,0.0,0.0,0.0,-0.0003296829527243972,-0.0004639891267288476,-0.00017305293295066804,1.000575304031372,0.0,0.0,0.0,-1.495761752128601,2.4847218990325928,5.550144672393799,270.7358703613281,0
1139.8690000000006,-0.0060536786913871765,-2.7183508791495115e-05,-0.00029176368843764067,0.0,0.0,0.0,0.0,-0.0008112148498184979,0.0007567140273749828,0.0004769548249896616,1.0019123554229736,0.0,0.0,0.0,-1.500315546989441,2.4966704845428467,5.550607204437256,271.5600891113281,0
1149.7970000000005,-0.0060705761425197124,7.285317678906722e-06,-0.0003391265054233372,0.0,0.0,0.0,0.0,-0.00024008929904084653,0.004023120738565922,0.0014202194288372993,1.0007017850875854,0.0,0.0,0.0,-1.4985427856445312,2.5005345344543457,5.548595905303955,271.23919677734375,0
1159.696,-0.006048938725143671,-5.679557943949476e-06,-0.00030439189868047833,0.0,0.0,0.0,0.0,-0.0008717897580936551,-0.0012411733623594046,0.003649758407846093,0.9996472597122192,0.0,0.0,0.0,-1.4964817762374878,2.4969732761383057,5.543942451477051,270.86614990234375,0
1169.616,-0.006100297439843416,-6.15891849520267e-07,-0.0003152420977130532,0.0,0.0,0.0,0.0,-0.00042615990969352424,0.0017710174433887005,-0.002570594660937786,1.0020809173583984,0.0,0.0,0.0,-1.5014134645462036,2.508190870285034,5.534404277801514,271.7588195800781,0
1179.5210000000006,-0.006056639365851879,-2.3610518837813288e-05,-0.0002838233485817909,0.0,0.0,0.0,0.0,-0.0012945049675181508,-0.0006447647465392947,-0.00029430704307742417,1.0020920038223267,0.0,0.0,0.0,-1.4997143745422363,2.4977493286132812,5.530860424041748,271.4512939453125,0
1189.4440000000013,-0.00611837999895215,-5.969289850327186e-05,-0.0002997333067469299,0.0,0.0,0.0,0.0,-0.0023697821889072657,-0.0029295776039361954,0.002249894430860877,1.0003275871276855,0.0,0.0,0.0,-1.5040521621704102,2.4939630031585693,5.530147075653076,272.2364501953125,0
1199.3400000000001,-0.006078281905502081,-5.971615973976441e-05,-0.0002421108802082017,0.0,0.0,0.0,0.0,0.001582049997523427,-0.0021360251121222973,0.00042052040225826204,0.9995129704475403,0.0,0.0,0.0,-1.5093348026275635,2.4995498657226562,5.540652275085449,273.1925964355469,0
1209.2610000000004,-0.006114711984992027,-7.614657079102471e-05,-0.0002810796140693128,0.0,0.0,0.0,0.0,0.0009359422838315368,-0.0008693664567545056,-0.0004808122757822275,0.9987820386886597,0.0,0.0,0.0,-1.5069983005523682,2.4976251125335693,5.545073986053467,272.7696838378906,0
1219.1630000000005,-0.006065772380679846,-8.651809912407771e-05,-0.00022703438298776746,0.0,0.0,0.0,0.0,0.000467282923636958,-0.0003836851683445275,0.002838896121829748,1.0008758306503296,0.0,0.0,0.0,-1.5121231079101562,2.498112440109253,5.5636725425720215,273.6972961425781,0
1229.0860000000011,-0.006049198564141989,-1.3795578524877783e-05,-0.00029719911981374025,0.0,0.0,0.0,0.0,-0.00045821251114830375,-0.0033317001070827246,-0.0027238542679697275,0.9998466968536377,0.0,0.0,0.0,-1.5113065242767334,2.486609935760498,5.567083835601807,273.5494689941406,0
1238.9890000000014,-0.006042069755494595,-2.546704126871191e-05,-0.00027576321735978127,0.0,0.0,0.0,0.0,0.0012655491009354591,-0.0009385155863128603,0.0015206962125375867,0.998436689376831,0.0,0.0,0.0,-1.5098823308944702,2.4850547313690186,5.5701446533203125,273.29168701171875,0
1248.9090000000015,-0.006046561058610678,1.0198707059316803e-05,-0.00033825376885943115,0.0,0.0,0.0,0.0,-0.0006804407457821071,-0.0006021045264787972,0.0009001533035188913,0.9999765753746033,0.0,0.0,0.0,-1.5083906650543213,2.488726854324341,5.576256275177002,273.021728515625,0
1258.8160000000007,-0.006007298361510038,7.442366950272117e-06,-0.00031015116837807,0.0,0.0,0.0,0.0,-0.0012523195473477244,-0.00030820141546428204,-0.0008094381773844361,0.9997202157974243,0.0,0.0,0.0,-1.5073139667510986,2.4865565299987793,5.572199821472168,272.8268127441406,0
1268.7450000000008,-0.006042438559234142,2.5507493774057366e-05,-0.00034229530137963593,0.0,0.0,0.0,0.0,-0.0012132942210882902,0.0010222556302323937,-0.0016279942356050014,0.9992146492004395,0.0,0.0,0.0,-1.5066908597946167,2.483206033706665,5.558303356170654,272.71405029296875,0
1278.6410000000014,-0.006068029906600714,3.106486838078126e-05,-0.00033047859324142337,0.0,0.0,0.0,0.0,0.00019830929522868246,0.0030789340380579233,0.0005476929363794625,0.999029278755188,0.0,0.0,0.0,-1.5051789283752441,2.48188853263855,5.557089328765869,272.44036865234375,0
1288.5609999999997,-0.0061290087178349495,3.3926200558198616e-05,-0.000340666068950668,0.0,0.0,0.0,0.0,-0.00012393572251312435,0.006712917238473892,-0.0027765100821852684,0.9998700618743896,0.0,0.0,0.0,-1.503305196762085,2.4754750728607178,5.547649383544922,272.10125732421875,0
1298.4660000000003,-0.006092115771025419,6.404576561180875e-05,-0.00029619206907227635,0.0,0.0,0.0,0.0,0.0005388044519349933,0.003643026342615485,-0.00036977604031562805,0.9990882873535156,0.0,0.0,0.0,-1.496139645576477,2.4798648357391357,5.539709568023682,270.8042297363281,0
1308.3860000000004,-0.006151669193059206,6.509859667858109e-05,-0.00030928588239476085,0.0,0.0,0.0,0.0,0.0012832196662202477,-0.0016357521526515484,0.0005251853144727647,0.9987756609916687,0.0,0.0,0.0,-1.500675916671753,2.4800524711608887,5.534969329833984,271.6253356933594,0
1318.2930000000015,-0.006110524758696556,3.6631161492550746e-05,-0.00028560799546539783,0.0,0.0,0.0,0.0,0.000714705849532038,0.0028401489835232496,0.0031538649927824736,0.9981217980384827,0.0,0.0,0.0,-1.499521017074585,2.4773168563842773,5.519911289215088,271.4162902832031,0
1328.2170000000006,-0.006150954402983189,4.868355972575955e-05,-0.00032418384216725826,0.0,0.0,0.0,0.0,0.0008395890472456813,0.0027032997459173203,-0.005583518650382757,1.0030306577682495,0.0,0.0,0.0,-1.4981839656829834,2.4725990295410156,5.514366626739502,271.17425537109375,0
1338.116,-0.006079934537410736,3.897578426403925e-05,-0.0002887795853894204,0.0,0.0,0.0,0.0,0.001837749034166336,0.0012653867015615106,0.0016470635309815407,1.000536561012268,0.0,0.0,0.0,-1.4970438480377197,2.4741318225860596,5.509842395782471,270.9679260253906,0
1348.0349999999999,-0.0060946145094931126,7.010147965047508e-05,-0.00035672029480338097,0.0,0.0,0.0,0.0,-0.0011348838452249765,0.0014184587635099888,-0.002788328565657139,0.9980554580688477,0.0,0.0,0.0,-1.4963769912719727,2.4692280292510986,5.498476028442383,270.84722900390625,0
1357.9400000000005,-0.006044560577720404,2.1408968677860685e-05,-0.00034780876012519,0.0,0.0,0.0,0.0,5.6472039432264864e-05,-0.0024659335613250732,-0.0008485980215482414,0.9987712502479553,0.0,0.0,0.0,-1.4944599866867065,2.470427989959717,5.493597984313965,270.500244140625,0
1367.8520000000008,-0.00608578696846962,4.550175799522549e-05,-0.0003859833814203739,0.0,0.0,0.0,0.0,-0.00041830178815871477,0.0031114290468394756,0.0007467315881513059,1.0001089572906494,0.0,0.0,0.0,-1.492477536201477,2.472334623336792,5.481654167175293,270.1413879394531,0
1377.7560000000012,-0.006003201007843018,2.0321547708590515e-05,-0.00035414667217992246,0.0,0.0,0.0,0.0,-0.0034543639048933983,-0.005586507264524698,-0.0019520155619829893,0.9997882843017578,0.0,0.0,0.0,-1.4906154870986938,2.4663240909576416,5.485839366912842,269.80438232421875,0
1387.675000000001,-0.006056060548871756,3.6866269510937855e-05,-0.00038167834281921387,0.0,0.0,0.0,0.0,-0.00026631925720721483,-0.00565679045394063,-0.002352610696107149,0.9998050332069397,0.0,0.0,0.0,-1.4895082712173462,2.4673709869384766,5.4765753746032715,269.6039733886719,0
1397.5789999999997,-0.0060285842046141624,2.0057937945239246e-05,-0.00036157810245640576,0.0,0.0,0.0,0.0,-0.0005892197950743139,0.0032268629875034094,0.0017132054781541228,1.0002540349960327,0.0,0.0,0.0,-1.4884274005889893,2.4638524055480957,5.480991840362549,269.4083557128906,0
1407.4950000000008,-0.006110501475632191,1.8464827007846907e-05,-0.00035589447361417115,0.0,0.0,0.0,0.0,0.00027715254691429436,-0.002005133545026183,0.00020957169181201607,0.9982011318206787,0.0,0.0,0.0,-1.4960427284240723,2.4650275707244873,5.488373756408691,270.7867126464844,0
1417.4040000000005,-0.0060146586038172245,7.849207577237394e-06,-0.00030537828570231795,0.0,0.0,0.0,0.0,0.003692475613206625,-0.0008760833297856152,-0.0010553747415542603,1.0001024007797241,0.0,0.0,0.0,-1.4953100681304932,2.4627935886383057,5.475881099700928,270.6540832519531,0
1427.3289999999997,-0.0061033377423882484,-4.4627071474678814e-05,-0.0003082877374254167,0.0,0.0,0.0,0.0,0.00016029035032261163,-0.002473879838362336,0.00039840760291554034,1.0003851652145386,0.0,0.0,0.0,-1.5027086734771729,2.4526195526123047,5.4655656814575195,271.9932556152344,0
1437.237000000001,-0.006074706092476845,-3.872810339089483e-05,-0.00026506208814680576,0.0,0.0,0.0,0.0,-0.0002007309376494959,0.0034050748217850924,0.002559192944318056,0.9990991353988647,0.0,0.0,0.0,-1.5026310682296753,2.4420535564422607,5.466777324676514,271.97918701171875,0
1447.1450000000004,-0.006158463656902313,-6.53234455967322e-05,-0.00026097422232851386,0.0,0.0,0.0,0.0,-0.002817582804709673,0.0004215397057123482,-0.0005275305011309683,1.0011732578277588,0.0,0.0,0.0,-1.5003042221069336,2.4340598583221436,5.461853504180908,271.55804443359375,0
1457.0529999999999,-0.006113036535680294,-6.520389433717355e-05,-0.0002118644624715671,0.0,0.0,0.0,0.0,0.003643689677119255,0.0046930741518735886,-0.0011563661973923445,1.0013474225997925,0.0,0.0,0.0,-1.4991192817687988,2.4285542964935303,5.448907852172852,271.34356689453125,0
1466.9660000000003,-0.00614458043128252,-6.970778485992923e-05,-0.0002683228813111782,0.0,0.0,0.0,0.0,0.00012269505532458425,-0.0014427091227844357,0.002326894784346223,0.9995611906051636,0.0,0.0,0.0,-1.4986674785614014,2.4275460243225098,5.433001518249512,271.26177978515625,0
1476.8780000000006,-0.006055152975022793,-5.121701906318776e-05,-0.000198288238607347,0.0,0.0,0.0,0.0,-0.001729762414470315,-0.005588138476014137,0.0006913476390764117,0.9995694756507874,0.0,0.0,0.0,-1.4960682392120361,2.424365997314453,5.423450469970703,270.79132080078125,0
1486.791000000001,-0.006083197891712189,-2.467590820742771e-05,-0.000238948137848638,0.0,0.0,0.0,0.0,-0.0005045508733019233,0.0031590135768055916,-0.001619255868718028,0.9995679259300232,0.0,0.0,0.0,-1.4934892654418945,2.4161860942840576,5.427510738372803,270.32452392578125,0
1496.701000000001,-0.006069266237318516,-3.806985114351846e-05,-0.00021004505106247962,0.0,0.0,0.0,0.0,-9.157278100246913e-07,0.00043365336023271084,0.0003291456669103354,0.9979291558265686,0.0,0.0,0.0,-1.491858720779419,2.4158318042755127,5.424002647399902,270.0293884277344,0
1506.6110000000008,-0.006107405759394169,-4.42143118561944e-06,-0.0002390327863395214,0.0,0.0,0.0,0.0,-0.0012832573847845197,0.000804736337158829,-0.0027214335277676582,0.9999027252197266,0.0,0.0,0.0,-1.4900487661361694,2.4128379821777344,5.413561820983887,269.7017822265625,0
1516.523000000001,-0.006047360133379698,-5.721181878470816e-06,-0.00018981395987793803,0.0,0.0,0.0,0.0,0.0004293517558835447,0.005056406371295452,0.002095039701089263,0.9974699020385742,0.0,0.0,0.0,-1.4890185594558716,2.4144463539123535,5.399512767791748,269.51531982421875,0
1526.4400000000005,-0.006103534251451492,-3.570294938981533e-05,-0.00022804732725489885,0.0,0.0,0.0,0.0,-0.0017727244412526488,-0.001084976946003735,0.00328882341273129,0.9984471797943115,0.0,0.0,0.0,-1.4873396158218384,2.407862901687622,5.383677005767822,269.21142578125,0
1536.348,-0.006106014363467693,-4.841533882427029e-05,-0.00020600999414455146,0.0,0.0,0.0,0.0,0.0012733975891023874,0.002885418478399515,0.0010576403001323342,0.9983609318733215,0.0,0.0,0.0,-1.485138177871704,2.410490036010742,5.379438400268555,268.8129577636719,0
1546.2610000000004,-0.006130155175924301,-1.260772296518553e-05,-0.00026259239530190825,0.0,0.0,0.0,0.0,-0.0016180594684556127,0.0022883869241923094,0.00010849545651581138,0.9986634850502014,0.0,0.0,0.0,-1.4832253456115723,2.4067420959472656,5.376482963562012,268.46673583984375,0
1556.1779999999999,-0.006041292101144791,-3.8460468203993514e-05,-0.00022539030760526657,0.0,0.0,0.0,0.0,0.0018662376096472144,-0.0005570687353610992,-0.002480060327798128,0.9999781847000122,0.0,0.0,0.0,-1.481903076171875,2.4074764251708984,5.3731255531311035,268.2273864746094,0
1566.0870000000014,-0.0060567366890609264,4.367173914943123e-06,-0.00028756100800819695,0.0,0.0,0.0,0.0,-0.0024912580847740173,0.0018064241157844663,-0.0017168376361951232,1.0030291080474854,0.0,0.0,0.0,-1.4861336946487427,2.4251091480255127,5.364593029022217,268.9931640625,0
1575.9950000000008,-0.00606554513797164,-1.616734152776189e-05,-0.0002710811677388847,0.0,0.0,0.0,0.0,-0.0003584511869121343,-0.002508328529074788,-9.670344297774136e-05,0.9993919134140015,0.0,0.0,0.0,-1.4857497215270996,2.4219136238098145,5.361782550811768,268.92364501953125,0
1585.9120000000003,-0.006128313485532999,-4.305324182496406e-05,-0.0002995245158672333,0.0,0.0,0.0,0.0,0.0016245832666754723,0.0010301268193870783,-0.0010216647060588002,0.9991701245307922,0.0,0.0,0.0,-1.4902598857879639,2.4256961345672607,5.359096050262451,269.739990234375,0
1595.8190000000013,-0.006031498778611422,-5.927212623646483e-05,-0.00025346947950311005,0.0,0.0,0.0,0.0,-0.0008145121391862631,-0.0026073080953210592,0.001838515279814601,0.9989641904830933,0.0,0.0,0.0,-1.4894356727600098,2.4303905963897705,5.35766077041626,269.5908203125,0
1605.7309999999998,-0.006095904391258955,-8.87609930941835e-05,-0.0002786318364087492,0.0,0.0,0.0,0.0,-0.00574782257899642,-0.0030700662173330784,-0.0004910169518552721,1.0024595260620117,0.0,0.0,0.0,-1.4947389364242554,2.4322617053985596,5.362374782562256,270.5507507324219,0
1615.6440000000002,-0.006063197273761034,-9.932390094036236e-05,-0.00024499662686139345,0.0,0.0,0.0,0.0,-0.0015687125269323587,0.0011659162119030952,7.099089998519048e-05,1.0012177228927612,0.0,0.0,0.0,-1.493516445159912,2.4310302734375,5.365981101989746,270.3294372558594,0
1625.558000000001,-0.006098248530179262,-5.38713502464816e-05,-0.0002744489465840161,0.0,0.0,0.0,0.0,-0.00041094390326179564,0.0009461304871365428,-0.0005864097038283944,1.0008026361465454,0.0,0.0,0.0,-1.4918452501296997,2.434307336807251,5.3636908531188965,270.0269775390625,0
1635.469000000001,-0.006076321005821228,-6.191155262058601e-05,-0.00023221892479341477,0.0,0.0,0.0,0.0,-0.0019419023301452398,-0.001398290740326047,-0.004298269283026457,1.0013680458068848,0.0,0.0,0.0,-1.498489260673523,2.4395663738250732,5.376943588256836,271.2295227050781,0
1645.3870000000006,-0.00609867088496685,-2.4041213691816665e-05,-0.00028140374342910945,0.0,0.0,0.0,0.0,-0.00028397233108989894,0.0007872613496147096,0.001359549700282514,0.9994516372680664,0.0,0.0,0.0,-1.502973198890686,2.4499213695526123,5.386700630187988,272.0411376953125,0
1655.2900000000009,-0.006030257325619459,-4.505415563471615e-05,-0.0002377397904638201,0.0,0.0,0.0,0.0,-0.0017214763211086392,-0.003676483640447259,1.4183646271703765e-05,0.9990422129631042,0.0,0.0,0.0,-1.5024349689483643,2.4483211040496826,5.3733086585998535,271.9437255859375,0
1665.2160000000003,-0.006037314422428608,-6.6993575273954775e-06,-0.00030810805037617683,0.0,0.0,0.0,0.0,-0.004437088966369629,-0.00024750950979068875,-0.0021852708887308836,1.0004260540008545,0.0,0.0,0.0,-1.5011346340179443,2.4441521167755127,5.373061656951904,271.7083435058594,0
1675.116,-0.006036168895661831,-2.1334537450456992e-05,-0.0002794264582917094,0.0,0.0,0.0,0.0,0.00111034803558141,-0.002940566511824727,-0.002516778651624918,0.9996746182441711,0.0,0.0,0.0,-1.5087977647781372,2.4531524181365967,5.384997844696045,273.0954284667969,0
1685.0439999999999,-0.006089469417929649,-1.1385204743419308e-05,-0.0003005810722243041,0.0,0.0,0.0,0.0,0.005245645064860582,0.0022727586328983307,-0.002502621151506901,0.9971848130226135,0.0,0.0,0.0,-1.507282018661499,2.45626163482666,5.385054588317871,272.8210754394531,0
1694.9530000000013,-0.006083965767174959,-2.2984715542406775e-05,-0.0002767203841358423,0.0,0.0,0.0,0.0,-0.002385304309427738,-0.001043381867930293,0.0036113576497882605,0.9991486072540283,0.0,0.0,0.0,-1.5048409700393677,2.4533491134643555,5.383055686950684,272.3792419433594,0
1704.8720000000012,-0.006126434542238712,-6.749192380084423e-06,-0.00031527155078947544,0.0,0.0,0.0,0.0,0.001357394503429532,0.0012666763504967093,0.0020415810868144035,0.9992417693138123,0.0,0.0,0.0,-1.5035490989685059,2.4532995223999023,5.375146389007568,272.1454162597656,0
1714.773000000001,-0.0060813850723207,-9.67891355685424e-06,-0.0002672105038072914,0.0,0.0,0.0,0.0,-0.004991871304810047,-0.0016799138393253088,0.004037776961922646,1.0014511346817017,0.0,0.0,0.0,-1.5112522840499878,2.464500665664673,5.381211757659912,273.5396423339844,0
1724.6910000000007,-0.006128903478384018,1.8083392205880955e-06,-0.0002971804060507566,0.0,0.0,0.0,0.0,0.0046208626590669155,-0.0008933772915042937,0.0004938467172905803,1.0015896558761597,0.0,0.0,0.0,-1.5098310708999634,2.4637932777404785,5.3740620613098145,273.2824401855469,0
1734.5960000000014,-0.006114086136221886,1.7694334019324742e-05,-0.00024733415921218693,0.0,0.0,0.0,0.0,-0.0019598924554884434,-0.0012696918565779924,0.0030700922943651676,1.0011142492294312,0.0,0.0,0.0,-1.5144697427749634,2.4727871417999268,5.383559703826904,274.1220397949219,0
1744.5120000000006,-0.006116095930337906,5.668298399541527e-05,-0.00032506781280972064,0.0,0.0,0.0,0.0,0.0006027047638781369,-0.0004145350831095129,-0.004190973471850157,0.9992835521697998,0.0,0.0,0.0,-1.5121558904647827,2.4637393951416016,5.3811869621276855,273.7032165527344,0
1754.425000000001,-0.006029404699802399,4.818673914996907e-05,-0.0002760786737781018,0.0,0.0,0.0,0.0,0.0009179303306154907,-0.0055309440940618515,0.00020891042368020862,1.0000594854354858,0.0,0.0,0.0,-1.511035680770874,2.4635910987854004,5.362617015838623,273.50048828125,0
1764.344000000001,-0.006105931010097265,-1.7455831766710617e-05,-0.0002953387447632849,0.0,0.0,0.0,0.0,-0.00027611051336862147,0.0005020535318180919,0.00042277792817912996,1.0008498430252075,0.0,0.0,0.0,-1.5104377269744873,2.4618070125579834,5.36237907409668,273.3922119140625,0
1774.25,-0.006069896277040243,-2.484835931682028e-05,-0.00026196628459729254,0.0,0.0,0.0,0.0,0.0014618673594668508,0.0032986290752887726,-0.0022626256104558706,1.0005950927734375,0.0,0.0,0.0,-1.5094095468521118,2.453091859817505,5.363935470581055,273.20611572265625,0
1784.1640000000007,-0.0061225504614412785,-5.3236159146763384e-05,-0.0003014190006069839,0.0,0.0,0.0,0.0,0.0004485373792704195,-3.173697768943384e-05,0.004522967617958784,0.9996304512023926,0.0,0.0,0.0,-1.5078651905059814,2.4505863189697266,5.352572917938232,272.9266052246094,0
1794.0699999999997,-0.006097583100199699,-4.288069612812251e-05,-0.0002597015700303018,0.0,0.0,0.0,0.0,0.0008683782652951777,-0.0050718109123408794,-0.001973978243768215,0.9977986216545105,0.0,0.0,0.0,-1.5064095258712769,2.444751262664795,5.344882965087891,272.6631164550781,0
1803.9790000000012,-0.006137330550700426,-1.066416189132724e-05,-0.0002855097991414368,0.0,0.0,0.0,0.0,-0.0015864284941926599,-0.00018223008373752236,0.0008889902965165675,0.998989999294281,0.0,0.0,0.0,-1.5046417713165283,2.4459292888641357,5.350459098815918,272.3431701660156,0
1813.898000000001,-0.006095161661505699,-2.448885607009288e-05,-0.000251627090619877,0.0,0.0,0.0,0.0,0.0021084982436150312,0.0018739147344604135,-0.003926362842321396,0.9971790909767151,0.0,0.0,0.0,-1.5042001008987427,2.4453611373901367,5.34250020980835,272.26324462890625,0
1823.808000000001,-0.006136488635092974,-3.7402332964120433e-06,-0.0002879128442145884,0.0,0.0,0.0,0.0,-3.1696206860942766e-05,-0.0025136349722743034,0.0018699547508731484,0.9989797472953796,0.0,0.0,0.0,-1.5029535293579102,2.445668935775757,5.343092918395996,272.0375671386719,0
1833.7180000000008,-0.006035050842911005,-3.956474392907694e-05,-0.000250801705988124,0.0,0.0,0.0,0.0,-0.0013063611695542932,0.003876186441630125,-0.0017336664022877812,1.0016250610351562,0.0,0.0,0.0,-1.5009410381317139,2.4365060329437256,5.3274383544921875,271.67327880859375,0
1843.6450000000004,-0.0060913716442883015,-2.3481370590161532e-05,-0.00027104304172098637,0.0,0.0,0.0,0.0,0.0029130191542208195,-0.00010054506856249645,0.0027261499781161547,0.9993615746498108,0.0,0.0,0.0,-1.5080478191375732,2.4456944465637207,5.322871208190918,272.95965576171875,0
1853.5470000000005,-0.006032904144376516,-3.814713272731751e-05,-0.00023431776207871735,0.0,0.0,0.0,0.0,0.00010477437172085047,0.0010071038268506527,0.0008089973707683384,0.9997228384017944,0.0,0.0,0.0,-1.5065327882766724,2.441467523574829,5.308182716369629,272.6854248046875,0
1863.4560000000001,-0.006081146653741598,-1.9317723854328506e-05,-0.00026565990992821753,0.0,0.0,0.0,0.0,-0.0014221805613487959,-0.0005734788137488067,-0.004842835478484631,1.0003440380096436,0.0,0.0,0.0,-1.5044052600860596,2.4386820793151855,5.313423156738281,272.30035400390625,0
1873.3649999999998,-0.006067786831408739,-3.3241482015000656e-05,-0.00024245302483905107,0.0,0.0,0.0,0.0,-0.0014633045066148043,-0.002705884166061878,-0.001689244993031025,1.0006250143051147,0.0,0.0,0.0,-1.5033464431762695,2.4348244667053223,5.3089518547058105,272.10870361328125,0
1883.2810000000009,-0.0060720485635101795,1.4787709005759098e-05,-0.0003256993950344622,0.0,0.0,0.0,0.0,0.00043311959598213434,0.0006460616714321077,0.0022614013869315386,1.0003385543823242,0.0,0.0,0.0,-1.5026756525039673,2.4384052753448486,5.299029350280762,271.98724365234375,0
1893.1970000000001,-0.006046959199011326,-3.2362411729991436e-05,-0.0003200512728653848,0.0,0.0,0.0,0.0,0.0010900961933657527,0.003693987848237157,0.0010842004558071494,0.9975864291191101,0.0,0.0,0.0,-1.5013418197631836,2.4333860874176025,5.305203914642334,271.745849609375,0
1903.1000000000004,-0.006106366403400898,-1.19075784823508e-05,-0.00034413085086271167,0.0,0.0,0.0,0.0,0.0007326308405026793,0.00334953423589468,0.0016649821773171425,1.0007028579711914,0.0,0.0,0.0,-1.4998193979263306,2.42673397064209,5.291167736053467,271.47027587890625,0
1913.014000000001,-0.006063885521143675,-2.1824545910931192e-05,-0.00030368371517397463,0.0,0.0,0.0,0.0,-0.0024604068603366613,0.0008133366354741156,-0.002025477821007371,1.002090573310852,0.0,0.0,0.0,-1.5077987909317017,2.4224014282226562,5.297061920166016,272.9145812988281,0
1922.924000000001,-0.006128511391580105,-2.349649776078877e-06,-0.00032124106655828655,0.0,0.0,0.0,0.0,0.002103507751598954,-0.0015071795787662268,0.003628132166340947,0.9987847208976746,0.0,0.0,0.0,-1.5120584964752197,2.433074951171875,5.290119647979736,273.68560791015625,0
1932.839,-0.006064990535378456,-2.5084736989811063e-05,-0.0002730530686676502,0.0,0.0,0.0,0.0,0.0012114056153222919,0.0019160545198246837,-7.216696394607425e-05,0.9997864961624146,0.0,0.0,0.0,-1.5187119245529175,2.433586835861206,5.308669567108154,274.889892578125,0
1942.7470000000012,-0.006119800731539726,4.771991825691657e-06,-0.000295157398795709,0.0,0.0,0.0,0.0,0.0007495515746995807,-0.003047691658139229,-0.0013748113997280598,1.0007141828536987,0.0,0.0,0.0,-1.5164624452590942,2.4267423152923584,5.302645206451416,274.48272705078125,0
1952.661,-0.006074240896850824,-5.041301847086288e-05,-0.00027947183116339147,0.0,0.0,0.0,0.0,-0.001883062650449574,0.0021266161929816008,-0.0008982861181721091,0.99993497133255,0.0,0.0,0.0,-1.51578688621521,2.425793170928955,5.297438621520996,274.3604431152344,0
1962.5740000000005,-0.006134970113635063,-6.44935789750889e-05,-0.0003177007311023772,0.0,0.0,0.0,0.0,0.00043186554103158414,0.0008470129687339067,0.002782028866931796,0.999445378780365,0.0,0.0,0.0,-1.5141668319702148,2.4205338954925537,5.286969184875488,274.06719970703125,0
1972.4899999999998,-0.006030444987118244,-7.092333544278517e-05,-0.0002553980448283255,0.0,0.0,0.0,0.0,0.0005847081774845719,-0.002757813548669219,0.00344013050198555,1.0007109642028809,0.0,0.0,0.0,-1.5140098333358765,2.4216010570526123,5.278574466705322,274.03875732421875,0
1982.3960000000006,-0.00609868299216032,-8.781982614891604e-05,-0.00029413163429126143,0.0,0.0,0.0,0.0,0.0006373414071276784,0.0009250525035895407,-0.00349185592494905,1.0015757083892822,0.0,0.0,0.0,-1.5116199254989624,2.41524338722229,5.276969909667969,273.6062316894531,0
1992.3109999999997,-0.006025413051247597,-8.982151484815404e-05,-0.00023679477453697473,0.0,0.0,0.0,0.0,-0.0017118389951065183,-0.004830998834222555,0.0031836635898798704,1.0002682209014893,0.0,0.0,0.0,-1.5094040632247925,2.416095733642578,5.280140399932861,273.20513916015625,0
2002.2210000000014,-0.006097933743149042,-8.085677109193057e-05,-0.0002518316323403269,0.0,0.0,0.0,0.0,0.0006907741772010922,0.0008376616751775146,0.0008507369202561677,0.9990341067314148,0.0,0.0,0.0,-1.5080660581588745,2.4167003631591797,5.28064489364624,272.9629821777344,0
2012.1280000000006,-0.006160570774227381,-7.017953612376004e-05,-0.00021523903706111014,0.0,0.0,0.0,0.0,-0.0022669907193630934,0.0032638823613524437,-0.0029208892956376076,1.0010980367660522,0.0,0.0,0.0,-1.5141428709030151,2.4201176166534424,5.2803497314453125,274.0628662109375,0
2022.0460000000003,-0.006209656596183777,-2.2788808564655483e-05,-0.00025688938330858946,0.0,0.0,0.0,0.0,2.382745879003778e-05,0.0031473662238568068,0.003788304515182972,1.0005896091461182,0.0,0.0,0.0,-1.5132200717926025,2.4213736057281494,5.273942470550537,273.89581298828125,0
2031.9580000000005,-0.006177874747663736,-4.2251696868333966e-05,-0.0002184572076657787,0.0,0.0,0.0,0.0,-0.00055924360640347,0.0057081859558820724,0.004244090057909489,0.9991275072097778,0.0,0.0,0.0,-1.510441541671753,2.4194538593292236,5.2696380615234375,273.3929443359375,0
2041.880000000001,-0.00618836609646678,2.1113077309564687e-05,-0.0003011561930179596,0.0,0.0,0.0,0.0,-0.0019500283524394035,-0.0004526551638264209,0.0019325364846736193,0.9971534013748169,0.0,0.0,0.0,-1.5076863765716553,2.4179389476776123,5.256438255310059,272.89422607421875,0
2051.7750000000015,-0.00616094097495079,-2.122558726114221e-06,-0.0002691482368391007,0.0,0.0,0.0,0.0,0.002472964348271489,0.0002988989290315658,-0.002302175620570779,0.9996146559715271,0.0,0.0,0.0,-1.506280779838562,2.4184036254882812,5.247643947601318,272.63983154296875,0
2061.7000000000007,-0.006175719667226076,8.077129314187914e-05,-0.0003485322231426835,0.0,0.0,0.0,0.0,0.0032478601206094027,-0.001690052100457251,-0.00011964045552304015,0.9988881349563599,0.0,0.0,0.0,-1.5064212083816528,2.4082868099212646,5.238065719604492,272.66522216796875,0
2071.604000000001,-0.006157877389341593,3.939915040973574e-05,-0.00033439439721405506,0.0,0.0,0.0,0.0,0.0012316358042880893,0.003596673486754298,0.0003600230847951025,1.0011175870895386,0.0,0.0,0.0,-1.504911184310913,2.400380849838257,5.2400383949279785,272.3919372558594,0
2081.513000000001,-0.006217361427843571,4.599244857672602e-05,-0.0003901343734469265,0.0,0.0,0.0,0.0,0.0001030060593620874,0.0027744281105697155,-0.003340110182762146,1.0026642084121704,0.0,0.0,0.0,-1.5029810667037964,2.3942008018493652,5.227288722991943,272.04254150390625,0
2091.425000000001,-0.006182054057717323,3.171876596752554e-05,-0.00035448724520392716,0.0,0.0,0.0,0.0,-3.159453262924217e-05,0.0018867788603529334,-0.0004736287228297442,1.0000410079956055,0.0,0.0,0.0,-1.5027436017990112,2.396171808242798,5.220927715301514,271.9995422363281,0
2101.339,-0.006239946000277996,5.5926982895471156e-05,-0.00040281153633259237,0.0,0.0,0.0,0.0,0.004274373408406973,0.0013948589330539107,0.0002379305224167183,0.9992313385009766,0.0,0.0,0.0,-1.5020978450775146,2.389479398727417,5.20484733581543,271.8826599121094,0
2111.242,-0.006178491283208132,2.4577322619734332e-05,-0.0003663339593913406,0.0,0.0,0.0,0.0,0.0007468619151040912,0.001272797235287726,-0.0016198457451537251,0.9992498159408569,0.0,0.0,0.0,-1.500304937362671,2.375105857849121,5.191350936889648,271.55816650390625,0
2121.16,-0.006263975985348225,1.3576538549386896e-05,-0.0003923906187992543,0.0,0.0,0.0,0.0,-0.00028827550704590976,0.0006065246998332441,-0.0017077468801289797,0.9990000128746033,0.0,0.0,0.0,-1.4981107711791992,2.3705570697784424,5.186302185058594,271.1610412597656,0
2131.0660000000007,-0.006162975914776325,-6.199420022312552e-05,-0.000362134218448773,0.0,0.0,0.0,0.0,-0.00112339376937598,-0.0005210824310779572,-0.0005497747333720326,0.999678373336792,0.0,0.0,0.0,-1.497545838356018,2.374194860458374,5.180479526519775,271.05877685546875,0
