timestamp,stateEstimate.x,stateEstimate.y,stateEstimate.z,controller.cmd_thrust,controller.cmd_roll,controller.cmd_pitch,controller.cmd_yaw,controller.r_roll,controller.r_pitch,controller.r_yaw,controller.accelz,controller.actuatorThrust,controller.roll,controller.pitch,controller.yaw,controller.rollRate,controller.pitchRate,controller.yawRate,controller.ctr_yaw
0.0,0.02980741299688816,-0.031327951699495316,0.0011484753340482712,0.0,0.0,0.0,0.0,0.0003341773117426783,-0.01217724196612835,0.0009839975973591208,1.0008500814437866,0.0,0.0,0.0,17.29678726196289,8.007240295410156,8.2047758102417,-3130.753173828125,0
9.873999999999796,0.029864704236388206,-0.031238267198204994,0.001090753125026822,0.0,0.0,0.0,0.0,0.0003578088653739542,0.005933890584856272,0.0009553132113069296,1.0012139081954956,0.0,0.0,0.0,17.30797004699707,8.02514362335205,8.24814510345459,-3132.777099609375,0
19.77099999999882,0.029841139912605286,-0.031248025596141815,0.0011098639806732535,0.0,0.0,0.0,0.0,0.004371208604425192,0.0022578926291316748,0.00481325201690197,0.9996801018714905,0.0,0.0,0.0,17.302886962890625,8.030906677246094,8.233824729919434,-3131.857177734375,0
29.639999999999418,0.029865063726902008,-0.031201308593153954,0.0010905690724030137,0.0,0.0,0.0,0.0,0.0004107487911824137,0.0023036303464323282,0.002087944420054555,0.9969013929367065,0.0,0.0,0.0,17.31656265258789,8.026564598083496,8.228018760681152,-3134.33251953125,0
39.53600000000006,0.02986944653093815,-0.031202837824821472,0.0011247313814237714,0.0,0.0,0.0,0.0,-0.002024941612035036,-0.002210015896707773,0.00040080060716718435,0.9992396831512451,0.0,0.0,0.0,17.31061363220215,8.022281646728516,8.222420692443848,-3133.255615234375,0
49.42000000000007,0.02986832708120346,-0.031192244961857796,0.0011346605606377125,0.0,0.0,0.0,0.0,0.0020540165714919567,-0.00015201023779809475,0.002791039878502488,1.0011188983917236,0.0,0.0,0.0,17.321197509765625,8.024337768554688,8.228707313537598,-3135.17138671875,0
59.30199999999968,0.02983766235411167,-0.031227177008986473,0.0011392602464184165,0.0,0.0,0.0,0.0,-0.0011666669743135571,-0.0012868614867329597,0.000754748412873596,1.0014952421188354,0.0,0.0,0.0,17.316286087036133,8.016302108764648,8.226320266723633,-3134.2822265625,0
69.1869999999999,0.029843691736459732,-0.03121206909418106,0.0011428369907662272,0.0,0.0,0.0,0.0,-0.0007785347406752408,0.0013778379652649164,-0.0027949842624366283,1.0008363723754883,0.0,0.0,0.0,17.328109741210938,8.020896911621094,8.236648559570312,-3136.422607421875,0
79.07799999999952,0.029843728989362717,-0.03122023306787014,0.0011747436365112662,0.0,0.0,0.0,0.0,0.0018665969837456942,0.002597430720925331,-0.004706194158643484,0.999183714389801,0.0,0.0,0.0,17.31845474243164,8.022845268249512,8.231363296508789,-3134.674560546875,0
88.95499999999993,0.02984464541077614,-0.03120972216129303,0.0011860552476719022,0.0,0.0,0.0,0.0,0.00046300917165353894,-0.0006515306886285543,-0.002757494803518057,0.9996251463890076,0.0,0.0,0.0,17.331768035888672,8.017789840698242,8.233613014221191,-3137.084716796875,0
98.84499999999935,0.02980680949985981,-0.03122447058558464,0.00120315863750875,0.0,0.0,0.0,0.0,-0.001076643355190754,-0.002603125059977174,0.0004133359470870346,0.9994943737983704,0.0,0.0,0.0,17.323354721069336,8.017684936523438,8.22877311706543,-3135.561767578125,0
108.72099999999955,0.02982957661151886,-0.031190400943160057,0.0011931757908314466,0.0,0.0,0.0,0.0,0.0025514180306345224,-0.0011946588056162,0.0004432995629031211,0.9993345141410828,0.0,0.0,0.0,17.33139419555664,8.020946502685547,8.236334800720215,-3137.0166015625,0
118.61799999999857,0.02978385053575039,-0.031229635700583458,0.0011987582547590137,0.0,0.0,0.0,0.0,-0.0026682743337005377,-0.0008786573307588696,0.0018599564209580421,0.9994602799415588,0.0,0.0,0.0,17.321001052856445,8.011516571044922,8.219490051269531,-3135.1357421875,0
128.49399999999878,0.029801566153764725,-0.031204430386424065,0.0011889084707945585,0.0,0.0,0.0,0.0,-0.000374638446373865,0.0007851691916584969,-0.0023593828082084656,0.9983720779418945,0.0,0.0,0.0,17.334840774536133,8.016386985778809,8.224234580993652,-3137.640625,0
138.3859999999986,0.02978849783539772,-0.03125843405723572,0.0011975927045568824,0.0,0.0,0.0,0.0,-0.001403497182764113,-0.005478231701999903,0.0020841280929744244,0.9992114305496216,0.0,0.0,0.0,17.32270622253418,8.006847381591797,8.211421966552734,-3135.4443359375,0
148.2689999999984,0.029804358258843422,-0.03127307444810867,0.0011685765348374844,0.0,0.0,0.0,0.0,0.0030119603034108877,0.0008213507244363427,0.001301378826610744,1.0006645917892456,0.0,0.0,0.0,17.337678909301758,8.001357078552246,8.217733383178711,-3138.154296875,0
158.15499999999884,0.029779136180877686,-0.03127240017056465,0.0011945677688345313,0.0,0.0,0.0,0.0,-0.00039436930092051625,-0.003391771577298641,3.2955069855233887e-06,0.997314453125,0.0,0.0,0.0,17.328336715698242,7.99352502822876,8.20233154296875,-3136.46337890625,0
168.03799999999865,0.02984459139406681,-0.031193887814879417,0.0011362030636519194,0.0,0.0,0.0,0.0,0.0021542019676417112,0.0024416581727564335,-0.00013257221144158393,0.9993581175804138,0.0,0.0,0.0,17.341310501098633,7.99696159362793,8.22130012512207,-3138.811767578125,0
177.92599999999948,0.02981598488986492,-0.03123331442475319,0.0011384055251255631,0.0,0.0,0.0,0.0,-0.0017002366948872805,-0.010014031082391739,0.002340268576517701,0.9992687106132507,0.0,0.0,0.0,17.33368682861328,7.984137058258057,8.207130432128906,-3137.431884765625,0
187.79899999999907,0.029861411079764366,-0.031177015975117683,0.0010937901679426432,0.0,0.0,0.0,0.0,0.0017665352206677198,0.00142679363489151,0.0014783975202590227,1.0008220672607422,0.0,0.0,0.0,17.345012664794922,7.991308689117432,8.232187271118164,-3139.481689453125,0
197.6909999999989,0.029848884791135788,-0.031221266835927963,0.0010907173855230212,0.0,0.0,0.0,0.0,-0.002835263265296817,-0.0008272076956927776,0.0021599745377898216,1.0005967617034912,0.0,0.0,0.0,17.336612701416016,7.9835920333862305,8.218674659729004,-3137.96142578125,0
207.5659999999989,0.02990344911813736,-0.031153643503785133,0.0010370704112574458,0.0,0.0,0.0,0.0,0.002232689643278718,-0.0051976400427520275,-0.002039780607447028,0.9992955923080444,0.0,0.0,0.0,17.343780517578125,7.992829322814941,8.230639457702637,-3139.2587890625,0
217.46999999999935,0.029919303953647614,-0.031168071553111076,0.001054923515766859,0.0,0.0,0.0,0.0,-0.00185279396828264,0.0012859143316745758,0.001824121456593275,0.9981176853179932,0.0,0.0,0.0,17.33536148071289,7.978988170623779,8.238268852233887,-3137.735107421875,0
227.34299999999894,0.029885778203606606,-0.031184887513518333,0.0010885442607104778,0.0,0.0,0.0,0.0,-0.0011046052677556872,0.001156793674454093,-0.0018032187363132834,0.9999499320983887,0.0,0.0,0.0,17.34569549560547,7.975735664367676,8.232833862304688,-3139.60546875,0
355.84999999999854,0.029776155948638916,-0.03119058907032013,0.0011777749750763178,0.0,0.0,0.0,0.0,0.0012845896417275071,0.004379512742161751,0.0024207273963838816,0.9975290298461914,0.0,0.0,0.0,17.329532623291016,7.9819464683532715,8.220317840576172,-3136.679931640625,0
365.72699999999895,0.029816893860697746,-0.031144889071583748,0.0011343748774379492,0.0,0.0,0.0,0.0,-0.0029672805685549974,-0.0018998263403773308,0.00155334931332618,0.9989936947822571,0.0,0.0,0.0,17.340007781982422,7.978323936462402,8.22864818572998,-3138.575927734375,0
375.6209999999992,0.029812628403306007,-0.03120747208595276,0.0011283198837190866,0.0,0.0,0.0,0.0,-0.0027260002680122852,0.0021537402644753456,0.001741499756462872,1.0000108480453491,0.0,0.0,0.0,17.331287384033203,7.972012042999268,8.22887897491455,-3136.99755859375,0
385.4989999999998,0.029794948175549507,-0.03126028925180435,0.0011247480288147926,0.0,0.0,0.0,0.0,-0.0003371990460436791,0.0036754983011633158,0.0015864406013861299,0.9990615248680115,0.0,0.0,0.0,17.31434440612793,7.967850685119629,8.222448348999023,-3133.9306640625,0
395.3919999999998,0.029798805713653564,-0.03128010407090187,0.0011383290402591228,0.0,0.0,0.0,0.0,-0.0009344453574158251,-0.0005373671883717179,0.0004703204322140664,0.999883234500885,0.0,0.0,0.0,17.309123992919922,7.968327522277832,8.211925506591797,-3132.98583984375,0
405.2779999999984,0.029821060597896576,-0.031225373968482018,0.0011248267255723476,0.0,0.0,0.0,0.0,-0.000477327877888456,0.006384834181517363,-0.0008496899390593171,0.9998342394828796,0.0,0.0,0.0,17.317848205566406,7.9890594482421875,8.220212936401367,-3134.56494140625,0
415.16899999999987,0.029821328818798065,-0.03125216066837311,0.0011388784041628242,0.0,0.0,0.0,0.0,0.00216405326500535,-0.006005098577588797,-0.0007324495818465948,0.9995996952056885,0.0,0.0,0.0,17.310352325439453,7.984948635101318,8.20260238647461,-3133.208251953125,0
425.03600000000006,0.029825810343027115,-0.03127117455005646,0.0011233366094529629,0.0,0.0,0.0,0.0,0.0009891672525554895,-0.0017466136487200856,-0.003213172545656562,1.0014501810073853,0.0,0.0,0.0,17.320026397705078,7.97711706161499,8.214640617370605,-3134.959228515625,0
434.9339999999993,0.02981044165790081,-0.031280290335416794,0.0011454591294750571,0.0,0.0,0.0,0.0,-0.002079284517094493,-0.0008410713635385036,-0.0017490312457084656,1.000239372253418,0.0,0.0,0.0,17.312915802001953,7.975966453552246,8.21196460723877,-3133.672119140625,0
444.8049999999985,0.029831089079380035,-0.031236957758665085,0.0011418316280469298,0.0,0.0,0.0,0.0,0.00011511794582474977,-0.004703960847109556,0.003853805596008897,0.9988323450088501,0.0,0.0,0.0,17.31989288330078,7.985990524291992,8.221578598022461,-3134.935302734375,0
454.7069999999985,0.029874665662646294,-0.03132130950689316,0.0011549806222319603,0.0,0.0,0.0,0.0,0.0011045315768569708,0.004536026157438755,0.00154217891395092,1.0021111965179443,0.0,0.0,0.0,17.311559677124023,7.9716315269470215,8.227583885192871,-3133.4267578125,0
464.5769999999993,0.02992582693696022,-0.031250182539224625,0.001128768315538764,0.0,0.0,0.0,0.0,0.0007257263641804457,-0.0004734164976980537,-0.0010556818451732397,1.0021822452545166,0.0,0.0,0.0,17.31961441040039,7.981179714202881,8.226985931396484,-3134.884765625,0
474.48299999999836,0.029915809631347656,-0.03129780292510986,0.0011391694424673915,0.0,0.0,0.0,0.0,0.0021647713147103786,-0.005450173281133175,0.00440738582983613,0.9997192621231079,0.0,0.0,0.0,17.308595657348633,7.975715637207031,8.215343475341797,-3132.890380859375,0
484.34699999999975,0.029925253242254257,-0.03126484528183937,0.0011544623412191868,0.0,0.0,0.0,0.0,2.8364478566800244e-05,0.00038200299604795873,0.0004910295247100294,0.9988930821418762,0.0,0.0,0.0,17.319499969482422,7.976757526397705,8.23109245300293,-3134.864013671875,0
494.241,0.029880594462156296,-0.03127223253250122,0.0011745382798835635,0.0,0.0,0.0,0.0,0.001149506657384336,0.0012559073511511087,0.0007041345816105604,0.9986283779144287,0.0,0.0,0.0,17.310829162597656,7.984508514404297,8.229217529296875,-3133.29443359375,0
504.1149999999998,0.029871132224798203,-0.031295523047447205,0.0011882680701091886,0.0,0.0,0.0,0.0,9.499086445430294e-05,0.0028005691710859537,-0.0012796166120097041,0.9995773434638977,0.0,0.0,0.0,17.315271377563477,7.976399898529053,8.229146003723145,-3134.0986328125,0
514.0099999999984,0.02981354482471943,-0.031352449208498,0.0011874338379129767,0.0,0.0,0.0,0.0,0.0010506639955565333,-0.0025608621072024107,0.0011853798059746623,0.9995071887969971,0.0,0.0,0.0,17.307605743408203,7.968635559082031,8.216388702392578,-3132.711181640625,0
523.884,0.029807178303599358,-0.03136035427451134,0.0012016254477202892,0.0,0.0,0.0,0.0,-0.0010782162426039577,-0.0018674845341593027,0.0009322632104158401,1.0009154081344604,0.0,0.0,0.0,17.309720993041992,7.968701362609863,8.218440055847168,-3133.09423828125,0
533.777,0.029759487137198448,-0.03135993331670761,0.0012342117261141539,0.0,0.0,0.0,0.0,0.003171698423102498,-0.0014980343403294683,0.0005098526598885655,1.0020867586135864,0.0,0.0,0.0,17.30367660522461,7.9768147468566895,8.223736763000488,-3132.0,0
543.6639999999989,0.029830781742930412,-0.03129909932613373,0.0011767962714657187,0.0,0.0,0.0,0.0,0.001878350623883307,-0.0012259185314178467,0.0012857860419899225,1.000996470451355,0.0,0.0,0.0,17.309694290161133,7.973147392272949,8.242612838745117,-3133.089111328125,0
553.5469999999987,0.029780196025967598,-0.03131508454680443,0.0012001653667539358,0.0,0.0,0.0,0.0,-0.00022565330436918885,-0.0008551972568966448,-0.0021122947800904512,0.9999639391899109,0.0,0.0,0.0,17.30329132080078,7.970004558563232,8.234017372131348,-3131.930419921875,0
563.4229999999989,0.029816798865795135,-0.031288307160139084,0.0011747204698622227,0.0,0.0,0.0,0.0,0.0011840031947940588,-0.0019635348580777645,0.002275366336107254,0.9999889731407166,0.0,0.0,0.0,17.311607360839844,7.973508358001709,8.244420051574707,-3133.435546875,0
573.3109999999997,0.02977732941508293,-0.03131885454058647,0.001194207463413477,0.0,0.0,0.0,0.0,0.0006278215441852808,-0.005300833377987146,0.001529649831354618,1.0011461973190308,0.0,0.0,0.0,17.30388832092285,7.969392776489258,8.245370864868164,-3132.0380859375,0
583.1979999999985,0.029840383678674698,-0.03122822195291519,0.0011602493468672037,0.0,0.0,0.0,0.0,0.0011301391059532762,-0.0005707175587303936,0.0028199059888720512,1.0024174451828003,0.0,0.0,0.0,17.311237335205078,7.980463981628418,8.272515296936035,-3133.368408203125,0
593.0789999999997,0.0298395287245512,-0.03123866207897663,0.001200731610879302,0.0,0.0,0.0,0.0,0.0023725468199700117,-0.00012806736049242318,0.0027500055730342865,1.0011405944824219,0.0,0.0,0.0,17.30569839477539,7.980246067047119,8.276592254638672,-3132.365966796875,0
602.9649999999983,0.029884079471230507,-0.031191125512123108,0.0011785035021603107,0.0,0.0,0.0,0.0,-0.00051534129306674,-0.001127542112953961,0.0016262443969026208,0.9993119835853577,0.0,0.0,0.0,17.31720542907715,7.985679626464844,8.287442207336426,-3134.44873046875,0
612.848,0.029818732291460037,-0.03122704103589058,0.001188838854432106,0.0,0.0,0.0,0.0,0.0012248704442754388,-0.009657785296440125,0.0009388511534780264,0.998820960521698,0.0,0.0,0.0,17.30916976928711,7.981343746185303,8.278188705444336,-3132.994384765625,0
622.732,0.029819736257195473,-0.03126082569360733,0.0011853111209347844,0.0,0.0,0.0,0.0,0.0005707214004360139,-0.001487327041104436,-0.0005901142139919102,0.9977714419364929,0.0,0.0,0.0,17.320240020751953,7.97252893447876,8.28870677947998,-3134.997802734375,0
632.6219999999994,0.029781950637698174,-0.03126901015639305,0.001212744740769267,0.0,0.0,0.0,0.0,-0.0002675493014976382,-0.0004932691808789968,0.003448582487180829,0.9985938668251038,0.0,0.0,0.0,17.310773849487305,7.97349214553833,8.278386116027832,-3133.28466796875,0
642.5019999999986,0.02980743534862995,-0.0312701016664505,0.0011888474691659212,0.0,0.0,0.0,0.0,0.0002646945067681372,-0.002617946593090892,0.0008576684631407261,0.997067391872406,0.0,0.0,0.0,17.320585250854492,7.970392227172852,8.277162551879883,-3135.060302734375,0
652.3869999999988,0.029795369133353233,-0.031294532120227814,0.0012122711632400751,0.0,0.0,0.0,0.0,0.0019563150126487017,0.0022055834997445345,-0.001879515708424151,0.998395562171936,0.0,0.0,0.0,17.313941955566406,7.967832088470459,8.278607368469238,-3133.85791015625,0
662.2819999999992,0.029828323051333427,-0.03124552220106125,0.0011947379680350423,0.0,0.0,0.0,0.0,0.001946167554706335,0.00024185999063774943,0.00035758406738750637,0.9972668886184692,0.0,0.0,0.0,17.326053619384766,7.968973159790039,8.272462844848633,-3136.050048828125,0
672.1579999999994,0.029788292944431305,-0.031286824494600296,0.0012024613097310066,0.0,0.0,0.0,0.0,0.003585995174944401,0.0001690732897259295,-0.0018657227046787739,0.9965190291404724,0.0,0.0,0.0,17.31713104248047,7.960492134094238,8.26614761352539,-3134.435302734375,0
682.0439999999999,0.02977491170167923,-0.03131711110472679,0.0012096140999346972,0.0,0.0,0.0,0.0,-0.00034969887929037213,-0.001099054585210979,0.002508640754967928,0.9991152882575989,0.0,0.0,0.0,17.32403564453125,7.951402187347412,8.26069164276123,-3135.68505859375,0
691.9290000000001,0.029752125963568687,-0.03134435787796974,0.0012290638405829668,0.0,0.0,0.0,0.0,0.00022503228683490306,-0.0008317937608808279,0.0005185654736123979,0.9994621872901917,0.0,0.0,0.0,17.312902450561523,7.951333999633789,8.257363319396973,-3133.669921875,0
701.8119999999999,0.029757944867014885,-0.03135191649198532,0.001220876700244844,0.0,0.0,0.0,0.0,-0.0009659593342803419,0.0035281104501336813,0.002337174955755472,1.0002778768539429,0.0,0.0,0.0,17.318584442138672,7.9549055099487305,8.266763687133789,-3134.698486328125,0
711.6989999999987,0.029733242467045784,-0.031361766159534454,0.0012500539887696505,0.0,0.0,0.0,0.0,0.0024160558823496103,9.276243508793414e-05,-0.00033111244556494057,0.9969236850738525,0.0,0.0,0.0,17.310688018798828,7.957211494445801,8.25318431854248,-3133.26904296875,0
721.5879999999997,0.0297497920691967,-0.0313497819006443,0.0012377601815387607,0.0,0.0,0.0,0.0,-0.0008203160832636058,0.0007326140766963363,0.0001347482029814273,0.996979832649231,0.0,0.0,0.0,17.310813903808594,7.951432228088379,8.248835563659668,-3133.291748046875,0
731.4659999999985,0.029736921191215515,-0.03136378526687622,0.0012652857694774866,0.0,0.0,0.0,0.0,-0.0013730754144489765,-0.0009848754853010178,-0.0007145760464482009,0.9981183409690857,0.0,0.0,0.0,17.30351448059082,7.949236869812012,8.24687671661377,-3131.970458984375,0
741.3489999999983,0.02981666661798954,-0.03125094622373581,0.001208872301504016,0.0,0.0,0.0,0.0,0.0008071893244050443,0.000975798990111798,-0.00391552597284317,0.9985913038253784,0.0,0.0,0.0,17.309791564941406,7.96755838394165,8.269290924072266,-3133.106689453125,0
751.2429999999986,0.02978626638650894,-0.0313042551279068,0.001206413027830422,0.0,0.0,0.0,0.0,0.0007124846451915801,-9.619788215786684e-06,0.000517681532073766,1.0003927946090698,0.0,0.0,0.0,17.299358367919922,7.960602283477783,8.26004695892334,-3131.21826171875,0
761.119999999999,0.0297686830163002,-0.03137241676449776,0.0012026652693748474,0.0,0.0,0.0,0.0,-0.0008216294809244573,-0.0018980400636792183,-0.001890651066787541,0.9995882511138916,0.0,0.0,0.0,17.282180786132812,7.954641819000244,8.254000663757324,-3128.109130859375,0
771.0139999999992,0.029756741598248482,-0.031384341418743134,0.0012214392190799117,0.0,0.0,0.0,0.0,-0.0007004845538176596,-0.00696274871006608,0.003813468385487795,0.9977006316184998,0.0,0.0,0.0,17.27252197265625,7.961489677429199,8.252765655517578,-3126.360595703125,0
780.887999999999,0.02984769269824028,-0.031259022653102875,0.001134244492277503,0.0,0.0,0.0,0.0,-0.0008088420727290213,0.0028164053801447153,-0.0028115645982325077,0.9990190863609314,0.0,0.0,0.0,17.28097915649414,7.988553524017334,8.290458679199219,-3127.8916015625,0
790.7799999999988,0.029802314937114716,-0.03128521516919136,0.001132175442762673,0.0,0.0,0.0,0.0,0.0031303081195801497,0.003067214973270893,-0.0016819078009575605,0.998210072517395,0.0,0.0,0.0,17.272666931152344,7.985422134399414,8.282001495361328,-3126.386962890625,0
800.6589999999997,0.029817137867212296,-0.03128952905535698,0.0010982777457684278,0.0,0.0,0.0,0.0,6.192332512000576e-05,0.0028083017095923424,0.00021522802126128227,1.0001224279403687,0.0,0.0,0.0,17.285629272460938,7.978173732757568,8.272851943969727,-3128.733642578125,0
810.5499999999993,0.029784394428133965,-0.03129075467586517,0.0011119720293208957,0.0,0.0,0.0,0.0,0.001415936858393252,0.0008940104744397104,-0.0022102491930127144,1.0013537406921387,0.0,0.0,0.0,17.278181076049805,7.980018138885498,8.260360717773438,-3127.38525390625,0
820.4259999999995,0.029828500002622604,-0.031214330345392227,0.0010752181988209486,0.0,0.0,0.0,0.0,-0.0016874641878530383,-0.0029636751860380173,0.0013910597190260887,0.9985888600349426,0.0,0.0,0.0,17.285240173339844,7.981431484222412,8.259505271911621,-3128.6630859375,0
830.3109999999997,0.029805973172187805,-0.031224120408296585,0.0010848306119441986,0.0,0.0,0.0,0.0,0.00120223977137357,0.0035132926423102617,0.0012352017220109701,1.001447081565857,0.0,0.0,0.0,17.276639938354492,7.988158226013184,8.261239051818848,-3127.106201171875,0
840.2009999999991,0.02979733608663082,-0.0312536247074604,0.0010745787294581532,0.0,0.0,0.0,0.0,0.00030452219652943313,-0.0032900951337069273,0.0010767015628516674,1.0011221170425415,0.0,0.0,0.0,17.288848876953125,7.982338905334473,8.257111549377441,-3129.316162109375,0
850.0809999999983,0.029798179864883423,-0.031235767528414726,0.0011061405530199409,0.0,0.0,0.0,0.0,0.0021570061799138784,-0.004646950867027044,-0.0009785699658095837,1.001217246055603,0.0,0.0,0.0,17.28207015991211,7.982285976409912,8.268237113952637,-3128.08935546875,0
859.9719999999998,0.029805094003677368,-0.031209571287035942,0.0011053223861381412,0.0,0.0,0.0,0.0,-0.00024930041399784386,-0.0032578730024397373,0.0017309016548097134,1.0004349946975708,0.0,0.0,0.0,17.28829002380371,7.980166912078857,8.282133102416992,-3129.21484375,0
869.8499999999985,0.029817352071404457,-0.031263381242752075,0.001117361942306161,0.0,0.0,0.0,0.0,0.0007344285841099918,0.0029320516623556614,0.0012744385749101639,0.9983736276626587,0.0,0.0,0.0,17.279762268066406,7.97304630279541,8.283318519592285,-3127.67138671875,0
879.7349999999988,0.029802361503243446,-0.03128078952431679,0.001135040889494121,0.0,0.0,0.0,0.0,0.0006403798470273614,-0.004555085673928261,0.0007473816513083875,1.0006585121154785,0.0,0.0,0.0,17.283843994140625,7.967486381530762,8.271292686462402,-3128.410400390625,0
889.6269999999986,0.02982153370976448,-0.031286291778087616,0.0011747535318136215,0.0,0.0,0.0,0.0,0.000899984675925225,0.00577508145943284,5.68962495890446e-05,1.0007303953170776,0.0,0.0,0.0,17.27670669555664,7.962491035461426,8.283108711242676,-3127.1181640625,0
899.5069999999996,0.029804736375808716,-0.03131268545985222,0.0011937083909288049,0.0,0.0,0.0,0.0,-4.5289059926290065e-05,0.0038723717443645,-0.0008034239872358739,0.9998307228088379,0.0,0.0,0.0,17.285669326782227,7.955990791320801,8.26785945892334,-3128.74072265625,0
909.3919999999998,0.02983035333454609,-0.031355924904346466,0.00122788455337286,0.0,0.0,0.0,0.0,-0.0009825904853641987,-0.0008077227976173162,-0.0017397397896274924,0.9956246614456177,0.0,0.0,0.0,17.278749465942383,7.945148944854736,8.25382137298584,-3127.488037109375,0
919.2829999999994,0.029881704598665237,-0.03131408989429474,0.001192005118355155,0.0,0.0,0.0,0.0,0.0007664025761187077,-0.005775586701929569,0.004562687128782272,0.996690034866333,0.0,0.0,0.0,17.281631469726562,7.9571051597595215,8.257970809936523,-3128.009765625,0
929.1629999999986,0.029855217784643173,-0.03129982575774193,0.0012240615906193852,0.0,0.0,0.0,0.0,0.002773482818156481,0.0019094821764156222,-0.002961000194773078,0.9968369603157043,0.0,0.0,0.0,17.27522087097168,7.9637298583984375,8.266847610473633,-3126.849609375,0
939.0439999999999,0.029908690601587296,-0.031231647357344627,0.0011892694747075438,0.0,0.0,0.0,0.0,-0.0010908434633165598,-0.0029356570448726416,0.0004237777029629797,0.9979133009910583,0.0,0.0,0.0,17.284015655517578,7.966841220855713,8.274737358093262,-3128.44140625,0
948.9319999999989,0.029892252758145332,-0.03128602355718613,0.001191017567180097,0.0,0.0,0.0,0.0,0.0002477903908584267,-0.0022865706123411655,0.0007557280478067696,0.9998003840446472,0.0,0.0,0.0,17.27619743347168,7.958293914794922,8.270970344543457,-3127.0263671875,0
958.8130000000001,0.029895279556512833,-0.03130175545811653,0.0011810723226517439,0.0,0.0,0.0,0.0,0.0011539674596861005,-0.006347650662064552,0.0006057171267457306,1.000468134880066,0.0,0.0,0.0,17.284210205078125,7.952973365783691,8.269526481628418,-3128.4765625,0
968.7049999999999,0.029874330386519432,-0.03132879361510277,0.0011936239898204803,0.0,0.0,0.0,0.0,2.8593226488737855e-06,-0.002111534820869565,0.0004984674160368741,1.0009921789169312,0.0,0.0,0.0,17.277061462402344,7.9451799392700195,8.267231941223145,-3127.1826171875,0
978.5839999999989,0.029929185286164284,-0.031247509643435478,0.0011605813633650541,0.0,0.0,0.0,0.0,-0.000628196110483259,0.0009241780498996377,0.0022128610871732235,1.0011801719665527,0.0,0.0,0.0,17.28567886352539,7.951726913452148,8.277798652648926,-3128.742431640625,0
988.473,0.029847901314496994,-0.0312613882124424,0.0011567942565307021,0.0,0.0,0.0,0.0,0.0003478950820863247,-0.0056342557072639465,0.00348423863761127,1.0004323720932007,0.0,0.0,0.0,17.277652740478516,7.95944356918335,8.265427589416504,-3127.289794921875,0
998.3529999999992,0.0298842154443264,-0.03120461292564869,0.0011359457857906818,0.0,0.0,0.0,0.0,0.0010904307710006833,-0.003985189832746983,0.0024533546529710293,0.9991453886032104,0.0,0.0,0.0,17.286832809448242,7.968461990356445,8.288799285888672,-3128.951171875,0
1008.2459999999992,0.029818955808877945,-0.03124205581843853,0.0011304339859634638,0.0,0.0,0.0,0.0,0.0008452659239992499,-0.0026511969044804573,0.00012348065502010286,1.0002014636993408,0.0,0.0,0.0,17.276887893676758,7.966472625732422,8.287100791931152,-3127.151123046875,0
1018.1219999999994,0.02982904203236103,-0.031213926151394844,0.0011299445759505033,0.0,0.0,0.0,0.0,-0.00030703441007062793,0.0010809020604938269,0.001966523239389062,0.9998061060905457,0.0,0.0,0.0,17.287166595458984,7.970795154571533,8.29002571105957,-3129.011474609375,0
1028.0069999999996,0.029804028570652008,-0.031231746077537537,0.0011439535301178694,0.0,0.0,0.0,0.0,-0.0005597460549324751,0.003537700977176428,0.002156452741473913,0.9986749291419983,0.0,0.0,0.0,17.279842376708984,7.971499919891357,8.281213760375977,-3127.685791015625,0
1037.8949999999986,0.02985288016498089,-0.03116738051176071,0.0011030406458303332,0.0,0.0,0.0,0.0,0.0020937661174684763,0.00115337991155684,0.0027256489265710115,1.0018048286437988,0.0,0.0,0.0,17.28768539428711,7.98113489151001,8.277595520019531,-3129.105712890625,0
1047.7849999999999,0.02982291392982006,-0.031227249652147293,0.0010983605170622468,0.0,0.0,0.0,0.0,-0.0017660974990576506,-0.00012236449401825666,-0.0004926271503791213,1.002045750617981,0.0,0.0,0.0,17.281265258789062,7.9716081619262695,8.273869514465332,-3127.943359375,0
1057.6659999999993,0.029845792800188065,-0.031195029616355896,0.0010779727017506957,0.0,0.0,0.0,0.0,-0.0018119856249541044,0.0027915879618376493,0.0019070892594754696,0.9987258315086365,0.0,0.0,0.0,17.289892196655273,7.981368541717529,8.287984848022461,-3129.504638671875,0
1067.5469999999987,0.029827484861016273,-0.03123936988413334,0.0010853203712031245,0.0,0.0,0.0,0.0,-0.0027238696347922087,-0.007707685697823763,-0.0011948762694373727,1.000819444656372,0.0,0.0,0.0,17.279062271118164,7.982717037200928,8.282285690307617,-3127.54443359375,0
1077.4339999999993,0.029851045459508896,-0.031189780682325363,0.0010740538127720356,0.0,0.0,0.0,0.0,0.00011962857388425618,-2.771471736195963e-05,-0.0013995231129229069,1.0030755996704102,0.0,0.0,0.0,17.287368774414062,7.991094589233398,8.298943519592285,-3129.048095703125,0
1087.316999999999,0.029869966208934784,-0.03121245838701725,0.0011051286710426211,0.0,0.0,0.0,0.0,-0.0001421385386493057,-0.0006590936100110412,-0.0033593792468309402,1.0014326572418213,0.0,0.0,0.0,17.279922485351562,7.984578609466553,8.295507431030273,-3127.700439453125,0
1097.200999999999,0.029917357489466667,-0.031168628484010696,0.001070395577698946,0.0,0.0,0.0,0.0,-0.003103137481957674,-0.006267324090003967,0.0018817081581801176,0.997641384601593,0.0,0.0,0.0,17.29047393798828,7.985104084014893,8.303504943847656,-3129.6103515625,0
1107.0869999999995,0.02984691970050335,-0.031201157718896866,0.0010701215360313654,0.0,0.0,0.0,0.0,0.00029083009576424956,-0.0005323751829564571,0.0016990647418424487,0.9976459741592407,0.0,0.0,0.0,17.283796310424805,7.987917900085449,8.30810260772705,-3128.401611328125,0
1116.9719999999998,0.029828768223524094,-0.03126097843050957,0.0010747869964689016,0.0,0.0,0.0,0.0,-0.0009613764123059809,-0.0006661511724814773,0.00036478909896686673,1.0000420808792114,0.0,0.0,0.0,17.267244338989258,7.979247570037842,8.30381965637207,-3125.405517578125,0
1126.8559999999998,0.02981521189212799,-0.03129355236887932,0.0010908176191151142,0.0,0.0,0.0,0.0,0.003432254306972027,-0.0005447916919365525,0.0010199389653280377,0.9992542266845703,0.0,0.0,0.0,17.25995635986328,7.9793877601623535,8.301586151123047,-3124.08642578125,0
1136.7419999999984,0.029856199398636818,-0.031225241720676422,0.0010607538279145956,0.0,0.0,0.0,0.0,0.001387472148053348,-0.001853186171501875,0.0019410626264289021,1.0001298189163208,0.0,0.0,0.0,17.270475387573242,7.989441394805908,8.314034461975098,-3125.990234375,0
1146.625,0.029873434454202652,-0.03123955987393856,0.001094304141588509,0.0,0.0,0.0,0.0,0.00046999799087643623,-0.0022677050437778234,-0.0018856968963518739,0.9981236457824707,0.0,0.0,0.0,17.26406478881836,7.984900951385498,8.315781593322754,-3124.830078125,0
1156.5109999999986,0.029891444370150566,-0.031210007146000862,0.0010894217994064093,0.0,0.0,0.0,0.0,0.002929943148046732,0.002653528703376651,0.002362260827794671,0.9956637620925903,0.0,0.0,0.0,17.26883316040039,7.983814239501953,8.324857711791992,-3125.693115234375,0
1166.3949999999986,0.029894601553678513,-0.0312233604490757,0.0011178082786500454,0.0,0.0,0.0,0.0,-0.0011056555667892098,-0.004731569904834032,0.0020474751945585012,0.9974489808082581,0.0,0.0,0.0,17.262075424194336,7.976068496704102,8.306262016296387,-3124.469970703125,0
1176.280999999999,0.02991589903831482,-0.031207049265503883,0.0011034285416826606,0.0,0.0,0.0,0.0,-0.004595926497131586,0.0011282614432275295,-0.0004233783984091133,0.9978973865509033,0.0,0.0,0.0,17.26927375793457,7.975099563598633,8.314395904541016,-3125.77294921875,0
1186.173999999999,0.02989743836224079,-0.031276408582925797,0.001095841871574521,0.0,0.0,0.0,0.0,0.0005443940171971917,0.0005899517564103007,-0.0014543145662173629,0.9991293549537659,0.0,0.0,0.0,17.26372718811035,7.972349643707275,8.308385848999023,-3124.768798828125,0
1196.048999999999,0.029892627149820328,-0.03126155212521553,0.0011120192939415574,0.0,0.0,0.0,0.0,0.0021118230652064085,-0.002373537514358759,-0.001412420067936182,0.9982008337974548,0.0,0.0,0.0,17.27315330505371,7.968502998352051,8.308324813842773,-3126.47509765625,0
1205.9399999999987,0.029850326478481293,-0.031314916908741,0.0011063138954341412,0.0,0.0,0.0,0.0,0.0007176195504143834,0.00011699014430632815,0.0039738998748362064,0.9997279047966003,0.0,0.0,0.0,17.266746520996094,7.959802627563477,8.305564880371094,-3125.3154296875,0
1215.825999999999,0.029884830117225647,-0.031287916004657745,0.0010722051374614239,0.0,0.0,0.0,0.0,0.0037965879309922457,0.0016715812962502241,-0.0008937845705077052,1.0002789497375488,0.0,0.0,0.0,17.27469825744629,7.958039283752441,8.304444313049316,-3126.7548828125,0
1225.7059999999983,0.029881173744797707,-0.031315453350543976,0.0010876975720748305,0.0,0.0,0.0,0.0,0.001661247806623578,-0.004385987762361765,0.0025042397901415825,0.9987845420837402,0.0,0.0,0.0,17.26754379272461,7.94374418258667,8.296454429626465,-3125.459716796875,0
1235.6009999999987,0.029928624629974365,-0.031244313344359398,0.0010600965470075607,0.0,0.0,0.0,0.0,-0.0020187774207443,-0.006158606614917517,0.003694248851388693,0.999951183795929,0.0,0.0,0.0,17.275495529174805,7.954084396362305,8.315218925476074,-3126.899169921875,0
1245.4759999999987,0.029896797612309456,-0.031236639246344566,0.0010766296181827784,0.0,0.0,0.0,0.0,0.004264262970536947,-0.00020149398187641054,-0.0010883926879614592,1.0005605220794678,0.0,0.0,0.0,17.268903732299805,7.959949016571045,8.326549530029297,-3125.705810546875,0
1255.3599999999988,0.02988923154771328,-0.03122679889202118,0.001099907560274005,0.0,0.0,0.0,0.0,0.001649436424486339,-0.0010686125606298447,0.0010934838792309165,0.9988359212875366,0.0,0.0,0.0,17.27489471435547,7.950146675109863,8.326834678649902,-3126.79052734375,0
1265.2439999999988,0.029879167675971985,-0.031243430450558662,0.0011194184189662337,0.0,0.0,0.0,0.0,0.0004265850002411753,-0.00504177063703537,-0.003040157025679946,0.9984645247459412,0.0,0.0,0.0,17.26552963256836,7.947784900665283,8.325279235839844,-3125.09521484375,0
1275.137999999999,0.02986571379005909,-0.03128382936120033,0.0011263214983046055,0.0,0.0,0.0,0.0,0.0008604394970461726,-0.002136796712875366,0.0013599928934127092,0.9977731108665466,0.0,0.0,0.0,17.275371551513672,7.943032264709473,8.334400177001953,-3126.876953125,0
1285.0159999999996,0.029804743826389313,-0.031269557774066925,0.001144798588939011,0.0,0.0,0.0,0.0,0.0010560683440417051,0.0022035560104995966,0.0031245164573192596,0.9990679025650024,0.0,0.0,0.0,17.267807006835938,7.9500837326049805,8.324563980102539,-3125.507568359375,0
1294.8999999999996,0.02981240674853325,-0.031282830983400345,0.0011314302682876587,0.0,0.0,0.0,0.0,4.900271233054809e-05,0.005688205361366272,0.00036254237056709826,0.9990593791007996,0.0,0.0,0.0,17.27810287475586,7.942737102508545,8.310443878173828,-3127.37109375,0
1304.7839999999997,0.02978629618883133,-0.031310658901929855,0.0011473101330921054,0.0,0.0,0.0,0.0,-0.0006753688212484121,-0.0030461701098829508,-0.00046013540122658014,0.9997758865356445,0.0,0.0,0.0,17.270586013793945,7.936738967895508,8.287422180175781,-3126.010498046875,0
1314.6669999999995,0.029809730127453804,-0.03125595301389694,0.0011421659728512168,0.0,0.0,0.0,0.0,0.0019652200862765312,0.00013034895528107882,0.0006304829730652273,0.9999558329582214,0.0,0.0,0.0,17.277591705322266,7.943029403686523,8.295825958251953,-3127.27880859375,0
1324.5529999999999,0.02978755347430706,-0.03125731647014618,0.0011667601065710187,0.0,0.0,0.0,0.0,-0.0018307496793568134,0.0016017947345972061,0.0011034214403480291,1.0002577304840088,0.0,0.0,0.0,17.270811080932617,7.938185214996338,8.289153099060059,-3126.051025390625,0
1334.446,0.029799552634358406,-0.0312773622572422,0.0011457976652309299,0.0,0.0,0.0,0.0,0.0002371123991906643,0.0007578626391477883,0.002235907129943371,1.0005180835723877,0.0,0.0,0.0,17.280927658081055,7.936097621917725,8.285080909729004,-3127.882568359375,0
1344.3239999999987,0.029759366065263748,-0.03127877786755562,0.0011711354600265622,0.0,0.0,0.0,0.0,-0.0005010783788748085,0.0014262814074754715,0.0005908564198762178,0.9995650053024292,0.0,0.0,0.0,17.269432067871094,7.9363322257995605,8.272594451904297,-3125.801513671875,0
1354.2099999999991,0.029792597517371178,-0.03122185356914997,0.001157540362328291,0.0,0.0,0.0,0.0,-0.0011597108095884323,0.002652533119544387,0.0022211738396435976,0.999602735042572,0.0,0.0,0.0,17.276830673217773,7.943111896514893,8.274904251098633,-3127.140869140625,0
1364.1009999999987,0.029761437326669693,-0.03123495914041996,0.0011800752254202962,0.0,0.0,0.0,0.0,0.0010445520747452974,-0.0009109154925681651,-0.00014779673074372113,0.9974850416183472,0.0,0.0,0.0,17.266353607177734,7.947498321533203,8.263664245605469,-3125.244384765625,0
1373.9789999999994,0.02978091686964035,-0.031199803575873375,0.001176186720840633,0.0,0.0,0.0,0.0,0.0003010499640367925,-0.0001851136184995994,-0.0009994929423555732,0.9984414577484131,0.0,0.0,0.0,17.27428436279297,7.952230930328369,8.267678260803223,-3126.679931640625,0
1383.8729999999996,0.029791126027703285,-0.031230399385094643,0.0011997440597042441,0.0,0.0,0.0,0.0,-0.0004513645835686475,-0.00015413996879942715,0.0006794994114898145,0.9984325766563416,0.0,0.0,0.0,17.266746520996094,7.947064399719238,8.269655227661133,-3125.3154296875,0
1393.7469999999994,0.029811428859829903,-0.031203601509332657,0.0011941194534301758,0.0,0.0,0.0,0.0,0.0005707510281354189,0.0007828728412277997,-0.0011566495522856712,0.998813271522522,0.0,0.0,0.0,17.273889541625977,7.955418586730957,8.276104927062988,-3126.6083984375,0
1403.6329999999998,0.029795847833156586,-0.0312365535646677,0.001209138659760356,0.0,0.0,0.0,0.0,0.0012096858117729425,-0.004045659676194191,-0.0017985637532547116,1.0013474225997925,0.0,0.0,0.0,17.264848709106445,7.952727794647217,8.265599250793457,-3124.971923828125,0
1413.5169999999998,0.02985541895031929,-0.0311789121478796,0.0011596947442740202,0.0,0.0,0.0,0.0,-0.0009416771354153752,-0.009171473793685436,-0.0004086758417543024,0.9981069564819336,0.0,0.0,0.0,17.269859313964844,7.960986137390137,8.288114547729492,-3125.87890625,0
1423.4009999999998,0.029880130663514137,-0.03126528114080429,0.001166736357845366,0.0,0.0,0.0,0.0,0.004235264379531145,0.0013287534238770604,-0.0004561414534691721,0.9960474371910095,0.0,0.0,0.0,17.264772415161133,7.946718215942383,8.310468673706055,-3124.9580078125,0
1433.2889999999989,0.02989610657095909,-0.031237119808793068,0.0011664587073028088,0.0,0.0,0.0,0.0,-0.0023321500048041344,0.0034988271072506905,0.0024176270235329866,0.9976504445075989,0.0,0.0,0.0,17.270875930786133,7.941085338592529,8.300484657287598,-3126.062744140625,0
1443.1709999999985,0.02990315854549408,-0.03130754828453064,0.0011669346131384373,0.0,0.0,0.0,0.0,0.0016289778286591172,0.0018053553067147732,-0.001335526118054986,1.000219702720642,0.0,0.0,0.0,17.26422691345215,7.933720588684082,8.290610313415527,-3124.859375,0
1453.063,0.029920192435383797,-0.031273677945137024,0.001165613066405058,0.0,0.0,0.0,0.0,0.002815344138070941,0.00027014725492335856,0.003743260633200407,0.9987968802452087,0.0,0.0,0.0,17.275535583496094,7.933689117431641,8.289663314819336,-3126.906494140625,0
1462.940999999999,0.02989093028008938,-0.03131398558616638,0.0011714488500729203,0.0,0.0,0.0,0.0,0.0003973255807068199,-0.0015463440213352442,0.0016737328842282295,1.0002427101135254,0.0,0.0,0.0,17.269804000854492,7.921811580657959,8.280500411987305,-3125.86865234375,0
1472.824999999999,0.029908420518040657,-0.0312834233045578,0.0011685184435918927,0.0,0.0,0.0,0.0,0.0006962470361031592,0.0001170426476164721,0.0005430534365586936,0.998682975769043,0.0,0.0,0.0,17.280656814575195,7.926421642303467,8.284788131713867,-3127.833251953125,0
1482.7099999999991,0.029800867661833763,-0.031289372593164444,0.001166763249784708,0.0,0.0,0.0,0.0,-0.0010758884018287063,0.0005179888103157282,-0.001138681429438293,0.9981300234794617,0.0,0.0,0.0,17.2742977142334,7.931522369384766,8.26521110534668,-3126.682373046875,0
1492.5989999999983,0.02978507988154888,-0.03131383657455444,0.001180510618723929,0.0,0.0,0.0,0.0,-0.002168361796066165,-0.004705253057181835,0.006429235450923443,1.0007940530776978,0.0,0.0,0.0,17.280183792114258,7.931490421295166,8.249236106872559,-3127.747802734375,0
1502.4809999999998,0.02982342429459095,-0.03135985508561134,0.0012101985048502684,0.0,0.0,0.0,0.0,0.0010303924791514874,-0.0007415662985295057,-0.0001920070790220052,1.0004677772521973,0.0,0.0,0.0,17.27571678161621,7.927676200866699,8.261763572692871,-3126.939453125,0
1512.3689999999988,0.029857689514756203,-0.03134118765592575,0.0011830708244815469,0.0,0.0,0.0,0.0,-0.0011790781281888485,0.0026367120444774628,-0.0005608304054476321,1.000508189201355,0.0,0.0,0.0,17.284618377685547,7.929203033447266,8.269740104675293,-3128.55029296875,0
1522.2529999999988,0.02977295033633709,-0.031334780156612396,0.0011982704745605588,0.0,0.0,0.0,0.0,0.0019497995963320136,-0.0008655989076942205,0.002527613192796707,1.0034621953964233,0.0,0.0,0.0,17.276288986206055,7.93826150894165,8.24200439453125,-3127.04296875,0
1532.134,0.02980971522629261,-0.03131961449980736,0.0011656363494694233,0.0,0.0,0.0,0.0,0.0002940674021374434,-0.00505430530756712,-0.0012357051018625498,1.0000125169754028,0.0,0.0,0.0,17.28338623046875,7.9365949630737305,8.244566917419434,-3128.3271484375,0
1542.0189999999984,0.02977081388235092,-0.03133726119995117,0.001187878311611712,0.0,0.0,0.0,0.0,-0.0010369311785325408,0.00037255798815749586,0.0020139580592513084,0.9981077313423157,0.0,0.0,0.0,17.272737503051758,7.934334754943848,8.238859176635742,-3126.399658203125,0
1551.9049999999988,0.029836323112249374,-0.031247984617948532,0.001151924254372716,0.0,0.0,0.0,0.0,0.0005420218803919852,-0.006045629270374775,0.0010881181806325912,0.9995512962341309,0.0,0.0,0.0,17.28179168701172,7.946878910064697,8.244362831115723,-3128.038818359375,0
1561.7889999999989,0.029841797426342964,-0.03124118782579899,0.0011891538742929697,0.0,0.0,0.0,0.0,-9.031500667333603e-06,-0.0010564654367044568,0.001782660256139934,0.9997126460075378,0.0,0.0,0.0,17.27423095703125,7.953805923461914,8.25374984741211,-3126.67041015625,0
1571.6729999999989,0.029889129102230072,-0.031199632212519646,0.0011601382866501808,0.0,0.0,0.0,0.0,0.0013874152209609747,-0.00041131553007289767,0.0010125109693035483,0.9986847043037415,0.0,0.0,0.0,17.286483764648438,7.956083297729492,8.270936012268066,-3128.887939453125,0
1581.5589999999993,0.029799237847328186,-0.031214147806167603,0.0011589780915528536,0.0,0.0,0.0,0.0,0.0007170870085246861,0.0014949534088373184,0.0028007349465042353,0.9977916479110718,0.0,0.0,0.0,17.275375366210938,7.958627700805664,8.260371208190918,-3126.877685546875,0
1591.4479999999985,0.02982097491621971,-0.031190050765872,0.001153129618614912,0.0,0.0,0.0,0.0,0.00014350020501296967,0.004377571400254965,-0.001756306504830718,1.0000896453857422,0.0,0.0,0.0,17.283428192138672,7.958832740783691,8.2661771774292,-3128.335205078125,0
1601.3349999999991,0.029763884842395782,-0.03120570257306099,0.001161559484899044,0.0,0.0,0.0,0.0,0.004547622054815292,0.0016289146151393652,0.00015531016106251627,0.9983438849449158,0.0,0.0,0.0,17.27263641357422,7.960343837738037,8.25245475769043,-3126.381103515625,0
1611.2149999999983,0.029809268191456795,-0.03116597607731819,0.0011262590996921062,0.0,0.0,0.0,0.0,3.059140726691112e-05,-0.0033660968765616417,3.85523890145123e-05,0.9991301894187927,0.0,0.0,0.0,17.28293800354004,7.9548234939575195,8.254329681396484,-3128.24609375,0
1621.101999999999,0.029792742803692818,-0.03118623048067093,0.0011391699081286788,0.0,0.0,0.0,0.0,-1.2935325685248245e-05,-0.005217541009187698,0.0014765399973839521,0.9990164041519165,0.0,0.0,0.0,17.27549171447754,7.955702781677246,8.247636795043945,-3126.8984375,0
1630.9839999999986,0.029797999188303947,-0.031230326741933823,0.0011210968950763345,0.0,0.0,0.0,0.0,0.00010895080049522221,-0.007885913364589214,0.0008710579131729901,0.9982174634933472,0.0,0.0,0.0,17.283004760742188,7.9510111808776855,8.253837585449219,-3128.25830078125,0
1640.8799999999992,0.029812095686793327,-0.03126496449112892,0.0011403152020648122,0.0,0.0,0.0,0.0,0.0010942770168185234,0.001954327803105116,0.00022961400100030005,0.9979428052902222,0.0,0.0,0.0,17.277782440185547,7.949768543243408,8.275224685668945,-3127.31298828125,0
1650.7529999999988,0.029829861596226692,-0.031285353004932404,0.00111743516754359,0.0,0.0,0.0,0.0,-0.0008481725817546248,-0.0002952631621155888,-0.0016486261738464236,0.9975600242614746,0.0,0.0,0.0,17.28685188293457,7.9421162605285645,8.275734901428223,-3128.954833984375,0
1660.643,0.029873346909880638,-0.031343601644039154,0.00113564427010715,0.0,0.0,0.0,0.0,0.0017905273707583547,0.0030846877489238977,-0.0006775373476557434,0.9980987310409546,0.0,0.0,0.0,17.278343200683594,7.937467098236084,8.279742240905762,-3127.41455078125,0
1670.527,0.029862219467759132,-0.03142712265253067,0.0011306704254820943,0.0,0.0,0.0,0.0,0.0016952869482338428,-0.006918078754097223,0.0016649896278977394,0.9970040917396545,0.0,0.0,0.0,17.26123046875,7.930064678192139,8.262520790100098,-3124.317138671875,0
1680.4159999999993,0.029916131868958473,-0.03133454918861389,0.001114714308641851,0.0,0.0,0.0,0.0,-0.000832153542432934,-0.003129618475213647,0.0013594536576420069,0.9980263710021973,0.0,0.0,0.0,17.272811889648438,7.951343536376953,8.294292449951172,-3126.4130859375,0
1690.2959999999985,0.029907038435339928,-0.03141525760293007,0.001106087351217866,0.0,0.0,0.0,0.0,-0.002505452372133732,-0.004987121559679508,-9.629107807995752e-05,0.9987865090370178,0.0,0.0,0.0,17.25604248046875,7.946291446685791,8.291009902954102,-3123.377685546875,0
1700.1769999999997,0.02994406595826149,-0.03132163733243942,0.0010949086863547564,0.0,0.0,0.0,0.0,0.00044008379336446524,0.0006833260995335877,-0.00037442854954861104,0.9979556798934937,0.0,0.0,0.0,17.26823616027832,7.977315425872803,8.32501220703125,-3125.584716796875,0
1710.066999999999,0.029937122017145157,-0.03139803186058998,0.001084424089640379,0.0,0.0,0.0,0.0,0.0018020197749137878,-0.000607808178756386,-0.0002342257503187284,0.9990343451499939,0.0,0.0,0.0,17.251314163208008,7.967958927154541,8.315061569213867,-3122.52197265625,0
1719.949999999999,0.029964236542582512,-0.031314391642808914,0.0010762070305645466,0.0,0.0,0.0,0.0,-0.0033267142716795206,0.00086502282647416,-0.0015840129926800728,0.9998660683631897,0.0,0.0,0.0,17.260549545288086,7.997648239135742,8.343378067016602,-3124.193603515625,0
1729.8309999999983,0.029959551990032196,-0.03138462081551552,0.0010650234762579203,0.0,0.0,0.0,0.0,0.001164548913948238,0.0054597496055066586,-0.002387824235484004,0.9984673261642456,0.0,0.0,0.0,17.242843627929688,7.9943528175354,8.330809593200684,-3120.989013671875,0
1739.7159999999985,0.029969027265906334,-0.03131931275129318,0.0010804715566337109,0.0,0.0,0.0,0.0,-0.001561391050927341,-0.0016484822845086455,0.0018709460273385048,1.0012346506118774,0.0,0.0,0.0,17.257829666137695,8.0238618850708,8.342994689941406,-3123.701171875,0
1749.6009999999987,0.02996637299656868,-0.03138440102338791,0.001071437611244619,0.0,0.0,0.0,0.0,0.002475274261087179,0.004413374699652195,-0.0015905213076621294,0.9994093775749207,0.0,0.0,0.0,17.240798950195312,8.02311897277832,8.337922096252441,-3120.618896484375,0
1759.4849999999988,0.02994893677532673,-0.03132779523730278,0.001119570923037827,0.0,0.0,0.0,0.0,0.0007847103988751769,-0.006103690713644028,0.005313657224178314,0.9989603161811829,0.0,0.0,0.0,17.251745223999023,8.044830322265625,8.329877853393555,-3122.60009765625,0
1769.3739999999998,0.029942994937300682,-0.031387750059366226,0.001115289400331676,0.0,0.0,0.0,0.0,0.0008915348444133997,0.002234147395938635,0.0008647361537441611,0.999315619468689,0.0,0.0,0.0,17.236352920532227,8.033935546875,8.323866844177246,-3119.814208984375,0
1779.2569999999996,0.029939621686935425,-0.031383153051137924,0.0011315752053633332,0.0,0.0,0.0,0.0,-0.0036949259229004383,0.0008060330292209983,-0.0011853541946038604,0.9991410970687866,0.0,0.0,0.0,17.25349235534668,8.038704872131348,8.326041221618652,-3122.91650390625,0
1789.1439999999984,0.02992955595254898,-0.03144160658121109,0.0011284679640084505,0.0,0.0,0.0,0.0,0.0017569687915965915,0.003066812176257372,0.0009171174024231732,1.000359058380127,0.0,0.0,0.0,17.23615074157715,8.033981323242188,8.319865226745605,-3119.777587890625,0
1799.0249999999996,0.02995035983622074,-0.03136373311281204,0.0011506745358929038,0.0,0.0,0.0,0.0,0.0006833569495938718,0.005660131573677063,0.0018526394851505756,0.9993764758110046,0.0,0.0,0.0,17.248394012451172,8.065508842468262,8.347393989562988,-3121.99365234375,0
1808.9099999999999,0.029941726475954056,-0.031413815915584564,0.0011496793013066053,0.0,0.0,0.0,0.0,0.00197284366004169,-0.00036650337278842926,0.0012256866320967674,1.0007290840148926,0.0,0.0,0.0,17.231727600097656,8.056283950805664,8.320476531982422,-3118.976806640625,0
1818.7939999999999,0.029974913224577904,-0.031398095190525055,0.0011453577317297459,0.0,0.0,0.0,0.0,-0.0012808011379092932,-0.0067596882581710815,0.006290154065936804,0.9998310804367065,0.0,0.0,0.0,17.242650985717773,8.064665794372559,8.34401798248291,-3120.9541015625,0
1828.679,0.029969053342938423,-0.03144378215074539,0.0011448789155110717,0.0,0.0,0.0,0.0,-4.0088139940053225e-05,-0.0017824331298470497,0.0019908370450139046,0.9986089468002319,0.0,0.0,0.0,17.227130889892578,8.060651779174805,8.354140281677246,-3118.14501953125,0
1838.5699999999997,0.02999824471771717,-0.031378645449876785,0.0011716334847733378,0.0,0.0,0.0,0.0,0.003923197742551565,0.006278360728174448,-0.003393747378140688,1.0013587474822998,0.0,0.0,0.0,17.245698928833008,8.089374542236328,8.38187313079834,-3121.505615234375,0
1848.449999999999,0.029997751116752625,-0.03142116591334343,0.0011731123086065054,0.0,0.0,0.0,0.0,0.0009134984575212002,-0.0009707080316729844,0.0035717887803912163,0.9991160035133362,0.0,0.0,0.0,17.227449417114258,8.075122833251953,8.363953590393066,-3118.20263671875,0
1858.3349999999991,0.030031459406018257,-0.03137165307998657,0.0011963894357904792,0.0,0.0,0.0,0.0,0.0020014680922031403,-0.0019386881031095982,-0.00029021644149906933,1.000471830368042,0.0,0.0,0.0,17.246543884277344,8.102063179016113,8.387139320373535,-3121.65869140625,0
1868.2249999999985,0.030032547190785408,-0.03141132742166519,0.0012000971473753452,0.0,0.0,0.0,0.0,0.002017826773226261,-0.0005346823018044233,0.0006748284795321524,1.0005054473876953,0.0,0.0,0.0,17.228816986083984,8.092325210571289,8.381119728088379,-3118.449951171875,0
1878.1099999999988,0.03003322146832943,-0.03145382180809975,0.0012046659830957651,0.0,0.0,0.0,0.0,-0.0010456939926370978,-0.0037739952094852924,0.00045079694245941937,1.0002943277359009,0.0,0.0,0.0,17.212024688720703,8.084553718566895,8.375860214233398,-3115.41064453125,0
1887.9879999999994,0.03003327175974846,-0.0314977690577507,0.0012101702159270644,0.0,0.0,0.0,0.0,0.00034615510958246887,0.004557300359010696,0.0014320022892206907,0.999735951423645,0.0,0.0,0.0,17.195817947387695,8.076261520385742,8.377784729003906,-3112.47705078125,0
1897.8809999999994,0.030032165348529816,-0.03154269605875015,0.001216373173519969,0.0,0.0,0.0,0.0,0.0012469502398744226,0.0016315022949129343,0.0028394204564392567,0.9995105862617493,0.0,0.0,0.0,17.179487228393555,8.064538955688477,8.362218856811523,-3109.521484375,0
1907.768,0.030031569302082062,-0.031587645411491394,0.0012227839324623346,0.0,0.0,0.0,0.0,0.0002458733506500721,0.0041748033836483955,-0.0002825421979650855,1.0004289150238037,0.0,0.0,0.0,17.163196563720703,8.057487487792969,8.349775314331055,-3106.57275390625,0
1917.6459999999988,0.029843203723430634,-0.03145203739404678,0.0012238692725077271,0.0,0.0,0.0,0.0,0.004465045407414436,0.007652450352907181,0.00014441869279835373,0.9987183809280396,0.0,0.0,0.0,17.162885665893555,8.10502815246582,8.323599815368652,-3106.5166015625,0
1927.5339999999997,0.029836315661668777,-0.0314851850271225,0.0012335912324488163,0.0,0.0,0.0,0.0,0.0024382539559155703,0.00031816784758120775,-0.0032520045060664415,0.9994913935661316,0.0,0.0,0.0,17.145875930786133,8.093767166137695,8.293903350830078,-3103.4375,0
1937.4219999999987,0.029828310012817383,-0.03152012079954147,0.0012429887428879738,0.0,0.0,0.0,0.0,-0.001144653302617371,-0.004807973280549049,0.0003637131885625422,0.9981223940849304,0.0,0.0,0.0,17.12786293029785,8.083075523376465,8.28159236907959,-3100.177001953125,0
1947.298999999999,0.029818423092365265,-0.03155737742781639,0.0012519528390839696,0.0,0.0,0.0,0.0,0.0021476189140230417,0.0012052422389388084,-0.0015503198374062777,0.9986732006072998,0.0,0.0,0.0,17.11132049560547,8.07370662689209,8.279845237731934,-3097.18310546875,0
1957.1949999999997,0.029807312414050102,-0.03159642592072487,0.00126028957311064,0.0,0.0,0.0,0.0,-0.002204205607995391,0.002625712426379323,-0.0013225568691268563,0.9978117346763611,0.0,0.0,0.0,17.093469619750977,8.060649871826172,8.272600173950195,-3093.951904296875,0
1967.065999999999,0.02979581616818905,-0.0316370390355587,0.001267741434276104,0.0,0.0,0.0,0.0,0.0024001372512429953,-0.002051563700661063,-0.0015880767023190856,0.9986801743507385,0.0,0.0,0.0,17.07625389099121,8.056197166442871,8.259472846984863,-3090.836181640625,0
1976.9599999999991,0.029783636331558228,-0.0316803939640522,0.0012741903774440289,0.0,0.0,0.0,0.0,-0.0009476845152676105,0.0018161475891247392,-0.0003251307352911681,0.9991783499717712,0.0,0.0,0.0,17.05885124206543,8.04772663116455,8.247713088989258,-3087.685791015625,0
1986.8409999999985,0.029770899564027786,-0.031727176159620285,0.0012801935663446784,0.0,0.0,0.0,0.0,0.0002452993649058044,-0.0022220842074602842,-0.0036329315043985844,1.0006777048110962,0.0,0.0,0.0,17.04234504699707,8.042290687561035,8.23525333404541,-3084.698486328125,0
1996.7289999999994,0.029757339507341385,-0.031777165830135345,0.0012866128236055374,0.0,0.0,0.0,0.0,-0.00045733782462775707,0.0017851832089945674,-0.0001785920321708545,0.9994418025016785,0.0,0.0,0.0,17.025920867919922,8.033369064331055,8.232569694519043,-3081.725341796875,0
2006.6129999999994,0.029742566868662834,-0.03183047100901604,0.0012937762076035142,0.0,0.0,0.0,0.0,-0.0013963549863547087,-0.0017418299103155732,-0.0004848413518629968,1.0004442930221558,0.0,0.0,0.0,17.010108947753906,8.024558067321777,8.225607872009277,-3078.86328125,0
2016.5059999999994,0.02972717024385929,-0.03188652545213699,0.001301448093727231,0.0,0.0,0.0,0.0,-0.003184678265824914,-0.0006398490513674915,0.0005868504522368312,1.0000609159469604,0.0,0.0,0.0,16.99381446838379,8.018531799316406,8.219392776489258,-3075.914306640625,0
2026.378999999999,0.0297110415995121,-0.03194393962621689,0.0013098741183057427,0.0,0.0,0.0,0.0,-0.0005588802159763873,0.0005644725752063096,-0.0017970944754779339,0.9993458390235901,0.0,0.0,0.0,16.97682762145996,8.015539169311523,8.214526176452637,-3072.839599609375,0
2036.2709999999988,0.029693325981497765,-0.032002683728933334,0.0013189344899728894,0.0,0.0,0.0,0.0,-0.0020568969193845987,-0.00014684087364003062,0.0009210166754201055,0.9984670877456665,0.0,0.0,0.0,16.959888458251953,8.007596015930176,8.207377433776855,-3069.7734375,0
2046.1449999999986,0.029673157259821892,-0.03206431120634079,0.0013277139514684677,0.0,0.0,0.0,0.0,0.0006779106333851814,-0.0009782897541299462,0.00032349253888241947,0.9979314804077148,0.0,0.0,0.0,16.94332504272461,8.005204200744629,8.20059585571289,-3066.775634765625,0
2056.039999999999,0.02965090610086918,-0.032128795981407166,0.001335376175120473,0.0,0.0,0.0,0.0,0.0009501717868261039,-0.003190819639712572,0.003954537678509951,0.9999638795852661,0.0,0.0,0.0,16.926544189453125,8.000673294067383,8.198663711547852,-3063.73828125,0
2065.92,0.029627712443470955,-0.032193440943956375,0.001342437812127173,0.0,0.0,0.0,0.0,0.0001544775877846405,-0.0009885234758257866,0.0030147989746183157,1.0014492273330688,0.0,0.0,0.0,16.91083335876465,7.990711688995361,8.194332122802734,-3060.89453125,0
2075.8139999999985,0.029603242874145508,-0.03225736320018768,0.0013505020178854465,0.0,0.0,0.0,0.0,0.00017621192091610283,-0.0010709683410823345,0.0006019390420988202,0.9997052550315857,0.0,0.0,0.0,16.89410400390625,7.984386920928955,8.180533409118652,-3057.8662109375,0
2085.6859999999997,0.02957693673670292,-0.032322488725185394,0.0013599907979369164,0.0,0.0,0.0,0.0,0.0008469821186736226,-0.004150887951254845,0.000146869380841963,0.9993716478347778,0.0,0.0,0.0,16.876895904541016,7.97963285446167,8.173583030700684,-3054.751708984375,0
2095.5879999999997,0.029550015926361084,-0.03239033371210098,0.0013699994888156652,0.0,0.0,0.0,0.0,0.0024839898105710745,0.0005046723526902497,-0.0020185215398669243,1.0002593994140625,0.0,0.0,0.0,16.860313415527344,7.970590114593506,8.17466926574707,-3051.750244140625,0
2105.4559999999983,0.029522301629185677,-0.03246072679758072,0.001380473142489791,0.0,0.0,0.0,0.0,-0.0001877935283118859,0.0001556181232444942,0.0014284930657595396,0.9981235861778259,0.0,0.0,0.0,16.84271812438965,7.954457759857178,8.157039642333984,-3048.5654296875,0
2115.3499999999985,0.030004950240254402,-0.03128695860505104,0.0009850349742919207,0.0,0.0,0.0,0.0,0.0005401137168519199,0.005579737015068531,0.00042162358295172453,1.000627040863037,0.0,0.0,0.0,16.896196365356445,8.136054039001465,8.315937995910645,-3058.2451171875,0
2125.2239999999983,0.02999555878341198,-0.03130698204040527,0.000983282458037138,0.0,0.0,0.0,0.0,0.00016699216212145984,0.0015384614234790206,0.0013412573607638478,1.0024861097335815,0.0,0.0,0.0,16.87955665588379,8.125296592712402,8.293096542358398,-3055.2333984375,0
2135.1139999999996,0.02998504601418972,-0.03132811561226845,0.0009830613853409886,0.0,0.0,0.0,0.0,0.0031731114722788334,-0.00545131228864193,0.001181776518933475,0.9997078776359558,0.0,0.0,0.0,16.8630428314209,8.118279457092285,8.280619621276855,-3052.244384765625,0
2144.9969999999994,0.02997233346104622,-0.031350214034318924,0.0009845525491982698,0.0,0.0,0.0,0.0,-0.001555220689624548,-0.003953233361244202,-0.0027875907253473997,0.9990236759185791,0.0,0.0,0.0,16.84707260131836,8.103568077087402,8.273160934448242,-3049.353759765625,0
2154.888999999999,0.02995716966688633,-0.03137463331222534,0.000986348488368094,0.0,0.0,0.0,0.0,0.004915646743029356,0.00041661266004666686,0.0012080135056748986,0.998994767665863,0.0,0.0,0.0,16.829015731811523,8.099287033081055,8.269537925720215,-3046.08544921875,0
2164.7659999999996,0.029902921989560127,-0.03134613856673241,0.0010380827588960528,0.0,0.0,0.0,0.0,0.00012519312440417707,0.0006706337444484234,0.0006768354796804488,0.9995747804641724,0.0,0.0,0.0,16.859073638916016,8.092049598693848,8.269535064697266,-3051.52587890625,0
2174.6619999999984,0.029884057119488716,-0.03137322515249252,0.001041408977471292,0.0,0.0,0.0,0.0,-5.18861816090066e-05,0.004878196865320206,0.001909520709887147,0.998338520526886,0.0,0.0,0.0,16.84221649169922,8.084028244018555,8.262124061584473,-3048.474365234375,0
2184.535,0.029869001358747482,-0.03137723729014397,0.0010846025543287396,0.0,0.0,0.0,0.0,-0.0031110451091080904,-0.0025320902932435274,0.002986420877277851,0.9987237453460693,0.0,0.0,0.0,16.86720848083496,8.07689094543457,8.249484062194824,-3052.998046875,0
2194.4359999999997,0.02984905056655407,-0.03140632063150406,0.0010884171351790428,0.0,0.0,0.0,0.0,0.0015349517343565822,0.005819412879645824,-0.0005464401911012828,0.998333215713501,0.0,0.0,0.0,16.851280212402344,8.077451705932617,8.245619773864746,-3050.115234375,0
2204.304,0.029786456376314163,-0.031389348208904266,0.001132672419771552,0.0,0.0,0.0,0.0,0.002037420868873596,-0.0008170799701474607,0.002229252364486456,1.0011813640594482,0.0,0.0,0.0,16.87738800048828,8.078446388244629,8.229815483093262,-3054.8408203125,0
2214.1899999999987,0.029760945588350296,-0.031417302787303925,0.001138086779974401,0.0,0.0,0.0,0.0,0.0004744105681311339,-0.004069438204169273,0.0023362368810921907,0.9981266856193542,0.0,0.0,0.0,16.86171531677246,8.0668306350708,8.224414825439453,-3052.00390625,0
2224.074999999999,0.029734890908002853,-0.03141046315431595,0.0011809768620878458,0.0,0.0,0.0,0.0,-0.00047281873412430286,0.0004542010137811303,0.002165008569136262,0.9998958110809326,0.0,0.0,0.0,16.885637283325195,8.070527076721191,8.233540534973145,-3056.333740234375,0
2233.977999999999,0.029707228764891624,-0.03143902122974396,0.0011888782028108835,0.0,0.0,0.0,0.0,-0.0013282939326018095,-0.0001131429526139982,0.004978133365511894,1.0007799863815308,0.0,0.0,0.0,16.86912727355957,8.062822341918945,8.222034454345703,-3053.345703125,0
2243.842999999999,0.02969500608742237,-0.03143193945288658,0.001234877621755004,0.0,0.0,0.0,0.0,-6.158030737424269e-05,-0.0010111889569088817,0.000568271498195827,0.9997415542602539,0.0,0.0,0.0,16.886987686157227,8.067055702209473,8.2239408493042,-3056.578369140625,0
2253.736999999999,0.02966705523431301,-0.03146066889166832,0.0012470773654058576,0.0,0.0,0.0,0.0,-0.003419154789298773,-0.003188041038811207,0.0018144547939300537,0.998654842376709,0.0,0.0,0.0,16.87019157409668,8.058308601379395,8.219406127929688,-3053.538330078125,0
2263.6169999999984,0.02966374158859253,-0.03145698457956314,0.0012934363912791014,0.0,0.0,0.0,0.0,0.0012580323964357376,-6.071633833926171e-05,0.0019073868170380592,0.9977211356163025,0.0,0.0,0.0,16.88949966430664,8.06096076965332,8.233783721923828,-3057.03271484375,0
2273.5069999999996,0.029634088277816772,-0.03148608282208443,0.0013070012209936976,0.0,0.0,0.0,0.0,0.0008653100812807679,-0.0024636019952595234,-0.0008199866279028356,0.9994169473648071,0.0,0.0,0.0,16.873613357543945,8.053332328796387,8.22879695892334,-3054.15771484375,0
2283.383,0.029638787731528282,-0.031480561941862106,0.001359088346362114,0.0,0.0,0.0,0.0,-0.0006253469618968666,-0.0049100834876298904,-3.986993760918267e-05,1.0019422769546509,0.0,0.0,0.0,16.892589569091797,8.050284385681152,8.247793197631836,-3057.592041015625,0
2293.2839999999997,0.02961018495261669,-0.031510815024375916,0.0013765232870355248,0.0,0.0,0.0,0.0,0.00407040910795331,0.00034288904862478375,0.00481403199955821,0.9998731017112732,0.0,0.0,0.0,16.875732421875,8.047735214233398,8.25292682647705,-3054.541259765625,0
