timestamp,stateEstimate.x,stateEstimate.y,stateEstimate.z,controller.cmd_thrust,controller.cmd_roll,controller.cmd_pitch,controller.cmd_yaw,controller.r_roll,controller.r_pitch,controller.r_yaw,controller.accelz,controller.actuatorThrust,controller.roll,controller.pitch,controller.yaw,controller.rollRate,controller.pitchRate,controller.yawRate,controller.ctr_yaw
0.0,4.70128798042424e-05,-0.0002144353638868779,-0.00020180355932097882,0.0,0.0,0.0,0.0,-0.00041185104055330157,0.0034936328884214163,-0.00048467126907780766,0.9994455575942993,0.0,0.0,0.0,0.3393922746181488,10.071951866149902,2.3328542709350586,-61.43067932128906,0
9.88299999999981,4.575253478833474e-05,-0.00028186626150272787,-0.00019689153123181313,0.0,0.0,0.0,0.0,-0.0015470038633793592,-0.001409506076015532,0.0005470425821840763,0.9981892704963684,0.0,0.0,0.0,0.3390742242336273,10.064085960388184,2.3284478187561035,-61.373111724853516,0
19.76800000000003,-3.1271840271074325e-05,-0.00014012126484885812,-0.00017147995822597295,0.0,0.0,0.0,0.0,-0.000376166426576674,-0.006556638516485691,0.001413094811141491,0.9995251893997192,0.0,0.0,0.0,0.3332214057445526,10.098576545715332,2.3220667839050293,-60.31373977661133,0
29.65400000000045,-3.923039912478998e-05,-0.00020472670439630747,-0.00016571431478951126,0.0,0.0,0.0,0.0,0.0018493062816560268,-0.004443437326699495,-0.0023250365629792213,1.0001623630523682,0.0,0.0,0.0,0.33376216888427734,10.086694717407227,2.341832160949707,-60.411617279052734,0
39.538000000000466,-5.304473961587064e-05,-0.0001521255326224491,-0.0001147728762589395,0.0,0.0,0.0,0.0,0.002122836885973811,0.0006244181422516704,-0.0016773357056081295,1.0006942749023438,0.0,0.0,0.0,0.3245578408241272,10.088541030883789,2.3504693508148193,-58.74561309814453,0
49.423000000000684,-5.933042848482728e-05,-0.00021611942793242633,-0.00010440481128171086,0.0,0.0,0.0,0.0,-0.00108246726449579,-0.004582826513797045,0.002989423694089055,0.9985923171043396,0.0,0.0,0.0,0.3251200020313263,10.074837684631348,2.347759962081909,-58.84737014770508,0
59.30799999999908,-6.667649722658098e-05,-0.00014114911027718335,-5.5119176977314055e-05,0.0,0.0,0.0,0.0,-0.0012225533137097955,0.006262458395212889,-0.00010345987539039925,0.9979975819587708,0.0,0.0,0.0,0.3140096068382263,10.08261775970459,2.360830545425415,-56.836360931396484,0
69.19700000000012,-6.979073077673092e-05,-0.00020386117103043944,-4.2297717300243676e-05,0.0,0.0,0.0,0.0,-0.0037217112258076668,-0.003193524433299899,0.0018564817728474736,0.9998349547386169,0.0,0.0,0.0,0.31336700916290283,10.075434684753418,2.3519771099090576,-56.720054626464844,0
79.08300000000054,-4.572441685013473e-05,-0.00025339279090985656,-6.041390588507056e-05,0.0,0.0,0.0,0.0,-0.0008641759632155299,0.0051455385982990265,-0.0007302701123990119,0.9989572763442993,0.0,0.0,0.0,0.3221229016780853,10.082732200622559,2.3640246391296387,-58.30488967895508,0
88.96099999999933,-4.4390639232005924e-05,-0.0003211584989912808,-5.039968527853489e-05,0.0,0.0,0.0,0.0,0.0014704449567943811,-0.001654032850638032,-0.0006587072275578976,0.9989692568778992,0.0,0.0,0.0,0.322079062461853,10.074667930603027,2.3469319343566895,-58.29695129394531,0
98.84499999999935,-7.019708573352545e-05,-0.00019206246361136436,-3.582023055059835e-05,0.0,0.0,0.0,0.0,0.0008500833064317703,-0.002259103814139962,-0.0008303735521622002,0.9994766712188721,0.0,0.0,0.0,0.3109791874885559,10.085107803344727,2.3312649726867676,-56.2878532409668,0
108.73199999999997,-6.7926463088952e-05,-0.00025630733580328524,-2.5265901058446616e-05,0.0,0.0,0.0,0.0,0.0003795251250267029,-0.005390757229179144,-0.00043951947009190917,0.9998354911804199,0.0,0.0,0.0,0.31082093715667725,10.074493408203125,2.3364388942718506,-56.25920867919922,0
118.6200000000008,-4.894978701486252e-05,-0.00015603109204676002,-5.6193614000221714e-05,0.0,0.0,0.0,0.0,-0.001532473019324243,1.992685065488331e-05,0.0017012960743159056,1.0018748044967651,0.0,0.0,0.0,0.31304967403411865,10.08965015411377,2.352159023284912,-56.66261291503906,0
128.50900000000001,-4.5802367822034284e-05,-0.00022003555204719305,-4.636542507796548e-05,0.0,0.0,0.0,0.0,0.001227378030307591,-0.005434955004602671,0.0002869493910111487,1.002420425415039,0.0,0.0,0.0,0.3133706748485565,10.080406188964844,2.3535735607147217,-56.7207145690918,0
138.38600000000042,-8.797279406280722e-06,-0.00017230806406587362,-8.23069058242254e-05,0.0,0.0,0.0,0.0,-0.0011138065019622445,-0.001741408952511847,0.0001963777031050995,1.0007504224777222,0.0,0.0,0.0,0.30179959535598755,10.078261375427246,2.357022762298584,-54.62632751464844,0
148.26900000000023,-9.187975592794828e-06,-0.00023869849974289536,-7.16044960427098e-05,0.0,0.0,0.0,0.0,-0.0005253522540442646,0.006202721502631903,-0.001855658134445548,1.0010340213775635,0.0,0.0,0.0,0.3021154999732971,10.07022476196289,2.363351345062256,-54.68350601196289,0
158.15600000000086,-3.920084168385074e-07,-0.00021311848831828684,-9.721537207951769e-05,0.0,0.0,0.0,0.0,-6.456195114878938e-05,0.0025681217666715384,-0.00035177989047951996,0.9991786479949951,0.0,0.0,0.0,0.30075734853744507,10.077682495117188,2.3554325103759766,-54.43767547607422,0
168.03800000000047,-3.920084168385074e-07,-0.00021311848831828684,-9.721537207951769e-05,0.0,0.0,0.0,0.0,-0.0009252803865820169,0.0003325117868371308,0.0016823360929265618,1.0000680685043335,0.0,0.0,0.0,0.30075734853744507,10.077682495117188,2.3554325103759766,-54.43767547607422,0
177.92300000000068,-3.559225660865195e-05,-0.00015374264330603182,-0.00010303194721927866,0.0,0.0,0.0,0.0,-0.00015309070295188576,-0.008525162003934383,-0.0001001315176836215,1.002730131149292,0.0,0.0,0.0,0.30232253670692444,10.089669227600098,2.347136974334717,-54.720977783203125,0
187.8089999999993,-3.703235779539682e-05,-0.0002233450359199196,-9.333647176390514e-05,0.0,0.0,0.0,0.0,0.00036507935146801174,-3.057582944165915e-05,-0.0035456367768347263,1.0008273124694824,0.0,0.0,0.0,0.3018527925014496,10.07416820526123,2.3425135612487793,-54.635955810546875,0
197.69800000000032,1.535813498776406e-05,-0.0002492843195796013,-0.0001387317752232775,0.0,0.0,0.0,0.0,0.0025639981031417847,-0.0014158613048493862,-0.0016943371156230569,1.0009597539901733,0.0,0.0,0.0,0.30985087156295776,10.068717002868652,2.3639326095581055,-56.083621978759766,0
207.58100000000013,1.7141148418886587e-05,-0.0003214887110516429,-0.0001295796100748703,0.0,0.0,0.0,0.0,0.0018064830219373107,-0.0002598659775685519,0.0012764979619532824,0.9996203780174255,0.0,0.0,0.0,0.3082978129386902,10.058690071105957,2.355846881866455,-55.802520751953125,0
217.46299999999974,6.419277633540332e-05,-0.0003198494669049978,-0.00015573906421195716,0.0,0.0,0.0,0.0,0.0014683485496789217,-0.0009622370707802474,0.0006013421225361526,0.9986898899078369,0.0,0.0,0.0,0.3161880671977997,10.062739372253418,2.371907949447632,-57.23067092895508,0
227.34799999999996,6.951692193979397e-05,-0.00039329929859377444,-0.00014787503459956497,0.0,0.0,0.0,0.0,0.00014963027206249535,-0.007634567562490702,0.0029977005906403065,1.0002707242965698,0.0,0.0,0.0,0.3156898319721222,10.048013687133789,2.347182273864746,-57.14048767089844,0
237.23300000000017,0.00011524864385137334,-0.0003479483420960605,-0.00016611296450719237,0.0,0.0,0.0,0.0,-0.0009599605691619217,0.006749415770173073,0.0017158971168100834,1.0003857612609863,0.0,0.0,0.0,0.3219279646873474,10.06237506866455,2.3680601119995117,-58.26960372924805,0
247.12900000000081,0.00017174358072225004,-0.0002580564469099045,-0.0001854061847552657,0.0,0.0,0.0,0.0,-0.0011028038570657372,-0.004523811861872673,0.0008838322828523815,1.000131607055664,0.0,0.0,0.0,0.33177846670150757,10.104484558105469,2.390573024749756,-60.05255889892578,0
257.0100000000002,2.6073437766171992e-05,-0.00017769550322555006,-0.0002013082121266052,0.0,0.0,0.0,0.0,-0.003208129433915019,3.7418662941490766e-06,-0.0025531372521072626,1.0031300783157349,0.0,0.0,0.0,0.3185397684574127,10.12581729888916,2.3342604637145996,-57.656333923339844,0
266.8870000000006,6.540553295053542e-05,-0.00016569682338740677,-0.00021885553724132478,0.0,0.0,0.0,0.0,0.0004282182489987463,-0.00397289777174592,-0.001735458616167307,1.0010437965393066,0.0,0.0,0.0,0.31700512766838074,10.122092247009277,2.341409206390381,-57.37855911254883,0
276.77299999999923,6.86493149260059e-05,-0.000222066038986668,-0.0002129524655174464,0.0,0.0,0.0,0.0,0.0023757668677717447,0.0027994420379400253,-0.0009760669199749827,1.0000102519989014,0.0,0.0,0.0,0.31701141595840454,10.110871315002441,2.342282772064209,-57.37969970703125,0
286.65600000000086,9.206869435729459e-05,-0.000231991070904769,-0.00021768503938801587,0.0,0.0,0.0,0.0,0.001634826185181737,-0.0014749827096238732,-0.0005059514078311622,1.0000405311584473,0.0,0.0,0.0,0.32675042748451233,10.11604118347168,2.346342086791992,-59.14247512817383,0
296.54299999999967,1.648346005822532e-05,-0.0001898619084386155,-0.00018955097766593099,0.0,0.0,0.0,0.0,2.1896785256103612e-05,0.00036839969106949866,-0.0007808423833921552,1.0003994703292847,0.0,0.0,0.0,0.3116295635700226,10.132031440734863,2.3330843448638916,-56.40557098388672,0
306.4349999999995,4.893340519629419e-05,-0.00019783420430030674,-0.0002014372294070199,0.0,0.0,0.0,0.0,0.00211639073677361,-0.0018578344024717808,-0.0002339336060686037,0.996763288974762,0.0,0.0,0.0,0.3262925446033478,10.130826950073242,2.34515643119812,-59.059600830078125,0
316.3179999999993,5.2877723646815866e-05,-0.0002543396840337664,-0.00019300055282656103,0.0,0.0,0.0,0.0,-0.0009570263209752738,-0.001179303741082549,0.0005516063538379967,0.9973377585411072,0.0,0.0,0.0,0.32701581716537476,10.11502742767334,2.339127779006958,-59.19050979614258,0
326.20600000000013,8.117747347569093e-05,-0.00022655766224488616,-0.00018991481920238584,0.0,0.0,0.0,0.0,0.0014886994613334537,0.00025083604850806296,-0.004051338415592909,0.9975779056549072,0.0,0.0,0.0,0.3333177864551544,10.128681182861328,2.3535218238830566,-60.3311882019043,0
336.08300000000054,8.771444845478982e-05,-0.0002831882156897336,-0.00018529545923229307,0.0,0.0,0.0,0.0,0.0010244526201859117,-0.00193710473831743,0.0008585450705140829,0.9992811679840088,0.0,0.0,0.0,0.3324841260910034,10.115053176879883,2.3468031883239746,-60.18028259277344,0
345.97500000000036,0.00010988594294758514,-0.00026147006428800523,-0.00018279445066582412,0.0,0.0,0.0,0.0,-0.002544385613873601,-0.0025783348828554153,0.0015886276960372925,0.9982287883758545,0.0,0.0,0.0,0.3386424779891968,10.127728462219238,2.354750156402588,-61.29496383666992,0
355.85000000000036,0.00011799417552538216,-0.00032119365641847253,-0.00018057301349472255,0.0,0.0,0.0,0.0,0.0019379645818844438,-0.0026208830531686544,0.000290725554805249,0.9991470575332642,0.0,0.0,0.0,0.3386325538158417,10.118287086486816,2.351578712463379,-61.29316711425781,0
365.7340000000004,0.0001216478631249629,-0.00036039488622918725,-0.0001617159869056195,0.0,0.0,0.0,0.0,0.00309053179807961,0.0025507528334856033,0.00033793054171837866,0.9991481900215149,0.0,0.0,0.0,0.3532570004463196,10.117441177368164,2.363308906555176,-63.94021987915039,0
375.6219999999994,-3.23619824484922e-05,-0.00022003368940204382,-0.0001339494192507118,0.0,0.0,0.0,0.0,2.943932850030251e-05,0.00033161105238832533,-0.0011887394357472658,1.0012311935424805,0.0,0.0,0.0,0.342087984085083,10.146979331970215,2.315746307373047,-61.91860580444336,0
385.5049999999992,-1.0197783012699801e-05,-0.00023416377371177077,-0.00014149158960208297,0.0,0.0,0.0,0.0,0.0008730904664844275,0.0015660078497603536,-0.00027783677796833217,1.0015950202941895,0.0,0.0,0.0,0.3507857322692871,10.145606994628906,2.3215115070343018,-63.49291229248047,0
395.39300000000003,-0.00012751495523843914,-0.00013322099403012544,-9.13450276129879e-05,0.0,0.0,0.0,0.0,0.0027911136858165264,-0.0032955899368971586,-0.002667455468326807,1.0017833709716797,0.0,0.0,0.0,0.3372243642807007,10.156789779663086,2.291191339492798,-61.03828048706055,0
405.27200000000084,-5.931125633651391e-05,-8.449485176242888e-05,-0.00013613006740342826,0.0,0.0,0.0,0.0,-0.0013168994337320328,0.005496782250702381,-0.004157982300966978,1.0021783113479614,0.0,0.0,0.0,0.3463045358657837,10.16050910949707,2.305542230606079,-62.68180847167969,0
415.16799999999967,-6.588163523701951e-05,-6.837883120169863e-05,-9.168742690235376e-05,0.0,0.0,0.0,0.0,-0.00038710510125383735,-0.005807175766676664,-0.0011248344089835882,1.00263249874115,0.0,0.0,0.0,0.33152803778648376,10.15666389465332,2.3011815547943115,-60.007232666015625,0
425.04099999999926,-2.1429053958854638e-05,-8.944987348513678e-05,-0.00012566517398227006,0.0,0.0,0.0,0.0,-0.0014610998332500458,0.001788603258319199,-0.001628973986953497,0.9998824000358582,0.0,0.0,0.0,0.3366504907608032,10.153938293457031,2.3062431812286377,-60.934410095214844,0
434.9320000000007,-4.315799742471427e-05,-7.637780799996108e-05,-8.424341649515554e-05,0.0,0.0,0.0,0.0,-0.001977724488824606,0.0013185484567657113,0.0022445740178227425,0.9986664652824402,0.0,0.0,0.0,0.3251250088214874,10.155048370361328,2.304187536239624,-58.848270416259766,0
444.8160000000007,4.988641535419447e-07,-0.0001263143785763532,-0.00012302398681640625,0.0,0.0,0.0,0.0,-0.0012240833602845669,-0.00021409809414763004,0.0012190993875265121,0.9990791082382202,0.0,0.0,0.0,0.33318185806274414,10.15006160736084,2.3121721744537354,-60.306583404541016,0
454.6970000000001,-4.4940497900824994e-05,-0.00010664284491213039,-8.679794700583443e-05,0.0,0.0,0.0,0.0,-0.00036876529338769615,0.0018284074030816555,-0.0021752098109573126,1.0008201599121094,0.0,0.0,0.0,0.32268062233924866,10.15661907196045,2.304744005203247,-58.40583419799805,0
464.58899999999994,4.2064126319019124e-05,-6.69948203722015e-05,-0.00014927909069228917,0.0,0.0,0.0,0.0,0.0002245312207378447,0.0003690642479341477,0.000516369822435081,0.9985912442207336,0.0,0.0,0.0,0.3333510458469391,10.157275199890137,2.3122332096099854,-60.33720779418945,0
474.46700000000055,1.719811734801624e-05,-0.0001017822214635089,-0.00013449856487568468,0.0,0.0,0.0,0.0,0.0024662937503308058,-0.003095048712566495,-0.00014582941366825253,0.999737024307251,0.0,0.0,0.0,0.3202458322048187,10.157877922058105,2.3048698902130127,-57.96513366699219,0
484.35599999999977,8.838951180223376e-05,-7.589358574477956e-05,-0.00018627972167450935,0.0,0.0,0.0,0.0,-0.0011835027253255248,-0.00039794575423002243,0.0015762163093313575,0.9989879727363586,0.0,0.0,0.0,0.3285977244377136,10.154132843017578,2.320671558380127,-59.476844787597656,0
494.2399999999998,3.570025728549808e-05,-9.721683454699814e-05,-0.00018014051602222025,0.0,0.0,0.0,0.0,0.003486286848783493,-0.0019439058378338814,0.0012572307605296373,0.9996547698974609,0.0,0.0,0.0,0.3158388137817383,10.150410652160645,2.31061053276062,-57.167457580566406,0
504.1270000000004,6.426805339287966e-05,-9.41768303164281e-05,-0.0001850185071816668,0.0,0.0,0.0,0.0,0.0023742562625557184,0.004699166398495436,-0.001807004096917808,1.0000118017196655,0.0,0.0,0.0,0.3255048990249634,10.152153015136719,2.317469358444214,-58.91703414916992,0
514.0069999999996,2.0778446923941374e-05,-0.0001228670444106683,-0.00017993261280935258,0.0,0.0,0.0,0.0,0.0014780261553823948,-0.0021654919255524874,-0.0012623707298189402,0.9989157319068909,0.0,0.0,0.0,0.31436780095100403,10.143960952758789,2.309298515319824,-56.90119934082031,0
523.8950000000004,1.607993726793211e-05,-0.00019304940360598266,-0.00016826385399326682,0.0,0.0,0.0,0.0,0.0005553374066948891,-0.001986767165362835,-0.0009546461515128613,0.9995905160903931,0.0,0.0,0.0,0.3206358253955841,10.128292083740234,2.2939701080322266,-58.03572082519531,0
533.7739999999994,1.7552118151797913e-05,-0.00025813229149207473,-0.000164747703820467,0.0,0.0,0.0,0.0,-0.000653645140118897,5.7880515669239685e-06,0.002977378899231553,0.9999637603759766,0.0,0.0,0.0,0.3187895715236664,10.11508560180664,2.3026249408721924,-57.70154571533203,0
543.6569999999992,2.2809765141573735e-05,-0.0002742985961958766,-0.00014897571236360818,0.0,0.0,0.0,0.0,-0.0013090111315250397,-0.001259688171558082,0.003460577456280589,0.9987106323242188,0.0,0.0,0.0,0.3286571502685547,10.115005493164062,2.301694393157959,-59.48759841918945,0
553.5419999999995,-2.4997765649459325e-05,-0.0002501238777767867,-0.00011279893078608438,0.0,0.0,0.0,0.0,-0.0017679721349850297,-0.003825540654361248,0.0031837294809520245,0.999176025390625,0.0,0.0,0.0,0.31670209765434265,10.128816604614258,2.294206380844116,-57.323707580566406,0
563.4269999999997,5.917880571360001e-06,-0.00024895722162909806,-0.00012149988469900563,0.0,0.0,0.0,0.0,0.002374880714341998,0.007710447534918785,0.002034037373960018,1.0008625984191895,0.0,0.0,0.0,0.33074063062667847,10.13132381439209,2.3087899684906006,-59.864707946777344,0
573.3130000000001,3.3679943953757174e-06,-0.00031443394254893064,-0.00011514343350427225,0.0,0.0,0.0,0.0,-0.0018095343839377165,-0.00025433878181502223,-0.0004601930268108845,1.000954270362854,0.0,0.0,0.0,0.3305670917034149,10.12183666229248,2.2991652488708496,-59.83330154418945,0
583.1959999999999,5.082054121885449e-05,-0.0002755362365860492,-0.00014629942597821355,0.0,0.0,0.0,0.0,-0.003417000873014331,-0.003451356664299965,0.0005894973292015493,1.0011249780654907,0.0,0.0,0.0,0.3410923182964325,10.13790225982666,2.3140084743499756,-61.7383918762207,0
593.0910000000003,-6.250952719710767e-05,-0.00018564879428595304,-0.00010167803702643141,0.0,0.0,0.0,0.0,-0.002256789244711399,-0.008411504328250885,-0.0019554663449525833,0.9991770386695862,0.0,0.0,0.0,0.328835129737854,10.161590576171875,2.2797465324401855,-59.51980972290039,0
602.9689999999991,-7.1723293331160676e-06,-0.0001636837696423754,-0.00014645824558101594,0.0,0.0,0.0,0.0,-0.00025307241594418883,-0.0017713611014187336,-0.0019252464408054948,1.000218152999878,0.0,0.0,0.0,0.3341958224773407,10.177909851074219,2.3007946014404297,-60.490108489990234,0
612.8510000000006,-1.2366158443910535e-05,-0.00022440767497755587,-0.0001403254282195121,0.0,0.0,0.0,0.0,0.0002642696781549603,-0.0009025895269587636,0.0006153482245281339,1.000783920288086,0.0,0.0,0.0,0.33358848094940186,10.160948753356934,2.30088472366333,-60.38018035888672,0
622.7360000000008,2.9445878681144677e-05,-0.0001680013519944623,-0.0001623438292881474,0.0,0.0,0.0,0.0,-0.000828946940600872,-0.005935575347393751,0.0014257244765758514,1.0009156465530396,0.0,0.0,0.0,0.33849698305130005,10.179024696350098,2.318782329559326,-61.26862716674805,0
632.6309999999994,-3.734793062903918e-05,-0.00012596296437550336,-0.00012711630552075803,0.0,0.0,0.0,0.0,-0.0008117171237245202,-0.0006799420807510614,0.0012334303464740515,1.0016433000564575,0.0,0.0,0.0,0.32921573519706726,10.186481475830078,2.3089025020599365,-59.588706970214844,0
642.5110000000004,4.6896242565708235e-05,-5.718599641113542e-05,-0.0001990875753108412,0.0,0.0,0.0,0.0,-0.0006051150849089026,0.0011228995863348246,-0.001366418437100947,0.9991328120231628,0.0,0.0,0.0,0.3368072509765625,10.20097541809082,2.3227696418762207,-60.9627799987793,0
652.3970000000008,4.324247856857255e-05,-0.00010731539805419743,-0.00019437322043813765,0.0,0.0,0.0,0.0,-0.00019378050637897104,0.00478616775944829,-0.0029747807420790195,0.9987135529518127,0.0,0.0,0.0,0.33633044362068176,10.192654609680176,2.3165175914764404,-60.8764762878418,0
662.2739999999994,5.425704148365185e-05,-0.00013851946278009564,-0.0002031858457485214,0.0,0.0,0.0,0.0,-0.0008768223342485726,-0.002060022670775652,0.0013936861651018262,0.9987154006958008,0.0,0.0,0.0,0.3421260118484497,10.188733100891113,2.3081181049346924,-61.92549133300781,0
672.1620000000003,-1.9824448827421293e-05,-8.115053060464561e-05,-0.0001637115638004616,0.0,0.0,0.0,0.0,-0.00042662391206249595,-0.00474659213796258,-0.0008670086390338838,1.0018959045410156,0.0,0.0,0.0,0.33183369040489197,10.20840072631836,2.289768934249878,-60.062557220458984,0
682.0429999999997,4.573319074552273e-06,-0.00010554950131336227,-0.0001943053212016821,0.0,0.0,0.0,0.0,0.001502075931057334,-0.004211644642055035,0.0025557579938322306,1.0000797510147095,0.0,0.0,0.0,0.33854788541793823,10.210552215576172,2.3070626258850098,-61.2778434753418,0
691.9279999999999,-1.8799819372361526e-06,-0.00015952918329276145,-0.00018981017637997866,0.0,0.0,0.0,0.0,0.0033004560973495245,-0.0038030545692890882,-0.0018025932367891073,0.9988099932670593,0.0,0.0,0.0,0.3381688594818115,10.196274757385254,2.3188090324401855,-61.2092399597168,0
701.8199999999997,2.0209577996865846e-05,-0.00018188256944995373,-0.00021353441115934402,0.0,0.0,0.0,0.0,-0.00018418011313769966,0.0030802118126302958,0.0011288541136309505,1.0009852647781372,0.0,0.0,0.0,0.3492312431335449,10.192800521850586,2.3195266723632812,-63.2115478515625,0
711.7039999999997,1.8121052562491968e-05,-0.00024389379541389644,-0.0002104224549839273,0.0,0.0,0.0,0.0,-0.0007380722090601921,-0.00016820839664433151,-0.0005333187873475254,1.0010639429092407,0.0,0.0,0.0,0.34869760274887085,10.173648834228516,2.3169023990631104,-63.11496353149414,0
721.5830000000005,4.2720872443169355e-05,-0.00019608487491495907,-0.00021271451259963214,0.0,0.0,0.0,0.0,0.0026978079695254564,0.008784833364188671,0.0010548370191827416,0.9996270537376404,0.0,0.0,0.0,0.34915801882743835,10.166816711425781,2.313873052597046,-63.19829177856445,0
731.4709999999995,4.423242717166431e-05,-0.00025669962633401155,-0.00020745888468809426,0.0,0.0,0.0,0.0,-0.0006907334900461137,-0.0028953654691576958,-0.0024297016207128763,0.9996974468231201,0.0,0.0,0.0,0.3483814299106598,10.15717887878418,2.2993316650390625,-63.057735443115234,0
741.3520000000008,9.543497435515746e-05,-0.00019378062279429287,-0.00024908935301937163,0.0,0.0,0.0,0.0,0.0007584246923215687,-0.0004257787368260324,0.00042143362225033343,0.9988616704940796,0.0,0.0,0.0,0.3545161187648773,10.18163776397705,2.3161237239837646,-64.16812133789062,0
751.2430000000004,2.2572452508029528e-05,-0.0001482443040004,-0.00023830514692235738,0.0,0.0,0.0,0.0,-0.0017226414056494832,0.0012356960214674473,0.000607615802437067,0.9988965392112732,0.0,0.0,0.0,0.34065207839012146,10.198578834533691,2.2937965393066406,-61.65870666503906,0
761.1209999999992,4.467798498808406e-05,-0.00015883227752055973,-0.0002447408623993397,0.0,0.0,0.0,0.0,-0.0005409393343143165,-0.001226598396897316,-0.0013969182036817074,0.9992343187332153,0.0,0.0,0.0,0.34977179765701294,10.200704574584961,2.296715021133423,-63.309391021728516,0
771.0069999999996,4.5830936869606376e-05,-0.00021345424465835094,-0.00024313887115567923,0.0,0.0,0.0,0.0,0.0002978699922095984,0.0016958490014076233,0.0015243032248690724,0.9994720816612244,0.0,0.0,0.0,0.3488278090953827,10.191387176513672,2.286069393157959,-63.138526916503906,0
780.893,6.693970499327406e-05,-0.00017544861475471407,-0.0002342319639865309,0.0,0.0,0.0,0.0,-0.0006583682843483984,-0.0007234090007841587,-0.00015216023894026875,1.0000262260437012,0.0,0.0,0.0,0.349296510219574,10.180801391601562,2.290640115737915,-63.223365783691406,0
790.7819999999992,6.928535003680736e-05,-0.00023198442067950964,-0.00023199102724902332,0.0,0.0,0.0,0.0,-0.002321549691259861,0.0010205984581261873,0.0047337329015135765,0.999792754650116,0.0,0.0,0.0,0.3487569987773895,10.172342300415039,2.290247678756714,-63.125709533691406,0
800.6679999999997,6.34344105492346e-05,-0.00026468548458069563,-0.00019838464504573494,0.0,0.0,0.0,0.0,0.0012727706925943494,-0.00322920735925436,-0.0023997852113097906,0.9997698068618774,0.0,0.0,0.0,0.356018990278244,10.170557975769043,2.2812201976776123,-64.44014739990234,0
810.5489999999991,6.741375545971096e-05,-0.000326439825585112,-0.0001931568986037746,0.0,0.0,0.0,0.0,-0.003743002424016595,0.000867106718942523,-0.0012416024692356586,1.0006011724472046,0.0,0.0,0.0,0.35719332098960876,10.158773422241211,2.274332284927368,-64.65270233154297,0
820.4300000000003,7.46839796192944e-05,-0.00030066774343140423,-0.00015813733625691384,0.0,0.0,0.0,0.0,0.0013334880350157619,0.00047048620763234794,0.0014690050156787038,0.9993518590927124,0.0,0.0,0.0,0.3548441231250763,10.150116920471191,2.2813820838928223,-64.22749328613281,0
830.3160000000007,8.25428287498653e-05,-0.0003609272534959018,-0.0001490870345151052,0.0,0.0,0.0,0.0,0.0007543867686763406,-0.00416939053684473,-0.00026638928102329373,1.0004209280014038,0.0,0.0,0.0,0.35315796732902527,10.1411771774292,2.2810511589050293,-63.92229461669922,0
840.2099999999991,9.220642823493108e-05,-0.0003197398327756673,-0.00010610699973767623,0.0,0.0,0.0,0.0,-0.0008778928895480931,0.0020731643307954073,0.0015072282403707504,1.0020338296890259,0.0,0.0,0.0,0.3605842590332031,10.15648365020752,2.283721923828125,-65.26647186279297,0
850.0830000000005,-1.8637030734680593e-05,-0.00023905825219117105,-8.921266271499917e-05,0.0,0.0,0.0,0.0,-0.0016123286914080381,0.002481856383383274,-0.00032651296351104975,0.9999514818191528,0.0,0.0,0.0,0.34308570623397827,10.178220748901367,2.249541997909546,-62.09919738769531,0
859.9689999999991,5.160941509529948e-05,-0.00017102464335039258,-0.00012212121509946883,0.0,0.0,0.0,0.0,0.001879661693237722,0.0032507628202438354,0.0014710420509800315,0.9991316795349121,0.0,0.0,0.0,0.3512853682041168,10.19299602508545,2.265857219696045,-63.58334732055664,0
869.8549999999996,3.293476038379595e-05,-0.00018045571050606668,-9.099467570194975e-05,0.0,0.0,0.0,0.0,2.0102495909668505e-05,-0.0008651706739328802,0.0003619941999204457,0.9996873140335083,0.0,0.0,0.0,0.3287457525730133,10.193136215209961,2.2509264945983887,-59.503631591796875,0
879.7399999999998,7.798825390636921e-05,-0.00019612343749031425,-0.00012264502584002912,0.0,0.0,0.0,0.0,0.00384337967261672,0.0017696211580187082,-0.00045037042582407594,1.0000139474868774,0.0,0.0,0.0,0.34036433696746826,10.178916931152344,2.252868175506592,-61.60662078857422,0
889.6219999999994,8.21721987449564e-05,-0.00024969581863842905,-0.00011135663953609765,0.0,0.0,0.0,0.0,-0.002126926090568304,0.00013190790195949376,0.0025108694098889828,0.9998571276664734,0.0,0.0,0.0,0.33901354670524597,10.16900634765625,2.2393553256988525,-61.362125396728516,0
899.5069999999996,0.00014628400094807148,-0.00017208507051691413,-0.0001521897065686062,0.0,0.0,0.0,0.0,-0.0024527236819267273,-0.0052682505920529366,-7.370268122031121e-06,1.0002824068069458,0.0,0.0,0.0,0.3502103388309479,10.187110900878906,2.2476797103881836,-63.388771057128906,0
909.4060000000009,5.301067631080514e-06,-9.829254122450948e-05,-0.00014244139310903847,0.0,0.0,0.0,0.0,0.0009957085130736232,0.006257005501538515,0.0018699270440265536,1.0010875463485718,0.0,0.0,0.0,0.33710187673568726,10.203302383422852,2.2317774295806885,-61.016109466552734,0
919.2790000000005,8.197142597055063e-05,-4.9040587327908725e-05,-0.00020110986952204257,0.0,0.0,0.0,0.0,-0.0023192211519926786,-0.005279217381030321,-0.0029606276657432318,1.0026909112930298,0.0,0.0,0.0,0.34295570850372314,10.212273597717285,2.250426769256592,-62.07566833496094,0
929.1710000000003,1.4842934433545452e-05,-2.3842763766879216e-05,-0.00017962875426746905,0.0,0.0,0.0,0.0,-0.002276602666825056,-0.0038767659571021795,0.0010988778667524457,1.0024594068527222,0.0,0.0,0.0,0.33020269870758057,10.216812133789062,2.236726760864258,-59.76734924316406,0
939.0519999999997,3.537944576237351e-05,-5.001412137062289e-05,-0.00018528646614868194,0.0,0.0,0.0,0.0,0.0034812455996870995,0.007292499765753746,-0.002081162529066205,1.0008935928344727,0.0,0.0,0.0,0.3396000564098358,10.211703300476074,2.2385175228118896,-61.468284606933594,0
948.9359999999997,3.764528810279444e-05,-0.00010342360474169254,-0.00017440914234612137,0.0,0.0,0.0,0.0,0.0010755123803392053,-0.0059977248311042786,0.002609845483675599,1.0006049871444702,0.0,0.0,0.0,0.3393215239048004,10.20002269744873,2.2328073978424072,-61.41787338256836,0
958.8269999999993,5.6681437854422256e-05,-0.00015730809536762536,-0.00018841936253011227,0.0,0.0,0.0,0.0,-0.00023203996533993632,0.002500043483451009,-0.0012294116895645857,1.000991702079773,0.0,0.0,0.0,0.34922271966934204,10.184762001037598,2.2182772159576416,-63.21001052856445,0
968.7039999999997,6.090536408009939e-05,-0.0002139977295883,-0.0001767035573720932,0.0,0.0,0.0,0.0,-0.0028527039103209972,-0.0018494026735424995,-0.0041932775638997555,1.000168800354004,0.0,0.0,0.0,0.3496994078159332,10.183171272277832,2.2319247722625732,-63.29629135131836,0
978.5939999999991,8.517615788150579e-05,-0.00018213188741356134,-0.0001692066725809127,0.0,0.0,0.0,0.0,0.00019258036627434194,-0.003026267746463418,-0.0005338452174328268,1.0000332593917847,0.0,0.0,0.0,0.35509252548217773,10.191673278808594,2.239506244659424,-64.27245330810547,0
988.4719999999998,-2.4122404283843935e-05,-9.609146218281239e-05,-0.000136723872856237,0.0,0.0,0.0,0.0,-0.001232600654475391,0.0012782503617927432,0.0006398436962626874,0.9995322823524475,0.0,0.0,0.0,0.33909574151039124,10.213868141174316,2.212636709213257,-61.37700653076172,0
998.3600000000006,-2.6232271920889616e-05,-0.00016159191727638245,-0.00011684342462103814,0.0,0.0,0.0,0.0,0.004025557078421116,-0.0013105074176564813,0.00042992987437173724,1.0003114938735962,0.0,0.0,0.0,0.35041695833206177,10.206987380981445,2.2245724201202393,-63.42616653442383,0
1008.2420000000002,-2.3041635358822532e-05,-0.00021534708503168076,-0.00010056757309939712,0.0,0.0,0.0,0.0,-0.0005004916456528008,-0.0024676432367414236,-0.00264719408005476,0.9996561408042908,0.0,0.0,0.0,0.3501441478729248,10.196014404296875,2.2305028438568115,-63.37678909301758,0
1018.1350000000002,-4.0521626942791045e-06,-0.00027172232512384653,-0.00011237482976866886,0.0,0.0,0.0,0.0,0.00046730361646041274,-0.00017381097131874412,0.0011129758786410093,0.9998618960380554,0.0,0.0,0.0,0.34918105602264404,10.18073558807373,2.2292306423187256,-63.20246124267578,0
1028.0120000000006,1.244872692041099e-06,-0.0003317403024993837,-9.740038512973115e-05,0.0,0.0,0.0,0.0,-0.0018099993467330933,0.0021847879979759455,-0.0019280104897916317,1.0008163452148438,0.0,0.0,0.0,0.34907934069633484,10.169638633728027,2.236989736557007,-63.184051513671875,0
1037.8999999999996,3.063889380428009e-05,-0.0002903049753513187,-8.840837836032733e-05,0.0,0.0,0.0,0.0,0.0019582724198698997,0.000908020359929651,-0.0036572280805557966,1.0004618167877197,0.0,0.0,0.0,0.34789741039276123,10.161107063293457,2.225785732269287,-62.970123291015625,0
1047.7810000000009,3.86952560802456e-05,-0.00035145244328305125,-7.241372804855928e-05,0.0,0.0,0.0,0.0,-0.004248965997248888,-0.0005625375197269022,0.0025724114384502172,1.0002663135528564,0.0,0.0,0.0,0.34722456336021423,10.152182579040527,2.218310832977295,-62.84833526611328,0
1057.6659999999993,6.149570253910497e-05,-0.00032402394572272897,-5.748932380811311e-05,0.0,0.0,0.0,0.0,-0.0023304689675569534,-0.007364319171756506,-0.0021845228038728237,1.0011824369430542,0.0,0.0,0.0,0.3603602647781372,10.169557571411133,2.224501609802246,-65.22592163085938,0
1067.5509999999995,6.862096051918343e-05,-0.00038042888627387583,-3.966561416746117e-05,0.0,0.0,0.0,0.0,-0.002506511053070426,-0.0007119271322153509,-0.0013334794202819467,0.9976617693901062,0.0,0.0,0.0,0.36089619994163513,10.171072959899902,2.2387189865112305,-65.32292938232422,0
1077.4439999999995,0.00011579124839045107,-0.0003333062049932778,-6.992675480432808e-05,0.0,0.0,0.0,0.0,0.0008995047537609935,-0.005116185173392296,0.0009971220279112458,0.9978784918785095,0.0,0.0,0.0,0.36739322543144226,10.195165634155273,2.2655887603759766,-66.49890899658203,0
1087.3199999999997,-1.7593580196262337e-05,-0.00025374465622007847,-8.370479918085039e-05,0.0,0.0,0.0,0.0,0.000934173003770411,-0.0021770871244370937,0.002301950706169009,0.9972149133682251,0.0,0.0,0.0,0.3516521751880646,10.227173805236816,2.22212553024292,-63.649742126464844,0
1097.2029999999995,8.732837886782363e-05,-0.00010023242066381499,-0.00013950774155091494,0.0,0.0,0.0,0.0,-0.003365709213539958,0.002779570873826742,-0.00016007664089556783,1.0005837678909302,0.0,0.0,0.0,0.3591914772987366,10.253785133361816,2.2501161098480225,-65.01437377929688,0
1107.0930000000008,9.132467675954103e-05,-0.0001423274225089699,-0.00013518698688130826,0.0,0.0,0.0,0.0,-0.0010303318267688155,-0.0007218400714918971,0.0004899619962088764,1.0007905960083008,0.0,0.0,0.0,0.3602617383003235,10.24643611907959,2.24399733543396,-65.20808410644531,0
1116.9840000000004,0.0001423260837327689,-8.792259177425876e-05,-0.00017400554497726262,0.0,0.0,0.0,0.0,0.002060181461274624,-0.00390639016404748,-0.0006716580828651786,1.001469373703003,0.0,0.0,0.0,0.3683966100215912,10.262680053710938,2.2597291469573975,-66.68052673339844,0
1126.8580000000002,5.589305510511622e-05,-6.814670632593334e-05,-0.0001842705241870135,0.0,0.0,0.0,0.0,-0.002333268290385604,0.0034044168423861265,-0.0006591667770408094,1.0010825395584106,0.0,0.0,0.0,0.351877361536026,10.26157283782959,2.240164041519165,-63.69050216674805,0
1136.7469999999994,0.00010543228563619778,-6.0285572544671595e-05,-0.0002246328367618844,0.0,0.0,0.0,0.0,-0.000443809520220384,0.0008846601704135537,0.002017698250710964,1.0004892349243164,0.0,0.0,0.0,0.35685062408447266,10.26648235321045,2.252976417541504,-64.5906753540039,0
1146.6329999999998,0.00011169251229148358,-0.00010169648157898337,-0.00022209096641745418,0.0,0.0,0.0,0.0,0.0009521917090751231,0.0020956627558916807,-0.00380209949798882,1.0006256103515625,0.0,0.0,0.0,0.3564435541629791,10.263035774230957,2.2541909217834473,-64.5169906616211,0
1156.5169999999998,0.00014920064131729305,-6.265070260269567e-05,-0.0002402390236966312,0.0,0.0,0.0,0.0,5.728423275286332e-05,-0.004725487902760506,-0.0024768307339400053,0.9992680549621582,0.0,0.0,0.0,0.3624204695224762,10.268024444580078,2.2583062648773193,-65.59882354736328,0
1166.3999999999996,0.00015437962429132313,-0.00010688354086596519,-0.00023742543999105692,0.0,0.0,0.0,0.0,0.0007392102270387113,-0.001235211151652038,-0.0035394206643104553,0.9991067051887512,0.0,0.0,0.0,0.3619052469730377,10.255088806152344,2.2539069652557373,-65.50556945800781,0
1176.2880000000005,0.00015525623166467994,-0.00016981616499833763,-0.00023001228692010045,0.0,0.0,0.0,0.0,8.956719102570787e-05,-0.001324970624409616,-0.0032407769467681646,0.9977332353591919,0.0,0.0,0.0,0.3706788420677185,10.242671012878418,2.2593936920166016,-67.09361267089844,0
1186.1679999999997,0.0001607191952643916,-0.00022025906946510077,-0.0002275004517287016,0.0,0.0,0.0,0.0,0.001026278710924089,-0.0021788375452160835,0.003880623262375593,0.9984892010688782,0.0,0.0,0.0,0.36932292580604553,10.234553337097168,2.264169931411743,-66.84818267822266,0
1196.0689999999995,0.000166069163242355,-0.00024487468181177974,-0.00021648767869919538,0.0,0.0,0.0,0.0,-0.0004240827402099967,-0.002983179409056902,0.0013405141653493047,0.9994188547134399,0.0,0.0,0.0,0.37543123960494995,10.230634689331055,2.258939743041992,-67.95379638671875,0
1205.9359999999997,0.00017117313109338284,-0.00030066719045862556,-0.0002154422109015286,0.0,0.0,0.0,0.0,0.0009743553237058222,0.0038413871079683304,0.0009268351714126766,0.9990139603614807,0.0,0.0,0.0,0.37637773156166077,10.220430374145508,2.2646501064300537,-68.12511444091797,0
1215.8279999999995,0.00018345704302191734,-0.00028857262805104256,-0.00020988989854231477,0.0,0.0,0.0,0.0,0.00016829716332722455,0.0020385989919304848,0.0004953311290591955,0.9985581636428833,0.0,0.0,0.0,0.38403159379959106,10.23618221282959,2.266749382019043,-69.51049041748047,0
1225.7160000000003,1.9376246200408787e-05,-0.00018689654825720936,-0.0002406036073807627,0.0,0.0,0.0,0.0,-0.002475504297763109,0.004469223786145449,0.0006604755762964487,0.9998803734779358,0.0,0.0,0.0,0.3674079477787018,10.266371726989746,2.2109851837158203,-66.5015640258789,0
1235.6020000000008,9.318599154539697e-07,-0.00026135711232200265,-0.00023155033704824746,0.0,0.0,0.0,0.0,0.0007732934900559485,0.0010149367153644562,0.0035460088402032852,1.000243067741394,0.0,0.0,0.0,0.368005633354187,10.253011703491211,2.2053017616271973,-66.6097412109375,0
1245.4750000000004,-5.451049582916312e-05,-0.00018656696192920208,-0.0001748567447066307,0.0,0.0,0.0,0.0,-0.0007661184063181281,-0.0007867100648581982,-0.002637421479448676,0.998470664024353,0.0,0.0,0.0,0.3542618155479431,10.265702247619629,2.1925387382507324,-64.1220932006836,0
1255.3790000000008,-1.2222146324347705e-05,-0.00016456726007163525,-0.0002097606484312564,0.0,0.0,0.0,0.0,0.003313725348562002,0.0017525237053632736,-0.0005831845919601619,1.001967430114746,0.0,0.0,0.0,0.3538554906845093,10.25265884399414,2.1922645568847656,-64.04854583740234,0
1265.2450000000008,-3.786459637922235e-05,-0.00011985260061919689,-0.00016125672846101224,0.0,0.0,0.0,0.0,0.0008952620555646718,0.0035805695224553347,0.00022331350191961974,1.0021836757659912,0.0,0.0,0.0,0.33977997303009033,10.255496978759766,2.1992290019989014,-61.5008544921875,0
1275.1360000000004,-6.500167273770785e-06,-0.0001445332309231162,-0.00019809343211818486,0.0,0.0,0.0,0.0,-0.0010225059231743217,-0.00299314153380692,-0.0018300211522728205,1.0032322406768799,0.0,0.0,0.0,0.3470939099788666,10.243125915527344,2.201981544494629,-62.82469177246094,0
1285.0139999999992,-1.7810817780627985e-06,-0.0001446144306100905,-0.00016038453031796962,0.0,0.0,0.0,0.0,0.0023330694530159235,0.0032923342660069466,-0.0024159864988178015,0.9977421164512634,0.0,0.0,0.0,0.33324772119522095,10.240893363952637,2.1820123195648193,-60.31850051879883,0
1294.914999999999,-4.657481895264937e-06,-0.00018818512035068125,-0.00014968602044973522,0.0,0.0,0.0,0.0,-0.0020654459949582815,-0.004873970057815313,-0.00014137060497887433,0.9984860420227051,0.0,0.0,0.0,0.34221988916397095,10.229354858398438,2.188175916671753,-61.94247817993164,0
1304.7890000000007,-1.6480456906720065e-05,-0.000180195173015818,-0.0001086442352971062,0.0,0.0,0.0,0.0,-0.0011406430276110768,-0.0013115252368152142,0.0024347351863980293,1.0002286434173584,0.0,0.0,0.0,0.32949745655059814,10.226268768310547,2.1742091178894043,-59.63969802856445,0
1314.6749999999993,2.5425630155950785e-05,-0.00018369074678048491,-0.00013937547919340432,0.0,0.0,0.0,0.0,0.001718366052955389,0.0017881457461044192,0.0015903704334050417,0.9997513294219971,0.0,0.0,0.0,0.3385545611381531,10.22484016418457,2.1820757389068604,-61.279048919677734,0
1324.5529999999999,-7.265110525622731e-06,-0.00017427220882382244,-0.00010595216735964641,0.0,0.0,0.0,0.0,-0.0011016890639439225,-0.00034085442894138396,-0.0003035186673514545,0.999057412147522,0.0,0.0,0.0,0.3254602253437042,10.228327751159668,2.181236743927002,-58.90895080566406,0
1334.4480000000003,3.190554343746044e-05,-0.00017285907233599573,-0.00013387633953243494,0.0,0.0,0.0,0.0,0.002385898260399699,-0.0017192850355058908,0.0019236390944570303,0.9991652369499207,0.0,0.0,0.0,0.3355981409549713,10.223018646240234,2.190216302871704,-60.743927001953125,0
1344.3230000000003,-3.197120167897083e-05,-0.00012835983943659812,-9.253220923710614e-05,0.0,0.0,0.0,0.0,0.0013798984000459313,-0.0014484028797596693,0.00011870636080857366,1.0005383491516113,0.0,0.0,0.0,0.32557404041290283,10.228716850280762,2.172738552093506,-58.9295539855957,0
1354.2189999999991,-2.2229487512959167e-05,-0.0001615815854165703,-9.674071770859882e-05,0.0,0.0,0.0,0.0,0.0013492886209860444,0.0030047304462641478,0.0033082410227507353,1.001478910446167,0.0,0.0,0.0,0.32550543546676636,10.218488693237305,2.1757020950317383,-58.917137145996094,0
1364.0959999999995,-5.3918363846605644e-05,-0.00013872093404643238,-5.236456127022393e-05,0.0,0.0,0.0,0.0,0.000330658454913646,0.0031383035238832235,0.002445946680381894,0.9999627470970154,0.0,0.0,0.0,0.31299063563346863,10.21730899810791,2.16705060005188,-56.65193176269531,0
1373.9869999999992,-3.778811515076086e-05,-0.00016692584904376417,-6.188582483446226e-05,0.0,0.0,0.0,0.0,-0.0014109982876107097,0.002522713504731655,-0.001908276928588748,0.9996331334114075,0.0,0.0,0.0,0.3123684525489807,10.203039169311523,2.1614830493927,-56.539310455322266,0
1383.8649999999998,-7.393976557068527e-05,-0.0001471410650992766,-1.7406764527549967e-05,0.0,0.0,0.0,0.0,-0.0016875530127435923,0.0031798158306628466,0.0010190261527895927,0.998308002948761,0.0,0.0,0.0,0.3041624128818512,10.206371307373047,2.14391827583313,-55.05399703979492,0
1393.75,-2.05099604499992e-05,-0.000143727011163719,-6.408095941878855e-05,0.0,0.0,0.0,0.0,-0.0016681506531313062,-0.003751304466277361,-0.002178901806473732,0.9995978474617004,0.0,0.0,0.0,0.30421942472457886,10.197103500366211,2.127615451812744,-55.06432342529297,0
1403.6309999999994,-6.226940604392439e-05,-0.00013285585737321526,-2.7870151825482026e-05,0.0,0.0,0.0,0.0,0.0009370885672979057,0.0015759585658088326,0.0020868198480457067,0.9992466568946838,0.0,0.0,0.0,0.2953222393989563,10.198029518127441,2.1150732040405273,-53.453914642333984,0
1413.5220000000008,-8.169181455741636e-06,-9.349926403956488e-05,-6.255811604205519e-05,0.0,0.0,0.0,0.0,-0.0013921530917286873,-0.0022057341411709785,0.0019491590792313218,0.9986910223960876,0.0,0.0,0.0,0.30241385102272034,10.208963394165039,2.1298437118530273,-54.73751449584961,0
1423.411,-1.4267617189034354e-05,-0.0001466459216317162,-4.747865750687197e-05,0.0,0.0,0.0,0.0,0.0003490811795927584,0.0036903389263898134,-0.0009974072454497218,1.0006989240646362,0.0,0.0,0.0,0.2944507896900177,10.1973237991333,2.120347261428833,-53.29617691040039,0
1433.2870000000003,7.211129559436813e-05,-8.786629041424021e-05,-0.00011912115587620065,0.0,0.0,0.0,0.0,-0.0007851845002733171,-0.00019187065481673926,0.00189378228969872,0.9997766613960266,0.0,0.0,0.0,0.30253469944000244,10.209298133850098,2.136077642440796,-54.7593879699707,0
1443.17,6.393040530383587e-05,-0.00014409804134629667,-0.00011522578279254958,0.0,0.0,0.0,0.0,0.0001696632243692875,0.0018654539017006755,-0.0013211035402491689,1.0007959604263306,0.0,0.0,0.0,0.3023014962673187,10.193069458007812,2.1138129234313965,-54.71717071533203,0
1453.0529999999999,0.00011774709855671972,-5.578538912232034e-05,-0.00015026103937998414,0.0,0.0,0.0,0.0,0.002621426247060299,-0.001698952284641564,0.00042153382673859596,1.0005598068237305,0.0,0.0,0.0,0.3098944425582886,10.220625877380371,2.141033411026001,-56.09151077270508,0
1462.941999999999,4.0294537029694766e-05,-7.307004125323147e-05,-0.0001599373936187476,0.0,0.0,0.0,0.0,-0.0010510802967473865,0.006245562341064215,0.0016816442366689444,0.9998581409454346,0.0,0.0,0.0,0.2948831617832184,10.221834182739258,2.1199920177459717,-53.37443923950195,0
1472.8289999999997,5.564767707255669e-05,-7.772121171001345e-05,-0.0001725056063150987,0.0,0.0,0.0,0.0,0.00047094692126847804,-0.0073912120424211025,-0.002342050662264228,0.9997211694717407,0.0,0.0,0.0,0.30302971601486206,10.215219497680664,2.1293163299560547,-54.84898376464844,0
1482.7070000000003,-1.2360168511804659e-05,-6.339190440485254e-05,-0.00015641852223780006,0.0,0.0,0.0,0.0,0.002148666651919484,-0.004387323744595051,0.0032596972305327654,0.999335527420044,0.0,0.0,0.0,0.292623907327652,10.219073295593262,2.11993145942688,-52.965511322021484,0
1492.5990000000002,-1.3078620213491376e-06,-6.466716149589047e-05,-0.00016481672355439514,0.0,0.0,0.0,0.0,-0.00011322803766233847,-0.0003956490836571902,-0.0017107072053477168,1.0000407695770264,0.0,0.0,0.0,0.2925911247730255,10.21235466003418,2.127469062805176,-52.95957565307617,0
1502.4779999999992,-3.64824227290228e-05,-5.358394264476374e-05,-0.00013715757813770324,0.0,0.0,0.0,0.0,-0.0005235578864812851,-0.00028781889704987407,-0.0022593033500015736,0.9989609122276306,0.0,0.0,0.0,0.28539252281188965,10.206164360046387,2.1248276233673096,-51.656620025634766,0
1512.3770000000004,-2.7249685444985516e-05,-8.331742719747126e-05,-0.00016202146071009338,0.0,0.0,0.0,0.0,0.002518360735848546,0.0012728461297228932,0.00012973439879715443,0.9970917105674744,0.0,0.0,0.0,0.2951285243034363,10.20179557800293,2.1267170906066895,-53.41884994506836,0
1522.2469999999994,-5.3565304369840305e-06,-0.00012355194485280663,-0.00013939828204456717,0.0,0.0,0.0,0.0,-0.0005805710097774863,-0.0001333497348241508,0.0006925850757397711,0.9989506006240845,0.0,0.0,0.0,0.28469812870025635,10.190840721130371,2.1240289211273193,-51.53092575073242,0
1532.1479999999992,9.351000699098222e-06,-0.00014298157475423068,-0.000168784215929918,0.0,0.0,0.0,0.0,-0.00013145805860403925,0.0020095400977879763,0.0008749229600653052,0.9993847012519836,0.0,0.0,0.0,0.2941439151763916,10.180486679077148,2.1316468715667725,-53.240631103515625,0
1542.0210000000006,-5.577986485150177e-06,-0.00014915232895873487,-0.00014430511509999633,0.0,0.0,0.0,0.0,0.00018290441948920488,-0.0002770257415249944,-0.0014665041817352176,0.9997433423995972,0.0,0.0,0.0,0.28471213579177856,10.175663948059082,2.121782064437866,-51.53346252441406,0
1551.9079999999994,2.1745234334957786e-05,-0.00015741106471978128,-0.00018400826957076788,0.0,0.0,0.0,0.0,0.00023649672220926732,-0.00035773144918493927,-0.0012350801844149828,0.9997661709785461,0.0,0.0,0.0,0.29157325625419617,10.17186450958252,2.1228885650634766,-52.77534103393555,0
1561.786,4.212572093820199e-06,-0.0002159100549761206,-0.00018638203619048,0.0,0.0,0.0,0.0,0.003203130792826414,-0.004579370841383934,0.000159154471475631,0.999893844127655,0.0,0.0,0.0,0.29012787342071533,10.155757904052734,2.1171343326568604,-52.51372528076172,0
1571.682999999999,5.2677893108921126e-05,-0.00015278517093975097,-0.00024138650042004883,0.0,0.0,0.0,0.0,-0.0017531064804643393,0.003228632966056466,-0.00032047313288785517,1.0015602111816406,0.0,0.0,0.0,0.29000866413116455,10.145547866821289,2.11811900138855,-52.49214172363281,0
1581.5550000000003,3.663583629531786e-05,-0.0002077345852740109,-0.0002467379963491112,0.0,0.0,0.0,0.0,-0.00044513106695376337,0.0011461348040029407,-0.002143275225535035,1.0032092332839966,0.0,0.0,0.0,0.2909816801548004,10.135334968566895,2.1339879035949707,-52.66826629638672,0
1591.4580000000005,3.318603558000177e-05,-0.00015000886924099177,-0.00023666894412599504,0.0,0.0,0.0,0.0,-0.0018954956904053688,-0.001212561153806746,-0.0021182680502533913,0.9981158971786499,0.0,0.0,0.0,0.2989211976528168,10.164522171020508,2.1291356086730957,-54.10532760620117,0
1601.3289999999997,1.6055480955401435e-05,-0.00020128786854911596,-0.00023612796212546527,0.0,0.0,0.0,0.0,0.0027895800303667784,0.0003595413872972131,-0.0018607081146910787,0.9964318871498108,0.0,0.0,0.0,0.2985493838787079,10.150636672973633,2.1193020343780518,-54.03803634643555,0
1611.2170000000006,-8.935252481023781e-06,-0.0002005974529311061,-0.0002103561273543164,0.0,0.0,0.0,0.0,0.000449133338406682,0.005935939960181713,-0.00011239397281315178,0.99803626537323,0.0,0.0,0.0,0.30604425072669983,10.15433120727539,2.120227575302124,-55.39461898803711,0
1621.1010000000006,-2.801752634695731e-05,-0.0002528577169869095,-0.00021078069403301924,0.0,0.0,0.0,0.0,-0.001793973962776363,-0.0010795389534905553,0.0011077042436227202,1.0007877349853516,0.0,0.0,0.0,0.3040790557861328,10.139286041259766,2.0999033451080322,-55.03891372680664,0
1630.9889999999996,-1.3986979865876492e-05,-0.00022796746634412557,-0.00023322862398345023,0.0,0.0,0.0,0.0,0.003502611070871353,0.0015817105304449797,0.0006247468991205096,0.9995930790901184,0.0,0.0,0.0,0.31121984124183655,10.158549308776855,2.1194770336151123,-56.3314094543457,0
1640.8619999999992,-1.7894995835376903e-05,-0.00020468264119699597,-0.00017225873307324946,0.0,0.0,0.0,0.0,-0.000403910904424265,0.006414557341486216,-0.003357011592015624,0.9987446665763855,0.0,0.0,0.0,0.2994922697544098,10.172120094299316,2.1102454662323,-54.20869827270508,0
1650.7569999999996,-2.178328577429056e-05,-0.00020525703439489007,-0.0001627325837034732,0.0,0.0,0.0,0.0,0.003138151718303561,-0.0024327521678060293,-0.0013491351855918765,0.9994029402732849,0.0,0.0,0.0,0.29854801297187805,10.153589248657227,2.1023447513580322,-54.037784576416016,0
1660.6309999999994,-3.7476056604646146e-05,-0.0002519316039979458,-0.00016033495194278657,0.0,0.0,0.0,0.0,-0.0017469758167862892,-0.0014408050337806344,-0.0012038311688229442,0.9992815256118774,0.0,0.0,0.0,0.2972888648509979,10.14517879486084,2.0953400135040283,-53.80987548828125,0
1670.5280000000002,-1.4672154975414742e-05,-0.00021526786440517753,-0.00018703320529311895,0.0,0.0,0.0,0.0,-0.003295064438134432,-0.0036887084133923054,0.001329343649558723,0.9992039203643799,0.0,0.0,0.0,0.3059765696525574,10.150158882141113,2.1164262294769287,-55.38236999511719,0
1680.4069999999992,-5.874469206901267e-05,-0.0001451548741897568,-0.00012645595415960997,0.0,0.0,0.0,0.0,-0.0011501217959448695,0.0006253723986446857,-0.002881050342693925,0.9969589710235596,0.0,0.0,0.0,0.29528889060020447,10.168084144592285,2.1124155521392822,-53.4478759765625,0
1690.2939999999999,-5.4399519285652786e-05,-0.00015794839418958873,-0.00013314146781340241,0.0,0.0,0.0,0.0,0.0011166787007823586,-0.005075326655060053,-0.0015410049818456173,0.997778058052063,0.0,0.0,0.0,0.3009107708930969,10.160686492919922,2.1241543292999268,-54.465450286865234,0
1700.1720000000005,-6.595299782929942e-05,-0.0002003378322115168,-0.00013199943350628018,0.0,0.0,0.0,0.0,-0.0034418373834341764,-0.0031911740079522133,-0.0010324864415451884,1.0008747577667236,0.0,0.0,0.0,0.3011800944805145,10.150263786315918,2.134892702102661,-54.51419448852539,0
1710.063,-3.091204780503176e-05,-0.00018334742344450206,-0.00018190150149166584,0.0,0.0,0.0,0.0,-0.00164404371753335,0.0005043995915912092,-0.0008969345362856984,1.0007580518722534,0.0,0.0,0.0,0.3098088800907135,10.158858299255371,2.1604294776916504,-56.07602310180664,0
1719.9400000000005,-3.574234506231733e-05,-0.00022599668591283262,-0.00018459177226759493,0.0,0.0,0.0,0.0,-0.000746917212381959,-0.0021454899106174707,0.001273380359634757,1.00120210647583,0.0,0.0,0.0,0.3100835680961609,10.150476455688477,2.160414695739746,-56.1257438659668,0
1729.8449999999993,-1.2293533472984564e-05,-0.0001990930177271366,-0.0002137000992661342,0.0,0.0,0.0,0.0,0.004448572639375925,0.0005097666871733963,-0.0019105043029412627,1.0009417533874512,0.0,0.0,0.0,0.30973124504089355,10.143576622009277,2.1607542037963867,-56.06196975708008,0
1739.7129999999997,-4.877875107922591e-05,-0.00011876442295033485,-0.00015144835924729705,0.0,0.0,0.0,0.0,-0.0005476099322549999,-0.0011392388259992003,0.0008178433636203408,1.0019465684890747,0.0,0.0,0.0,0.30049726366996765,10.159055709838867,2.152020215988159,-54.390602111816406,0
1749.6090000000004,-6.647237114520976e-06,-8.179734140867367e-05,-0.00017843676323536783,0.0,0.0,0.0,0.0,0.00022831157548353076,-0.005172517150640488,4.5962206058902666e-05,1.0000948905944824,0.0,0.0,0.0,0.31028860807418823,10.156376838684082,2.1503212451934814,-56.16286087036133,0
1759.4789999999994,-1.6451313058496453e-05,-6.509971717605367e-05,-0.000143348632263951,0.0,0.0,0.0,0.0,0.0011076348600909114,0.0008597533451393247,-0.00025012154947035015,0.9975841641426086,0.0,0.0,0.0,0.2988566756248474,10.15401840209961,2.1489429473876953,-54.09365463256836,0
1769.3729999999996,5.9049987612525e-05,-5.2736081670445856e-06,-0.00020270771346986294,0.0,0.0,0.0,0.0,-0.0011241151951253414,-0.0009887173073366284,0.0026863478124141693,0.9985377192497253,0.0,0.0,0.0,0.3048391342163086,10.162986755371094,2.1695823669433594,-55.176490783691406,0
1779.2479999999996,4.0355054807150736e-05,-4.113859176868573e-05,-0.00020481142564676702,0.0,0.0,0.0,0.0,0.003177420236170292,8.704368519829586e-05,0.0007337348652072251,0.9984105825424194,0.0,0.0,0.0,0.2941182553768158,10.15676498413086,2.155954360961914,-53.235992431640625,0
1789.1460000000006,9.573973511578515e-05,-8.834063009999227e-06,-0.0002495069638825953,0.0,0.0,0.0,0.0,-0.0015518779400736094,0.002264440292492509,-0.002391497604548931,0.9978152513504028,0.0,0.0,0.0,0.30321234464645386,10.158880233764648,2.164011001586914,-54.882041931152344,0
1799.0259999999998,9.724241681396961e-05,-4.98196022817865e-05,-0.0002542549336794764,0.0,0.0,0.0,0.0,-0.001331192790530622,0.0004787315847352147,-0.00414826488122344,1.0012781620025635,0.0,0.0,0.0,0.301382452249527,10.154440879821777,2.1623613834381104,-54.55082702636719,0
1808.9220000000005,0.00012995529687032104,-3.500319871818647e-05,-0.00028684240533038974,0.0,0.0,0.0,0.0,-0.0013517469633370638,0.0027677190955728292,0.0014252891996875405,1.0027146339416504,0.0,0.0,0.0,0.3077799081802368,10.156209945678711,2.182454824447632,-55.708778381347656,0
1818.7880000000005,7.673585787415504e-05,-2.6134095605812036e-05,-0.000289133342448622,0.0,0.0,0.0,0.0,0.0037957399617880583,0.006742903497070074,0.0007165095885284245,1.0009342432022095,0.0,0.0,0.0,0.2938051223754883,10.162065505981445,2.1685032844543457,-53.17931365966797,0
1828.6839999999993,6.499666778836399e-05,-0.00010559554357314482,-0.000293506687739864,0.0,0.0,0.0,0.0,-0.0015787334414198995,-0.001702500507235527,0.0007617892697453499,0.9990267157554626,0.0,0.0,0.0,0.3003670275211334,10.143640518188477,2.155632734298706,-54.36702346801758,0
1838.566999999999,3.533080598572269e-05,-9.129696263698861e-05,-0.0002724633668549359,0.0,0.0,0.0,0.0,0.0038646941538900137,0.0007848496898077428,-0.0006570720579475164,0.9991686940193176,0.0,0.0,0.0,0.2893402576446533,10.137444496154785,2.137173891067505,-52.37116241455078,0
1848.450999999999,2.7752266760217026e-05,-0.0001466724497731775,-0.00027217299793846905,0.0,0.0,0.0,0.0,-0.004105689935386181,-0.005946590099483728,0.0008112246287055314,1.0015995502471924,0.0,0.0,0.0,0.30095356702804565,10.125544548034668,2.1379942893981934,-54.47319412231445,0
1858.3279999999995,-9.24493360798806e-06,-0.00010018055036198348,-0.00023579284606967121,0.0,0.0,0.0,0.0,0.00018675460887607187,0.0049866484478116035,0.002181801712140441,1.0021528005599976,0.0,0.0,0.0,0.29179325699806213,10.126614570617676,2.1382014751434326,-52.81515884399414,0
1868.2180000000008,-3.570592525647953e-06,-0.00013081046927254647,-0.00024270167341455817,0.0,0.0,0.0,0.0,-0.001011930755339563,0.005788648035377264,-0.000537472078576684,1.0002927780151367,0.0,0.0,0.0,0.29940465092658997,10.121171951293945,2.1462056636810303,-54.19283676147461,0
1878.1020000000008,-2.2121774236438796e-05,-0.00010915550228673965,-0.00020580663112923503,0.0,0.0,0.0,0.0,0.0014983222354203463,8.390371658606455e-05,-0.003293790156021714,0.9976873397827148,0.0,0.0,0.0,0.29226645827293396,10.122049331665039,2.1257500648498535,-52.90081024169922,0
1887.9920000000002,4.376971446617972e-06,-7.838215242372826e-05,-0.00021158064191695303,0.0,0.0,0.0,0.0,-0.0006575594306923449,-0.002427327446639538,0.004242174327373505,0.997458815574646,0.0,0.0,0.0,0.29862064123153687,10.119571685791016,2.125462532043457,-54.050933837890625,0
1897.8649999999998,-6.204243618412875e-06,-0.0001255874230992049,-0.00020434950420167297,0.0,0.0,0.0,0.0,-0.0035981559194624424,-0.002179565839469433,0.00033040143898688257,0.9985822439193726,0.0,0.0,0.0,0.2983655631542206,10.113492012023926,2.1368064880371094,-54.004756927490234,0
1907.7610000000004,-2.599497020128183e-05,-0.0001608782185940072,-0.0001817627198761329,0.0,0.0,0.0,0.0,-0.00039558784919790924,0.006067338399589062,-0.005160127300769091,0.9972628951072693,0.0,0.0,0.0,0.2976692020893097,10.105164527893066,2.115434408187866,-53.87871551513672,0
1917.6440000000002,-3.865733742713928e-05,-0.00020863424288108945,-0.0001761163439368829,0.0,0.0,0.0,0.0,0.002032024087384343,-0.002234603278338909,0.001613345113582909,0.9996426105499268,0.0,0.0,0.0,0.29825976490974426,10.09291934967041,2.1292471885681152,-53.98561096191406,0
1927.5259999999998,-2.5229748644051142e-05,-0.00019292975775897503,-0.0001947107375599444,0.0,0.0,0.0,0.0,0.001523444545455277,-0.003757103346288204,-0.00246787560172379,1.0016905069351196,0.0,0.0,0.0,0.3055073022842407,10.099992752075195,2.1312434673309326,-55.297428131103516,0
1937.4120000000003,-6.48788918624632e-05,-0.00013058377953711897,-0.000136679969727993,0.0,0.0,0.0,0.0,0.0032393254805356264,0.004704954102635384,0.0009553402196615934,1.000475287437439,0.0,0.0,0.0,0.2972639203071594,10.113428115844727,2.1190550327301025,-53.805362701416016,0
1947.2970000000005,-6.869723438285291e-05,-0.00016603861877229065,-0.00013610270980279893,0.0,0.0,0.0,0.0,-0.0007048923871479928,-0.0009326991275884211,0.0008258058223873377,0.9987849593162537,0.0,0.0,0.0,0.306593120098114,10.10542106628418,2.118462562561035,-55.49396514892578,0
1957.1730000000007,-8.005868585314602e-05,-0.00012659686035476625,-7.641350384801626e-05,0.0,0.0,0.0,0.0,0.0007628268213011324,0.004255407489836216,-0.004259680397808552,0.9981995820999146,0.0,0.0,0.0,0.2964547276496887,10.109476089477539,2.116123914718628,-53.65889358520508,0
1967.0679999999993,-3.949325764551759e-05,-0.00010855765867745504,-0.0001191322662634775,0.0,0.0,0.0,0.0,0.000380971614504233,0.004911390133202076,-0.0005731760174967349,0.9987456798553467,0.0,0.0,0.0,0.3025895655155182,10.105989456176758,2.1232359409332275,-54.769309997558594,0
1976.941999999999,-5.567568587139249e-05,-9.855710959527642e-05,-7.981751696206629e-05,0.0,0.0,0.0,0.0,-0.001334375236183405,-0.00015526880451943725,0.0004250209894962609,1.0005807876586914,0.0,0.0,0.0,0.29098960757255554,10.109357833862305,2.101957321166992,-52.669700622558594,0
1986.8430000000008,-3.053630643989891e-05,-0.00012066007911926135,-0.0001240988785866648,0.0,0.0,0.0,0.0,0.005786527413874865,0.0028552773874253035,-0.0006145109073258936,1.001476526260376,0.0,0.0,0.0,0.30226436257362366,10.100747108459473,2.1135923862457275,-54.71044921875,0
1996.7119999999995,-5.1264461944811046e-05,-0.00017100380500778556,-0.00011742152855731547,0.0,0.0,0.0,0.0,-0.0036814878694713116,-0.0008878424996510148,-0.0023572242353111506,1.0008671283721924,0.0,0.0,0.0,0.30216172337532043,10.088866233825684,2.104477882385254,-54.691871643066406,0
2006.6049999999996,-2.755811692622956e-05,-0.00017154648958239704,-0.00015739028458483517,0.0,0.0,0.0,0.0,0.0018895138055086136,-0.002361278049647808,-0.0017914505442604423,0.9982268214225769,0.0,0.0,0.0,0.3116507828235626,10.085198402404785,2.1081459522247314,-56.40940856933594,0
2016.482,-5.674604108207859e-05,-0.00014007394202053547,-0.0001059108690242283,0.0,0.0,0.0,0.0,0.00298483669757843,-0.0022604851983487606,0.0008526444435119629,0.9987609386444092,0.0,0.0,0.0,0.30055519938468933,10.093639373779297,2.1082465648651123,-54.40108871459961,0
2026.384,-2.36976302403491e-05,-0.00013509848213288933,-0.00014508170715998858,0.0,0.0,0.0,0.0,0.0013169036246836185,0.005388456862419844,-0.0014330295380204916,0.9986186623573303,0.0,0.0,0.0,0.30437251925468445,10.090132713317871,2.1163330078125,-55.09203338623047,0
2036.2530000000006,-4.887859904556535e-05,-0.00011384111712686718,-0.0001049316197168082,0.0,0.0,0.0,0.0,8.646554488223046e-05,0.0020505597349256277,-0.0001121837121900171,0.9977506399154663,0.0,0.0,0.0,0.29787665605545044,10.082382202148438,2.1126585006713867,-53.91626739501953,0
2046.1479999999992,-2.320666862942744e-05,-0.00014032569015398622,-0.0001491769216954708,0.0,0.0,0.0,0.0,0.0008859665831550956,0.0040294099599123,-0.003751138923689723,1.0003803968429565,0.0,0.0,0.0,0.30436474084854126,10.072183609008789,2.1066763401031494,-55.09062194824219,0
2056.0200000000004,-1.1399150935176294e-05,-0.00015468505444005132,-0.00011901926336577162,0.0,0.0,0.0,0.0,-0.0006374297081492841,0.0015930274967104197,-0.0016939736669883132,0.9989714026451111,0.0,0.0,0.0,0.2923598289489746,10.072569847106934,2.091356039047241,-52.91770553588867,0
2065.9179999999997,1.704595888440963e-05,-0.00016826171486172825,-0.0001619597605895251,0.0,0.0,0.0,0.0,-0.0011088886531069875,0.0011031238827854395,9.063794277608395e-05,1.0020902156829834,0.0,0.0,0.0,0.30173298716545105,10.074853897094727,2.095212697982788,-54.6142692565918,0
2075.798999999999,1.978514774236828e-07,-0.00022017335868440568,-0.00016180737293325365,0.0,0.0,0.0,0.0,-0.0008594013634137809,-0.004848773125559092,-0.0003990496916230768,0.999407947063446,0.0,0.0,0.0,0.30135101079940796,10.062067985534668,2.0893654823303223,-54.545127868652344,0
2085.6839999999993,2.219789348600898e-05,-0.00014325337542686611,-0.00017379436758346856,0.0,0.0,0.0,0.0,-0.00029509616433642805,-0.00038615555968135595,-0.002169296145439148,0.9994220733642578,0.0,0.0,0.0,0.3073820471763611,10.084482192993164,2.0949015617370605,-55.636756896972656,0
2095.572,-1.3216620573075488e-05,-0.00015554802666883916,-0.0001597011723788455,0.0,0.0,0.0,0.0,0.002120252698659897,-0.001626425888389349,-0.0007259492995217443,1.0015939474105835,0.0,0.0,0.0,0.2970970571041107,10.075894355773926,2.0988049507141113,-53.7751579284668,0
