timestamp,stateEstimate.x,stateEstimate.y,stateEstimate.z,controller.cmd_thrust,controller.cmd_roll,controller.cmd_pitch,controller.cmd_yaw,controller.r_roll,controller.r_pitch,controller.r_yaw,controller.accelz,controller.actuatorThrust,controller.roll,controller.pitch,controller.yaw,controller.rollRate,controller.pitchRate,controller.yawRate,controller.ctr_yaw
0.0,-0.049113787710666656,0.015356414020061493,-0.00073140679160133,0.0,0.0,0.0,0.0,0.001459300983697176,0.0009258415666408837,-0.0010464783990755677,1.0012696981430054,0.0,0.0,0.0,18.00534439086914,9.060442924499512,2.292975902557373,-3259.0029296875,0
9.889000000001033,-0.049085523933172226,0.015351519919931889,-0.0006349015166051686,0.0,0.0,0.0,0.0,0.0011480823159217834,0.0010218635434284806,-0.0007283019367605448,1.000942587852478,0.0,0.0,0.0,18.023839950561523,9.059741020202637,2.2823991775512695,-3262.35107421875,0
19.766999999999825,-0.049025822430849075,0.015307235531508923,-0.0006039830041117966,0.0,0.0,0.0,0.0,-0.0008418564102612436,-0.0022966591641306877,0.0014971758937463164,1.0022830963134766,0.0,0.0,0.0,18.00548553466797,9.047595977783203,2.266550302505493,-3259.02880859375,0
29.663000000000466,-0.049004144966602325,0.015317746438086033,-0.0005011593457311392,0.0,0.0,0.0,0.0,0.0013843717752024531,0.003205268643796444,-0.0002983235171996057,1.0003573894500732,0.0,0.0,0.0,18.026226043701172,9.054194450378418,2.2757620811462402,-3262.782958984375,0
39.53600000000006,-0.048949118703603745,0.015277622267603874,-0.00046373368240892887,0.0,0.0,0.0,0.0,-0.0006614224403165281,0.0033803752157837152,0.0004839374450966716,0.998908281326294,0.0,0.0,0.0,18.007688522338867,9.041192054748535,2.2658629417419434,-3259.427490234375,0
49.423000000000684,-0.048857033252716064,0.015279902145266533,-0.00041900615906342864,0.0,0.0,0.0,0.0,-6.466150080086663e-05,-0.0008951025665737689,-0.0011433608597144485,1.0002610683441162,0.0,0.0,0.0,18.029787063598633,9.048274040222168,2.273371696472168,-3263.427490234375,0
59.309000000001106,-0.04879799112677574,0.015238774940371513,-0.00038172374479472637,0.0,0.0,0.0,0.0,0.0017843396635726094,0.007741785142570734,-0.0008050957112573087,0.9990148544311523,0.0,0.0,0.0,18.011184692382812,9.041081428527832,2.2772529125213623,-3260.060302734375,0
69.19300000000112,-0.048708848655223846,0.015240861102938652,-0.00033531716326251626,0.0,0.0,0.0,0.0,-0.003039322327822447,-0.003845407860353589,0.0029788408428430557,0.9988369345664978,0.0,0.0,0.0,18.031578063964844,9.043660163879395,2.277855396270752,-3263.751708984375,0
79.08300000000054,-0.048647355288267136,0.015198196284472942,-0.0002985282917506993,0.0,0.0,0.0,0.0,-0.0026425025425851345,0.0011170844081789255,-0.0011753482976928353,0.998897910118103,0.0,0.0,0.0,18.014202117919922,9.041945457458496,2.2850799560546875,-3260.6064453125,0
88.97800000000097,-0.04856341332197189,0.015195084735751152,-0.00024546656641177833,0.0,0.0,0.0,0.0,0.0031379691790789366,-0.007690737955272198,-0.00361027498729527,1.0006840229034424,0.0,0.0,0.0,18.03778839111328,9.049847602844238,2.2905726432800293,-3264.875732421875,0
98.85100000000057,-0.04850064218044281,0.015151443891227245,-0.0002084129664581269,0.0,0.0,0.0,0.0,-0.0005658596055582166,0.0007366165518760681,0.0049152979627251625,1.0009639263153076,0.0,0.0,0.0,18.019351959228516,9.035581588745117,2.302107095718384,-3261.538818359375,0
108.73700000000099,-0.04837927222251892,0.015146948397159576,-0.0001792876428226009,0.0,0.0,0.0,0.0,7.970606384333223e-05,3.6057823308510706e-05,0.0012946921633556485,1.0013880729675293,0.0,0.0,0.0,18.047338485717773,9.042167663574219,2.3206262588500977,-3266.604248046875,0
118.63100000000122,-0.04831398278474808,0.015101287513971329,-0.00014135266246739775,0.0,0.0,0.0,0.0,-0.0004027808317914605,-0.0017652183305472136,-0.0036425585858523846,1.0004159212112427,0.0,0.0,0.0,18.02887725830078,9.033280372619629,2.3116016387939453,-3263.262939453125,0
128.5020000000004,-0.048227373510599136,0.015140058472752571,-8.276075823232532e-05,0.0,0.0,0.0,0.0,-0.00016549500287510455,-0.0044789002276957035,0.0004188325838185847,0.9981881380081177,0.0,0.0,0.0,18.045557022094727,9.053179740905762,2.335617780685425,-3266.281982421875,0
138.40099999999984,-0.04815874621272087,0.015100008808076382,-4.3274485506117344e-05,0.0,0.0,0.0,0.0,-8.579459972679615e-05,-0.003175356425344944,-0.0013900725170969963,1.0005866289138794,0.0,0.0,0.0,18.027807235717773,9.046098709106445,2.352677822113037,-3263.069091796875,0
148.28600000000006,-0.04810241237282753,0.015087714418768883,2.56683342740871e-05,0.0,0.0,0.0,0.0,0.0004431164124980569,-0.0013456414453685284,0.001610681414604187,1.0020301342010498,0.0,0.0,0.0,18.04665184020996,9.046340942382812,2.362403392791748,-3266.47998046875,0
158.16200000000026,-0.048031918704509735,0.015048324130475521,6.9466455897782e-05,0.0,0.0,0.0,0.0,-0.0017235077684745193,-0.0030938261188566685,-0.0009065838530659676,1.0018928050994873,0.0,0.0,0.0,18.029277801513672,9.03486442565918,2.3600714206695557,-3263.33544921875,0
168.04800000000068,-0.04798469692468643,0.015048626810312271,0.00014538667164742947,0.0,0.0,0.0,0.0,0.0010529421269893646,0.0047526308335363865,0.003973790444433689,1.0013595819473267,0.0,0.0,0.0,18.04511070251465,9.04294204711914,2.366401433944702,-3266.200927734375,0
177.9290000000001,-0.04791323468089104,0.015004350803792477,0.00019651936599984765,0.0,0.0,0.0,0.0,-0.0005448299343697727,-0.00200818944722414,-0.00011625799379544333,1.0000581741333008,0.0,0.0,0.0,18.028661727905273,9.031009674072266,2.361093759536743,-3263.223388671875,0
187.82000000000153,-0.04792602360248566,0.015020409598946571,0.0003072033287025988,0.0,0.0,0.0,0.0,-0.003910530358552933,0.00398170854896307,0.001224303268827498,0.9992067217826843,0.0,0.0,0.0,18.04793930053711,9.040892601013184,2.3431668281555176,-3266.712646484375,0
197.71000000000095,-0.04785437509417534,0.014977702870965004,0.0003655251348391175,0.0,0.0,0.0,0.0,-0.002022314351052046,-0.002887631766498089,0.0029360500629991293,1.0002318620681763,0.0,0.0,0.0,18.030324935913086,9.038740158081055,2.3346855640411377,-3263.524658203125,0
207.59799999999996,-0.04784202203154564,0.014980142004787922,0.0004595180507749319,0.0,0.0,0.0,0.0,-0.000702278281096369,-0.004720140714198351,0.00145029800478369,1.0020936727523804,0.0,0.0,0.0,18.047128677368164,9.040288925170898,2.341806173324585,-3266.56591796875,0
217.47100000000137,-0.04776831343770027,0.01493832003325224,0.0005237518926151097,0.0,0.0,0.0,0.0,0.000948497443459928,0.0007683873409405351,0.0025052058044821024,1.0003435611724854,0.0,0.0,0.0,18.028528213500977,9.02446460723877,2.3430941104888916,-3263.199462890625,0
227.35800000000017,-0.04766204580664635,0.014919460751116276,0.0005973480292595923,0.0,0.0,0.0,0.0,-0.0019970720168203115,0.0032830126583576202,-0.004076426848769188,1.0003083944320679,0.0,0.0,0.0,18.046667098999023,9.01893424987793,2.352778911590576,-3266.482666015625,0
355.8590000000004,-0.046298060566186905,0.01454587746411562,0.001630132319405675,0.0,0.0,0.0,0.0,-0.0035174479708075523,0.0008473972557112575,0.0004855907754972577,0.9989907741546631,0.0,0.0,0.0,18.032724380493164,8.984579086303711,2.381936550140381,-3263.958740234375,0
365.7400000000016,-0.046185243874788284,0.014506879262626171,0.0017029681475833058,0.0,0.0,0.0,0.0,9.722122922539711e-05,-0.001564864651300013,0.0002908815804403275,0.9987581968307495,0.0,0.0,0.0,18.04857063293457,8.987874984741211,2.3770055770874023,-3266.827392578125,0
375.6230000000014,-0.04606223478913307,0.014454618096351624,0.0017791308928281069,0.0,0.0,0.0,0.0,0.001467206864617765,0.0005870611639693379,0.0022845061030238867,0.9995295405387878,0.0,0.0,0.0,18.031147003173828,8.981825828552246,2.383180856704712,-3263.673583984375,0
385.5110000000004,-0.045952655375003815,0.014416486956179142,0.0018606007797643542,0.0,0.0,0.0,0.0,0.0029315368738025427,0.0006013490492478013,-0.003940897062420845,0.9990350008010864,0.0,0.0,0.0,18.048599243164062,8.975044250488281,2.3806028366088867,-3266.832275390625,0
395.39600000000064,-0.04582512378692627,0.014362465590238571,0.0019374791299924254,0.0,0.0,0.0,0.0,-0.001742472522892058,-0.00014389987336471677,0.001783451996743679,0.9998841881752014,0.0,0.0,0.0,18.030044555664062,8.956886291503906,2.3730897903442383,-3263.473876953125,0
405.2930000000015,-0.04581480845808983,0.0143416877835989,0.0020105107687413692,0.0,0.0,0.0,0.0,8.472923218505457e-05,0.007688346318900585,-7.846700464142486e-05,0.9981818199157715,0.0,0.0,0.0,18.0450496673584,8.957683563232422,2.357621908187866,-3266.18994140625,0
415.16300000000047,-0.0456894189119339,0.01428279373794794,0.0020903386175632477,0.0,0.0,0.0,0.0,-0.00024825974833220243,-0.002099887002259493,-0.0011965183075517416,0.9996243119239807,0.0,0.0,0.0,18.02677345275879,8.955116271972656,2.346203565597534,-3262.882080078125,0
425.0540000000001,-0.045717526227235794,0.01428406685590744,0.002149800071492791,0.0,0.0,0.0,0.0,0.00071351183578372,-0.003859670599922538,0.000981488497927785,1.0002176761627197,0.0,0.0,0.0,18.03461456298828,8.963300704956055,2.332667112350464,-3264.30126953125,0
434.9310000000005,-0.045595087110996246,0.014225399121642113,0.002233747858554125,0.0,0.0,0.0,0.0,-0.0016066605458036065,-0.00405803881585598,-0.0005098882247693837,1.0013909339904785,0.0,0.0,0.0,18.01689338684082,8.951156616210938,2.3331692218780518,-3261.093505859375,0
444.8240000000005,-0.04559585079550743,0.01421982143074274,0.0023030659649521112,0.0,0.0,0.0,0.0,0.002345725428313017,-0.0037485079374164343,-0.0013174844207242131,0.998712956905365,0.0,0.0,0.0,18.032085418701172,8.959155082702637,2.3301217555999756,-3263.843505859375,0
454.6959999999999,-0.04547560587525368,0.014157316647469997,0.002391921356320381,0.0,0.0,0.0,0.0,0.001124915899708867,0.0019294071244075894,0.00045368491555564106,0.999627947807312,0.0,0.0,0.0,18.013853073120117,8.943761825561523,2.340700626373291,-3260.543212890625,0
464.59400000000096,-0.04545503109693527,0.014156082645058632,0.0024626110680401325,0.0,0.0,0.0,0.0,0.0014370299177244306,0.0017161384457722306,-0.0034868759103119373,1.0020192861557007,0.0,0.0,0.0,18.033031463623047,8.949810028076172,2.3253796100616455,-3264.014892578125,0
474.4790000000012,-0.04533527418971062,0.014092720113694668,0.002554995007812977,0.0,0.0,0.0,0.0,0.0004169649037066847,0.0010419368045404553,0.001983621856197715,0.999711275100708,0.0,0.0,0.0,18.01416015625,8.934401512145996,2.3103294372558594,-3260.59912109375,0
484.3680000000004,-0.04517229646444321,0.014059294946491718,0.002656734548509121,0.0,0.0,0.0,0.0,-0.00010330366785638034,0.0025557794142514467,0.00320354662835598,0.9984686970710754,0.0,0.0,0.0,18.03082275390625,8.935310363769531,2.315924644470215,-3263.61474609375,0
494.2350000000006,-0.04504629597067833,0.013994436711072922,0.0027488532941788435,0.0,0.0,0.0,0.0,-0.001479773665778339,-0.003173231380060315,0.000636817654594779,1.0001078844070435,0.0,0.0,0.0,18.013988494873047,8.927645683288574,2.3062305450439453,-3260.568115234375,0
504.1280000000006,-0.04487039893865585,0.013954268768429756,0.0028565835673362017,0.0,0.0,0.0,0.0,0.0021630970295518637,0.0013810315867885947,0.003005082020536065,1.001100778579712,0.0,0.0,0.0,18.035072326660156,8.931804656982422,2.3275060653686523,-3264.38427734375,0
514.0130000000008,-0.04473474621772766,0.013886760920286179,0.002949025947600603,0.0,0.0,0.0,0.0,0.0012556330766528845,0.0005275469738990068,0.0017527603777125478,0.9997856616973877,0.0,0.0,0.0,18.018096923828125,8.919461250305176,2.3234944343566895,-3261.3115234375,0
523.9099999999999,-0.04459553211927414,0.013871727511286736,0.0030475559178739786,0.0,0.0,0.0,0.0,-0.0005408353754319251,0.0017932134214788675,0.0015358664095401764,1.000543475151062,0.0,0.0,0.0,18.036033630371094,8.92918586730957,2.339627981185913,-3264.55810546875,0
533.7810000000009,-0.044455546885728836,0.01380076538771391,0.003142205998301506,0.0,0.0,0.0,0.0,-0.0005397240747697651,-0.0038890745490789413,7.800140156177804e-05,1.0000537633895874,0.0,0.0,0.0,18.018909454345703,8.92056655883789,2.3362650871276855,-3261.45849609375,0
543.6750000000011,-0.04433585703372955,0.013774562627077103,0.003229087684303522,0.0,0.0,0.0,0.0,-0.0016375187551602721,0.007331437896937132,0.0009992372943088412,0.9974051713943481,0.0,0.0,0.0,18.040138244628906,8.925436019897461,2.3515849113464355,-3265.30078125,0
553.5510000000013,-0.04419489577412605,0.013699558563530445,0.0033236949238926172,0.0,0.0,0.0,0.0,-3.396989268367179e-05,0.004077674821019173,0.00011185117182321846,0.9985288381576538,0.0,0.0,0.0,18.022319793701172,8.91726303100586,2.3266632556915283,-3262.075927734375,0
563.4480000000003,-0.04408691078424454,0.01368019450455904,0.0034080008044838905,0.0,0.0,0.0,0.0,0.0020615782123059034,0.0025004560593515635,0.0022683574352413416,0.9990203380584717,0.0,0.0,0.0,18.0447940826416,8.92680549621582,2.3259024620056152,-3266.1435546875,0
573.3200000000015,-0.04394261911511421,0.013602230697870255,0.003501469735056162,0.0,0.0,0.0,0.0,0.002168472856283188,0.0045903087593615055,0.0007337139686569571,0.9985226392745972,0.0,0.0,0.0,18.026966094970703,8.91382884979248,2.3152408599853516,-3262.916748046875,0
583.2080000000005,-0.04384257644414902,0.013580885715782642,0.0035870708525180817,0.0,0.0,0.0,0.0,-0.0013104829704388976,0.001244033919647336,-0.0025293061044067144,0.9979101419448853,0.0,0.0,0.0,18.047101974487305,8.917102813720703,2.3058667182922363,-3266.5615234375,0
593.0870000000014,-0.04369606077671051,0.013501694425940514,0.0036794478073716164,0.0,0.0,0.0,0.0,-0.0006276757922023535,-0.0028071971610188484,0.0007697970722801983,0.998511016368866,0.0,0.0,0.0,18.028345108032227,8.909500122070312,2.2989954948425293,-3263.16650390625,0
602.9900000000016,-0.04360858350992203,0.013490341603755951,0.0037540262565016747,0.0,0.0,0.0,0.0,-0.0002466623263899237,-0.003781341714784503,0.00035221100552007556,0.9994849562644958,0.0,0.0,0.0,18.050556182861328,8.922633171081543,2.3140482902526855,-3267.186279296875,0
612.8580000000002,-0.04346048831939697,0.013410437852144241,0.0038458837661892176,0.0,0.0,0.0,0.0,-0.00041504536056891084,0.0023556428495794535,0.0005484647117555141,0.9997890591621399,0.0,0.0,0.0,18.0323486328125,8.913418769836426,2.3205487728118896,-3263.89111328125,0
622.7470000000012,-0.04339800029993057,0.013416598550975323,0.003912420477718115,0.0,0.0,0.0,0.0,0.0012592504499480128,0.0010670791380107403,-0.0010829060338437557,0.9979071617126465,0.0,0.0,0.0,18.04979705810547,8.926569938659668,2.330143928527832,-3267.04931640625,0
632.6230000000014,-0.04324983432888985,0.013335160911083221,0.004005315713584423,0.0,0.0,0.0,0.0,-0.0002955538220703602,-0.003180174622684717,0.0002677232550922781,0.9980899691581726,0.0,0.0,0.0,18.030776977539062,8.91492748260498,2.3253204822540283,-3263.6064453125,0
642.5280000000002,-0.04331258684396744,0.013360952027142048,0.004029563628137112,0.0,0.0,0.0,0.0,0.001562753226608038,0.005104524083435535,0.0002940429840236902,0.9990214705467224,0.0,0.0,0.0,18.046104431152344,8.928669929504395,2.3191919326782227,-3266.380859375,0
652.3940000000002,-0.04316474497318268,0.013277320191264153,0.004124040249735117,0.0,0.0,0.0,0.0,-0.0012426029425114393,-0.0017674234695732594,-0.002365587744861841,1.0008236169815063,0.0,0.0,0.0,18.027908325195312,8.913481712341309,2.305428981781006,-3263.08740234375,0
662.2950000000001,-0.04309017211198807,0.01328444667160511,0.004201467148959637,0.0,0.0,0.0,0.0,-0.00548153929412365,-0.0033912542276084423,0.0004374879354145378,0.9984868168830872,0.0,0.0,0.0,18.042253494262695,8.934168815612793,2.3113443851470947,-3265.68359375,0
672.1750000000011,-0.042941413819789886,0.013201938010752201,0.004297805950045586,0.0,0.0,0.0,0.0,-0.004108472727239132,0.001547899330034852,-0.00034611133742146194,0.9986498951911926,0.0,0.0,0.0,18.024089813232422,8.93477725982666,2.3191916942596436,-3262.396240234375,0
682.0600000000013,-0.042978450655937195,0.01323650311678648,0.004342622123658657,0.0,0.0,0.0,0.0,0.0016039857873693109,-0.00048581723240204155,0.0027099214494228363,0.9991169571876526,0.0,0.0,0.0,18.036945343017578,8.957977294921875,2.3047757148742676,-3264.72314453125,0
691.9350000000013,-0.0428309440612793,0.013156482018530369,0.004441177472472191,0.0,0.0,0.0,0.0,-0.0006980723119340837,-0.001369067351333797,0.002202303847298026,0.998827338218689,0.0,0.0,0.0,18.019441604614258,8.945291519165039,2.3066704273223877,-3261.554931640625,0
701.8280000000013,-0.042787156999111176,0.013191137462854385,0.004479970782995224,0.0,0.0,0.0,0.0,-0.001878343871794641,0.0077868495136499405,1.575909300299827e-05,1.0002543926239014,0.0,0.0,0.0,18.032793045043945,8.96300983428955,2.3172812461853027,-3263.9716796875,0
711.7030000000013,-0.04263802245259285,0.013113277964293957,0.004578635562211275,0.0,0.0,0.0,0.0,-0.002456573536619544,0.0014024117263033986,-0.0014304330106824636,1.0005888938903809,0.0,0.0,0.0,18.015453338623047,8.957697868347168,2.295837879180908,-3260.833251953125,0
721.6060000000016,-0.042666565626859665,0.013138583861291409,0.004630576819181442,0.0,0.0,0.0,0.0,0.0006601537461392581,-0.00179979857057333,0.001820970675908029,0.9981394410133362,0.0,0.0,0.0,18.035139083862305,8.972066879272461,2.293508291244507,-3264.396240234375,0
731.473,-0.04251910746097565,0.013059809803962708,0.004732717759907246,0.0,0.0,0.0,0.0,-0.0027824738062918186,-0.002063893247395754,0.0006139114848338068,1.0000269412994385,0.0,0.0,0.0,18.01754379272461,8.960148811340332,2.2954025268554688,-3261.21142578125,0
741.3760000000002,-0.04241909459233284,0.013067813590168953,0.004811345133930445,0.0,0.0,0.0,0.0,-0.0012552757980301976,-0.0015714133623987436,-0.00244044978171587,1.0008656978607178,0.0,0.0,0.0,18.036043167114258,8.97530460357666,2.3214244842529297,-3264.559814453125,0
751.246000000001,-0.04226810485124588,0.012989824637770653,0.004914593417197466,0.0,0.0,0.0,0.0,0.002321120584383607,-0.0005010191234759986,-0.0018548626685515046,0.9985465407371521,0.0,0.0,0.0,18.01691246032715,8.968315124511719,2.3192944526672363,-3261.09716796875,0
761.1360000000004,-0.042245183140039444,0.013034503906965256,0.004951493348926306,0.0,0.0,0.0,0.0,-0.00025094932061620057,-0.0001957052736543119,0.0020056224893778563,0.9989888668060303,0.0,0.0,0.0,18.025426864624023,8.978211402893066,2.326829433441162,-3262.63818359375,0
771.0210000000006,-0.04209291934967041,0.012960932217538357,0.005055293440818787,0.0,0.0,0.0,0.0,-0.0011803037486970425,-0.0001239252887899056,0.0020591248758137226,0.9987841844558716,0.0,0.0,0.0,18.007143020629883,8.966682434082031,2.325763463973999,-3259.3291015625,0
780.9060000000009,-0.04208315908908844,0.013011855073273182,0.005076564848423004,0.0,0.0,0.0,0.0,-0.0011444013798609376,-0.004267724696546793,-0.0007095873006619513,1.0000020265579224,0.0,0.0,0.0,18.0203800201416,8.99029541015625,2.3299105167388916,-3261.724609375,0
790.7820000000011,-0.0419292077422142,0.012941787950694561,0.005180897191166878,0.0,0.0,0.0,0.0,-0.0006820433773100376,0.0029144498985260725,0.002599639818072319,0.9993364810943604,0.0,0.0,0.0,18.00187873840332,8.987815856933594,2.329403877258301,-3258.37548828125,0
800.6830000000009,-0.04186256602406502,0.01294353324919939,0.005240022204816341,0.0,0.0,0.0,0.0,0.002313540782779455,0.0016081102658063173,0.002887009410187602,1.000050663948059,0.0,0.0,0.0,18.02080726623535,8.999917984008789,2.3305089473724365,-3261.802001953125,0
810.5520000000015,-0.04170767590403557,0.012873618863523006,0.005345336627215147,0.0,0.0,0.0,0.0,-0.0005868265870958567,0.0019185453420504928,0.0008656494901515543,0.9988027811050415,0.0,0.0,0.0,18.00306510925293,8.989897727966309,2.3248112201690674,-3258.59033203125,0
820.4480000000003,-0.04171842336654663,0.012918689288198948,0.005364876706153154,0.0,0.0,0.0,0.0,0.0011601891601458192,-0.0003759210230782628,-0.002071407623589039,1.000278353691101,0.0,0.0,0.0,18.012897491455078,9.004587173461914,2.3263416290283203,-3260.370361328125,0
830.3220000000001,-0.050464827567338943,0.015951480716466904,-0.0016954988241195679,0.0,0.0,0.0,0.0,-0.001157372840680182,0.0036300576757639647,0.0015552918193861842,1.000321626663208,0.0,0.0,0.0,18.00255012512207,9.203414916992188,2.0928173065185547,-3258.497314453125,0
840.2160000000003,-0.05041399970650673,0.015985507518053055,-0.0016725452151149511,0.0,0.0,0.0,0.0,0.0030600784812122583,-0.0028532373253256083,-0.0004965112311765552,1.0008288621902466,0.0,0.0,0.0,18.013626098632812,9.20395565032959,2.079223155975342,-3260.502197265625,0
850.0970000000016,-0.050454214215278625,0.016041360795497894,-0.0016345398034900427,0.0,0.0,0.0,0.0,-0.0009628399857319891,-0.000812574930023402,0.0018027680926024914,0.997955322265625,0.0,0.0,0.0,17.995254516601562,9.192912101745605,2.0781612396240234,-3257.1767578125,0
859.9900000000016,-0.050387732684612274,0.016059912741184235,-0.0016490169800817966,0.0,0.0,0.0,0.0,0.003273564390838146,0.0033021378330886364,-0.0005512072239071131,0.9990332126617432,0.0,0.0,0.0,18.007457733154297,9.185522079467773,2.087075710296631,-3259.3857421875,0
869.862000000001,-0.050357311964035034,0.01603265292942524,-0.0016285362653434277,0.0,0.0,0.0,0.0,-0.00021803146228194237,-0.006629781797528267,0.00015791069017723203,0.9978320002555847,0.0,0.0,0.0,17.988937377929688,9.167346000671387,2.075030565261841,-3256.033447265625,0
879.7690000000002,-0.05030771717429161,0.016028359532356262,-0.0016316173132508993,0.0,0.0,0.0,0.0,-0.001930332975462079,0.0009020832367241383,-0.0008961634011939168,0.99964839220047,0.0,0.0,0.0,18.004844665527344,9.157841682434082,2.0865371227264404,-3258.91259765625,0
889.634,-0.05041211470961571,0.016085008159279823,-0.0016408830415457487,0.0,0.0,0.0,0.0,0.002899274230003357,0.0015268361894413829,0.00020235797273926437,1.0020173788070679,0.0,0.0,0.0,17.98666763305664,9.153576850891113,2.070713758468628,-3255.622314453125,0
899.527,-0.0503988079726696,0.015987878665328026,-0.0016368483193218708,0.0,0.0,0.0,0.0,-0.0015693004243075848,0.0031073319260030985,2.6200537831755355e-05,1.002274990081787,0.0,0.0,0.0,18.003942489624023,9.130908012390137,2.0629711151123047,-3258.749267578125,0
909.402,-0.050370603799819946,0.015952369198203087,-0.0016198742669075727,0.0,0.0,0.0,0.0,0.0025198848452419043,-0.0027435035444796085,0.0019446274964138865,0.9999933242797852,0.0,0.0,0.0,17.98621368408203,9.119330406188965,2.055300712585449,-3255.540283203125,0
919.2970000000005,-0.0503690242767334,0.015890222042798996,-0.001556437462568283,0.0,0.0,0.0,0.0,0.0023572517093271017,0.002059986349195242,0.00016049781697802246,1.0001485347747803,0.0,0.0,0.0,17.996177673339844,9.105027198791504,2.058554172515869,-3257.343994140625,0
929.1790000000001,-0.05034111812710762,0.015850579366087914,-0.0015342383412644267,0.0,0.0,0.0,0.0,-0.0006639076163992286,0.0031686443835496902,-0.0008811104344204068,1.0022435188293457,0.0,0.0,0.0,17.978912353515625,9.093104362487793,2.0523102283477783,-3254.218994140625,0
939.0690000000013,-0.0502963624894619,0.01583435945212841,-0.0015353919006884098,0.0,0.0,0.0,0.0,0.00204792944714427,-0.00033096809056587517,-0.0015624018851667643,0.9987771511077881,0.0,0.0,0.0,17.99142837524414,9.086827278137207,2.055713176727295,-3256.484130859375,0
948.9410000000007,-0.05026771500706673,0.01579517312347889,-0.0015127250226214528,0.0,0.0,0.0,0.0,0.00013333081733435392,0.001045706681907177,-0.0002952969225589186,1.0007407665252686,0.0,0.0,0.0,17.97313690185547,9.076253890991211,2.053457260131836,-3253.173583984375,0
958.8389999999999,-0.050249580293893814,0.015772171318531036,-0.0014528153697028756,0.0,0.0,0.0,0.0,0.003938649315387011,0.00710838520899415,0.003148820251226425,1.0045136213302612,0.0,0.0,0.0,17.986881256103516,9.072503089904785,2.04988169670105,-3255.661376953125,0
968.7150000000001,-0.050219740718603134,0.015731878578662872,-0.0014239194570109248,0.0,0.0,0.0,0.0,-0.00038648649933747947,0.0027937518898397684,-0.0005548049812205136,1.00119948387146,0.0,0.0,0.0,17.96937370300293,9.055343627929688,2.0248193740844727,-3252.4921875,0
978.6110000000008,-0.05019228532910347,0.015723906457424164,-0.001366205746307969,0.0,0.0,0.0,0.0,-0.002637031488120556,0.0020953749772161245,-0.003327494254335761,0.999583899974823,0.0,0.0,0.0,17.984054565429688,9.050871849060059,2.0151734352111816,-3255.149658203125,0
988.4920000000002,-0.050159793347120285,0.01571350358426571,-0.001316626789048314,0.0,0.0,0.0,0.0,-0.000109231608803384,0.0030640081968158484,-0.0009284870466217399,0.999106228351593,0.0,0.0,0.0,17.99787139892578,9.050127029418945,2.0118837356567383,-3257.650634765625,0
998.3810000000012,-0.050129130482673645,0.015669601038098335,-0.0012818591203540564,0.0,0.0,0.0,0.0,2.780918975986424e-06,0.012332449667155743,-0.002042528474703431,1.0003806352615356,0.0,0.0,0.0,17.97959327697754,9.041982650756836,2.0035829544067383,-3254.342041015625,0
1008.2620000000006,-0.050058674067258835,0.015677180141210556,-0.001285597332753241,0.0,0.0,0.0,0.0,-0.0019048827234655619,-0.007726471405476332,0.0006961663020774722,1.0007163286209106,0.0,0.0,0.0,17.9936466217041,9.048501014709473,2.0065793991088867,-3256.885986328125,0
1018.1509999999998,-0.05002355948090553,0.01563505455851555,-0.0012526486534625292,0.0,0.0,0.0,0.0,0.0011728674871847034,0.005084524396806955,-0.0030136536806821823,0.9989820122718811,0.0,0.0,0.0,17.97657585144043,9.041468620300293,2.00856876373291,-3253.795654296875,0
1028.0240000000013,-0.049951743334531784,0.01564544439315796,-0.0012379116378724575,0.0,0.0,0.0,0.0,-8.915341459214687e-05,0.00269446917809546,0.0010721422731876373,0.9984945058822632,0.0,0.0,0.0,17.99028968811035,9.045037269592285,2.0258729457855225,-3256.278076171875,0
1037.916000000001,-0.04991215467453003,0.015602939762175083,-0.0012073699617758393,0.0,0.0,0.0,0.0,0.00030392734333872795,0.0030552458483725786,-0.0020123147405683994,1.0000346899032593,0.0,0.0,0.0,17.97274398803711,9.035540580749512,2.011045455932617,-3253.10205078125,0
1047.7939999999999,-0.0498395636677742,0.015601960010826588,-0.0011893041664734483,0.0,0.0,0.0,0.0,0.0006833640509285033,-0.0008291495032608509,-0.0009563530329614878,1.0001349449157715,0.0,0.0,0.0,17.994306564331055,9.046008110046387,2.0208754539489746,-3257.00537109375,0
1057.6890000000003,-0.049798499792814255,0.015558270737528801,-0.0011594851966947317,0.0,0.0,0.0,0.0,-0.0009515679557807744,-0.0013072970323264599,-0.002003473462536931,1.0014444589614868,0.0,0.0,0.0,17.976381301879883,9.036402702331543,2.0169851779937744,-3253.760986328125,0
1067.5650000000005,-0.04972495883703232,0.015564882196485996,-0.0011304147774353623,0.0,0.0,0.0,0.0,0.0006406992906704545,4.9810554628493264e-05,-0.000741465191822499,1.0006364583969116,0.0,0.0,0.0,17.990646362304688,9.049007415771484,2.037367582321167,-3256.342529296875,0
1077.4570000000003,-0.04968160390853882,0.015524477697908878,-0.0010987436398863792,0.0,0.0,0.0,0.0,-0.0009652642766013741,-0.0039030418265610933,0.0013260042760521173,1.0015790462493896,0.0,0.0,0.0,17.972196578979492,9.038115501403809,2.0335657596588135,-3253.003173828125,0
1087.339,-0.04965318366885185,0.015551494434475899,-0.001011557294987142,0.0,0.0,0.0,0.0,-0.002671475289389491,-0.0029684165492653847,-0.0023026796989142895,1.0013043880462646,0.0,0.0,0.0,17.983152389526367,9.059568405151367,2.0575389862060547,-3254.986328125,0
1097.2250000000004,-0.049609534442424774,0.015515525825321674,-0.0009733257465995848,0.0,0.0,0.0,0.0,-7.135613486752845e-07,0.0015149852260947227,-0.003158769104629755,0.9971940517425537,0.0,0.0,0.0,17.96507453918457,9.054720878601074,2.066187858581543,-3251.71435546875,0
1107.1040000000012,-0.04956590384244919,0.015509753488004208,-0.0009092638501897454,0.0,0.0,0.0,0.0,-0.0022948558907955885,-0.002839818364009261,-0.0014512353809550405,0.9969296455383301,0.0,0.0,0.0,17.985980987548828,9.059983253479004,2.0692410469055176,-3255.498291015625,0
1116.996000000001,-0.04952152445912361,0.015470179729163647,-0.0008725780062377453,0.0,0.0,0.0,0.0,-0.0011458535445854068,0.0033239887561649084,-0.0025422186590731144,0.9969666600227356,0.0,0.0,0.0,17.967695236206055,9.053101539611816,2.073089122772217,-3252.188720703125,0
1126.884,-0.04949074983596802,0.015476496890187263,-0.0007980168447829783,0.0,0.0,0.0,0.0,0.0013990441802889109,0.003893658984452486,0.00334308878518641,0.9989117980003357,0.0,0.0,0.0,17.9752197265625,9.0624361038208,2.064291477203369,-3253.550537109375,0
1136.768,-0.04944455251097679,0.01543292123824358,-0.0007623472483828664,0.0,0.0,0.0,0.0,-0.0043993559665977955,-0.0011081508127972484,0.0020436099730432034,0.9995524287223816,0.0,0.0,0.0,17.95881462097168,9.04736614227295,2.0462560653686523,-3250.581298828125,0
1146.6460000000006,-0.049347229301929474,0.015433424152433872,-0.0007334726979024708,0.0,0.0,0.0,0.0,-0.0016729068011045456,-0.002281313994899392,-0.003366569522768259,0.9999763369560242,0.0,0.0,0.0,17.973880767822266,9.055793762207031,2.0670955181121826,-3253.308349609375,0
1156.5400000000009,-0.049297407269477844,0.01538736093789339,-0.0006992568960413337,0.0,0.0,0.0,0.0,0.0016042451607063413,0.00301682623103261,0.00034126354148611426,1.0014081001281738,0.0,0.0,0.0,17.955154418945312,9.049508094787598,2.0650289058685303,-3249.918701171875,0
1166.4210000000003,-0.049250081181526184,0.0153976920992136,-0.0006330687901936471,0.0,0.0,0.0,0.0,-0.00045363622484728694,-8.154628449119627e-05,0.0012153297429904342,1.000123143196106,0.0,0.0,0.0,17.96548080444336,9.058065414428711,2.071829319000244,-3251.787841796875,0
1176.3140000000003,-0.04919881001114845,0.015350231900811195,-0.0005947233294136822,0.0,0.0,0.0,0.0,-0.0018837288953363895,0.0027027158066630363,0.0033199014142155647,0.9998838901519775,0.0,0.0,0.0,17.947542190551758,9.053058624267578,2.0688955783843994,-3248.540771484375,0
1186.1820000000007,-0.049104467034339905,0.015358198434114456,-0.0005525678861886263,0.0,0.0,0.0,0.0,-0.0007024216465651989,0.003875953610986471,-0.0003841062425635755,1.0011049509048462,0.0,0.0,0.0,17.96182632446289,9.065699577331543,2.0823020935058594,-3251.12646484375,0
1196.0810000000001,-0.049048930406570435,0.015311362221837044,-0.0005137088592164218,0.0,0.0,0.0,0.0,-0.000988733023405075,0.00030510491342283785,-0.001261575729586184,0.9989064931869507,0.0,0.0,0.0,17.94392967224121,9.057695388793945,2.0640833377838135,-3247.88720703125,0
1205.9530000000013,-0.04895390197634697,0.015322648920118809,-0.00047226937022060156,0.0,0.0,0.0,0.0,0.0022416464053094387,-0.00010265715536661446,-0.001504652202129364,0.9971860647201538,0.0,0.0,0.0,17.95741844177246,9.068634986877441,2.0828213691711426,-3250.328369140625,0
1215.853000000001,-0.0488986000418663,0.015276030637323856,-0.0004356448189355433,0.0,0.0,0.0,0.0,-0.0021974858827888966,0.005085349548608065,0.0006571683334186673,0.9973746538162231,0.0,0.0,0.0,17.938974380493164,9.0513334274292,2.0716347694396973,-3246.98974609375,0
1225.7250000000004,-0.048820700496435165,0.015288027003407478,-0.0003874959365930408,0.0,0.0,0.0,0.0,-0.0008679678430780768,0.0008103586151264608,-0.002295076148584485,1.0011658668518066,0.0,0.0,0.0,17.95275115966797,9.065827369689941,2.076849937438965,-3249.483642578125,0
1235.621000000001,-0.048763152211904526,0.015242962166666985,-0.000352168659446761,0.0,0.0,0.0,0.0,0.0014823380624875426,0.0014900756068527699,0.0014235882554203272,1.0010876655578613,0.0,0.0,0.0,17.93450164794922,9.059711456298828,2.0690813064575195,-3246.18017578125,0
1245.4990000000016,-0.048744361847639084,0.015249740332365036,-0.00027483972371555865,0.0,0.0,0.0,0.0,0.0026791286654770374,-0.0022514360025525093,0.002585222013294697,0.9996883273124695,0.0,0.0,0.0,17.95243263244629,9.062896728515625,2.0675532817840576,-3249.426025390625,0
1255.393,-0.04868698492646217,0.015203190967440605,-0.0002331950527150184,0.0,0.0,0.0,0.0,0.001798026729375124,-0.002046157605946064,-0.001283845747821033,1.0004161596298218,0.0,0.0,0.0,17.935514450073242,9.052929878234863,2.0659170150756836,-3246.36376953125,0
1265.264000000001,-0.04859573021531105,0.015206207521259785,-0.00018375639047008008,0.0,0.0,0.0,0.0,0.0024426928721368313,-0.0003375270462129265,0.0006921326857991517,1.0006804466247559,0.0,0.0,0.0,17.94690704345703,9.060992240905762,2.0823512077331543,-3248.42578125,0
1275.161,-0.04853546991944313,0.015158222056925297,-0.0001408210227964446,0.0,0.0,0.0,0.0,-0.000805920921266079,-0.0018414631485939026,0.0010115604382008314,1.001154899597168,0.0,0.0,0.0,17.928314208984375,9.048137664794922,2.080270767211914,-3245.060302734375,0
1285.0380000000005,-0.048444006592035294,0.015155713073909283,-8.706445078132674e-05,0.0,0.0,0.0,0.0,-0.0011034983908757567,-0.002384775085374713,0.0026181063149124384,1.0024516582489014,0.0,0.0,0.0,17.944751739501953,9.058420181274414,2.1029856204986572,-3248.03564453125,0
1294.9320000000007,-0.048381488770246506,0.015108495950698853,-4.081555380253121e-05,0.0,0.0,0.0,0.0,-0.002915172604843974,-0.0006870517390780151,0.0004762945172842592,1.0003383159637451,0.0,0.0,0.0,17.927453994750977,9.051749229431152,2.1140193939208984,-3244.90478515625,0
1304.8020000000015,-0.04830818250775337,0.015143039636313915,2.685339677555021e-05,0.0,0.0,0.0,0.0,-0.00034560152562335134,0.0015882485313341022,-0.0014701756881549954,0.999265730381012,0.0,0.0,0.0,17.9450740814209,9.078897476196289,2.138532876968384,-3248.093994140625,0
1314.6970000000001,-0.04824290797114372,0.015099420212209225,7.586151332361624e-05,0.0,0.0,0.0,0.0,-0.00045097668771632016,0.002340638777241111,-0.0008090991759672761,1.0010017156600952,0.0,0.0,0.0,17.927186965942383,9.07274055480957,2.137732744216919,-3244.8564453125,0
1324.5780000000013,-0.048158612102270126,0.015080523677170277,0.00013964890968054533,0.0,0.0,0.0,0.0,0.0015347437001764774,0.00529689434915781,-0.0021617936436086893,0.9993236660957336,0.0,0.0,0.0,17.94723892211914,9.075535774230957,2.1492481231689453,-3248.48583984375,0
1334.4700000000012,-0.04809192940592766,0.015034866519272327,0.00019028724636882544,0.0,0.0,0.0,0.0,0.0026710708625614643,0.0016528211999684572,0.001272202585823834,0.9988338351249695,0.0,0.0,0.0,17.928922653198242,9.060630798339844,2.1359140872955322,-3245.170654296875,0
1344.3470000000016,-0.047952551394701004,0.015027381479740143,0.00025281135458499193,0.0,0.0,0.0,0.0,0.0015205835225060582,-0.003998815547674894,0.0006490193190984428,0.9997689127922058,0.0,0.0,0.0,17.952796936035156,9.063091278076172,2.139728307723999,-3249.4921875,0
1354.237000000001,-0.04788138344883919,0.014976766891777515,0.00030210986733436584,0.0,0.0,0.0,0.0,0.00014469740563072264,0.003179521532729268,0.0009191302233375609,1.0005475282669067,0.0,0.0,0.0,17.936006546020508,9.056427955627441,2.145320177078247,-3246.452880859375,0
1364.1150000000016,-0.047784607857465744,0.014999778009951115,0.0003657684719655663,0.0,0.0,0.0,0.0,0.00011560385610209778,-0.00256005534902215,-0.0041359406895935535,1.0009225606918335,0.0,0.0,0.0,17.95350456237793,9.075146675109863,2.1721391677856445,-3249.619873046875,0
1374.0100000000002,-0.047709159553050995,0.014948288910090923,0.0004174553614575416,0.0,0.0,0.0,0.0,0.0010419669561088085,0.0037937688175588846,0.003322088159620762,1.0006746053695679,0.0,0.0,0.0,17.93448829650879,9.07004451751709,2.164116382598877,-3246.17822265625,0
1383.8810000000012,-0.04764913022518158,0.01493823155760765,0.0004845423682127148,0.0,0.0,0.0,0.0,0.002338727703318,6.464910256909207e-05,0.003306011436507106,1.0021435022354126,0.0,0.0,0.0,17.949174880981445,9.074934005737305,2.169612169265747,-3248.83642578125,0
1393.7750000000015,-0.047572601586580276,0.014885674230754375,0.0005408453289419413,0.0,0.0,0.0,0.0,-0.002550628501921892,-0.0024115913547575474,-0.0008020647219382226,0.9995728135108948,0.0,0.0,0.0,17.932191848754883,9.066559791564941,2.1611428260803223,-3245.7626953125,0
1403.6620000000003,-0.047494757920503616,0.014830077067017555,0.0005979770212434232,0.0,0.0,0.0,0.0,-0.0006297363433986902,0.0035328399389982224,0.0002242973423562944,0.9994868040084839,0.0,0.0,0.0,17.91323471069336,9.062294960021973,2.165731906890869,-3242.331298828125,0
1413.5430000000015,-0.047414857894182205,0.014769978821277618,0.0006550863035954535,0.0,0.0,0.0,0.0,-0.002409818349406123,-0.006180912256240845,0.001509611844085157,1.000590205192566,0.0,0.0,0.0,17.894989013671875,9.055842399597168,2.1612634658813477,-3239.028564453125,0
1423.4270000000015,-0.0473334975540638,0.01470549963414669,0.0007129943114705384,0.0,0.0,0.0,0.0,0.0005041152471676469,-0.00249188463203609,-0.00237096706405282,1.001049280166626,0.0,0.0,0.0,17.87708854675293,9.052388191223145,2.1682822704315186,-3235.788330078125,0
1433.3160000000007,-0.0472518615424633,0.014637270011007786,0.000772025843616575,0.0,0.0,0.0,0.0,-0.0002825567498803139,0.00679229898378253,0.0031573926098644733,0.9999861121177673,0.0,0.0,0.0,17.85888671875,9.044017791748047,2.1613049507141113,-3232.494140625,0
1443.1900000000005,-0.047169242054224014,0.01456597913056612,0.0008319787448272109,0.0,0.0,0.0,0.0,0.0012137002777308226,0.0023540393449366093,-0.00033709072158671916,0.9999024271965027,0.0,0.0,0.0,17.841115951538086,9.035056114196777,2.1424739360809326,-3229.27734375,0
1453.0750000000007,-0.0470861978828907,0.014491692185401917,0.0008924709400162101,0.0,0.0,0.0,0.0,0.002072979463264346,0.0005077850655652583,-0.0016387401847168803,1.0003485679626465,0.0,0.0,0.0,17.82244110107422,9.027449607849121,2.127699136734009,-3225.89697265625,0
1462.964,-0.047004953026771545,0.014414752833545208,0.0009534214623272419,0.0,0.0,0.0,0.0,0.0011131885694339871,0.0021806799340993166,-0.0017824805108830333,0.9988785982131958,0.0,0.0,0.0,17.805021286010742,9.01031494140625,2.1244215965270996,-3222.744140625,0
1472.8510000000006,-0.04692545160651207,0.014335493557155132,0.0010141180828213692,0.0,0.0,0.0,0.0,0.004068776499480009,0.005223829764872789,-0.0006162787321954966,0.9992049336433411,0.0,0.0,0.0,17.78617286682129,8.99699592590332,2.1059882640838623,-3219.332763671875,0
1482.7310000000016,-0.04684602841734886,0.01425345428287983,0.00107453647069633,0.0,0.0,0.0,0.0,0.0011177388951182365,0.0038696597330272198,-0.0029765067156404257,1.0010030269622803,0.0,0.0,0.0,17.76866912841797,8.978224754333496,2.089118242263794,-3216.16455078125,0
1492.6190000000006,-0.046765100210905075,0.01416791882365942,0.001135910046286881,0.0,0.0,0.0,0.0,-0.0010328100761398673,-0.004606467671692371,0.0008795348112471402,1.000017523765564,0.0,0.0,0.0,17.749439239501953,8.969343185424805,2.0848140716552734,-3212.68359375,0
1502.5110000000004,-0.046681538224220276,0.014079082757234573,0.0011980731505900621,0.0,0.0,0.0,0.0,0.001585831050761044,-0.00203520804643631,-0.00046147569082677364,0.998723030090332,0.0,0.0,0.0,17.731611251831055,8.962306022644043,2.0766663551330566,-3209.45703125,0
1512.3850000000002,-0.0465957410633564,0.013987063430249691,0.0012601378839462996,0.0,0.0,0.0,0.0,0.00193000806029886,0.001482695690356195,0.001229488872922957,0.9999094009399414,0.0,0.0,0.0,17.714111328125,8.954230308532715,2.0810580253601074,-3206.28955078125,0
1522.2720000000008,-0.04650881886482239,0.01389176957309246,0.0013217049418017268,0.0,0.0,0.0,0.0,-0.0017180960858240724,-0.0012776267249137163,0.0010332443052902818,0.9960261583328247,0.0,0.0,0.0,17.696590423583984,8.942550659179688,2.06428861618042,-3203.117919921875,0
1532.1620000000003,-0.046421974897384644,0.013793755322694778,0.00138186221010983,0.0,0.0,0.0,0.0,0.0018022259464487433,-0.0013670367188751698,-0.0021797120571136475,1.0010943412780762,0.0,0.0,0.0,17.679582595825195,8.933907508850098,2.063203811645508,-3200.03955078125,0
1542.0480000000007,-0.046335943043231964,0.01369326189160347,0.0014416626654565334,0.0,0.0,0.0,0.0,9.558913006912917e-06,0.0035246596671640873,-0.0024515525437891483,1.000913381576538,0.0,0.0,0.0,17.661376953125,8.924322128295898,2.0634541511535645,-3196.74462890625,0
1551.9360000000015,-0.04625016450881958,0.013589237816631794,0.0015023897867649794,0.0,0.0,0.0,0.0,-0.0015974014531821012,-0.002593166660517454,0.0010482961079105735,0.9972745180130005,0.0,0.0,0.0,17.64396095275879,8.912904739379883,2.0563557147979736,-3193.59228515625,0
1561.812,-0.04616444930434227,0.01348120253533125,0.0015622687060385942,0.0,0.0,0.0,0.0,0.0007195637444965541,0.002505277283489704,-0.0010323724709451199,0.9988473057746887,0.0,0.0,0.0,17.626705169677734,8.909448623657227,2.056473970413208,-3190.46875,0
1571.6990000000005,-0.04607801511883736,0.013369414955377579,0.001621051924303174,0.0,0.0,0.0,0.0,-6.036388185748365e-06,0.002892947755753994,-0.0020023095421493053,1.0004469156265259,0.0,0.0,0.0,17.60870361328125,8.902551651000977,2.0459513664245605,-3187.21044921875,0
1581.5810000000001,-0.045989252626895905,0.013253096491098404,0.00168005027808249,0.0,0.0,0.0,0.0,-0.002135066781193018,0.0005322055658325553,-0.0010194482747465372,0.9994465708732605,0.0,0.0,0.0,17.59111785888672,8.88849925994873,2.0335311889648438,-3184.02734375,0
1591.473,-0.04589783772826195,0.013132991269230843,0.0017393585294485092,0.0,0.0,0.0,0.0,0.00611082511022687,0.004220109898597002,-0.001117304665967822,1.0000094175338745,0.0,0.0,0.0,17.574079513549805,8.883662223815918,2.0259063243865967,-3180.943359375,0
1601.3490000000002,-0.0458047054708004,0.01301102340221405,0.001798972487449646,0.0,0.0,0.0,0.0,0.00029404048109427094,-0.00012899628200102597,0.0017156187677755952,1.0008513927459717,0.0,0.0,0.0,17.556739807128906,8.862069129943848,2.0083425045013428,-3177.8046875,0
1611.237000000001,-0.04571133106946945,0.012888126075267792,0.0018594283610582352,0.0,0.0,0.0,0.0,0.0021590362302958965,0.002381891245022416,0.0014083980349823833,1.0000945329666138,0.0,0.0,0.0,17.539268493652344,8.853314399719238,1.9997936487197876,-3174.642578125,0
1621.1190000000006,-0.045618973672389984,0.012763370759785175,0.001920663402415812,0.0,0.0,0.0,0.0,0.0006226626574061811,0.0032304793130606413,0.004457398783415556,0.9996631741523743,0.0,0.0,0.0,17.52259063720703,8.845422744750977,1.990187644958496,-3171.623779296875,0
1631.0060000000012,-0.04552773758769035,0.012636469677090645,0.0019822779577225447,0.0,0.0,0.0,0.0,-0.0002229132514912635,0.003177423495799303,0.0005289326654747128,0.9999045729637146,0.0,0.0,0.0,17.506385803222656,8.832985877990723,1.9788798093795776,-3168.6904296875,0
1640.8900000000012,-0.04543687030673027,0.012507672421634197,0.002043836284428835,0.0,0.0,0.0,0.0,-0.002133401110768318,-2.834318183886353e-05,-0.0030474746599793434,0.9980373382568359,0.0,0.0,0.0,17.489042282104492,8.822298049926758,1.9627774953842163,-3165.55126953125,0
1650.7830000000013,-0.045345380902290344,0.012375915423035622,0.002104198094457388,0.0,0.0,0.0,0.0,0.0007200546679086983,0.0028007698711007833,0.0013332025846466422,0.9977365732192993,0.0,0.0,0.0,17.46980857849121,8.818280220031738,1.965150237083435,-3162.0703125,0
1660.6680000000015,-0.04525277018547058,0.012240983545780182,0.0021630313713103533,0.0,0.0,0.0,0.0,0.003506620181724429,-0.005632324609905481,-0.002046335255727172,0.9996657967567444,0.0,0.0,0.0,17.45309066772461,8.811915397644043,1.9525026082992554,-3159.044189453125,0
1670.5520000000015,-0.045159101486206055,0.012102941051125526,0.0022215964272618294,0.0,0.0,0.0,0.0,-0.0008596788393333554,-0.0002442725526634604,-0.0005364457028917968,1.0001771450042725,0.0,0.0,0.0,17.43589210510254,8.799003601074219,1.9593452215194702,-3155.930908203125,0
1680.4300000000003,-0.04506467655301094,0.011961688287556171,0.0022809896618127823,0.0,0.0,0.0,0.0,-0.002783390926197171,0.0022543647792190313,0.0024723955430090427,1.002549171447754,0.0,0.0,0.0,17.418312072753906,8.791098594665527,1.9464290142059326,-3152.7490234375,0
1690.3160000000007,-0.04496977850794792,0.01181724015623331,0.0023423030506819487,0.0,0.0,0.0,0.0,0.0032921181991696358,-0.0009071782696992159,-0.0015607442473992705,1.000844120979309,0.0,0.0,0.0,17.400766372680664,8.786600112915039,1.9453991651535034,-3149.573486328125,0
1700.201000000001,-0.04487474262714386,0.011669293977320194,0.0024052592925727367,0.0,0.0,0.0,0.0,-0.0014103176072239876,0.0012509016087278724,-0.0005203279433771968,0.99919193983078,0.0,0.0,0.0,17.38336753845215,8.773455619812012,1.9486565589904785,-3146.424072265625,0
1710.0930000000008,-0.04477939009666443,0.011518167331814766,0.002468337304890156,0.0,0.0,0.0,0.0,-0.0007903614896349609,-0.0009902321035042405,-0.005476240534335375,0.9992610812187195,0.0,0.0,0.0,17.366174697875977,8.771047592163086,1.9365299940109253,-3143.31201171875,0
1719.969000000001,-0.044684022665023804,0.011364546604454517,0.0025309950578957796,0.0,0.0,0.0,0.0,-0.0005372278392314911,-0.004785200115293264,0.001651415484957397,0.9985982775688171,0.0,0.0,0.0,17.348581314086914,8.770480155944824,1.9427263736724854,-3140.127685546875,0
1729.8540000000012,-0.04458899796009064,0.011208580806851387,0.002593418350443244,0.0,0.0,0.0,0.0,-0.0004983586259186268,-0.0015956406714394689,0.0007748318021185696,1.0011065006256104,0.0,0.0,0.0,17.331302642822266,8.76044750213623,1.9515246152877808,-3137.00048828125,0
1739.7420000000002,-0.04449334740638733,0.011050146073102951,0.0026563622523099184,0.0,0.0,0.0,0.0,0.0006257022032514215,0.004182666540145874,-0.0031400735024362803,1.0002762079238892,0.0,0.0,0.0,17.31410026550293,8.755742073059082,1.9527676105499268,-3133.886474609375,0
1749.6260000000002,-0.04439694806933403,0.010888423770666122,0.0027199718169867992,0.0,0.0,0.0,0.0,0.0008396797929890454,0.0025468303356319666,-0.001773330383002758,1.0004820823669434,0.0,0.0,0.0,17.29554557800293,8.747275352478027,1.9472280740737915,-3130.528076171875,0
1759.518,-0.04429955407977104,0.010722619481384754,0.002784121548756957,0.0,0.0,0.0,0.0,-0.00042301451321691275,-0.005577411502599716,-0.002217463916167617,0.9997650980949402,0.0,0.0,0.0,17.27672576904297,8.735163688659668,1.9319069385528564,-3127.121826171875,0
1769.3960000000006,-0.044200051575899124,0.010553327389061451,0.002848925068974495,0.0,0.0,0.0,0.0,7.501892014261102e-06,0.01061317976564169,0.002116341609507799,0.9998538494110107,0.0,0.0,0.0,17.25897216796875,8.726329803466797,1.933331847190857,-3123.907958984375,0
1779.2800000000007,-0.04409867152571678,0.010381211526691914,0.0029140387196093798,0.0,0.0,0.0,0.0,0.0011742969509214163,0.0025382188614457846,0.0024732286110520363,0.9991493225097656,0.0,0.0,0.0,17.242422103881836,8.71377182006836,1.906227946281433,-3120.912841796875,0
1789.166000000001,-0.04399627819657326,0.010206243954598904,0.0029791654087603092,0.0,0.0,0.0,0.0,0.0017552851932123303,0.0036221849732100964,-0.0012447627959772944,1.0004470348358154,0.0,0.0,0.0,17.2258358001709,8.705535888671875,1.9004586935043335,-3117.91064453125,0
1799.059000000001,-0.043892815709114075,0.010027548298239708,0.0030445894226431847,0.0,0.0,0.0,0.0,-0.0007110859150998294,0.0035025286488234997,-0.0002597904240246862,0.9999294281005859,0.0,0.0,0.0,17.208637237548828,8.694646835327148,1.8863439559936523,-3114.797607421875,0
1808.9360000000015,-0.04378751665353775,0.009844779036939144,0.0031106690876185894,0.0,0.0,0.0,0.0,0.0008295070147141814,0.00059295236133039,0.0019833180122077465,0.9996951818466187,0.0,0.0,0.0,17.1915225982666,8.688000679016113,1.8684821128845215,-3111.69970703125,0
1818.8190000000013,-0.043680109083652496,0.009659179486334324,0.0031771378125995398,0.0,0.0,0.0,0.0,0.002921485109254718,-0.0005371311563067138,-0.0023943029809743166,0.9990205764770508,0.0,0.0,0.0,17.17673110961914,8.675897598266602,1.861200213432312,-3109.0224609375,0
1828.7090000000007,-0.04357093200087547,0.009471207857131958,0.003243638901039958,0.0,0.0,0.0,0.0,0.0025657257065176964,0.002761252224445343,-0.0011936798691749573,1.0015406608581543,0.0,0.0,0.0,17.158824920654297,8.66836166381836,1.858803391456604,-3105.781494140625,0
1838.594000000001,-0.0434611439704895,0.009279990568757057,0.003311174688860774,0.0,0.0,0.0,0.0,0.0022638903465121984,0.00020882586250081658,0.0014458318473771214,1.0008599758148193,0.0,0.0,0.0,17.141407012939453,8.6605806350708,1.842586874961853,-3102.628662109375,0
1848.4810000000016,-0.04335182160139084,0.009085780940949917,0.0033803535625338554,0.0,0.0,0.0,0.0,0.0009904778562486172,0.001024252618663013,-0.001226581516675651,1.0003939867019653,0.0,0.0,0.0,17.12354850769043,8.650081634521484,1.8422491550445557,-3099.39599609375,0
1858.362000000001,-0.043242402374744415,0.008888907730579376,0.0034499727189540863,0.0,0.0,0.0,0.0,-0.0010373031254857779,-0.005028126761317253,-0.00032301811734214425,0.9980950355529785,0.0,0.0,0.0,17.105730056762695,8.639528274536133,1.8358672857284546,-3096.1708984375,0
1868.255000000001,-0.0431317500770092,0.008688331581652164,0.0035188118927180767,0.0,0.0,0.0,0.0,0.0051590027287602425,-0.0006056751008145511,-0.0005496121011674404,0.9993558526039124,0.0,0.0,0.0,17.089126586914062,8.631475448608398,1.8378982543945312,-3093.165771484375,0
1878.130000000001,-0.04302012175321579,0.008483448065817356,0.003586951643228531,0.0,0.0,0.0,0.0,-0.001018821494653821,0.0015809597680345178,0.0004192150372546166,0.99934321641922,0.0,0.0,0.0,17.072513580322266,8.615091323852539,1.8286317586898804,-3090.1591796875,0
1888.0150000000012,-0.04290882498025894,0.008274364285171032,0.003654956351965666,0.0,0.0,0.0,0.0,-0.0002539730630815029,-0.002720432123169303,-0.0010157852666452527,0.999965250492096,0.0,0.0,0.0,17.05574607849121,8.60728931427002,1.8250720500946045,-3087.124267578125,0
1897.9090000000015,-0.04279801622033119,0.008061232045292854,0.003723439062014222,0.0,0.0,0.0,0.0,0.001663793926127255,0.002025830326601863,0.0017892144387587905,1.0019397735595703,0.0,0.0,0.0,17.03860855102539,8.59909439086914,1.8330647945404053,-3084.022216796875,0
1907.7830000000013,-0.04268745705485344,0.007843724451959133,0.0037933089770376682,0.0,0.0,0.0,0.0,-0.0017568441107869148,-0.003474463941529393,0.002473941072821617,1.000794768333435,0.0,0.0,0.0,17.02226448059082,8.589570999145508,1.8368765115737915,-3081.0634765625,0
1917.6800000000003,-0.04257708415389061,0.00762222521007061,0.003865014063194394,0.0,0.0,0.0,0.0,-0.002091195434331894,-0.004201930016279221,0.0015413285000249743,1.001198649406433,0.0,0.0,0.0,17.007278442382812,8.580101013183594,1.8336807489395142,-3078.35107421875,0
1927.554,-0.04246688634157181,0.007398036774247885,0.003938012290745974,0.0,0.0,0.0,0.0,-0.0017866241978481412,-0.005786463618278503,0.0014079419197514653,0.9977051019668579,0.0,0.0,0.0,16.989721298217773,8.57287883758545,1.8354164361953735,-3075.17333984375,0
1937.4470000000001,-0.04235713556408882,0.007171301171183586,0.004010751377791166,0.0,0.0,0.0,0.0,0.002556967781856656,0.0022196860518306494,-0.0018233801238238811,0.9998121857643127,0.0,0.0,0.0,16.972606658935547,8.568336486816406,1.8399537801742554,-3072.075439453125,0
1947.3310000000001,-0.042248062789440155,0.006940653547644615,0.004083328414708376,0.0,0.0,0.0,0.0,-0.0011051367036998272,-0.002681732177734375,0.0025307664182037115,1.0015335083007812,0.0,0.0,0.0,16.955307006835938,8.561217308044434,1.838188648223877,-3068.944580078125,0
1957.2240000000002,-0.04213999956846237,0.00670587457716465,0.004156762734055519,0.0,0.0,0.0,0.0,-0.0003006673068739474,0.004847831092774868,-0.0006837348337285221,0.9984452128410339,0.0,0.0,0.0,16.938085556030273,8.554549217224121,1.8359980583190918,-3065.826904296875,0
1967.0930000000008,-0.042033080011606216,0.006468623410910368,0.004230024758726358,0.0,0.0,0.0,0.0,0.003483555745333433,-0.0022439034655690193,0.002159221563488245,0.9985119104385376,0.0,0.0,0.0,16.92078971862793,8.547591209411621,1.8290077447891235,-3062.696533203125,0
1976.9950000000008,-0.04192608967423439,0.006229649763554335,0.0043022604659199715,0.0,0.0,0.0,0.0,0.0007296654512174428,-0.0022886875085532665,0.0023114026989787817,0.9985846281051636,0.0,0.0,0.0,16.903953552246094,8.536629676818848,1.8307549953460693,-3059.649169921875,0
1986.8630000000012,-0.041818276047706604,0.005988089833408594,0.004373442381620407,0.0,0.0,0.0,0.0,-0.0005859933444298804,-0.0009239388746209443,0.0008079766994342208,0.9985748529434204,0.0,0.0,0.0,16.887861251831055,8.527060508728027,1.8254330158233643,-3056.736572265625,0
1996.7570000000014,-0.04171036556363106,0.005743455607444048,0.0044440412893891335,0.0,0.0,0.0,0.0,-0.0018152040429413319,-0.006244627758860588,0.0035752146504819393,1.001233458518982,0.0,0.0,0.0,16.87120246887207,8.515653610229492,1.8224660158157349,-3053.72119140625,0
2006.6440000000002,-0.041602060198783875,0.005495446268469095,0.004515038803219795,0.0,0.0,0.0,0.0,-0.0009876913391053677,0.0032273607794195414,0.00117577298078686,0.9978955388069153,0.0,0.0,0.0,16.8537654876709,8.50477123260498,1.82872474193573,-3050.565185546875,0
2016.5250000000015,-0.04149216413497925,0.00524414237588644,0.004585621878504753,0.0,0.0,0.0,0.0,-0.0008193092653527856,-0.005425833165645599,-0.0029643315356224775,0.9991976022720337,0.0,0.0,0.0,16.837757110595703,8.498981475830078,1.8164904117584229,-3047.66748046875,0
2026.4040000000005,-0.0413801372051239,0.004989235661923885,0.004655478056520224,0.0,0.0,0.0,0.0,0.00021475361427292228,-0.0028569884598255157,-0.002568877534940839,1.0000888109207153,0.0,0.0,0.0,16.82135009765625,8.494622230529785,1.8156670331954956,-3044.69775390625,0
2036.309000000001,-0.04126584902405739,0.004730024840682745,0.004725631792098284,0.0,0.0,0.0,0.0,0.0018320471281185746,-0.003213359508663416,0.0002777626214083284,1.0015593767166138,0.0,0.0,0.0,16.80305290222168,8.487138748168945,1.8224327564239502,-3041.38623046875,0
2046.1770000000015,-0.041149139404296875,0.004467251244932413,0.004796902649104595,0.0,0.0,0.0,0.0,0.001505083404481411,0.0027904286980628967,0.0011583296582102776,0.9987878203392029,0.0,0.0,0.0,16.786203384399414,8.47831916809082,1.8280017375946045,-3038.33642578125,0
2056.076000000001,-0.041030436754226685,0.004200104158371687,0.004868591669946909,0.0,0.0,0.0,0.0,0.0012120536994189024,-0.0006965592037886381,0.0003504907654132694,0.9998332858085632,0.0,0.0,0.0,16.77028465270996,8.472028732299805,1.8257099390029907,-3035.454833984375,0
2065.947,-0.040911007672548294,0.0039270720444619656,0.004940079525113106,0.0,0.0,0.0,0.0,0.0003542252816259861,0.0026277208235114813,-0.00041103261173702776,0.9998170733451843,0.0,0.0,0.0,16.753883361816406,8.464646339416504,1.8143326044082642,-3032.486083984375,0
2075.8410000000003,-0.040792182087898254,0.0036495872773230076,0.005011636298149824,0.0,0.0,0.0,0.0,-0.0008749167900532484,0.0022898672614246607,0.0004460286581888795,0.9986390471458435,0.0,0.0,0.0,16.737428665161133,8.456633567810059,1.8040153980255127,-3029.5078125,0
2085.714,-0.04067368060350418,0.003368949517607689,0.005082625430077314,0.0,0.0,0.0,0.0,0.002168788108974695,0.001238705008290708,-0.000150461753946729,1.0001134872436523,0.0,0.0,0.0,16.721242904663086,8.450016021728516,1.7853792905807495,-3026.578125,0
2095.611000000001,-0.040554169565439224,0.003084501950070262,0.005153520964086056,0.0,0.0,0.0,0.0,-0.0007280754507519305,-0.0037386519834399223,-0.00011201933375559747,1.0005872249603271,0.0,0.0,0.0,16.704723358154297,8.439596176147461,1.7848727703094482,-3023.588134765625,0
2105.496000000001,-0.04043373465538025,0.0027962210588157177,0.005225149914622307,0.0,0.0,0.0,0.0,0.000776355154812336,0.005272576119750738,-0.0031428637448698282,1.0007003545761108,0.0,0.0,0.0,16.688724517822266,8.43024730682373,1.7854111194610596,-3020.692626953125,0
2115.383,-0.04031328484416008,0.0025038118474185467,0.005297877360135317,0.0,0.0,0.0,0.0,0.0011560145067051053,0.001279833959415555,-0.0013843915658071637,0.9996151328086853,0.0,0.0,0.0,16.6712589263916,8.419744491577148,1.7706711292266846,-3017.531005859375,0
2125.259,-0.04019279032945633,0.002206782577559352,0.005370992235839367,0.0,0.0,0.0,0.0,0.001130051095969975,-0.0004879947518929839,0.0014233863912522793,0.9978575110435486,0.0,0.0,0.0,16.65422821044922,8.404848098754883,1.7633895874023438,-3014.447998046875,0
2135.148000000001,-0.04007192328572273,0.001905970973894,0.0054433890618383884,0.0,0.0,0.0,0.0,0.00010786417260533199,-0.0003991480334661901,-0.002322211628779769,0.9998906254768372,0.0,0.0,0.0,16.638036727905273,8.400375366210938,1.7706732749938965,-3011.517333984375,0
2145.0290000000005,-0.0399506539106369,0.001600900199264288,0.00551546411588788,0.0,0.0,0.0,0.0,-0.0006510105449706316,-0.0035425606183707714,0.002076725708320737,0.9987452030181885,0.0,0.0,0.0,16.621259689331055,8.392338752746582,1.7697807550430298,-3008.481201171875,0
2154.9130000000005,-0.03983006253838539,0.0012898141285404563,0.0055871810764074326,0.0,0.0,0.0,0.0,-0.0007312868838198483,0.004051676951348782,-0.002864748239517212,0.998654842376709,0.0,0.0,0.0,16.60502815246582,8.381599426269531,1.7745144367218018,-3005.54296875,0
2164.794,-0.03971116244792938,0.0009739077650010586,0.005658389534801245,0.0,0.0,0.0,0.0,0.003218545811250806,0.0026797351893037558,0.00027806812431663275,1.0007370710372925,0.0,0.0,0.0,16.58831024169922,8.378009796142578,1.7631843090057373,-3002.516845703125,0
2174.6820000000007,-0.039593406021595,0.0006551903206855059,0.0057300361804664135,0.0,0.0,0.0,0.0,-0.0007964199176058173,0.00015872775111347437,0.0024829688481986523,1.0000187158584595,0.0,0.0,0.0,16.57117462158203,8.362991333007812,1.7592884302139282,-2999.41552734375,0
2184.5700000000015,-0.039475876837968826,0.0003321593685541302,0.005802381318062544,0.0,0.0,0.0,0.0,0.0008766241371631622,0.0009612753638066351,0.0022073457948863506,0.9996238350868225,0.0,0.0,0.0,16.555116653442383,8.35375690460205,1.7533938884735107,-2996.509033203125,0
2194.451000000001,-0.0393584668636322,3.427499905228615e-06,0.005874942056834698,0.0,0.0,0.0,0.0,0.002070771064609289,-0.0006084915949031711,-0.002168118255212903,0.9998494982719421,0.0,0.0,0.0,16.539363861083984,8.340328216552734,1.7446842193603516,-2993.657470703125,0
2204.335000000001,-0.03924180194735527,-0.0003311171312816441,0.005947780795395374,0.0,0.0,0.0,0.0,3.188825576216914e-05,0.0020854517351835966,-0.001795829040929675,1.0022821426391602,0.0,0.0,0.0,16.522602081298828,8.325778007507324,1.742332100868225,-2990.623779296875,0
2214.228000000001,-0.03912610560655594,-0.0006721894023939967,0.006022308021783829,0.0,0.0,0.0,0.0,0.0022628032602369785,-0.0014262180775403976,0.005692150443792343,1.0025886297225952,0.0,0.0,0.0,16.50514793395996,8.318631172180176,1.7326393127441406,-2987.464599609375,0
2224.107,-0.039009831845760345,-0.001018918352201581,0.006099340505897999,0.0,0.0,0.0,0.0,0.0010577082866802812,0.006384509615600109,-0.00012922189489472657,1.001011610031128,0.0,0.0,0.0,16.490184783935547,8.304391860961914,1.73765230178833,-2984.756103515625,0
2234.0020000000004,-0.03889169916510582,-0.0013698801631107926,0.006177953910082579,0.0,0.0,0.0,0.0,0.00019953676383011043,0.003337264759466052,-0.0015588542446494102,1.0005199909210205,0.0,0.0,0.0,16.472694396972656,8.295364379882812,1.7141176462173462,-2981.59033203125,0
2243.872000000001,-0.0387725830078125,-0.0017252061516046524,0.006257801316678524,0.0,0.0,0.0,0.0,-0.0013567821588367224,0.0032505574636161327,-0.0013513481244444847,1.000136375427246,0.0,0.0,0.0,16.456676483154297,8.29091739654541,1.7070964574813843,-2978.691162109375,0
2253.7740000000013,-0.038653500378131866,-0.002085395622998476,0.006338471546769142,0.0,0.0,0.0,0.0,0.00446676230058074,-0.00044763128971681,0.00024757120991125703,0.9971091151237488,0.0,0.0,0.0,16.439712524414062,8.289714813232422,1.6979299783706665,-2975.62060546875,0
2263.6460000000006,-0.038535743951797485,-0.002450760221108794,0.0064183371141552925,0.0,0.0,0.0,0.0,0.0029609815683215857,0.0007423943025059998,0.0013163246912881732,1.0020047426223755,0.0,0.0,0.0,16.422561645507812,8.275150299072266,1.6950143575668335,-2972.516357421875,0
2273.535,-0.038420334458351135,-0.002821547444909811,0.006498788483440876,0.0,0.0,0.0,0.0,0.001503846375271678,0.0008189485524781048,0.0011276120785623789,1.0015928745269775,0.0,0.0,0.0,16.405628204345703,8.26285457611084,1.6797850131988525,-2969.451171875,0
2283.416000000001,-0.03830651938915253,-0.0031976066529750824,0.006581421941518784,0.0,0.0,0.0,0.0,-0.00014480456593446434,-0.0005423948750831187,0.0023734536953270435,1.001538872718811,0.0,0.0,0.0,16.388898849487305,8.249974250793457,1.6720874309539795,-2966.42333984375,0
