timestamp,stateEstimate.x,stateEstimate.y,stateEstimate.z,controller.cmd_thrust,controller.cmd_roll,controller.cmd_pitch,controller.cmd_yaw,controller.r_roll,controller.r_pitch,controller.r_yaw,controller.accelz,controller.actuatorThrust,controller.roll,controller.pitch,controller.yaw,controller.rollRate,controller.pitchRate,controller.yawRate,controller.ctr_yaw
0.0,-0.011023319326341152,0.006993290968239307,-0.0006739820237271488,0.0,0.0,0.0,0.0,0.002565644681453705,0.0033669450785964727,-0.0006394624942913651,1.0002572536468506,0.0,0.0,0.0,10.684931755065918,-3.4997684955596924,6.596434593200684,-1933.9940185546875,0
9.897999999999229,-0.011016039177775383,0.007047074381262064,-0.0007132681203074753,0.0,0.0,0.0,0.0,0.0026680263690650463,-0.0021819162648171186,-0.0011183881433680654,0.9988515973091125,0.0,0.0,0.0,10.674893379211426,-3.501432180404663,6.582686901092529,-1932.1768798828125,0
19.8179999999993,-0.010998545214533806,0.007057615090161562,-0.0006971334805712104,0.0,0.0,0.0,0.0,-0.0011612609960138798,0.0021699476055800915,-0.0016174055635929108,1.001102089881897,0.0,0.0,0.0,10.680667877197266,-3.5090677738189697,6.583278656005859,-1933.2220458984375,0
29.71899999999914,-0.011088375933468342,0.006955670192837715,-0.0006841793074272573,0.0,0.0,0.0,0.0,-0.0013979359064251184,-0.002994285197928548,-0.0023138513788580894,0.997803270816803,0.0,0.0,0.0,10.66918659210205,-3.502955913543701,6.573944091796875,-1931.1441650390625,0
39.638999999999214,-0.01101428922265768,0.0069761197082698345,-0.0006309677264653146,0.0,0.0,0.0,0.0,-0.00021456359536387026,-0.0001968345750356093,0.0013450600672513247,0.9983760118484497,0.0,0.0,0.0,10.674005508422852,-3.4998531341552734,6.589659690856934,-1932.0162353515625,0
49.54600000000028,-0.011074471287429333,0.0068974909372627735,-0.000641511520370841,0.0,0.0,0.0,0.0,-0.002953318879008293,-0.006629854906350374,-0.0037267329171299934,0.9997335076332092,0.0,0.0,0.0,10.664237022399902,-3.4969124794006348,6.586672306060791,-1930.2481689453125,0
59.46600000000035,-0.0111066410318017,0.006974884774535894,-0.0006049723015166819,0.0,0.0,0.0,0.0,-0.003310407977551222,6.722928083036095e-05,0.0005105705931782722,0.9991908669471741,0.0,0.0,0.0,10.6701078414917,-3.483160972595215,6.603055953979492,-1931.310791015625,0
69.36299999999937,-0.011149664409458637,0.006922503933310509,-0.0006276152562350035,0.0,0.0,0.0,0.0,-0.000540313427336514,0.0014771384885534644,0.002182267839089036,0.9978131651878357,0.0,0.0,0.0,10.667046546936035,-3.488210678100586,6.59778356552124,-1930.7567138671875,0
79.28399999999965,-0.011129128746688366,0.006990408059209585,-0.0005731444107368588,0.0,0.0,0.0,0.0,0.003000635886564851,0.002230507554486394,0.0007861310732550919,0.9984289407730103,0.0,0.0,0.0,10.675697326660156,-3.4807355403900146,6.6060991287231445,-1932.322509765625,0
89.1869999999999,-0.011166726239025593,0.0070034209638834,-0.0005714814178645611,0.0,0.0,0.0,0.0,0.002546433126553893,0.0008712653070688248,0.0027529450599104166,1.0008310079574585,0.0,0.0,0.0,10.665144920349121,-3.4807345867156982,6.599678993225098,-1930.4124755859375,0
99.1180000000004,-0.011148848570883274,0.007036472670733929,-0.0006476136622950435,0.0,0.0,0.0,0.0,0.00014631163503509015,-0.001212277333252132,-0.0029332805424928665,0.997331976890564,0.0,0.0,0.0,10.664494514465332,-3.4799575805664062,6.605292320251465,-1930.2947998046875,0
109.01000000000022,-0.01118568517267704,0.0070542325265705585,-0.0006532990373671055,0.0,0.0,0.0,0.0,0.0017525394214317203,0.0021676330361515284,-0.001882589771412313,0.9988827705383301,0.0,0.0,0.0,10.653921127319336,-3.475661039352417,6.604410171508789,-1928.381103515625,0
118.92599999999948,-0.011183500289916992,0.007053442299365997,-0.0007245118613354862,0.0,0.0,0.0,0.0,0.0027274764142930508,0.0002540312707424164,0.0028893572743982077,1.000640869140625,0.0,0.0,0.0,10.651768684387207,-3.4833264350891113,6.606593608856201,-1927.991455078125,0
128.84100000000035,-0.011222337372601032,0.007074217312037945,-0.0007380254101008177,0.0,0.0,0.0,0.0,0.0014301780611276627,-0.0027566051576286554,0.0036973252426832914,0.9979696869850159,0.0,0.0,0.0,10.641946792602539,-3.4873592853546143,6.594004154205322,-1926.2135009765625,0
138.76000000000022,-0.01120698917657137,0.007073534186929464,-0.0008273737039417028,0.0,0.0,0.0,0.0,0.0009202375658787787,0.0011302938219159842,-0.0007648649043403566,0.999911367893219,0.0,0.0,0.0,10.632444381713867,-3.487999200820923,6.594271659851074,-1924.49365234375,0
148.65799999999945,-0.0112396739423275,0.00709069799631834,-0.0008470499888062477,0.0,0.0,0.0,0.0,0.00044517891365103424,0.00011378155613783747,-0.001564861391671002,0.9992986917495728,0.0,0.0,0.0,10.622489929199219,-3.4817349910736084,6.588249206542969,-1922.6917724609375,0
158.5759999999991,-0.011236133985221386,0.007074123714119196,-0.0009249127469956875,0.0,0.0,0.0,0.0,0.0008108895272016525,-0.001906306715682149,-0.001399234402924776,0.9987376928329468,0.0,0.0,0.0,10.611603736877441,-3.4765946865081787,6.588186740875244,-1920.7215576171875,0
168.47899999999936,-0.011265985667705536,0.007092361804097891,-0.0009501227759756148,0.0,0.0,0.0,0.0,0.0006998518365435302,-0.0021713317837566137,-0.004722667392343283,0.9991263747215271,0.0,0.0,0.0,10.601090431213379,-3.4712812900543213,6.58097505569458,-1918.8184814453125,0
178.40400000000045,-0.011296126991510391,0.007044651545584202,-0.0010042113717645407,0.0,0.0,0.0,0.0,-0.0016778380377218127,-0.0004460620984900743,0.0020252203103154898,0.9977760314941406,0.0,0.0,0.0,10.600951194763184,-3.492540121078491,6.572658538818359,-1918.7933349609375,0
188.30299999999988,-0.01132886577397585,0.007061265874654055,-0.0010337303392589092,0.0,0.0,0.0,0.0,-0.003038378432393074,0.002776732202619314,0.0024428211618214846,0.9983201622962952,0.0,0.0,0.0,10.59152889251709,-3.4870688915252686,6.568879127502441,-1917.087890625,0
198.22600000000057,-0.011358720250427723,0.0070700268261134624,-0.001073267892934382,0.0,0.0,0.0,0.0,-0.002134411595761776,-1.823355160013307e-05,0.0011037642834708095,0.9995390176773071,0.0,0.0,0.0,10.591141700744629,-3.4846789836883545,6.5558762550354,-1917.017822265625,0
208.1280000000006,-0.011395597830414772,0.007091310806572437,-0.0011054780334234238,0.0,0.0,0.0,0.0,0.0006108006346039474,0.0014492366462945938,-0.0031742150895297527,1.0005797147750854,0.0,0.0,0.0,10.580443382263184,-3.4761054515838623,6.550631999969482,-1915.081298828125,0
218.04799999999886,-0.011468373239040375,0.00706726498901844,-0.0011294849682599306,0.0,0.0,0.0,0.0,0.00036257822648622096,0.0006717009819112718,-0.0014160757418721914,0.9983785152435303,0.0,0.0,0.0,10.583661079406738,-3.4901342391967773,6.523682117462158,-1915.66357421875,0
227.9499999999989,-0.011511316522955894,0.007087577600032091,-0.0011610006913542747,0.0,0.0,0.0,0.0,-0.00019867470837198198,-0.000717108603566885,-0.001870088977739215,0.9994634985923767,0.0,0.0,0.0,10.571911811828613,-3.4857449531555176,6.5187225341796875,-1913.537109375,0
237.8680000000004,-0.01152645330876112,0.00710750836879015,-0.0012144743232056499,0.0,0.0,0.0,0.0,0.0008265555952675641,0.00618102727457881,-0.0006223865784704685,0.9991214275360107,0.0,0.0,0.0,10.5724515914917,-3.480038642883301,6.5292134284973145,-1913.634765625,0
247.77000000000044,-0.011569665744900703,0.007129021920263767,-0.0012486411724239588,0.0,0.0,0.0,0.0,0.0006741182878613472,0.003587336977943778,-0.0032439350616186857,0.9993802905082703,0.0,0.0,0.0,10.561873435974121,-3.4756572246551514,6.506072521209717,-1911.7200927734375,0
257.6929999999993,-0.011593416333198547,0.0071479505859315395,-0.0013000310864299536,0.0,0.0,0.0,0.0,0.0011564091546460986,-0.0007938616327010095,0.0030106594786047935,0.999232828617096,0.0,0.0,0.0,10.562187194824219,-3.476189613342285,6.501287937164307,-1911.77685546875,0
267.59399999999914,-0.011638052761554718,0.007175958249717951,-0.0013360439334064722,0.0,0.0,0.0,0.0,0.004247676581144333,0.0025392777752131224,-0.0001469064736738801,1.0003591775894165,0.0,0.0,0.0,10.552156448364258,-3.4752566814422607,6.493602752685547,-1909.96142578125,0
277.51800000000003,-0.011646408587694168,0.007178707048296928,-0.0014090881450101733,0.0,0.0,0.0,0.0,-0.0017350170528516173,0.000854253361467272,0.001763481879606843,1.0004167556762695,0.0,0.0,0.0,10.553081512451172,-3.490267515182495,6.4965643882751465,-1910.1287841796875,0
287.41699999999946,-0.011691269464790821,0.007207791320979595,-0.0014476386131718755,0.0,0.0,0.0,0.0,0.001289438921958208,0.0006485008634626865,-0.0016032211715355515,0.9976975321769714,0.0,0.0,0.0,10.543291091918945,-3.481015205383301,6.495940208435059,-1908.3568115234375,0
297.33599999999933,-0.011738287284970284,0.007239053957164288,-0.0014872850151732564,0.0,0.0,0.0,0.0,0.0013865550281479955,0.003077623900026083,4.6612050937255844e-05,0.9962014555931091,0.0,0.0,0.0,10.531609535217285,-3.4764609336853027,6.4905104637146,-1906.242431640625,0
307.2430000000004,-0.011788702569901943,0.0072725750505924225,-0.0015296830097213387,0.0,0.0,0.0,0.0,-0.0013946648687124252,-0.001967266434803605,0.0006265691481530666,0.9972248673439026,0.0,0.0,0.0,10.52126407623291,-3.4762024879455566,6.470900058746338,-1904.36962890625,0
317.16399999999885,-0.011080893687903881,0.0071074748411774635,-0.0008107367902994156,0.0,0.0,0.0,0.0,-0.0027205259539186954,-0.004276525694876909,0.0010036163730546832,0.9984170794487,0.0,0.0,0.0,10.543119430541992,-3.51792049407959,6.585452556610107,-1908.3255615234375,0
327.0619999999999,-0.011102420277893543,0.007135629188269377,-0.000826851581223309,0.0,0.0,0.0,0.0,-0.002291599288582802,0.0019142638193443418,0.00272352178581059,1.0000176429748535,0.0,0.0,0.0,10.532899856567383,-3.509756326675415,6.586273670196533,-1906.475830078125,0
336.98699999999917,-0.011030762456357479,0.007116162218153477,-0.0008205209160223603,0.0,0.0,0.0,0.0,0.002453062916174531,-0.002901628613471985,0.002421472454443574,0.99965900182724,0.0,0.0,0.0,10.549105644226074,-3.5213449001312256,6.585721492767334,-1909.4091796875,0
346.8850000000002,-0.011053863912820816,0.007144649978727102,-0.0008368323324248195,0.0,0.0,0.0,0.0,0.0006787461461499333,0.005159895401448011,0.003127500880509615,0.9991181492805481,0.0,0.0,0.0,10.539749145507812,-3.5216846466064453,6.5828704833984375,-1907.7156982421875,0
356.8130000000001,-0.010971805080771446,0.007152049336582422,-0.0008396401535719633,0.0,0.0,0.0,0.0,-0.001069513033144176,0.00031205412233248353,0.0004174892383161932,0.9969165325164795,0.0,0.0,0.0,10.554935455322266,-3.53141713142395,6.5778422355651855,-1910.4642333984375,0
366.71099999999933,-0.010994364507496357,0.007181680761277676,-0.0008577493717893958,0.0,0.0,0.0,0.0,-0.0007235505618155003,0.0026027788408100605,-0.0015318485675379634,0.9954234957695007,0.0,0.0,0.0,10.544498443603516,-3.527244806289673,6.567988395690918,-1908.5751953125,0
376.6280000000006,-0.010922931134700775,0.007193299941718578,-0.0008814232423901558,0.0,0.0,0.0,0.0,-0.0038217909168452024,-0.00471443822607398,0.0005413196631707251,0.9988409876823425,0.0,0.0,0.0,10.566364288330078,-3.5353522300720215,6.5695905685424805,-1912.5330810546875,0
386.53800000000047,-0.010946911759674549,0.007222316227853298,-0.0009052931563928723,0.0,0.0,0.0,0.0,-0.0011369483545422554,-0.0036442994605749846,-0.0005661617033183575,0.9991793632507324,0.0,0.0,0.0,10.555904388427734,-3.5254154205322266,6.575284957885742,-1910.6397705078125,0
396.4549999999999,-0.010906499810516834,0.007232189644128084,-0.000943522434681654,0.0,0.0,0.0,0.0,0.0012265254044905305,0.0027708469424396753,-0.0027598405722528696,0.9998586177825928,0.0,0.0,0.0,10.575353622436523,-3.535630464553833,6.582114219665527,-1914.16015625,0
406.3580000000002,-0.010931008495390415,0.007262520957738161,-0.0009686211124062538,0.0,0.0,0.0,0.0,-0.0013699816772714257,0.002107941312715411,0.00030143727781251073,1.000952959060669,0.0,0.0,0.0,10.56434154510498,-3.528707981109619,6.571262836456299,-1912.1668701171875,0
416.27900000000045,-0.010830911807715893,0.007256802637130022,-0.0010181196266785264,0.0,0.0,0.0,0.0,0.0005500348634086549,-0.004302492830902338,0.0020532889757305384,1.0000648498535156,0.0,0.0,0.0,10.58498477935791,-3.5513157844543457,6.573634147644043,-1915.9031982421875,0
426.1769999999997,-0.010852942243218422,0.007286632899194956,-0.0010437581222504377,0.0,0.0,0.0,0.0,0.002876204438507557,-0.0013170388992875814,-0.0007555019110441208,0.9978340864181519,0.0,0.0,0.0,10.574993133544922,-3.5480480194091797,6.568687438964844,-1914.0947265625,0
436.10100000000057,-0.01083021704107523,0.007299354765564203,-0.001085710828192532,0.0,0.0,0.0,0.0,-0.0029182930011302233,-0.0008507423335686326,0.0016750538488849998,0.9968361854553223,0.0,0.0,0.0,10.594794273376465,-3.562941312789917,6.578274726867676,-1917.6788330078125,0
445.9989999999998,-0.01085469126701355,0.007331004831939936,-0.0011154965031892061,0.0,0.0,0.0,0.0,0.0006470259977504611,-0.0009284005500376225,-0.0011157812550663948,0.9995639324188232,0.0,0.0,0.0,10.58486557006836,-3.547962188720703,6.5788092613220215,-1915.8817138671875,0
455.91899999999987,-0.010884225368499756,0.007368248887360096,-0.0011497053783386946,0.0,0.0,0.0,0.0,0.0008038905798457563,-0.00039809587178751826,0.002856254344806075,1.0004836320877075,0.0,0.0,0.0,10.57417106628418,-3.5397040843963623,6.574666976928711,-1913.946044921875,0
465.8269999999993,-0.010912102647125721,0.007403854746371508,-0.0011805950198322535,0.0,0.0,0.0,0.0,-0.0011257244041189551,-0.001974777551367879,0.0010573783656582236,0.9998793005943298,0.0,0.0,0.0,10.56411361694336,-3.536130666732788,6.568811416625977,-1912.1256103515625,0
475.7549999999992,-0.01094094943255186,0.007440729066729546,-0.001211065100505948,0.0,0.0,0.0,0.0,-0.0012125769862905145,-0.0025079839397221804,0.0006506869103759527,0.999359667301178,0.0,0.0,0.0,10.55367660522461,-3.5308597087860107,6.56828498840332,-1910.236328125,0
485.65300000000025,-0.010971860028803349,0.007479638326913118,-0.0012415358796715736,0.0,0.0,0.0,0.0,-0.0036226254887878895,-0.003776178229600191,4.227984754834324e-05,1.0015946626663208,0.0,0.0,0.0,10.543152809143066,-3.5248913764953613,6.566715240478516,-1908.3316650390625,0
495.5659999999989,-0.011004902422428131,0.007520731072872877,-0.001271314569748938,0.0,0.0,0.0,0.0,-0.0010725149186328053,0.0010002275230363011,0.000269222364295274,1.0002168416976929,0.0,0.0,0.0,10.532733917236328,-3.510363817214966,6.571048736572266,-1906.44580078125,0
505.46999999999935,-0.011039763689041138,0.007563350722193718,-0.0013002599589526653,0.0,0.0,0.0,0.0,-0.003943363204598427,0.0019427863880991936,-0.004125660751014948,0.9984031915664673,0.0,0.0,0.0,10.522613525390625,-3.5030112266540527,6.563947677612305,-1904.614013671875,0
515.3909999999996,-0.01128465123474598,0.007152684032917023,-0.0007904337253421545,0.0,0.0,0.0,0.0,-0.0004093925526831299,-0.00137117481790483,0.0021282241214066744,0.9990201592445374,0.0,0.0,0.0,10.53183650970459,-3.589911460876465,6.488267421722412,-1906.283447265625,0
525.2909999999993,-0.011331549845635891,0.007175051607191563,-0.000803181785158813,0.0,0.0,0.0,0.0,0.0030553240794688463,-0.0031578063499182463,-0.0033270777203142643,0.999649703502655,0.0,0.0,0.0,10.522753715515137,-3.583561420440674,6.4859466552734375,-1904.63916015625,0
535.2150000000001,-0.011378108523786068,0.007094852160662413,-0.0009264264954254031,0.0,0.0,0.0,0.0,-0.0019191330065950751,0.0012888406636193395,-0.001700676861219108,0.9997450709342957,0.0,0.0,0.0,10.529584884643555,-3.6270153522491455,6.480231761932373,-1905.875732421875,0
545.1149999999998,-0.011427752673625946,0.007111738435924053,-0.0009463473688811064,0.0,0.0,0.0,0.0,0.006086463108658791,0.0022518825717270374,-0.00383767019957304,0.9992601871490479,0.0,0.0,0.0,10.51893424987793,-3.616863965988159,6.472606658935547,-1903.947998046875,0
555.0360000000001,-0.011445020325481892,0.007129170931875706,-0.0010638934327289462,0.0,0.0,0.0,0.0,-0.0016843735938891768,-0.0029896250925958157,0.0014027348952367902,0.9971168041229248,0.0,0.0,0.0,10.518647193908691,-3.6348018646240234,6.480842590332031,-1903.89599609375,0
564.9390000000003,-0.011494387872517109,0.007145182229578495,-0.0010912432335317135,0.0,0.0,0.0,0.0,0.0021480454597622156,0.0008141002617776394,0.0009182826615869999,0.9968506693840027,0.0,0.0,0.0,10.508996963500977,-3.627551555633545,6.486800193786621,-1902.1492919921875,0
574.8639999999996,-0.011495386250317097,0.007146896328777075,-0.0012305700220167637,0.0,0.0,0.0,0.0,-0.000471443054266274,-0.0014230037340894341,-0.0011327126994729042,0.9978252053260803,0.0,0.0,0.0,10.512686729431152,-3.6348114013671875,6.506068706512451,-1902.8172607421875,0
584.762999999999,-0.011543365195393562,0.007166450843214989,-0.0012697115307673812,0.0,0.0,0.0,0.0,-0.0003587889368645847,0.0011948890751227736,0.00159292365424335,0.9977539777755737,0.0,0.0,0.0,10.502198219299316,-3.6338629722595215,6.5086445808410645,-1900.918701171875,0
594.6849999999995,-0.011553225107491016,0.007174092810600996,-0.0013751221122220159,0.0,0.0,0.0,0.0,-0.00035603507421910763,-0.004920904990285635,0.002581270644441247,1.0012542009353638,0.0,0.0,0.0,10.508285522460938,-3.638986110687256,6.518713474273682,-1902.0205078125,0
604.5830000000005,-0.011603578925132751,0.0071938312612473965,-0.0014206102350726724,0.0,0.0,0.0,0.0,-0.0007013290887698531,0.0018734808545559645,-0.0011361531214788556,1.0007535219192505,0.0,0.0,0.0,10.49880313873291,-3.637157678604126,6.5200395584106445,-1900.30419921875,0
614.5120000000006,-0.011647875420749187,0.007231120020151138,-0.0014604161260649562,0.0,0.0,0.0,0.0,-0.0019818926230072975,0.00199615815654397,-0.0038122693076729774,0.9978983998298645,0.0,0.0,0.0,10.505894660949707,-3.631072759628296,6.519352436065674,-1901.587890625,0
624.4120000000003,-0.011702721938490868,0.007253541145473719,-0.0015050854999572039,0.0,0.0,0.0,0.0,0.0008069398463703692,0.0006026494666002691,0.001063627889379859,1.0000799894332886,0.0,0.0,0.0,10.494499206542969,-3.6287925243377686,6.509807109832764,-1899.525390625,0
634.3240000000005,-0.011751851066946983,0.007284140679985285,-0.0015506154159083962,0.0,0.0,0.0,0.0,0.0002563880989328027,-0.0035193245857954025,0.0012029280187562108,0.9999374151229858,0.0,0.0,0.0,10.503277778625488,-3.6250061988830566,6.500979423522949,-1901.1141357421875,0
644.241,-0.011811123229563236,0.007308837492018938,-0.0015955992275848985,0.0,0.0,0.0,0.0,-0.001194305601529777,3.9575770642841235e-05,0.0017917114309966564,0.9994149804115295,0.0,0.0,0.0,10.492377281188965,-3.626577377319336,6.496209144592285,-1899.14111328125,0
654.1540000000005,-0.01187276840209961,0.007334752939641476,-0.0016405952628701925,0.0,0.0,0.0,0.0,0.0017425771802663803,0.0019951551221311092,-0.0004144509439356625,1.0003716945648193,0.0,0.0,0.0,10.48346996307373,-3.624044179916382,6.488905429840088,-1897.529052734375,0
664.0609999999997,-0.0119363097473979,0.007361229043453932,-0.0016852926928550005,0.0,0.0,0.0,0.0,-0.00114469975233078,5.0351554818917066e-05,0.0024283865932375193,1.0011883974075317,0.0,0.0,0.0,10.473105430603027,-3.620784044265747,6.479438781738281,-1895.65283203125,0
673.9660000000003,-0.012001442722976208,0.007388626225292683,-0.0017288564704358578,0.0,0.0,0.0,0.0,-0.0001019497140077874,0.007569350302219391,0.0022532332222908735,1.00114905834198,0.0,0.0,0.0,10.463554382324219,-3.614245891571045,6.4730143547058105,-1893.924072265625,0
683.8889999999992,-0.011004079133272171,0.00707855261862278,-0.0008451074827462435,0.0,0.0,0.0,0.0,0.003398523200303316,-0.00627164077013731,-0.0002945686865132302,0.9968430399894714,0.0,0.0,0.0,10.484091758728027,-3.710184097290039,6.657196521759033,-1897.641357421875,0
693.7870000000003,-0.011022793129086494,0.007091390900313854,-0.0008565756143070757,0.0,0.0,0.0,0.0,-0.00024406425654888153,-0.0026311480905860662,-0.005352138075977564,0.9975648522377014,0.0,0.0,0.0,10.473877906799316,-3.7090892791748047,6.668144226074219,-1895.792724609375,0
703.7039999999997,-0.01094003301113844,0.007107421290129423,-0.0007980887894518673,0.0,0.0,0.0,0.0,-0.000488529447466135,-0.0002190403756685555,-0.0009809129405766726,0.9986595511436462,0.0,0.0,0.0,10.510244369506836,-3.711031675338745,6.679661273956299,-1902.375244140625,0
713.6229999999996,-0.010958450846374035,0.007119226735085249,-0.0008098373655229807,0.0,0.0,0.0,0.0,-0.0011736288433894515,-0.0010422373889014125,-0.0001091954909497872,1.0005041360855103,0.0,0.0,0.0,10.500202178955078,-3.711299419403076,6.670483112335205,-1900.5576171875,0
723.5290000000005,-0.010921742767095566,0.007150311954319477,-0.0007854313589632511,0.0,0.0,0.0,0.0,-0.0015300180530175567,-0.00041442777728661895,0.004115373827517033,0.9979849457740784,0.0,0.0,0.0,10.534272193908691,-3.706697702407837,6.668631076812744,-1906.7242431640625,0
733.4339999999993,-0.010941287502646446,0.007163206115365028,-0.0007957362104207277,0.0,0.0,0.0,0.0,0.002912810305133462,-0.0020169552881270647,0.008337778970599174,1.0011173486709595,0.0,0.0,0.0,10.52391242980957,-3.701517105102539,6.658318519592285,-1904.8489990234375,0
743.3590000000004,-0.010910464450716972,0.007166099734604359,-0.0008078032406046987,0.0,0.0,0.0,0.0,0.0011208771029487252,0.005541750229895115,-0.0014907846925780177,0.9977654814720154,0.0,0.0,0.0,10.55939769744873,-3.7153682708740234,6.6534104347229,-1911.2720947265625,0
753.262999999999,-0.010929422453045845,0.007180879823863506,-0.0008187979692593217,0.0,0.0,0.0,0.0,-0.001241768361069262,0.0017640290316194296,0.0010127652203664184,0.9985486268997192,0.0,0.0,0.0,10.54778003692627,-3.7134814262390137,6.633203506469727,-1909.1690673828125,0
763.1800000000003,-0.010903965681791306,0.007183863315731287,-0.0008425083942711353,0.0,0.0,0.0,0.0,0.0016519150231033564,-0.0011897373478859663,0.0004483334196265787,1.0001044273376465,0.0,0.0,0.0,10.5656099319458,-3.717907667160034,6.625227451324463,-1912.3963623046875,0
773.0779999999995,-0.010922826826572418,0.0072001563385128975,-0.0008558386471122503,0.0,0.0,0.0,0.0,4.9849782953970134e-05,-0.0014409563736990094,-0.0007328814244829118,1.0005195140838623,0.0,0.0,0.0,10.555301666259766,-3.7173194885253906,6.6193084716796875,-1910.530517578125,0
783.0020000000004,-0.010964525863528252,0.007221878971904516,-0.0008680148748680949,0.0,0.0,0.0,0.0,0.0016791047528386116,0.0015805804869160056,0.0020777741447091103,0.9990208148956299,0.0,0.0,0.0,10.573103904724121,-3.7136542797088623,6.613710403442383,-1913.7528076171875,0
792.902,-0.010987725108861923,0.007240130100399256,-0.0008823807002045214,0.0,0.0,0.0,0.0,-0.0001536617346573621,0.0009785651927813888,0.005052109248936176,0.9992925524711609,0.0,0.0,0.0,10.562824249267578,-3.715151071548462,6.606914520263672,-1911.892333984375,0
802.8240000000005,-0.010965383611619473,0.007227544207125902,-0.0009227341506630182,0.0,0.0,0.0,0.0,0.0013373064575716853,0.003007128369063139,-0.0005734360311180353,1.000533938407898,0.0,0.0,0.0,10.581642150878906,-3.7288923263549805,6.601253509521484,-1915.2982177734375,0
812.7260000000006,-0.010987238958477974,0.00724170682951808,-0.0009378090617246926,0.0,0.0,0.0,0.0,-0.0002244997740490362,0.0016083084046840668,0.0010171839967370033,1.0001161098480225,0.0,0.0,0.0,10.570409774780273,-3.727762460708618,6.592026710510254,-1913.26513671875,0
822.6540000000005,-0.01095916610211134,0.00724368030205369,-0.0009564538486301899,0.0,0.0,0.0,0.0,-0.0003876437258441001,-0.0035652723163366318,-0.0014274397399276495,1.0001533031463623,0.0,0.0,0.0,10.597392082214355,-3.7352101802825928,6.596493721008301,-1918.1490478515625,0
832.5479999999989,-0.010982234962284565,0.007260001730173826,-0.0009706913260743022,0.0,0.0,0.0,0.0,-0.0008199014700949192,0.0016550600994378328,-0.0009752710466273129,1.000960111618042,0.0,0.0,0.0,10.586960792541504,-3.7257721424102783,6.596365451812744,-1916.2608642578125,0
842.4660000000003,-0.010949394665658474,0.007266789674758911,-0.0009766402654349804,0.0,0.0,0.0,0.0,1.1189810720679816e-05,0.0011852121679112315,-0.0021806240547448397,0.9994768500328064,0.0,0.0,0.0,10.610747337341309,-3.732306718826294,6.601219177246094,-1920.56640625,0
852.369999999999,-0.010970001108944416,0.007279993500560522,-0.0009891684167087078,0.0,0.0,0.0,0.0,-0.0014553582295775414,0.0015892719384282827,-0.0012025858741253614,0.998826801776886,0.0,0.0,0.0,10.599964141845703,-3.7285449504852295,6.598126411437988,-1918.6146240234375,0
862.2909999999993,-0.010915231890976429,0.007262320723384619,-0.001008130144327879,0.0,0.0,0.0,0.0,-0.0016931999707594514,-0.0007445195806212723,0.002401283709332347,0.9994282126426697,0.0,0.0,0.0,10.619684219360352,-3.7450973987579346,6.618206024169922,-1922.1839599609375,0
872.1919999999991,-0.010932741686701775,0.007272687740623951,-0.001022221753373742,0.0,0.0,0.0,0.0,-0.000605516426730901,0.005174960009753704,-0.00380476051941514,0.997955858707428,0.0,0.0,0.0,10.61001205444336,-3.742098331451416,6.615105152130127,-1920.433349609375,0
882.1170000000002,-0.010901941917836666,0.007248918991535902,-0.0010474248556420207,0.0,0.0,0.0,0.0,0.00021676045435015112,0.0010988889262080193,-0.00011876061034854501,0.9985718727111816,0.0,0.0,0.0,10.624186515808105,-3.7573163509368896,6.617595672607422,-1922.998779296875,0
892.0169999999998,-0.011020679026842117,0.007046262733638287,-0.0007359783630818129,0.0,0.0,0.0,0.0,0.00376513390801847,0.003127486677840352,0.0003382147697266191,0.9994166493415833,0.0,0.0,0.0,10.615736961364746,-3.794614315032959,6.586849212646484,-1921.469482421875,0
901.9359999999997,-0.010983412154018879,0.007023458834737539,-0.0007094782195053995,0.0,0.0,0.0,0.0,0.0020748074166476727,-6.712230970151722e-05,-8.190423250198364e-05,0.9980536103248596,0.0,0.0,0.0,10.628387451171875,-3.8055200576782227,6.58879280090332,-1923.75927734375,0
911.8449999999993,-0.01101450715214014,0.006974866148084402,-0.0006723885308019817,0.0,0.0,0.0,0.0,0.0012231569271534681,0.00046062414185144007,0.0023877325002104044,0.9980762600898743,0.0,0.0,0.0,10.628387451171875,-3.8055200576782227,6.58879280090332,-1923.75927734375,0
921.7659999999996,-0.010967629961669445,0.006968555971980095,-0.0006226592813618481,0.0,0.0,0.0,0.0,-0.0036801090463995934,0.0001522253587609157,-0.005468131508678198,0.9986308217048645,0.0,0.0,0.0,10.637309074401855,-3.808330774307251,6.585618495941162,-1925.3740234375,0
931.6610000000001,-0.01100083626806736,0.0068827359937131405,-0.0006205443642102182,0.0,0.0,0.0,0.0,0.0007711251382716,-0.00044527192949317396,0.001577130169607699,0.9991624355316162,0.0,0.0,0.0,10.64421558380127,-3.816683292388916,6.580999374389648,-1926.6240234375,0
941.5820000000003,-0.011007149703800678,0.006906460504978895,-0.0005882442928850651,0.0,0.0,0.0,0.0,0.002129590604454279,0.002568785799667239,0.00311192125082016,0.9985812306404114,0.0,0.0,0.0,10.646162033081055,-3.807102680206299,6.576605796813965,-1926.976318359375,0
951.4850000000006,-0.010990756563842297,0.006890794727951288,-0.0006219596252776682,0.0,0.0,0.0,0.0,-0.0016581220552325249,0.0016495607560500503,0.0008007927681319416,0.99820876121521,0.0,0.0,0.0,10.65408992767334,-3.8091323375701904,6.57771635055542,-1928.41162109375,0
961.4079999999994,-0.011016846634447575,0.006928637158125639,-0.0005981079302728176,0.0,0.0,0.0,0.0,0.0028162412345409393,0.0022038037423044443,-0.0016571530140936375,0.9991946816444397,0.0,0.0,0.0,10.65453052520752,-3.8002302646636963,6.56773567199707,-1928.4913330078125,0
971.3150000000005,-0.010969995521008968,0.007012239191681147,-0.0006239874055609107,0.0,0.0,0.0,0.0,-0.0024551062379032373,0.00020857709750998765,0.006242415867745876,0.998611330986023,0.0,0.0,0.0,10.670681953430176,-3.800441265106201,6.560544490814209,-1931.4146728515625,0
981.2250000000004,-0.010998373851180077,0.007011053618043661,-0.0006308833253569901,0.0,0.0,0.0,0.0,-0.001526757376268506,0.0006488119252026081,0.0006190065178088844,0.9987096190452576,0.0,0.0,0.0,10.661276817321777,-3.791299343109131,6.5511274337768555,-1929.71240234375,0
991.1309999999994,-0.011004769243299961,0.007070543244481087,-0.0006505922647193074,0.0,0.0,0.0,0.0,-0.003401311580091715,0.00731363520026207,0.002349816495552659,0.9992852807044983,0.0,0.0,0.0,10.6783447265625,-3.7800862789154053,6.5372090339660645,-1932.801513671875,0
1001.0550000000003,-0.011034931987524033,0.007070993538945913,-0.0006599761545658112,0.0,0.0,0.0,0.0,0.0008025137358345091,-0.00245806947350502,0.0015188931720331311,0.9994403123855591,0.0,0.0,0.0,10.66833782196045,-3.7642226219177246,6.519583225250244,-1930.9903564453125,0
1010.9560000000001,-0.010993031784892082,0.007076097186654806,-0.0006504720658995211,0.0,0.0,0.0,0.0,-0.0032689354848116636,-0.0019001419423148036,-0.0033071062061935663,0.9990256428718567,0.0,0.0,0.0,10.682822227478027,-3.7629587650299072,6.52701473236084,-1933.6119384765625,0
1020.869999999999,-0.011025321669876575,0.007076771929860115,-0.0006587014649994671,0.0,0.0,0.0,0.0,-0.001687043928541243,-0.00039676885353401303,-0.0011692378902807832,0.9994686245918274,0.0,0.0,0.0,10.670762062072754,-3.753540277481079,6.524712562561035,-1931.42919921875,0
1030.7929999999997,-0.01103856973350048,0.007082139607518911,-0.0006792494677938521,0.0,0.0,0.0,0.0,0.0030118385329842567,-0.006068520247936249,0.0005464826244860888,1.0006470680236816,0.0,0.0,0.0,10.68344783782959,-3.74241042137146,6.521585941314697,-1933.725341796875,0
1040.699999999999,-0.01107474323362112,0.007081629708409309,-0.000688413972966373,0.0,0.0,0.0,0.0,-0.0003639400820247829,0.002619926119223237,-0.00016376079292967916,1.0024760961532593,0.0,0.0,0.0,10.67360782623291,-3.7441999912261963,6.529968738555908,-1931.9442138671875,0
1050.6010000000006,-0.011036847718060017,0.006995649542659521,-0.0006379912374541163,0.0,0.0,0.0,0.0,0.0016796443378552794,0.001538913231343031,0.00108570815064013,0.9976544380187988,0.0,0.0,0.0,10.695091247558594,-3.755504846572876,6.529016971588135,-1935.832763671875,0
1060.5190000000002,-0.011072817258536816,0.006991113070398569,-0.0006409024936147034,0.0,0.0,0.0,0.0,-0.0021514769177883863,-0.0006700034136883914,0.004948909394443035,0.9979853630065918,0.0,0.0,0.0,10.684601783752441,-3.7521209716796875,6.522212028503418,-1933.934326171875,0
1070.4279999999999,-0.01100132241845131,0.006936516147106886,-0.0006048057111911476,0.0,0.0,0.0,0.0,-0.0010196116054430604,-0.0020038310904055834,-0.00017628369096200913,0.9994310140609741,0.0,0.0,0.0,10.700679779052734,-3.7481131553649902,6.537744045257568,-1936.8443603515625,0
1080.3449999999993,-0.011037630960345268,0.006931474898010492,-0.0006071622483432293,0.0,0.0,0.0,0.0,-0.002631433540955186,-0.0028610762674361467,-0.00012017718836432323,1.0001535415649414,0.0,0.0,0.0,10.690367698669434,-3.73972749710083,6.538370132446289,-1934.977783203125,0
1090.2479999999996,-0.01103012915700674,0.006932165008038282,-0.0005738474428653717,0.0,0.0,0.0,0.0,-0.0008105176384560764,-0.00019969473942182958,0.000498978013638407,0.9984861612319946,0.0,0.0,0.0,10.6994047164917,-3.742995500564575,6.5388312339782715,-1936.613525390625,0
1100.1679999999997,-0.01103012915700674,0.006932165008038282,-0.0005738474428653717,0.0,0.0,0.0,0.0,-0.0012395554222166538,0.0009201420471072197,-0.0014734513824805617,0.9982361197471619,0.0,0.0,0.0,10.6994047164917,-3.742995500564575,6.5388312339782715,-1936.613525390625,0
1110.0679999999993,-0.011030065827071667,0.006904277950525284,-0.0005541732534766197,0.0,0.0,0.0,0.0,-0.0012869567144662142,0.0005308823310770094,-0.002176985377445817,0.9976435899734497,0.0,0.0,0.0,10.697711944580078,-3.733968734741211,6.534766674041748,-1936.3072509765625,0
1119.9879999999994,-0.011030065827071667,0.006904277950525284,-0.0005541732534766197,0.0,0.0,0.0,0.0,-0.0003516895812936127,-0.0012573953717947006,0.00032266409834846854,0.9994000792503357,0.0,0.0,0.0,10.697711944580078,-3.733968734741211,6.534766674041748,-1936.3072509765625,0
1129.9009999999998,-0.011006004177033901,0.006930748466402292,-0.0005987861077301204,0.0,0.0,0.0,0.0,0.00036359106888994575,-0.004590985365211964,0.004301001783460379,0.9978253245353699,0.0,0.0,0.0,10.70307445526123,-3.723223924636841,6.530849933624268,-1937.2777099609375,0
1139.815999999999,-0.011006004177033901,0.006930748466402292,-0.0005987861077301204,0.0,0.0,0.0,0.0,-0.0009704712429083884,0.0016042673960328102,0.0020107601303607225,0.9961191415786743,0.0,0.0,0.0,10.70307445526123,-3.723223924636841,6.530849933624268,-1937.2777099609375,0
1149.7170000000006,-0.011052255518734455,0.007031245157122612,-0.0006556249572895467,0.0,0.0,0.0,0.0,-0.0005438255611807108,0.0015463295858353376,0.0031818978022783995,1.000279426574707,0.0,0.0,0.0,10.703689575195312,-3.705430507659912,6.514463901519775,-1937.38916015625,0
1159.6450000000004,-0.011052255518734455,0.007031245157122612,-0.0006556249572895467,0.0,0.0,0.0,0.0,-7.816605830157641e-06,-0.002947781700640917,1.4407483831746504e-05,0.9970171451568604,0.0,0.0,0.0,10.703689575195312,-3.705430507659912,6.514463901519775,-1937.38916015625,0
1169.539999999999,-0.011002734303474426,0.007047083228826523,-0.0006907825008966029,0.0,0.0,0.0,0.0,-0.0006455776165239513,-0.002502886112779379,-0.0022036682348698378,0.9985256195068359,0.0,0.0,0.0,10.705183982849121,-3.703810214996338,6.518423080444336,-1937.6595458984375,0
1179.4599999999991,-0.011002734303474426,0.007047083228826523,-0.0006907825008966029,0.0,0.0,0.0,0.0,0.0007910706335678697,0.00017914596537593752,9.516606951365247e-05,1.0004887580871582,0.0,0.0,0.0,10.705183982849121,-3.703810214996338,6.518423080444336,-1937.6595458984375,0
1189.3680000000004,-0.010943444445729256,0.007088072597980499,-0.0007560615777038038,0.0,0.0,0.0,0.0,-0.001099073444493115,-0.004905624780803919,0.00015043975145090371,1.0011860132217407,0.0,0.0,0.0,10.715229988098145,-3.696052074432373,6.534331321716309,-1939.47802734375,0
1199.277,-0.010943444445729256,0.007088072597980499,-0.0007560615777038038,0.0,0.0,0.0,0.0,0.0006410176865756512,0.0017032730393111706,-0.0035937975626438856,0.999081015586853,0.0,0.0,0.0,10.715229988098145,-3.696052074432373,6.534331321716309,-1939.47802734375,0
1209.1849999999995,-0.010946557857096195,0.007130175828933716,-0.0007922022487036884,0.0,0.0,0.0,0.0,-0.0008180076256394386,0.002398183336481452,-0.0030266703106462955,0.9990940690040588,0.0,0.0,0.0,10.715608596801758,-3.6897544860839844,6.532374382019043,-1939.546630859375,0
1219.1080000000002,-0.010946557857096195,0.007130175828933716,-0.0007922022487036884,0.0,0.0,0.0,0.0,0.001250677858479321,-0.0022207226138561964,-0.004484336823225021,0.999678909778595,0.0,0.0,0.0,10.715608596801758,-3.6897544860839844,6.532374382019043,-1939.546630859375,0
1229.0069999999996,-0.010985860601067543,0.007094911299645901,-0.0007831775583326817,0.0,0.0,0.0,0.0,-0.001587700447998941,-0.004483629949390888,-0.0016223571728914976,1.0010830163955688,0.0,0.0,0.0,10.715601921081543,-3.687678813934326,6.526160717010498,-1939.5452880859375,0
1238.9259999999995,-0.010985860601067543,0.007094911299645901,-0.0007831775583326817,0.0,0.0,0.0,0.0,-0.0005444756825454533,0.0029325345531105995,0.00237468583509326,1.0013395547866821,0.0,0.0,0.0,10.715601921081543,-3.687678813934326,6.526160717010498,-1939.5452880859375,0
1248.8289999999997,-0.011022950522601604,0.0071018836461007595,-0.0007855365402065217,0.0,0.0,0.0,0.0,0.0015305058332160115,0.00042468408355489373,0.0006333558121696115,0.999032735824585,0.0,0.0,0.0,10.716805458068848,-3.6854190826416016,6.51069450378418,-1939.7630615234375,0
1258.7579999999998,-0.011022950522601604,0.0071018836461007595,-0.0007855365402065217,0.0,0.0,0.0,0.0,-0.0014904554700478911,-0.003170706331729889,-0.00024774993653409183,0.9984321594238281,0.0,0.0,0.0,10.716805458068848,-3.6854190826416016,6.51069450378418,-1939.7630615234375,0
1268.6530000000002,-0.011020840145647526,0.007110480684787035,-0.0007896133465692401,0.0,0.0,0.0,0.0,0.004630905110388994,0.0014690834796056151,0.0011143278097733855,0.9992941617965698,0.0,0.0,0.0,10.717872619628906,-3.681321382522583,6.521973133087158,-1939.956298828125,0
1278.5740000000005,-0.011020840145647526,0.007110480684787035,-0.0007896133465692401,0.0,0.0,0.0,0.0,-0.0009444280876778066,-0.0022276134695857763,0.0005833245231769979,0.9982830286026001,0.0,0.0,0.0,10.717872619628906,-3.681321382522583,6.521973133087158,-1939.956298828125,0
1288.4750000000004,-0.010964352637529373,0.007074579130858183,-0.0007275252137333155,0.0,0.0,0.0,0.0,0.0004345284542068839,0.0005536695825867355,7.539274520240724e-05,0.9989774227142334,0.0,0.0,0.0,10.7303466796875,-3.685591697692871,6.5365447998046875,-1942.2139892578125,0
1298.396999999999,-0.011001430451869965,0.007067718543112278,-0.000734258908778429,0.0,0.0,0.0,0.0,0.0010309468489140272,0.0012573626590892673,0.0006929848459549248,0.9989310503005981,0.0,0.0,0.0,10.719794273376465,-3.6799983978271484,6.525905132293701,-1940.3040771484375,0
1308.3009999999995,-0.011004459112882614,0.0069680530577898026,-0.0006761890836060047,0.0,0.0,0.0,0.0,0.004527252167463303,-0.00017462788673583418,0.000596879399381578,0.9992716312408447,0.0,0.0,0.0,10.724225997924805,-3.6782960891723633,6.542788505554199,-1941.1063232421875,0
1318.223,-0.011010272428393364,0.006969574373215437,-0.0007126578711904585,0.0,0.0,0.0,0.0,-0.0007424115319736302,-0.004232777748256922,0.0035097594372928143,0.999396026134491,0.0,0.0,0.0,10.713945388793945,-3.6851298809051514,6.532989978790283,-1939.24560546875,0
1328.125,-0.010969207622110844,0.006985966581851244,-0.000677763600833714,0.0,0.0,0.0,0.0,-0.00126550009008497,8.104045991785824e-05,-0.002486680867150426,1.000199317932129,0.0,0.0,0.0,10.725995063781738,-3.686021327972412,6.536616325378418,-1941.4263916015625,0
1338.0389999999989,-0.01102434191852808,0.006959858350455761,-0.0006664566462859511,0.0,0.0,0.0,0.0,-0.00016309584316331893,0.0031748036853969097,0.0007006859523244202,1.00016188621521,0.0,0.0,0.0,10.716689109802246,-3.6801888942718506,6.54235315322876,-1939.7420654296875,0
1347.946,-0.010977910831570625,0.006970703136175871,-0.0006284255068749189,0.0,0.0,0.0,0.0,0.00010311175719834864,-0.0017753038555383682,-0.0009122730698436499,1.0010486841201782,0.0,0.0,0.0,10.728888511657715,-3.6748764514923096,6.539780616760254,-1941.9500732421875,0
1357.866,-0.011017447337508202,0.0069578299298882484,-0.0006252317107282579,0.0,0.0,0.0,0.0,-1.255051938642282e-05,0.0008833471219986677,-0.0034043078776448965,1.0005146265029907,0.0,0.0,0.0,10.718252182006836,-3.6791810989379883,6.535788536071777,-1940.025146484375,0
1367.768,-0.01097910013049841,0.0070020719431340694,-0.0005721675115637481,0.0,0.0,0.0,0.0,0.0015366087900474668,-0.000679322867654264,0.0010261561255902052,0.9986479878425598,0.0,0.0,0.0,10.728028297424316,-3.6678435802459717,6.5399298667907715,-1941.79443359375,0
1377.6849999999995,-0.011009931564331055,0.006943492218852043,-0.0005971179925836623,0.0,0.0,0.0,0.0,0.0005361947696655989,-0.00042368113645352423,0.0025347955524921417,1.000138759613037,0.0,0.0,0.0,10.716914176940918,-3.6722590923309326,6.530148983001709,-1939.782958984375,0
1387.5910000000003,-0.010990145616233349,0.006958185229450464,-0.0005610110820271075,0.0,0.0,0.0,0.0,0.000429311185143888,0.005394327454268932,-0.0007745896582491696,0.9988064169883728,0.0,0.0,0.0,10.720704078674316,-3.6661534309387207,6.52756929397583,-1940.46875,0
1397.5079999999998,-0.011013985611498356,0.006953028962016106,-0.0005727674579247832,0.0,0.0,0.0,0.0,0.002544810762628913,-0.00021554643171839416,0.00046187854604795575,0.998197615146637,0.0,0.0,0.0,10.70962905883789,-3.663621187210083,6.5192694664001465,-1938.4642333984375,0
1407.4220000000005,-0.010987574234604836,0.006989495363086462,-0.0005277050076983869,0.0,0.0,0.0,0.0,-0.0005479154060594738,0.0034791422076523304,-0.0014289837563410401,0.9990214705467224,0.0,0.0,0.0,10.72137451171875,-3.66831374168396,6.517080307006836,-1940.5902099609375,0
1417.324999999999,-0.010981501080095768,0.006985112093389034,-0.000579842715524137,0.0,0.0,0.0,0.0,-0.0013778109569102526,0.0019612992182374,0.0033256353344768286,0.9989174008369446,0.0,0.0,0.0,10.710689544677734,-3.6605277061462402,6.498663425445557,-1938.6561279296875,0
1427.2420000000002,-0.011003502644598484,0.007010946050286293,-0.0005648481310345232,0.0,0.0,0.0,0.0,-0.002907794201746583,-0.00384519319050014,-0.0007466223323717713,0.9989767074584961,0.0,0.0,0.0,10.721766471862793,-3.657402753829956,6.493807315826416,-1940.6610107421875,0
1437.1489999999994,-0.011001302860677242,0.007018585689365864,-0.0006143212667666376,0.0,0.0,0.0,0.0,0.0018345587886869907,-0.0034577143378555775,2.4324415790033527e-05,1.000014305114746,0.0,0.0,0.0,10.7106351852417,-3.6518537998199463,6.482113838195801,-1938.646240234375,0
1447.063,-0.010972613468766212,0.006992246024310589,-0.0006032197852618992,0.0,0.0,0.0,0.0,-0.00043763648136518896,0.000641771184746176,0.0021522927563637495,0.998919665813446,0.0,0.0,0.0,10.714428901672363,-3.6563196182250977,6.486584186553955,-1939.3331298828125,0
1456.9760000000006,-0.011009959504008293,0.006997504737228155,-0.0006602992070838809,0.0,0.0,0.0,0.0,0.0029545966535806656,0.0015248319832608104,-0.0009951023384928703,0.9990913271903992,0.0,0.0,0.0,10.692009925842285,-3.6500279903411865,6.480140686035156,-1935.275146484375,0
1466.8819999999996,-0.010941990651190281,0.007030847482383251,-0.0006201284704729915,0.0,0.0,0.0,0.0,0.0006746552535332739,0.001807872555218637,0.0029021259397268295,0.9987075328826904,0.0,0.0,0.0,10.713979721069336,-3.650669813156128,6.490639686584473,-1939.251708984375,0
1476.7970000000005,-0.011010940186679363,0.006975193042308092,-0.0006174127920530736,0.0,0.0,0.0,0.0,-0.0019397318828850985,0.006144863553345203,-0.0001149610397987999,0.9995521306991577,0.0,0.0,0.0,10.70478343963623,-3.6506707668304443,6.487079620361328,-1937.5870361328125,0
1486.708999999999,-0.01098145917057991,0.006975548807531595,-0.000593596778344363,0.0,0.0,0.0,0.0,0.0007099021458998322,-0.006744320038706064,-2.825427145580761e-05,0.9982957243919373,0.0,0.0,0.0,10.707813262939453,-3.6518783569335938,6.481128692626953,-1938.1353759765625,0
1496.6180000000004,-0.011023333296179771,0.0069631910882890224,-0.0006020886939950287,0.0,0.0,0.0,0.0,0.002157174050807953,-0.0007333069224841893,0.0014112304197624326,0.9996356964111328,0.0,0.0,0.0,10.69784164428711,-3.648104190826416,6.47541618347168,-1936.3304443359375,0
1506.530999999999,-0.01102365367114544,0.007001976482570171,-0.0005754077574238181,0.0,0.0,0.0,0.0,0.0015002640429884195,0.0013065114617347717,0.0018747070571407676,0.9985731244087219,0.0,0.0,0.0,10.709735870361328,-3.642822265625,6.47983980178833,-1938.4833984375,0
1516.4400000000005,-0.0110771544277668,0.006931684911251068,-0.0006012781523168087,0.0,0.0,0.0,0.0,-0.0001574238995090127,0.005383679643273354,0.0018065843032673001,0.9999281764030457,0.0,0.0,0.0,10.698835372924805,-3.6371655464172363,6.477084636688232,-1936.510498046875,0
1526.3510000000006,-0.01101215835660696,0.006975715048611164,-0.0005421833484433591,0.0,0.0,0.0,0.0,-0.0036632083356380463,0.0008855340420268476,-0.0025201181415468454,1.0019282102584839,0.0,0.0,0.0,10.710648536682129,-3.638740301132202,6.489383697509766,-1938.648681640625,0
1536.2620000000006,-0.011068570427596569,0.006912392098456621,-0.0005552042275667191,0.0,0.0,0.0,0.0,0.002714507281780243,0.005762248765677214,-0.003224915824830532,0.999005913734436,0.0,0.0,0.0,10.704402923583984,-3.648876905441284,6.471729278564453,-1937.5181884765625,0
1546.1749999999993,-0.011016192846000195,0.006937448401004076,-0.0005035921931266785,0.0,0.0,0.0,0.0,0.004129315726459026,-0.0005306667881086469,0.00045097150723449886,0.9976407885551453,0.0,0.0,0.0,10.715760231018066,-3.6456351280212402,6.484298229217529,-1939.573974609375,0
1556.0849999999991,-0.010985313914716244,0.006973465904593468,-0.0005769121926277876,0.0,0.0,0.0,0.0,0.0036620290484279394,-0.0012532466789707541,0.0004907672409899533,0.9990153908729553,0.0,0.0,0.0,10.704909324645996,-3.647503137588501,6.462266445159912,-1937.6099853515625,0
1566.0059999999994,-0.011005324311554432,0.007004218176007271,-0.000560474640224129,0.0,0.0,0.0,0.0,0.0008356401231139898,-0.002490665763616562,0.0006672407034784555,0.9995693564414978,0.0,0.0,0.0,10.714639663696289,-3.649538993835449,6.467160701751709,-1939.37109375,0
1575.911,-0.011018420569598675,0.0069955079816281796,-0.0006093382253311574,0.0,0.0,0.0,0.0,-9.655575559008867e-05,-0.0008602406014688313,0.0019574069883674383,1.0004969835281372,0.0,0.0,0.0,10.71181869506836,-3.652961254119873,6.462638854980469,-1938.860595703125,0
1585.8230000000003,-0.011039252392947674,0.007054964546114206,-0.0005830177688039839,0.0,0.0,0.0,0.0,-0.0023498705122619867,0.0010580149246379733,-0.00013378642324823886,0.9994891285896301,0.0,0.0,0.0,10.723092079162598,-3.645745038986206,6.4579620361328125,-1940.9010009765625,0
1595.7309999999998,-0.01104826107621193,0.007042778190225363,-0.0006466562626883388,0.0,0.0,0.0,0.0,0.002988011809065938,0.0006232850719243288,0.0010759875876829028,0.9986914396286011,0.0,0.0,0.0,10.713988304138184,-3.646418333053589,6.445724964141846,-1939.2532958984375,0
1605.6459999999988,-0.01105364877730608,0.007050626445561647,-0.0006337244994938374,0.0,0.0,0.0,0.0,0.0036685944069176912,0.006326836999505758,0.00039666102384217083,0.9969567060470581,0.0,0.0,0.0,10.718341827392578,-3.638157367706299,6.443948745727539,-1940.0413818359375,0
1615.5550000000003,-0.011089546605944633,0.007031538058072329,-0.0006718110525980592,0.0,0.0,0.0,0.0,0.00037607084959745407,-0.0005354350432753563,0.00016305969620589167,0.9982975125312805,0.0,0.0,0.0,10.714422225952148,-3.6375489234924316,6.433222770690918,-1939.331787109375,0
1625.4660000000003,-0.011054163798689842,0.006996548268944025,-0.0006633231532759964,0.0,0.0,0.0,0.0,0.0006667269626632333,-0.005965500604361296,0.0006824573501944542,1.0001003742218018,0.0,0.0,0.0,10.716385841369629,-3.640892267227173,6.4319634437561035,-1939.687255859375,0
1635.3799999999992,-0.011068006977438927,0.006998516619205475,-0.0007234622607938945,0.0,0.0,0.0,0.0,0.0014274782733991742,0.0006200614734552801,0.0037099444307386875,1.0005182027816772,0.0,0.0,0.0,10.706766128540039,-3.635044813156128,6.424624443054199,-1937.9459228515625,0
1645.2939999999999,-0.010986220091581345,0.007000545039772987,-0.0006881101871840656,0.0,0.0,0.0,0.0,-0.0008731074631214142,0.0020811096765100956,0.0018725070403888822,1.0015796422958374,0.0,0.0,0.0,10.720593452453613,-3.6386332511901855,6.443033218383789,-1940.4488525390625,0
1655.200999999999,-0.01104492973536253,0.006932578049600124,-0.0007199029205366969,0.0,0.0,0.0,0.0,-0.0010058846091851592,-7.359806477325037e-05,-0.0010864152573049068,1.0001599788665771,0.0,0.0,0.0,10.709580421447754,-3.6433138847351074,6.43108606338501,-1938.455322265625,0
1665.110999999999,-0.011031071655452251,0.006986531894654036,-0.0006809143233112991,0.0,0.0,0.0,0.0,-0.00041823124047368765,-0.003940578084439039,0.006128435023128986,0.9988417625427246,0.0,0.0,0.0,10.719686508178711,-3.6319479942321777,6.434597492218018,-1940.2845458984375,0
1675.0229999999992,-0.011058949865400791,0.006987772881984711,-0.000721222604624927,0.0,0.0,0.0,0.0,0.002878371858969331,0.000139585230499506,-0.000810694822575897,0.9990220665931702,0.0,0.0,0.0,10.709144592285156,-3.6326406002044678,6.421561241149902,-1938.37646484375,0
1684.9339999999993,-0.010992350988090038,0.0069868597202003,-0.0006864469032734632,0.0,0.0,0.0,0.0,-0.001846614177338779,-0.00413804454728961,0.0028626893181353807,0.9997158050537109,0.0,0.0,0.0,10.723468780517578,-3.6372175216674805,6.443744659423828,-1940.9693603515625,0
1694.8469999999998,-0.011022946797311306,0.006976735778152943,-0.0007258234545588493,0.0,0.0,0.0,0.0,-0.00017996688256971538,-0.0007775191916152835,-0.0010884718503803015,1.0003834962844849,0.0,0.0,0.0,10.712990760803223,-3.6361312866210938,6.438916206359863,-1939.07275390625,0
1704.7569999999996,-0.010992771945893764,0.00698102917522192,-0.0007007737294770777,0.0,0.0,0.0,0.0,-0.0008477261289954185,-0.001174135715700686,0.001222832826897502,0.9986099004745483,0.0,0.0,0.0,10.719406127929688,-3.625861406326294,6.448120594024658,-1940.2337646484375,0
1714.67,-0.011015523225069046,0.006983492057770491,-0.0007421370828524232,0.0,0.0,0.0,0.0,-0.0008106777095235884,0.0002415816707070917,-0.0010742046870291233,0.9993217587471008,0.0,0.0,0.0,10.708011627197266,-3.622061014175415,6.443384647369385,-1938.1712646484375,0
1724.5810000000001,-0.011030624620616436,0.0069953384809195995,-0.0007309031207114458,0.0,0.0,0.0,0.0,-0.0007752106175757945,0.0002872857730835676,-0.003445051610469818,0.9994534850120544,0.0,0.0,0.0,10.711910247802734,-3.6211555004119873,6.4520344734191895,-1938.877197265625,0
1734.503999999999,-0.011111348867416382,0.006985821761190891,-0.0007865712977945805,0.0,0.0,0.0,0.0,0.0027652746066451073,-0.0011358225019648671,0.004217222798615694,0.9994518756866455,0.0,0.0,0.0,10.688884735107422,-3.6099865436553955,6.43699312210083,-1934.7093505859375,0
1744.4040000000005,-0.011033069342374802,0.006993554532527924,-0.0007494387682527304,0.0,0.0,0.0,0.0,0.0002876827784348279,0.003698591608554125,-0.00011888825974892825,0.9984751343727112,0.0,0.0,0.0,10.704361915588379,-3.6148693561553955,6.450699806213379,-1937.5107421875,0
1754.321,-0.011155525222420692,0.006969382520765066,-0.0007614160422235727,0.0,0.0,0.0,0.0,-0.00031391679658554494,0.0026807051617652178,-9.38836092245765e-05,1.0003252029418945,0.0,0.0,0.0,10.683357238769531,-3.6106066703796387,6.439780235290527,-1933.7088623046875,0
1764.226999999999,-0.011064532212913036,0.007035811897367239,-0.0006948151858523488,0.0,0.0,0.0,0.0,0.0021677552722394466,-0.0013185286661610007,-0.0006236907793208957,1.0002660751342773,0.0,0.0,0.0,10.704517364501953,-3.605924367904663,6.455515384674072,-1937.538818359375,0
1774.1499999999996,-0.011203641071915627,0.006954002659767866,-0.0007078065536916256,0.0,0.0,0.0,0.0,-0.0020890808664262295,-0.0004672301292885095,0.004618799313902855,1.0002793073654175,0.0,0.0,0.0,10.68346881866455,-3.5941436290740967,6.447285175323486,-1933.729248046875,0
1784.0560000000005,-0.011090049520134926,0.006946483161300421,-0.0006640545325353742,0.0,0.0,0.0,0.0,-0.0014230916276574135,0.0010876670712605119,0.003570074448361993,0.9993623495101929,0.0,0.0,0.0,10.700765609741211,-3.602950096130371,6.465456962585449,-1936.8597412109375,0
1793.9709999999995,-0.011089961044490337,0.006984722800552845,-0.0007243252475745976,0.0,0.0,0.0,0.0,-0.0008908621384762228,-0.006486979313194752,0.003538490040227771,0.9987586736679077,0.0,0.0,0.0,10.691061019897461,-3.5938005447387695,6.457607269287109,-1935.103271484375,0
1803.8729999999996,-0.011051332578063011,0.007045784965157509,-0.0006677386118099093,0.0,0.0,0.0,0.0,-0.000713060493580997,0.000499408517498523,0.0007704680319875479,0.9963674545288086,0.0,0.0,0.0,10.699440956115723,-3.5842573642730713,6.473570823669434,-1936.6201171875,0
1813.7970000000005,-0.01108518149703741,0.00703852204605937,-0.0006997064338065684,0.0,0.0,0.0,0.0,-0.0004108492867089808,-0.005391255486756563,0.002727814018726349,0.9970500469207764,0.0,0.0,0.0,10.688701629638672,-3.584181785583496,6.466828346252441,-1934.67626953125,0
1823.6980000000003,-0.011029357090592384,0.007049350067973137,-0.000661887344904244,0.0,0.0,0.0,0.0,0.004483417607843876,0.0008677951991558075,-0.002842070534825325,0.9982253909111023,0.0,0.0,0.0,10.702919960021973,-3.5875163078308105,6.474206447601318,-1937.2498779296875,0
1833.6129999999994,-0.011053810827434063,0.0070434510707855225,-0.0007137947832234204,0.0,0.0,0.0,0.0,0.000474363419925794,0.004136546980589628,-0.0032775397412478924,0.9978452324867249,0.0,0.0,0.0,10.692428588867188,-3.5823800563812256,6.4729743003845215,-1935.3507080078125,0
1843.5239999999994,-0.010987070389091969,0.007017016876488924,-0.0006887305062264204,0.0,0.0,0.0,0.0,-0.0006925839697942138,0.0023008245043456554,0.0027708951383829117,0.9988390207290649,0.0,0.0,0.0,10.698199272155762,-3.600231409072876,6.476092338562012,-1936.3953857421875,0
1853.446,-0.011031080037355423,0.007008394692093134,-0.0007210724870674312,0.0,0.0,0.0,0.0,0.0005257072625681758,0.0011071839835494757,-0.00030448296456597745,0.9992691874504089,0.0,0.0,0.0,10.687662124633789,-3.5944712162017822,6.463959217071533,-1934.488037109375,0
1863.3410000000003,-0.010978836566209793,0.006997980643063784,-0.0006980689358897507,0.0,0.0,0.0,0.0,0.0004814082058146596,-0.0012123181950300932,0.0026349688414484262,0.9974917769432068,0.0,0.0,0.0,10.6950101852417,-3.595337152481079,6.476818561553955,-1935.818115234375,0
1873.2649999999994,-0.010968297719955444,0.007050496991723776,-0.0007724186289124191,0.0,0.0,0.0,0.0,0.0012966985814273357,0.003193120937794447,-0.0005208757356740534,0.9972211718559265,0.0,0.0,0.0,10.684313774108887,-3.5880091190338135,6.470875263214111,-1933.882080078125,0
1883.164999999999,-0.010892082937061787,0.007024743128567934,-0.0007535711047239602,0.0,0.0,0.0,0.0,0.0010905347298830748,-0.0017687135841697454,-0.0024349575396627188,0.9989346861839294,0.0,0.0,0.0,10.695003509521484,-3.6016180515289307,6.474198341369629,-1935.81689453125,0
1893.0859999999993,-0.010973961092531681,0.006983713712543249,-0.0007541727391071618,0.0,0.0,0.0,0.0,0.000675515562761575,-0.012135294266045094,-0.0007342667086049914,1.0005024671554565,0.0,0.0,0.0,10.683952331542969,-3.59916090965271,6.459835529327393,-1933.8167724609375,0
1902.9869999999992,-0.010953382588922977,0.006996197160333395,-0.0007350373780354857,0.0,0.0,0.0,0.0,0.0006400797865353525,0.001262526260688901,-0.0035284266341477633,0.9984819889068604,0.0,0.0,0.0,10.689702987670898,-3.600478172302246,6.48194694519043,-1934.857421875,0
1912.9179999999997,-0.011003466323018074,0.006974412593990564,-0.0007682344876229763,0.0,0.0,0.0,0.0,-0.0005849618464708328,0.003103823633864522,0.0016640962567180395,0.9986088871955872,0.0,0.0,0.0,10.679312705993652,-3.5987179279327393,6.481166839599609,-1932.9769287109375,0
1922.8179999999993,-0.010971244424581528,0.007049932144582272,-0.0007175304344855249,0.0,0.0,0.0,0.0,-0.0021956777200102806,-0.002918531419709325,0.0034924696665257215,0.9988663196563721,0.0,0.0,0.0,10.694372177124023,-3.590646743774414,6.492913246154785,-1935.7027587890625,0
1932.7279999999992,-0.01101773139089346,0.0070291198790073395,-0.0007535764016211033,0.0,0.0,0.0,0.0,0.00292932684533298,0.0009301207028329372,-0.0005680136382579803,0.9989529252052307,0.0,0.0,0.0,10.682252883911133,-3.5829713344573975,6.475569248199463,-1933.5089111328125,0
1942.634,-0.011000719852745533,0.007062532007694244,-0.0007295384421013296,0.0,0.0,0.0,0.0,0.003918599337339401,0.0038655877579003572,-9.365057485410944e-05,0.997627317905426,0.0,0.0,0.0,10.694156646728516,-3.5832622051239014,6.479397296905518,-1935.66357421875,0
1952.5609999999997,-0.011024030856788158,0.007054473273456097,-0.0007905851234681904,0.0,0.0,0.0,0.0,-7.784936315147206e-05,-8.925858128350228e-05,0.004553160164505243,0.9972746968269348,0.0,0.0,0.0,10.684062957763672,-3.5804874897003174,6.461599349975586,-1933.836669921875,0
1962.4560000000001,-0.010996359400451183,0.007081590127199888,-0.0007703814771957695,0.0,0.0,0.0,0.0,0.00137059367261827,1.774810516508296e-05,-0.0003836875257547945,0.999833345413208,0.0,0.0,0.0,10.694513320922852,-3.5822341442108154,6.462912559509277,-1935.7281494140625,0
1972.3780000000006,-0.01105648372322321,0.007042946293950081,-0.0008031068718992174,0.0,0.0,0.0,0.0,-0.0005653887637890875,0.006338961888104677,0.002091578906401992,1.0000883340835571,0.0,0.0,0.0,10.683685302734375,-3.5784358978271484,6.452445983886719,-1933.7681884765625,0
1982.2839999999997,-0.011007335968315601,0.007097476162016392,-0.000759563350584358,0.0,0.0,0.0,0.0,0.001537676202133298,-0.0025043427012860775,0.0007938448106870055,0.9977285265922546,0.0,0.0,0.0,10.69483757019043,-3.569397449493408,6.466364860534668,-1935.786865234375,0
1992.205,-0.011074732057750225,0.007061216048896313,-0.0007772856624796987,0.0,0.0,0.0,0.0,0.003014581510797143,0.006574884057044983,-0.002881391439586878,0.9979597330093384,0.0,0.0,0.0,10.684587478637695,-3.5651254653930664,6.4618635177612305,-1933.931640625,0
2002.101999999999,-0.011024584993720055,0.007098986301571131,-0.00073922926094383,0.0,0.0,0.0,0.0,-0.0020023502875119448,-0.004289296921342611,0.004395987838506699,1.000238299369812,0.0,0.0,0.0,10.693766593933105,-3.572136402130127,6.468045711517334,-1935.5928955078125,0
2012.027,-0.01110824290663004,0.007013664115220308,-0.0007546027190983295,0.0,0.0,0.0,0.0,0.000848738884087652,0.0007344565819948912,-0.0014756025047972798,1.0007861852645874,0.0,0.0,0.0,10.683595657348633,-3.569664478302002,6.457929611206055,-1933.751953125,0
2021.9269999999997,-0.011063721030950546,0.007054293528199196,-0.0007092551677487791,0.0,0.0,0.0,0.0,0.0016072357539087534,0.002281022956594825,0.000530370743945241,1.0003886222839355,0.0,0.0,0.0,10.688302040100098,-3.5608294010162354,6.467467308044434,-1934.6038818359375,0
2031.8500000000004,-0.011146294884383678,0.006970491260290146,-0.0007220614934340119,0.0,0.0,0.0,0.0,-0.0012833646032959223,0.0034153927117586136,-0.00361731369048357,0.9991861581802368,0.0,0.0,0.0,10.677395820617676,-3.559173822402954,6.451961040496826,-1932.6298828125,0
2041.7579999999998,-0.011021965183317661,0.007005342282354832,-0.0006424158927984536,0.0,0.0,0.0,0.0,0.0010245208395645022,-0.0004833453567698598,-0.00013942731311544776,1.0009164810180664,0.0,0.0,0.0,10.688403129577637,-3.5612306594848633,6.4646501541137695,-1934.6220703125,0
2051.6710000000003,-0.011098559014499187,0.006945870816707611,-0.0006394337397068739,0.0,0.0,0.0,0.0,0.001745626563206315,0.00116218370385468,-0.0005228103254921734,1.000126838684082,0.0,0.0,0.0,10.677364349365234,-3.5554327964782715,6.453072547912598,-1932.624267578125,0
2061.5740000000005,-0.011015395633876324,0.006980440579354763,-0.0005721093039028347,0.0,0.0,0.0,0.0,-0.0015568456146866083,-0.00038474719622172415,0.00016680559201631695,1.0003808736801147,0.0,0.0,0.0,10.68872356414795,-3.556718349456787,6.464829921722412,-1934.68017578125,0
2071.492,-0.011098776012659073,0.006940627936273813,-0.0006050135707482696,0.0,0.0,0.0,0.0,-0.0019049776019528508,-0.0001218903562403284,-0.0010744946775957942,0.9993448257446289,0.0,0.0,0.0,10.678397178649902,-3.5577681064605713,6.463011741638184,-1932.8111572265625,0
2081.3999999999996,-0.010997154749929905,0.006943853106349707,-0.0005610260413959622,0.0,0.0,0.0,0.0,-0.004918321035802364,-0.001789249712601304,0.004108573775738478,1.0002412796020508,0.0,0.0,0.0,10.692577362060547,-3.563960313796997,6.4804840087890625,-1935.3778076171875,0
2091.3189999999995,-0.011093090288341045,0.006894631311297417,-0.000576985243242234,0.0,0.0,0.0,0.0,-0.001120980130508542,-0.001958503620699048,0.0002554316888563335,1.000818133354187,0.0,0.0,0.0,10.672699928283691,-3.5550360679626465,6.47691011428833,-1931.7799072265625,0
2101.2209999999995,-0.011019991710782051,0.006927133072167635,-0.0005329358973540366,0.0,0.0,0.0,0.0,0.00019361030717846006,7.231779454741627e-05,-0.003310125321149826,1.0010302066802979,0.0,0.0,0.0,10.692852973937988,-3.556107997894287,6.490060806274414,-1935.4276123046875,0
2111.143,-0.01109706424176693,0.0068986243568360806,-0.0005512345233000815,0.0,0.0,0.0,0.0,-0.001356838853098452,-0.0012472355738282204,-0.0018069336656481028,0.9986997842788696,0.0,0.0,0.0,10.671114921569824,-3.547976493835449,6.47803258895874,-1931.4930419921875,0
2121.039999999999,-0.010991313494741917,0.006864253897219896,-0.0005246103974059224,0.0,0.0,0.0,0.0,0.002243582857772708,0.000820042856503278,0.0013609142042696476,0.9970923662185669,0.0,0.0,0.0,10.692535400390625,-3.562373399734497,6.4943623542785645,-1935.3702392578125,0
2130.9619999999995,-0.011015025898814201,0.006911511067301035,-0.0005703417118638754,0.0,0.0,0.0,0.0,-0.0003046795027330518,-0.009096070192754269,0.006313384976238012,1.0002576112747192,0.0,0.0,0.0,10.671570777893066,-3.5619943141937256,6.491609573364258,-1931.5755615234375,0
2140.8690000000006,-0.010970761999487877,0.0069395978935062885,-0.0005391009617596865,0.0,0.0,0.0,0.0,0.00024945015320554376,-0.00235806405544281,0.0016451680567115545,0.99959796667099,0.0,0.0,0.0,10.691428184509277,-3.5630173683166504,6.500376224517822,-1935.1697998046875,0
