timestamp,stateEstimate.x,stateEstimate.y,stateEstimate.z,controller.cmd_thrust,controller.cmd_roll,controller.cmd_pitch,controller.cmd_yaw,controller.r_roll,controller.r_pitch,controller.r_yaw,controller.accelz,controller.actuatorThrust,controller.roll,controller.pitch,controller.yaw,controller.rollRate,controller.pitchRate,controller.yawRate,controller.ctr_yaw
0.0,-6.89630105625838e-05,-4.055067984154448e-05,-0.0001226695312652737,0.0,0.0,0.0,0.0,0.0006709613953717053,0.0016547378618270159,-0.0011134454980492592,0.9996117353439331,0.0,0.0,0.0,0.18189646303653717,-2.6065659523010254,4.330156326293945,-32.92361831665039,0
9.917999999999665,-0.00015856143727432936,-6.858244159957394e-05,-0.00011805162648670375,0.0,0.0,0.0,0.0,0.0018919422291219234,-0.0026227307971566916,-0.002448457293212414,0.9965649247169495,0.0,0.0,0.0,0.18137115240097046,-2.6037399768829346,4.326145172119141,-32.82853698730469,0
19.82300000000032,-0.0001328769139945507,-6.145424413261935e-05,-9.824322478380054e-05,0.0,0.0,0.0,0.0,0.0021014120429754257,0.000184353775694035,0.004127106629312038,0.9982764720916748,0.0,0.0,0.0,0.18834306299686432,-2.610368251800537,4.3381242752075195,-34.09046936035156,0
29.747000000001208,-0.0001452107389923185,5.025634436606197e-06,-0.00014847656711935997,0.0,0.0,0.0,0.0,-0.0006736592622473836,0.005484626162797213,0.0005934712244197726,0.9989601373672485,0.0,0.0,0.0,0.18103167414665222,-2.6041769981384277,4.3389692306518555,-32.767093658447266,0
39.64600000000064,-0.00010533058957662433,-7.337240276683588e-06,-0.00013852670963387936,0.0,0.0,0.0,0.0,0.0012434717500582337,-0.0027002671267837286,0.0021754831541329622,0.9986644983291626,0.0,0.0,0.0,0.18759721517562866,-2.6091442108154297,4.340123176574707,-33.95547103881836,0
49.56500000000051,-0.0001445453817723319,3.163937435601838e-05,-0.0001765803317539394,0.0,0.0,0.0,0.0,0.0022300458513200283,-0.003008548403158784,0.003378596855327487,0.998921811580658,0.0,0.0,0.0,0.18218247592449188,-2.60736346244812,4.3489179611206055,-32.97539138793945,0
59.470000000001164,-7.11052052793093e-05,1.0334464604966342e-05,-0.0001624189899303019,0.0,0.0,0.0,0.0,0.0022076445166021585,-0.0032565449364483356,-0.0005546731408685446,0.9993777871131897,0.0,0.0,0.0,0.19233283400535583,-2.6209144592285156,4.368983268737793,-34.812625885009766,0
69.39300000000003,-0.00012238773342687637,3.229261710657738e-05,-0.00019681248522829264,0.0,0.0,0.0,0.0,-0.0001834982685977593,-0.004286152310669422,0.0014730882830917835,0.9987410306930542,0.0,0.0,0.0,0.18204419314861298,-2.623863458633423,4.369126796722412,-32.95035934448242,0
79.29000000000087,-4.941142105963081e-05,2.0935120119247586e-05,-0.00017791804566513747,0.0,0.0,0.0,0.0,-0.0012486022897064686,-0.00016624642012175173,0.00013702093565370888,0.9972273707389832,0.0,0.0,0.0,0.18244746327400208,-2.6200289726257324,4.3708906173706055,-33.023353576660156,0
89.21100000000115,-0.00011472081678221002,3.558192838681862e-05,-0.0001992380275623873,0.0,0.0,0.0,0.0,0.001579409814439714,-0.0012340151006355882,-0.00010836348519660532,0.9990924596786499,0.0,0.0,0.0,0.17592863738536835,-2.6141793727874756,4.368297576904297,-31.843433380126953,0
99.11499999999978,-4.376029392005876e-05,1.6641904949210584e-05,-0.00018914512475021183,0.0,0.0,0.0,0.0,-0.0002836375788319856,-0.0008977029356174171,-0.0001660675334278494,1.0002723932266235,0.0,0.0,0.0,0.17632412910461426,-2.6126089096069336,4.366762638092041,-31.915019989013672,0
109.03600000000006,-6.1024555179756135e-05,9.028305794345215e-05,-0.00024582879268564284,0.0,0.0,0.0,0.0,0.002814086154103279,0.0012378940591588616,-0.0025887058582156897,1.0013998746871948,0.0,0.0,0.0,0.17679670453071594,-2.608840227127075,4.361198902130127,-32.00055694580078,0
118.94200000000092,1.590160172781907e-05,4.532625462161377e-05,-0.0002491084742359817,0.0,0.0,0.0,0.0,0.0004799533053301275,0.001960140187293291,-0.002562787616625428,0.9989710450172424,0.0,0.0,0.0,0.1763659119606018,-2.61380672454834,4.355616569519043,-31.92258071899414,0
128.85100000000057,-7.178083615144715e-05,3.8672656955895945e-05,-0.000254582439083606,0.0,0.0,0.0,0.0,-0.001657890505157411,-0.001791559741832316,-0.00241390080191195,0.9957017302513123,0.0,0.0,0.0,0.16882190108299255,-2.61889386177063,4.339512348175049,-30.55710220336914,0
138.76200000000063,-1.8647337128641084e-05,3.205395842087455e-05,-0.00024873350048437715,0.0,0.0,0.0,0.0,0.0008072475320659578,-0.0014771407004445791,0.0008070839685387909,0.9992235898971558,0.0,0.0,0.0,0.1681426465511322,-2.6075873374938965,4.334188938140869,-30.434152603149414,0
148.6750000000011,-7.192305201897398e-05,3.474693585303612e-05,-0.00029389490373432636,0.0,0.0,0.0,0.0,-0.00010862547060241923,-0.003380154026672244,-0.00042002025293186307,1.0018953084945679,0.0,0.0,0.0,0.16052286326885223,-2.610903024673462,4.340394020080566,-29.054956436157227,0
158.58799999999974,-1.746661655488424e-05,4.901924330624752e-05,-0.00027853294159285724,0.0,0.0,0.0,0.0,0.0020945866126567125,0.0012055373517796397,5.642665200866759e-05,0.9998011589050293,0.0,0.0,0.0,0.16020427644252777,-2.6067023277282715,4.350201606750488,-28.99729347229004,0
168.5,-8.369934221263975e-05,2.02388964680722e-05,-0.00031678349478170276,0.0,0.0,0.0,0.0,-0.000748650636523962,-0.0012433913070708513,-0.0009244155371561646,1.0014231204986572,0.0,0.0,0.0,0.16019120812416077,-2.6051394939422607,4.343623161315918,-28.99492835998535,0
178.40700000000106,-3.2519539672648534e-05,3.0367365980055183e-05,-0.000303182314382866,0.0,0.0,0.0,0.0,0.00010001369082601741,-0.005106317810714245,-9.926134953275323e-05,1.001016616821289,0.0,0.0,0.0,0.16019734740257263,-2.599372386932373,4.339917182922363,-28.99603843688965,0
188.33400000000074,-0.00012785379658453166,-1.998351035581436e-05,-0.00031179943471215665,0.0,0.0,0.0,0.0,-0.00041378781315870583,0.002526805968955159,-0.0011471746256574988,1.0011872053146362,0.0,0.0,0.0,0.16003288328647614,-2.5988516807556152,4.344702243804932,-28.966272354125977,0
198.23400000000038,-5.999755740049295e-05,-1.410858487815858e-07,-0.00027655120356939733,0.0,0.0,0.0,0.0,-0.003070102073252201,-0.005960816517472267,0.0019470946863293648,1.0006000995635986,0.0,0.0,0.0,0.1599813550710678,-2.5949294567108154,4.334871292114258,-28.956945419311523,0
208.15899999999965,-0.00018052048108074814,-5.4073410865385085e-05,-0.00025131378788501024,0.0,0.0,0.0,0.0,-0.0019579599611461163,-0.001841360004618764,-0.0025444431230425835,1.0008302927017212,0.0,0.0,0.0,0.16110669076442719,-2.587355375289917,4.337761878967285,-29.160633087158203,0
218.0550000000003,-7.959329377627e-05,-5.460250758915208e-05,-0.00020151128410361707,0.0,0.0,0.0,0.0,-0.0016845017671585083,0.00048545069876126945,-0.0003790727350860834,1.000696063041687,0.0,0.0,0.0,0.16613534092903137,-2.5879125595092773,4.360232830047607,-30.07082748413086,0
227.97600000000057,-0.00014962753630243242,-2.5045195798156783e-05,-0.00019448155944701284,0.0,0.0,0.0,0.0,-0.00019731794600374997,-0.001852282672189176,0.0016272440552711487,0.9999818801879883,0.0,0.0,0.0,0.15932731330394745,-2.580120801925659,4.350346565246582,-28.838558197021484,0
237.88000000000102,-7.289088534889743e-05,-3.586983439163305e-05,-0.0001537628413643688,0.0,0.0,0.0,0.0,-0.00043520971667021513,0.00013244911679066718,0.0003613402077462524,0.9990997314453125,0.0,0.0,0.0,0.1595717817544937,-2.574314594268799,4.349628925323486,-28.882808685302734,0
247.79399999999987,-0.00017215555999428034,-5.222636173130013e-05,-0.0001310304505750537,0.0,0.0,0.0,0.0,-0.002846430754289031,-0.001248478889465332,8.626391354482621e-05,1.0017101764678955,0.0,0.0,0.0,0.15913595259189606,-2.5675196647644043,4.348994731903076,-28.803922653198242,0
257.7029999999995,-0.0001365095522487536,-7.478807219740702e-06,-7.805333007127047e-05,0.0,0.0,0.0,0.0,0.0006540624308399856,0.00284223142080009,-0.0007873351569287479,0.9993554353713989,0.0,0.0,0.0,0.1705913096666336,-2.5628979206085205,4.361132621765137,-30.877368927001953,0
267.6190000000006,-0.00021621014457195997,-2.276628219988197e-05,-7.892092980910093e-05,0.0,0.0,0.0,0.0,-0.00012556221918202937,0.0016207367880269885,-0.004341667518019676,0.996185302734375,0.0,0.0,0.0,0.17111268639564514,-2.5614640712738037,4.3501667976379395,-30.97173500061035,0
277.52599999999984,-9.90115077001974e-05,-3.3115342375822365e-05,-1.507649812992895e-05,0.0,0.0,0.0,0.0,0.003186319023370743,-0.0013701239367946982,0.0010407106019556522,0.9969252347946167,0.0,0.0,0.0,0.16964934766292572,-2.555540084838867,4.341546535491943,-30.70686912536621,0
287.4430000000011,-0.0001704073220025748,-4.377484219730832e-05,-2.1610934709315188e-05,0.0,0.0,0.0,0.0,-0.0021598765160888433,-0.0017793775768950582,-0.007042417302727699,0.9984133839607239,0.0,0.0,0.0,0.16427265107631683,-2.5618369579315186,4.339588642120361,-29.73367691040039,0
297.34500000000116,-0.0001333026448264718,-1.9467650417936966e-05,2.232218139397446e-05,0.0,0.0,0.0,0.0,-0.0012897056294605136,-0.00041377294110134244,-0.001361231436021626,0.9991090893745422,0.0,0.0,0.0,0.16950447857379913,-2.5590624809265137,4.354310035705566,-30.680648803710938,0
307.2659999999996,-0.00013995716290082783,3.6548139178194106e-05,-3.889749859808944e-05,0.0,0.0,0.0,0.0,-0.0037458965089172125,0.0013391710817813873,-0.002255985513329506,0.9998370409011841,0.0,0.0,0.0,0.16864369809627533,-2.55761456489563,4.35056734085083,-30.524845123291016,0
317.16699999999946,-6.394267256837338e-05,-4.019446350866929e-06,-1.4404810826817993e-05,0.0,0.0,0.0,0.0,-0.0020765729714185,-0.002937514102086425,0.0002692243142519146,0.9979828000068665,0.0,0.0,0.0,0.16739758849143982,-2.5489158630371094,4.345154285430908,-30.299297332763672,0
327.09000000000015,-8.835639164317399e-05,3.0701390642207116e-05,-6.380625563906506e-05,0.0,0.0,0.0,0.0,-0.0023981977719813585,0.0008912841440178454,-0.000432770699262619,0.9993945956230164,0.0,0.0,0.0,0.1671912670135498,-2.54272723197937,4.34800386428833,-30.26194953918457,0
336.996000000001,-4.201853880658746e-05,-1.4855856534268241e-05,-6.240678339963779e-05,0.0,0.0,0.0,0.0,-0.0018846478778868914,-0.0016514325980097055,0.00035240309080109,1.0007410049438477,0.0,0.0,0.0,0.16717900335788727,-2.5357749462127686,4.343982696533203,-30.259733200073242,0
346.9200000000001,-6.51834488962777e-05,-1.5170086044236086e-05,-0.00012951306416653097,0.0,0.0,0.0,0.0,0.0002972391084767878,0.001321269664913416,0.00027103451429866254,1.000643014907837,0.0,0.0,0.0,0.16821274161338806,-2.5346126556396484,4.346901893615723,-30.446842193603516,0
356.8189999999995,-7.567580178147182e-05,-4.104883919353597e-05,-0.00014898784866090864,0.0,0.0,0.0,0.0,-0.0010383798507973552,-0.001129024662077427,0.0016357417916879058,1.0002940893173218,0.0,0.0,0.0,0.1679772138595581,-2.538907289505005,4.336911201477051,-30.40420913696289,0
366.7380000000012,-0.00011407749843783677,-7.17669877303706e-07,-0.00018489114881958812,0.0,0.0,0.0,0.0,-9.332146146334708e-05,0.0021214615553617477,0.0043473015539348125,0.9989280700683594,0.0,0.0,0.0,0.1607096940279007,-2.5377883911132812,4.342062473297119,-29.088775634765625,0
376.64500000000044,-2.219911948486697e-05,-3.3686777896946296e-05,-0.00016914101433940232,0.0,0.0,0.0,0.0,-1.9330998838995583e-05,0.0032707261852920055,0.0007316764094866812,0.9983392357826233,0.0,0.0,0.0,0.16080665588378906,-2.5363330841064453,4.33189058303833,-29.1063232421875,0
386.5570000000007,-0.00012162335042376071,-6.735517672495916e-05,-0.00016638658416923136,0.0,0.0,0.0,0.0,0.0005882983095943928,-0.001264519989490509,0.0009168499382212758,0.9980056285858154,0.0,0.0,0.0,0.15467536449432373,-2.545018196105957,4.317294120788574,-27.99654769897461,0
396.46000000000095,-3.883216413669288e-05,-7.859039033064619e-05,-0.00014375962200574577,0.0,0.0,0.0,0.0,0.0014375457540154457,-0.003654340049251914,0.0014871690655127168,0.9982024431228638,0.0,0.0,0.0,0.15449541807174683,-2.5455377101898193,4.316175937652588,-27.963977813720703,0
406.3760000000002,-7.110724254744127e-05,-2.800663969537709e-05,-0.00018428379553370178,0.0,0.0,0.0,0.0,-0.0015059449942782521,-0.00026635255198925734,-0.0008066122536547482,1.0005701780319214,0.0,0.0,0.0,0.1541653275489807,-2.5421271324157715,4.316989898681641,-27.90423011779785,0
416.29199999999946,-1.1072050256188959e-05,-4.0252718463307247e-05,-0.00017567662871442735,0.0,0.0,0.0,0.0,-0.001432205201126635,0.0026905664708465338,-0.0035352560225874186,1.0006521940231323,0.0,0.0,0.0,0.15369214117527008,-2.5392487049102783,4.31022834777832,-27.818584442138672,0
426.2039999999997,-2.6021925805252977e-05,1.887278449430596e-05,-0.0002341359358979389,0.0,0.0,0.0,0.0,-0.000678197480738163,-0.0005226418725214899,-0.0020851129665970802,0.9987442493438721,0.0,0.0,0.0,0.14635273814201355,-2.527404308319092,4.307278633117676,-26.490137100219727,0
436.112000000001,1.6092999430838972e-05,-1.5112703295017127e-05,-0.00024571179528720677,0.0,0.0,0.0,0.0,0.0015355614013969898,0.0051913782954216,0.00031366688199341297,0.9986031651496887,0.0,0.0,0.0,0.1518833190202713,-2.539637804031372,4.3171868324279785,-27.49118423461914,0
446.03299999999945,-6.237804336706176e-05,-7.057397851895075e-06,-0.0002592368400655687,0.0,0.0,0.0,0.0,0.005027147941291332,0.00043415676918812096,-0.0019707530736923218,0.9996722340583801,0.0,0.0,0.0,0.14504601061344147,-2.544631242752075,4.295275688171387,-26.253616333007812,0
455.9300000000003,-2.373513598286081e-05,1.587174483574927e-05,-0.0002444821293465793,0.0,0.0,0.0,0.0,-0.0029775500297546387,-0.001868303632363677,-0.0007602979894727468,1.0007988214492798,0.0,0.0,0.0,0.152394637465477,-2.5518906116485596,4.307499885559082,-27.583730697631836,0
465.853000000001,-5.4254905990092084e-05,8.826402336126193e-05,-0.0002888950693886727,0.0,0.0,0.0,0.0,-0.002012078184634447,-0.0013033237773925066,0.00012231645814608783,1.0014199018478394,0.0,0.0,0.0,0.15271534025669098,-2.543182849884033,4.313375473022461,-27.641780853271484,0
475.7569999999996,-3.6926264783687657e-06,7.127159187803045e-05,-0.00028698742971755564,0.0,0.0,0.0,0.0,0.0008190992521122098,0.0011690928367897868,0.0005987573531456292,0.9998261332511902,0.0,0.0,0.0,0.15237265825271606,-2.5356862545013428,4.315413951873779,-27.579753875732422,0
485.6740000000009,-5.390688238549046e-05,0.00011220432497793809,-0.0003216583572793752,0.0,0.0,0.0,0.0,-0.001129051437601447,-0.00021113819093443453,0.0015931326197460294,1.0002710819244385,0.0,0.0,0.0,0.1464695930480957,-2.5328574180603027,4.3104567527771,-26.511287689208984,0
495.57600000000093,1.1729264315363253e-06,8.158717537298799e-05,-0.0003241202502977103,0.0,0.0,0.0,0.0,0.001998345134779811,0.0021393357310444117,0.003516702214255929,1.0013725757598877,0.0,0.0,0.0,0.14697203040122986,-2.5295777320861816,4.306790828704834,-26.602230072021484,0
505.496000000001,-0.0001097571657737717,5.0017679313896224e-05,-0.0003173467412125319,0.0,0.0,0.0,0.0,-0.00029354155412875116,0.006737330462783575,-0.0025181046221405268,1.000661015510559,0.0,0.0,0.0,0.14098143577575684,-2.5452818870544434,4.288331985473633,-25.517919540405273,0
515.4009999999998,-2.740421041380614e-05,6.759071402484551e-05,-0.00027752757887355983,0.0,0.0,0.0,0.0,-0.0010822830954566598,-0.0010144480038434267,-0.000266724411631003,0.9987390041351318,0.0,0.0,0.0,0.1473756581544876,-2.5475878715515137,4.290848731994629,-26.675289154052734,0
525.3360000000011,-0.00017454165208619088,-1.3113040949974675e-05,-0.00024264938838314265,0.0,0.0,0.0,0.0,0.0030218593310564756,0.0015476576518267393,-0.002118475269526243,1.000238299369812,0.0,0.0,0.0,0.14119619131088257,-2.567913055419922,4.276605606079102,-25.556791305541992,0
535.2250000000004,-0.00011985119635937735,-5.165135462448234e-06,-0.00020863674581050873,0.0,0.0,0.0,0.0,0.0027168295346200466,0.0038233264349400997,-0.0009879758581519127,1.0030438899993896,0.0,0.0,0.0,0.1494634449481964,-2.577289342880249,4.283946514129639,-27.053180694580078,0
545.1460000000006,-0.00022791976516600698,-4.335353878559545e-05,-0.00019521589274518192,0.0,0.0,0.0,0.0,0.0008463718695566058,-0.0004075934994034469,0.0019706941675394773,1.0036495923995972,0.0,0.0,0.0,0.1496049463748932,-2.576420545578003,4.275463581085205,-27.07879066467285,0
555.0460000000003,-0.00010463069338584319,-6.513443076983094e-05,-0.0001363727351417765,0.0,0.0,0.0,0.0,0.0010285305324941874,0.0022284414153546095,-0.0007603563717566431,1.0000889301300049,0.0,0.0,0.0,0.14958056807518005,-2.573634147644043,4.26802921295166,-27.074382781982422,0
564.9619999999995,-0.00018243787053506821,-7.383059710264206e-05,-0.00013407105871010572,0.0,0.0,0.0,0.0,-0.00019330368377268314,2.8789754651370458e-05,-0.0019597287755459547,1.0009551048278809,0.0,0.0,0.0,0.1495729237794876,-2.566188335418701,4.260829925537109,-27.072998046875,0
574.8780000000006,-0.00013091383152641356,-1.699413769529201e-05,-6.343562563415617e-05,0.0,0.0,0.0,0.0,-0.0013577594654634595,-0.0015477377455681562,0.004274692852050066,1.0002448558807373,0.0,0.0,0.0,0.15788672864437103,-2.5638225078582764,4.27487850189209,-28.57781219482422,0
584.7919999999995,-0.00016308719932567328,-5.060980583948549e-06,-0.00010357354040024802,0.0,0.0,0.0,0.0,-0.0039171804673969746,-0.00014649996592197567,0.00037224675179459155,0.9988962411880493,0.0,0.0,0.0,0.15865330398082733,-2.5560617446899414,4.272415637969971,-28.716562271118164,0
594.6939999999995,-8.410502050537616e-05,-4.5977907575434074e-05,-6.778343959013e-05,0.0,0.0,0.0,0.0,-0.0035287318751215935,-0.0030313751194626093,-0.0011017074575647712,0.998306155204773,0.0,0.0,0.0,0.1671512871980667,-2.5611257553100586,4.290643692016602,-30.25471305847168,0
604.6220000000012,-0.0001090213845600374,1.8738769540505018e-06,-0.000101433543022722,0.0,0.0,0.0,0.0,0.001038762740790844,-0.001102621667087078,-0.0014767805114388466,0.9984269142150879,0.0,0.0,0.0,0.16679202020168304,-2.55241322517395,4.295289516448975,-30.189685821533203,0
614.514000000001,-6.459384167101234e-05,-3.0111159503576346e-05,-7.845352229196578e-05,0.0,0.0,0.0,0.0,-0.002446971833705902,-0.0071727801114320755,-0.008090289309620857,0.9989622235298157,0.0,0.0,0.0,0.16727137565612793,-2.5547611713409424,4.296939849853516,-30.27644920349121,0
624.4380000000001,-6.770464824512601e-05,2.4531776944058947e-05,-0.00014053157065063715,0.0,0.0,0.0,0.0,-0.004314621910452843,-0.003336957423016429,0.00012868345947936177,0.9960038065910339,0.0,0.0,0.0,0.16567671298980713,-2.5477073192596436,4.3066487312316895,-29.987815856933594,0
634.3420000000006,-4.499156420934014e-05,-1.91131653082266e-06,-0.000132882603793405,0.0,0.0,0.0,0.0,0.0017404332756996155,0.003732808632776141,-0.0016367650823667645,0.9985367059707642,0.0,0.0,0.0,0.16497397422790527,-2.534238576889038,4.309207916259766,-29.86061668395996,0
644.2630000000008,-3.335393557790667e-05,3.4709202736848965e-05,-0.00022936325694900006,0.0,0.0,0.0,0.0,0.0013707339530810714,-0.004077694844454527,-0.001558820833452046,0.9988570213317871,0.0,0.0,0.0,0.15674181282520294,-2.5336878299713135,4.31687593460083,-28.37057876586914,0
654.1640000000007,-1.8491333321435377e-05,2.0345680241007358e-05,-0.00023417072952724993,0.0,0.0,0.0,0.0,0.0031152144074440002,0.0020437806379050016,-0.003763228189200163,0.999222993850708,0.0,0.0,0.0,0.15591485798358917,-2.5339696407318115,4.3129706382751465,-28.22089958190918,0
664.0860000000011,-6.2407816585619e-05,3.421111250645481e-05,-0.00028199737425893545,0.0,0.0,0.0,0.0,-0.0008612150559201837,-0.0010759097058326006,0.0024826338049024343,1.0000193119049072,0.0,0.0,0.0,0.15556731820106506,-2.5331106185913086,4.303646087646484,-28.157991409301758,0
673.9850000000006,-1.253517530130921e-05,3.490163362585008e-05,-0.00026628776686266065,0.0,0.0,0.0,0.0,0.0010144597617909312,0.000555734965018928,-0.0006699431105516851,0.999399721622467,0.0,0.0,0.0,0.1553005427122116,-2.5283005237579346,4.295515060424805,-28.10970687866211,0
683.9160000000011,-7.301749428734183e-05,3.66536587534938e-05,-0.00030322957900352776,0.0,0.0,0.0,0.0,-0.0005254836287349463,0.0034814304672181606,-0.0030491151846945286,0.9992729425430298,0.0,0.0,0.0,0.15442249178886414,-2.5306029319763184,4.284280300140381,-27.95077896118164,0
693.8090000000011,1.1469664968899451e-06,1.1625904335232917e-05,-0.0002934757503680885,0.0,0.0,0.0,0.0,-0.0026027148123830557,0.0037748145405203104,-0.0007669210899621248,0.998507022857666,0.0,0.0,0.0,0.15434964001178741,-2.5263326168060303,4.276848793029785,-27.937593460083008,0
703.7309999999998,-0.0001111502424464561,-3.982247653766535e-05,-0.00029017566703259945,0.0,0.0,0.0,0.0,-0.002229732694104314,0.0012230067513883114,0.006160893477499485,0.9974139928817749,0.0,0.0,0.0,0.15423649549484253,-2.5247089862823486,4.264861106872559,-27.917112350463867,0
713.6310000000012,-6.034878970240243e-05,-1.9828230506391264e-05,-0.0002664441126398742,0.0,0.0,0.0,0.0,0.0004134210175834596,-0.0017344891093671322,0.0005157153937034309,0.9994454383850098,0.0,0.0,0.0,0.15558646619319916,-2.5244996547698975,4.260042667388916,-28.16145896911621,0
723.5560000000005,-0.00018036669644061476,-6.285116978688166e-05,-0.0002495652879588306,0.0,0.0,0.0,0.0,-0.0024169047828763723,0.003683839226141572,7.504113455070183e-05,1.000018835067749,0.0,0.0,0.0,0.15485216677188873,-2.5207953453063965,4.262436389923096,-28.028549194335938,0
733.4529999999995,-8.729453838896006e-05,-5.4806299885967746e-05,-0.00020918146765325218,0.0,0.0,0.0,0.0,-0.0025111304130405188,0.0001885798410512507,0.0002279287000419572,0.9985381364822388,0.0,0.0,0.0,0.1545947641134262,-2.509894847869873,4.245656967163086,-27.98196029663086,0
743.3720000000012,-0.00013310866779647768,-7.133279723348096e-06,-0.00023930346651468426,0.0,0.0,0.0,0.0,0.0017537935636937618,0.0007121528033167124,-0.004212320316582918,0.9993663430213928,0.0,0.0,0.0,0.1547883301973343,-2.510676383972168,4.236090183258057,-28.016996383666992,0
753.277,-5.639461596729234e-05,-1.5168418030953035e-05,-0.00021183048374950886,0.0,0.0,0.0,0.0,-0.0017702870536595583,0.006363147869706154,0.005828319117426872,1.0017874240875244,0.0,0.0,0.0,0.15239529311656952,-2.5070958137512207,4.2253828048706055,-27.583850860595703,0
763.1990000000005,-0.00015892057854216546,-1.6480810245411703e-06,-0.00020166147442068905,0.0,0.0,0.0,0.0,-0.0011780529748648405,-0.0022237214725464582,-0.0009968681260943413,1.0004150867462158,0.0,0.0,0.0,0.1536983996629715,-2.502737045288086,4.202108860015869,-27.81971549987793,0
773.1010000000006,-9.385348676005378e-05,-1.0268512596667279e-05,-0.00017443617980461568,0.0,0.0,0.0,0.0,-0.00027332702302373946,-0.0035104649141430855,0.003978240303695202,1.0009256601333618,0.0,0.0,0.0,0.1601639837026596,-2.5007410049438477,4.225978851318359,-28.98999786376953,0
783.0169999999998,-0.00019441691983956844,-3.6039324186276644e-05,-0.0001701797591522336,0.0,0.0,0.0,0.0,0.0012151494156569242,0.0012613792205229402,-0.0020398786291480064,1.0008878707885742,0.0,0.0,0.0,0.1560216248035431,-2.508277177810669,4.223647594451904,-28.24022674560547,0
792.9220000000005,-0.00011722338240360841,-7.687234756303951e-06,-0.000117980242066551,0.0,0.0,0.0,0.0,0.0022941811475902796,0.0012053149985149503,0.0017800077330321074,0.9978184103965759,0.0,0.0,0.0,0.16177237033843994,-2.5145864486694336,4.2364277839660645,-29.2811222076416,0
802.8510000000006,-0.00017242587637156248,4.6388464397750795e-05,-0.00014606410695705563,0.0,0.0,0.0,0.0,0.0006092822295613587,0.0038115372881293297,-0.0018186570378020406,0.9968655109405518,0.0,0.0,0.0,0.16250856220722198,-2.515807867050171,4.235235214233398,-29.41437339782715,0
812.75,-0.00018172457930631936,4.1086219425778836e-05,-0.0001505790714873001,0.0,0.0,0.0,0.0,-0.004213348031044006,-0.00039790189475752413,-0.0024601758923381567,0.9976902008056641,0.0,0.0,0.0,0.16265162825584412,-2.5187697410583496,4.235628604888916,-29.440271377563477,0
822.6710000000003,-0.00023881345987319946,3.0610801331931725e-05,-0.0002023141860263422,0.0,0.0,0.0,0.0,-0.0008923829882405698,-0.00020025823323521763,0.0020854203030467033,0.9989087581634521,0.0,0.0,0.0,0.16175483167171478,-2.5096616744995117,4.229403018951416,-29.27794647216797,0
832.5680000000011,-0.00013031245907768607,9.227842383552343e-07,-0.00017257336003240198,0.0,0.0,0.0,0.0,0.0029947487637400627,-0.00177416717633605,0.00439406605437398,0.9991034865379333,0.0,0.0,0.0,0.167777419090271,-2.518317461013794,4.254959583282471,-30.368045806884766,0
842.4989999999998,-0.00020388184930197895,7.825088687241077e-06,-0.00020240388403180987,0.0,0.0,0.0,0.0,-0.0007860938203521073,-0.0028177513740956783,0.0035311542451381683,0.998100757598877,0.0,0.0,0.0,0.16946206986904144,-2.5182693004608154,4.257055759429932,-30.6729736328125,0
852.3960000000006,-0.0001290754007641226,6.730366294505075e-06,-0.0001744922628859058,0.0,0.0,0.0,0.0,-0.002271366072818637,0.0025276029482483864,-6.1891400946478825e-06,0.9975156784057617,0.0,0.0,0.0,0.17002233862876892,-2.5091872215270996,4.2553534507751465,-30.77437973022461,0
862.3140000000003,-0.0001717178529361263,4.993069887859747e-05,-0.00021980982273817062,0.0,0.0,0.0,0.0,-0.0015607575187459588,-0.0003101796901319176,-0.003988838288933039,0.9985353946685791,0.0,0.0,0.0,0.16321590542793274,-2.498920202255249,4.25661563873291,-29.542404174804688,0
872.2170000000006,-0.00011036222713300958,4.114435796509497e-05,-0.00020774758013430983,0.0,0.0,0.0,0.0,0.0007039232295937836,0.0001616356457816437,-0.004718068055808544,0.9972954392433167,0.0,0.0,0.0,0.16360200941562653,-2.4956166744232178,4.253063201904297,-29.612289428710938,0
882.1400000000012,-0.000148241117130965,7.924919191282243e-05,-0.0002660790050867945,0.0,0.0,0.0,0.0,-0.002719457494094968,-0.0014092251658439636,0.002428848762065172,1.000583291053772,0.0,0.0,0.0,0.16217119991779327,-2.496988296508789,4.245931148529053,-29.353309631347656,0
892.0439999999999,-5.790674185846001e-05,5.413335748016834e-05,-0.00025511934654787183,0.0,0.0,0.0,0.0,-0.0008686337387189269,-0.004646461457014084,0.002496170112863183,0.9988120794296265,0.0,0.0,0.0,0.1623978167772293,-2.493563175201416,4.247398853302002,-29.39432716369629,0
901.9570000000003,-0.00011865642591146752,7.423147326335311e-05,-0.00029202760197222233,0.0,0.0,0.0,0.0,-0.000252236844971776,-0.0031121037900447845,0.0003735173959285021,0.9996244311332703,0.0,0.0,0.0,0.16250504553318024,-2.48237681388855,4.25383186340332,-29.41373634338379,0
911.866,-8.777246694080532e-05,0.00010036065941676497,-0.00028148709679953754,0.0,0.0,0.0,0.0,-0.0034642417449504137,-0.0008425081032328308,-2.6969149985234253e-05,1.0000211000442505,0.0,0.0,0.0,0.17293599247932434,-2.4842336177825928,4.268092155456543,-31.301759719848633,0
921.7860000000001,-0.0001398315653204918,0.00010823964112205431,-0.0003383176517672837,0.0,0.0,0.0,0.0,-0.0006812341162003577,-0.0009636548929847777,-0.0016080921050161123,1.00169837474823,0.0,0.0,0.0,0.17281782627105713,-2.471268892288208,4.273660659790039,-31.280370712280273,0
931.6890000000003,-7.596582872793078e-05,0.00015237854677252471,-0.00030564749613404274,0.0,0.0,0.0,0.0,-0.002650463255122304,0.0015722158132120967,0.000586914480663836,1.0007941722869873,0.0,0.0,0.0,0.1726289838552475,-2.459771156311035,4.266205787658691,-31.246191024780273,0
941.603000000001,-0.0001788714580470696,0.00013167803990654647,-0.00030636737938039005,0.0,0.0,0.0,0.0,0.0021753518376499414,-0.00011482555419206619,-0.000705160666257143,0.9987025856971741,0.0,0.0,0.0,0.1714509278535843,-2.4562342166900635,4.2692790031433105,-31.032958984375,0
951.509,-0.0001226792810484767,0.00017706779181025922,-0.00027549179503694177,0.0,0.0,0.0,0.0,-0.0027204297948628664,-0.0021647897083312273,0.003094001905992627,1.0000048875808716,0.0,0.0,0.0,0.18349194526672363,-2.453688859939575,4.290706157684326,-33.212406158447266,0
961.4359999999997,-0.00022078381152823567,0.00016532994050066918,-0.00027765921549871564,0.0,0.0,0.0,0.0,0.000731089967302978,0.00405974593013525,0.0007013086578808725,1.001782774925232,0.0,0.0,0.0,0.1838073432445526,-2.4430129528045654,4.295665264129639,-33.269493103027344,0
971.3400000000001,-0.00012765971769113094,0.00018031497893389314,-0.00024196220329031348,0.0,0.0,0.0,0.0,0.0011402572272345424,0.00040312076453119516,-0.0034478490706533194,0.9978017210960388,0.0,0.0,0.0,0.1926763951778412,-2.4522359371185303,4.3070969581604,-34.874813079833984,0
981.2489999999998,-0.0002517937100492418,0.00014688473311252892,-0.00021320632367860526,0.0,0.0,0.0,0.0,0.00022330283536575735,0.00013238163955975324,-0.0031579697970300913,1.0001263618469238,0.0,0.0,0.0,0.19161692261695862,-2.4549503326416016,4.303079128265381,-34.683040618896484,0
991.1560000000009,-0.00010715247481130064,0.000105193757917732,-0.00017672209651209414,0.0,0.0,0.0,0.0,-0.0006918139988556504,-0.0016219699755311012,0.0009543588967062533,0.9987719655036926,0.0,0.0,0.0,0.1911461353302002,-2.4575164318084717,4.302343368530273,-34.59783172607422,0
1001.0750000000007,-0.00023537527886219323,4.0617196646053344e-05,-0.0001489508431404829,0.0,0.0,0.0,0.0,0.0003694974002428353,0.005181827582418919,0.0017697690054774284,0.9981971979141235,0.0,0.0,0.0,0.19010493159294128,-2.455916166305542,4.2984232902526855,-34.40937042236328,0
1010.9790000000012,-0.00029760116012766957,9.522248001303524e-05,-0.0001499561476521194,0.0,0.0,0.0,0.0,0.002064602915197611,-0.000842173642013222,0.0007578746299259365,0.9999744296073914,0.0,0.0,0.0,0.18996337056159973,-2.45867919921875,4.277057647705078,-34.383750915527344,0
1020.8960000000006,-0.00032645175815559924,0.00010245392331853509,-0.00021387224842328578,0.0,0.0,0.0,0.0,-0.0003348850295878947,-0.003020363627001643,0.0025098968762904406,0.9995617866516113,0.0,0.0,0.0,0.19002370536327362,-2.4605937004089355,4.261341094970703,-34.39466857910156,0
1030.808000000001,-0.00039079488487914205,0.00015848150360397995,-0.00022053216525819153,0.0,0.0,0.0,0.0,-0.00037272271583788097,0.002234124578535557,-0.004721507895737886,0.9987685084342957,0.0,0.0,0.0,0.19050876796245575,-2.455453634262085,4.264376163482666,-34.48246383666992,0
1040.7240000000002,-0.00040982989594340324,0.00018425134476274252,-0.00029887925484217703,0.0,0.0,0.0,0.0,-0.002798159373924136,-0.002747670980170369,0.0017890686867758632,0.9992130398750305,0.0,0.0,0.0,0.18045523762702942,-2.4590978622436523,4.279938220977783,-32.662757873535156,0
1050.625,-0.0004748832725454122,0.00024232134455814958,-0.0003126795927528292,0.0,0.0,0.0,0.0,4.226601595291868e-05,0.003123524831607938,0.0013644031714648008,1.0001574754714966,0.0,0.0,0.0,0.18045687675476074,-2.45499324798584,4.273624897003174,-32.663055419921875,0
1060.5480000000007,-0.00047968438593670726,0.000262835732428357,-0.00041104626143351197,0.0,0.0,0.0,0.0,0.00043872237438336015,0.0019919658079743385,0.002419174648821354,1.000753402709961,0.0,0.0,0.0,0.1809922456741333,-2.4519739151000977,4.266134262084961,-32.75995635986328,0
1070.4470000000001,-0.0005428047152236104,0.00032270621159113944,-0.00043091364204883575,0.0,0.0,0.0,0.0,-0.004955286160111427,-0.0038978608790785074,0.0013652349589392543,0.998786449432373,0.0,0.0,0.0,0.18139810860157013,-2.452749490737915,4.257484436035156,-32.83341979980469,0
1080.3760000000002,-0.0005526121240109205,0.00027449397020973265,-0.0005474801873788238,0.0,0.0,0.0,0.0,0.0002474272041581571,0.0013356623239815235,0.0005533971125259995,1.0000327825546265,0.0,0.0,0.0,0.18055903911590576,-2.4817941188812256,4.27997350692749,-32.681549072265625,0
1090.2749999999996,-0.0006167648825794458,0.00032930081943050027,-0.0005746748065575957,0.0,0.0,0.0,0.0,0.00197649747133255,0.0030905690509825945,0.002611870877444744,1.0013012886047363,0.0,0.0,0.0,0.17998360097408295,-2.4786489009857178,4.27544641494751,-32.577388763427734,0
1100.1910000000007,-0.0006636383477598429,0.00028121331706643105,-0.0006585181690752506,0.0,0.0,0.0,0.0,-0.003189718583598733,0.0032554075587540865,0.0014851251617074013,1.0004751682281494,0.0,0.0,0.0,0.17928220331668854,-2.5202932357788086,4.274245738983154,-32.450435638427734,0
1110.0990000000002,-0.0007309807115234435,0.0003300965763628483,-0.0006879454012960196,0.0,0.0,0.0,0.0,-0.00034812174271792173,-0.0016812465619295835,-0.002813697559759021,1.0008658170700073,0.0,0.0,0.0,0.17977046966552734,-2.5165655612945557,4.259524345397949,-32.53881072998047,0
1120.014000000001,-0.0007758557330816984,0.0002953090879600495,-0.0007696409011259675,0.0,0.0,0.0,0.0,0.002960348967462778,0.002602502005174756,-0.0007192904595285654,0.9999827146530151,0.0,0.0,0.0,0.17833872139453888,-2.510190725326538,4.255201816558838,-32.279666900634766,0
1129.916000000001,-0.0008445807034149766,0.00034120172495022416,-0.000801714661065489,0.0,0.0,0.0,0.0,0.00033367000287398696,0.001665311399847269,0.001113358186557889,0.9973630905151367,0.0,0.0,0.0,0.17699745297431946,-2.518411874771118,4.242527961730957,-32.03689193725586,0
1139.8420000000006,-0.0008941496489569545,0.0003199148632120341,-0.0008788086706772447,0.0,0.0,0.0,0.0,-0.002145760925486684,0.0016052754363045096,0.000787522061727941,0.9994401335716248,0.0,0.0,0.0,0.1773333102464676,-2.518033504486084,4.234867572784424,-32.09768295288086,0
1149.7430000000004,-0.0009670244762673974,0.00036485138116404414,-0.0009161003399640322,0.0,0.0,0.0,0.0,-0.0002143501042155549,0.005601087585091591,0.0035517793148756027,0.9989026784896851,0.0,0.0,0.0,0.1776333600282669,-2.5113444328308105,4.221332550048828,-32.1519889831543,0
1159.6630000000005,-0.0010150130838155746,0.0003447331255301833,-0.0010010290425270796,0.0,0.0,0.0,0.0,0.0024395708460360765,0.00351517042145133,-0.0013631447218358517,0.9987390637397766,0.0,0.0,0.0,0.17748257517814636,-2.5114974975585938,4.204686641693115,-32.124698638916016,0
1169.571,-0.0010936602484434843,0.000387027976103127,-0.0010435968870297074,0.0,0.0,0.0,0.0,0.002610818250104785,0.003146560862660408,0.0010102889500558376,0.9985848069190979,0.0,0.0,0.0,0.1771722137928009,-2.5134973526000977,4.1878557205200195,-32.06852340698242,0
1179.4860000000008,-0.0011454226914793253,0.00037847342900931835,-0.001143094152212143,0.0,0.0,0.0,0.0,-0.0002238193992525339,0.002666040090844035,-0.00038370571564882994,0.9973693490028381,0.0,0.0,0.0,0.17597512900829315,-2.5120835304260254,4.17496919631958,-31.851850509643555,0
1189.3900000000012,-0.0012296747881919146,0.0004205467412248254,-0.0011930863838642836,0.0,0.0,0.0,0.0,-0.0017507432494312525,-0.0010530502768233418,-6.815978849772364e-05,0.9975001811981201,0.0,0.0,0.0,0.17601679265499115,-2.5092709064483643,4.15792989730835,-31.859390258789062,0
1199.3019999999997,-0.0013140845112502575,0.00040065523353405297,-0.00127240305300802,0.0,0.0,0.0,0.0,0.0024313735775649548,-0.0025472845882177353,0.0012327550211921334,1.0011835098266602,0.0,0.0,0.0,0.17444375157356262,-2.5028300285339355,4.153933048248291,-31.57466697692871,0
1209.2150000000001,-0.0014037057990208268,0.00044221855932846665,-0.0013262036954984069,0.0,0.0,0.0,0.0,0.002850169315934181,-0.0021926569752395153,0.006581957917660475,0.9990500211715698,0.0,0.0,0.0,0.17380523681640625,-2.505803108215332,4.149665355682373,-31.459091186523438,0
1219.1280000000006,-0.001496849930845201,0.0004861683992203325,-0.001379893277771771,0.0,0.0,0.0,0.0,-0.0011998445261269808,0.003927707672119141,-0.00017399925854988396,0.9992888569831848,0.0,0.0,0.0,0.17518773674964905,-2.5017552375793457,4.1523756980896,-31.70932960510254,0
1229.0419999999995,-0.0015937599819153547,0.0005328820552676916,-0.0014341101050376892,0.0,0.0,0.0,0.0,9.739119559526443e-05,-0.0029917676001787186,0.0031135284807533026,0.9990697503089905,0.0,0.0,0.0,0.17457057535648346,-2.493354320526123,4.1398491859436035,-31.597623825073242,0
1238.9529999999995,-0.0016942833317443728,0.0005820808582939208,-0.0014889701269567013,0.0,0.0,0.0,0.0,-0.0012463254388421774,-0.0006168646505102515,-0.003900064155459404,0.9991118311882019,0.0,0.0,0.0,0.1744682937860489,-2.492941379547119,4.1389946937561035,-31.57910919189453,0
1248.871000000001,-0.00015818432439118624,-1.8828299289452843e-05,-0.00012018766574328765,0.0,0.0,0.0,0.0,-0.0005169187788851559,-0.0009644890087656677,0.0018516888376325369,0.998084545135498,0.0,0.0,0.0,0.1827174723148346,-2.594425916671753,4.389726161956787,-33.072227478027344,0
1258.7710000000006,-0.00019508303375914693,7.429809556924738e-06,-0.00012746319407597184,0.0,0.0,0.0,0.0,-0.0014140867860987782,-0.0023338505998253822,-0.001538370968773961,0.9993393421173096,0.0,0.0,0.0,0.18258588016033173,-2.589587450027466,4.394622325897217,-33.04840850830078,0
1268.6910000000007,-0.00011271699622739106,-1.1955648005823605e-05,-0.00010127426503458992,0.0,0.0,0.0,0.0,-0.00016941045760177076,0.000833170663099736,-0.0012599618639796972,1.0000869035720825,0.0,0.0,0.0,0.18992078304290771,-2.589754343032837,4.414972305297852,-34.376041412353516,0
1278.5959999999995,-0.00015009441995061934,1.6575335394009016e-05,-0.00010850965190911666,0.0,0.0,0.0,0.0,-0.0005070896004326642,0.001979097258299589,0.0024400099646300077,1.0017160177230835,0.0,0.0,0.0,0.19014127552509308,-2.591928243637085,4.409695625305176,-34.41594696044922,0
1288.5159999999996,-9.634562593419105e-05,2.4742636014707386e-05,-0.00010817824659170583,0.0,0.0,0.0,0.0,0.0001906397519633174,0.0026362002827227116,-0.003987532574683428,0.9996531009674072,0.0,0.0,0.0,0.19863009452819824,-2.5939042568206787,4.405946254730225,-35.95244216918945,0
1298.416000000001,-0.00013593163748737425,5.447110015666112e-05,-0.00011339222692186013,0.0,0.0,0.0,0.0,0.00023425497056450695,0.004176835995167494,0.0007110770675353706,0.99982750415802,0.0,0.0,0.0,0.1976386159658432,-2.59423565864563,4.403482437133789,-35.772987365722656,0
1308.3379999999997,-8.807144331512973e-05,5.601418160949834e-05,-0.00013246224261820316,0.0,0.0,0.0,0.0,-0.0001391953119309619,0.0004782010510098189,-0.0009444491588510573,0.9990552067756653,0.0,0.0,0.0,0.19763709604740143,-2.594235420227051,4.39145565032959,-35.772708892822266,0
1318.2380000000012,-0.00013034821313340217,8.468360465485603e-05,-0.00013944387319497764,0.0,0.0,0.0,0.0,-0.0007899435586296022,0.004255795851349831,-0.0022636689245700836,0.9988440871238708,0.0,0.0,0.0,0.19743254780769348,-2.592928647994995,4.385012149810791,-35.735687255859375,0
1328.1550000000007,-7.994493353180587e-05,8.580287976656109e-05,-0.00016522328951396048,0.0,0.0,0.0,0.0,-0.0008915523067116737,0.000989722553640604,0.00019177270587533712,1.0005398988723755,0.0,0.0,0.0,0.20561771094799042,-2.6084861755371094,4.385693550109863,-37.21721649169922,0
1338.059000000001,-0.00012211882858537138,0.00011374241148587316,-0.00017421084339730442,0.0,0.0,0.0,0.0,-0.0006134564173407853,-0.0036133669782429934,-0.001414726721122861,0.99925297498703,0.0,0.0,0.0,0.20608484745025635,-2.606706142425537,4.375942230224609,-37.30176544189453,0
1347.9889999999996,-6.344736902974546e-05,0.00011624250328168273,-0.00020086737640667707,0.0,0.0,0.0,0.0,-0.0003396659449208528,0.0014189755311235785,-0.0022161402739584446,0.9973150491714478,0.0,0.0,0.0,0.20541909337043762,-2.6070876121520996,4.382637023925781,-37.1812629699707,0
1357.8900000000012,-0.00010637139348546043,0.00014663752517662942,-0.00021294211910571903,0.0,0.0,0.0,0.0,-0.0001768537040334195,-0.000995597685687244,0.001391735626384616,1.0002925395965576,0.0,0.0,0.0,0.20547367632389069,-2.5993077754974365,4.379658222198486,-37.19114303588867,0
1367.8029999999999,-1.95753964362666e-05,0.0001099572327802889,-0.00027235018205828965,0.0,0.0,0.0,0.0,0.0017307666130363941,0.002719816518947482,0.0017124435398727655,1.0005284547805786,0.0,0.0,0.0,0.20785176753997803,-2.63266658782959,4.406123161315918,-37.621585845947266,0
1377.7070000000003,-6.157670577522367e-05,0.00013687610044144094,-0.00028790702344849706,0.0,0.0,0.0,0.0,0.003053382970392704,0.0026575159281492233,-0.00241673830896616,0.9998477101325989,0.0,0.0,0.0,0.20796939730644226,-2.624779462814331,4.389543056488037,-37.64287567138672,0
1387.6270000000004,-1.8841377823264338e-05,0.00011126154277008027,-0.0003327373997308314,0.0,0.0,0.0,0.0,-0.0020187890622764826,-0.004182952921837568,0.001741067273542285,0.9986736178398132,0.0,0.0,0.0,0.20603762567043304,-2.62121844291687,4.3687543869018555,-37.29322052001953,0
1397.5280000000002,-6.150440458441153e-05,0.00013634904462378472,-0.0003507983929011971,0.0,0.0,0.0,0.0,-0.0013187294825911522,-0.00038683449383825064,0.0019729463383555412,1.0003306865692139,0.0,0.0,0.0,0.2067071497440338,-2.6156160831451416,4.37463903427124,-37.41440200805664,0
1407.4520000000011,-4.14447822549846e-05,0.0001452197611797601,-0.0003679598739836365,0.0,0.0,0.0,0.0,0.0004540671652648598,-0.0003588105319067836,0.00039821266545914114,1.0006588697433472,0.0,0.0,0.0,0.20688693225383759,-2.609297037124634,4.372913837432861,-37.44694519042969,0
1417.3510000000006,-8.399248326895759e-05,0.00017514961655251682,-0.00038525048876181245,0.0,0.0,0.0,0.0,-0.0007000847836025059,0.0010478703770786524,-0.004581775050610304,0.9998576641082764,0.0,0.0,0.0,0.20674552023410797,-2.604459762573242,4.373177528381348,-37.42135238647461,0
1427.2759999999998,-6.06490284553729e-05,0.00017443038814235479,-0.00040258452645502985,0.0,0.0,0.0,0.0,0.0003961908514611423,-0.0018396861851215363,-0.0008634088444523513,0.998444139957428,0.0,0.0,0.0,0.2053455114364624,-2.599313497543335,4.369076251983643,-37.16794967651367,0
1437.1800000000003,-6.06490284553729e-05,0.00017443038814235479,-0.00040258452645502985,0.0,0.0,0.0,0.0,-0.0022859603632241488,-0.0010689953342080116,0.002281647175550461,0.9997876882553101,0.0,0.0,0.0,0.2053455114364624,-2.599313497543335,4.369076251983643,-37.16794967651367,0
1447.1000000000004,-6.490422674687579e-05,0.0001790024252841249,-0.0004335571429692209,0.0,0.0,0.0,0.0,-0.00332933128811419,-0.001269655185751617,-2.38696356973378e-05,0.9992111921310425,0.0,0.0,0.0,0.2112756371498108,-2.617288589477539,4.405534744262695,-38.241310119628906,0
1457.0,-0.00014498905511572957,2.8637805371545255e-05,-0.00021673429000657052,0.0,0.0,0.0,0.0,0.0005971593782305717,-0.0007718483684584498,0.0020275823771953583,0.9994145035743713,0.0,0.0,0.0,0.2112756371498108,-2.617288589477539,4.405534744262695,-38.241310119628906,0
1466.9230000000007,-5.2917705033905804e-05,-8.26170071377419e-06,-0.00018356670625507832,0.0,0.0,0.0,0.0,-0.0017232917016372085,-0.0019576342310756445,-0.0014234844129532576,0.9986450672149658,0.0,0.0,0.0,0.2112584263086319,-2.6039767265319824,4.395925521850586,-38.238197326660156,0
1476.8220000000001,-6.930980453034863e-05,-5.567981497733854e-05,-0.000185580036486499,0.0,0.0,0.0,0.0,0.0021635566372424364,0.002779049100354314,-0.002933114767074585,1.0000581741333008,0.0,0.0,0.0,0.2112584263086319,-2.6039767265319824,4.395925521850586,-38.238197326660156,0
1486.7440000000006,-0.00014536602247972041,5.222920663072728e-06,-0.0002022612898144871,0.0,0.0,0.0,0.0,0.002980112098157406,-0.003616653848439455,0.0007905237725935876,0.9992613792419434,0.0,0.0,0.0,0.2109522521495819,-2.593425750732422,4.392843723297119,-38.182777404785156,0
1496.6440000000002,-0.00014502373232971877,-4.367204746813513e-05,-0.00023788504768162966,0.0,0.0,0.0,0.0,0.000932646740693599,-0.002132048364728689,0.0029827114194631577,0.9984644651412964,0.0,0.0,0.0,0.20338939130306244,-2.597263813018799,4.393489837646484,-36.81388854980469,0
1506.563,-0.0001443835935788229,3.860031574731693e-05,-0.00021075463155284524,0.0,0.0,0.0,0.0,0.00041374246939085424,0.003192829666659236,-0.0008473086054436862,0.9965832233428955,0.0,0.0,0.0,0.21538884937763214,-2.592691421508789,4.404353618621826,-38.985809326171875,0
1516.4680000000008,-0.00011405005352571607,3.841577563434839e-05,-0.00025792952510528266,0.0,0.0,0.0,0.0,-0.001062900759279728,0.0047278134152293205,-0.0015162404160946608,0.9969690442085266,0.0,0.0,0.0,0.21538884937763214,-2.592691421508789,4.404353618621826,-38.985809326171875,0
1526.393,-8.027331932680681e-05,6.576903979294002e-05,-0.00026079543749801815,0.0,0.0,0.0,0.0,-0.0018312091706320643,-0.0041688233613967896,-0.0011981665156781673,0.9997627139091492,0.0,0.0,0.0,0.21529363095760345,-2.5853888988494873,4.377265453338623,-38.96857833862305,0
1536.2970000000005,1.436276488675503e-05,8.870361489243805e-05,-0.000322444160701707,0.0,0.0,0.0,0.0,-0.00023108070308808237,0.0026067926082760096,0.001443328452296555,0.9994528889656067,0.0,0.0,0.0,0.20880194008350372,-2.5802323818206787,4.385003089904785,-37.79356384277344,0
1546.2110000000011,-3.7645691918442026e-05,0.00012878711277153343,-0.00034977865288965404,0.0,0.0,0.0,0.0,-0.0008814787724986672,-0.0051924618892371655,0.0014850920997560024,0.9984471201896667,0.0,0.0,0.0,0.20891056954860687,-2.5730433464050293,4.385074615478516,-37.813228607177734,0
1556.1180000000004,-1.088738463295158e-05,5.8215406170347705e-05,-0.0003177322796545923,0.0,0.0,0.0,0.0,-0.001773591386154294,-0.005619617644697428,0.0016432362608611584,0.9982221126556396,0.0,0.0,0.0,0.19939592480659485,-2.5837509632110596,4.374835968017578,-36.091064453125,0
1566.036,-6.339617539197206e-05,9.698854410089552e-05,-0.0003394631203263998,0.0,0.0,0.0,0.0,0.001169484807178378,7.719423592789099e-05,-0.00024945641052909195,1.0002623796463013,0.0,0.0,0.0,0.1998058408498764,-2.581603765487671,4.377422332763672,-36.165252685546875,0
1575.9449999999997,-8.693364361533895e-05,7.636578084202483e-05,-0.0003270590677857399,0.0,0.0,0.0,0.0,-0.0007959405775181949,-0.0018827671883627772,-0.002656924305483699,0.9990974068641663,0.0,0.0,0.0,0.19211038947105408,-2.5835120677948,4.3579277992248535,-34.77236557006836,0
1585.8600000000006,-8.693364361533895e-05,7.636578084202483e-05,-0.0003270590677857399,0.0,0.0,0.0,0.0,-0.00015558060840703547,0.0010806869249790907,0.0028454414568841457,1.0001384019851685,0.0,0.0,0.0,0.19211038947105408,-2.5835120677948,4.3579277992248535,-34.77236557006836,0
1595.7620000000006,-7.715256651863456e-05,2.6092675398103893e-05,-0.000306057307170704,0.0,0.0,0.0,0.0,-0.00400575390085578,0.00272382702678442,-0.00014640182780567557,0.9990370869636536,0.0,0.0,0.0,0.19211162626743317,-2.5746278762817383,4.350872039794922,-34.772586822509766,0
1605.6769999999997,-7.715256651863456e-05,2.6092675398103893e-05,-0.000306057307170704,0.0,0.0,0.0,0.0,0.0017799935303628445,0.004228483885526657,-0.0005505254375748336,1.0012569427490234,0.0,0.0,0.0,0.19211162626743317,-2.5746278762817383,4.350872039794922,-34.772586822509766,0
1615.585000000001,-0.00013337144628167152,-1.488998532295227e-05,-0.00023794473963789642,0.0,0.0,0.0,0.0,-0.001824842533096671,0.002622497733682394,-0.0012981602922081947,0.9995933175086975,0.0,0.0,0.0,0.185654878616333,-2.5851948261260986,4.318592548370361,-33.60390090942383,0
1625.5069999999996,-0.00013337144628167152,-1.488998532295227e-05,-0.00023794473963789642,0.0,0.0,0.0,0.0,-0.0007209015893749893,-0.0032559398096054792,-0.0011932947672903538,0.9975783824920654,0.0,0.0,0.0,0.185654878616333,-2.5851948261260986,4.318592548370361,-33.60390090942383,0
1635.4120000000003,-0.00012337705993559211,9.21689934330061e-06,-0.00022879382595419884,0.0,0.0,0.0,0.0,-0.0004563728580251336,0.004686789121478796,-0.003640551585704088,0.9995656609535217,0.0,0.0,0.0,0.18526820838451385,-2.5675408840179443,4.301917552947998,-33.53391647338867,0
1645.321,-0.00012337705993559211,9.21689934330061e-06,-0.00022879382595419884,0.0,0.0,0.0,0.0,0.0011977162212133408,-0.0024585823994129896,-0.0008381091174669564,0.9989801645278931,0.0,0.0,0.0,0.18526820838451385,-2.5675408840179443,4.301917552947998,-33.53391647338867,0
1655.232,-0.00013751929509453475,-7.528455171268433e-05,-0.00017041109094861895,0.0,0.0,0.0,0.0,-0.00047017913311719894,-0.005730294622480869,0.002487979596480727,0.9990716576576233,0.0,0.0,0.0,0.18446119129657745,-2.5671427249908447,4.278891086578369,-33.387840270996094,0
1665.1530000000002,-0.00013751929509453475,-7.528455171268433e-05,-0.00017041109094861895,0.0,0.0,0.0,0.0,0.000988493557088077,0.0045891450718045235,0.0009966897778213024,1.001280665397644,0.0,0.0,0.0,0.18446119129657745,-2.5671427249908447,4.278891086578369,-33.387840270996094,0
1675.0570000000007,-9.923270408762619e-05,-2.39890086959349e-05,-0.00018430378986522555,0.0,0.0,0.0,0.0,0.0031872843392193317,0.003717623883858323,-0.000507791934069246,0.9999075531959534,0.0,0.0,0.0,0.1849501132965088,-2.5590829849243164,4.276785850524902,-33.47633743286133,0
1684.964,-0.00016499633784405887,1.7933312847162597e-05,-0.00018778661615215242,0.0,0.0,0.0,0.0,-0.0002668177767191082,-0.006607241928577423,0.0027731722220778465,0.9984884262084961,0.0,0.0,0.0,0.18495234847068787,-2.556182622909546,4.2844438552856445,-33.47674560546875,0
1694.8819999999996,-8.679347229190171e-05,-2.2448492018156685e-05,-0.00021267161355353892,0.0,0.0,0.0,0.0,0.0024470933713018894,-0.001561653451062739,-0.0017983252182602882,1.0002890825271606,0.0,0.0,0.0,0.17880237102508545,-2.5539791584014893,4.272864818572998,-32.36358642578125,0
1704.7900000000009,-0.0001538845826871693,2.2237551092985086e-05,-0.00021888624178245664,0.0,0.0,0.0,0.0,-0.0035650301724672318,0.004282160196453333,0.0004342412285041064,0.999767005443573,0.0,0.0,0.0,0.17879818379878998,-2.5542073249816895,4.27357816696167,-32.36282730102539,0
1714.7000000000007,-7.251299393828958e-05,-3.074769119848497e-05,-0.00019778910791501403,0.0,0.0,0.0,0.0,0.002183177275583148,-0.002617536811158061,0.0014161397702991962,1.0002959966659546,0.0,0.0,0.0,0.1786796897649765,-2.550920248031616,4.269070148468018,-32.34138107299805,0
1724.616,-0.0001376532600261271,1.3636337826028466e-05,-0.00020178797421976924,0.0,0.0,0.0,0.0,-0.0024879551492631435,-8.728218381293118e-05,-0.0022280439734458923,0.9991986751556396,0.0,0.0,0.0,0.1786625236272812,-2.5544261932373047,4.259992599487305,-32.33827590942383,0
1734.5290000000005,-2.4310231310664676e-05,3.759880200959742e-06,-0.0002255542203783989,0.0,0.0,0.0,0.0,-0.001562011195346713,-0.0012699266662821174,0.0006609187694266438,0.9988133311271667,0.0,0.0,0.0,0.17820627987384796,-2.549166202545166,4.255791664123535,-32.25568771362305,0
1744.434000000001,-8.91189047251828e-05,4.872516728937626e-05,-0.00023115708609111607,0.0,0.0,0.0,0.0,0.00025492458371445537,-0.002532862825319171,-0.003187228925526142,0.9997187852859497,0.0,0.0,0.0,0.17787206172943115,-2.539250373840332,4.250877857208252,-32.19519805908203,0
1754.3510000000006,-2.05594133149134e-05,-1.5436875401064754e-05,-0.00023126871383283287,0.0,0.0,0.0,0.0,0.0022218988742679358,0.003423205344006419,0.001181426807306707,1.0019811391830444,0.0,0.0,0.0,0.1705450862646103,-2.5413382053375244,4.255892753601074,-30.868999481201172,0
1764.259,-8.532992796972394e-05,3.098175147897564e-05,-0.00023737047740723938,0.0,0.0,0.0,0.0,-0.001528137014247477,-0.0032976074144244194,0.000622175051830709,1.0021333694458008,0.0,0.0,0.0,0.17022670805454254,-2.537686824798584,4.245869159698486,-30.811372756958008,0
1774.1689999999999,-4.9784499424276873e-05,-1.3593346920970362e-05,-0.00021478084090631455,0.0,0.0,0.0,0.0,-0.00348791666328907,0.002465691650286317,0.0009732426260598004,0.9990758299827576,0.0,0.0,0.0,0.16972698271274567,-2.5409815311431885,4.235072135925293,-30.720922470092773,0
1784.0840000000007,-0.00011471965990494937,3.5099597880616784e-05,-0.00021557700529228896,0.0,0.0,0.0,0.0,0.0007546210545115173,0.00021396591910161078,-0.0008721016347408295,0.9997459650039673,0.0,0.0,0.0,0.16973426938056946,-2.5367958545684814,4.2292304039001465,-30.72224235534668,0
1793.9989999999998,-5.058445822214708e-05,1.4058003216632642e-05,-0.00020679616136476398,0.0,0.0,0.0,0.0,0.0002598870487418026,0.00656646816059947,-0.003028632141649723,0.9992413520812988,0.0,0.0,0.0,0.1706656813621521,-2.536271810531616,4.218903064727783,-30.89082908630371,0
1803.9030000000002,-0.00011633257963694632,6.453945388784632e-05,-0.00020739296451210976,0.0,0.0,0.0,0.0,-0.0012518493458628654,0.00048470377805642784,0.0006037360872142017,1.0003595352172852,0.0,0.0,0.0,0.16931959986686707,-2.5377092361450195,4.203403472900391,-30.647184371948242,0
1813.8240000000005,-4.710162102128379e-05,1.3954451787867583e-05,-0.00018566001381259412,0.0,0.0,0.0,0.0,0.0011149930069223046,-0.002761952579021454,0.0002533579245209694,1.0012431144714355,0.0,0.0,0.0,0.16142450273036957,-2.531094789505005,4.199863910675049,-29.218156814575195,0
1823.7290000000012,-0.00011397765774745494,6.411475624190643e-05,-0.0001847116946009919,0.0,0.0,0.0,0.0,0.0016844436759129167,-0.0006309159216471016,-0.004688967019319534,1.0016249418258667,0.0,0.0,0.0,0.16149067878723145,-2.5338094234466553,4.199343681335449,-29.230134963989258,0
1833.639000000001,-5.572859299718402e-05,-1.9334447642904706e-06,-0.0001682102301856503,0.0,0.0,0.0,0.0,-0.005025029182434082,0.002424961654469371,-0.000776827335357666,1.0001388788223267,0.0,0.0,0.0,0.15984991192817688,-2.5365374088287354,4.199699401855469,-28.933151245117188,0
1843.550000000001,-0.00012156816956121475,5.037555456510745e-05,-0.0001637844688957557,0.0,0.0,0.0,0.0,-0.0015751069877296686,-0.004189523868262768,-0.003586512291803956,1.000461220741272,0.0,0.0,0.0,0.15885140001773834,-2.531470775604248,4.197053909301758,-28.75242042541504,0
1853.4629999999997,1.5413276059916825e-06,3.478469807305373e-05,-0.00020714553829748183,0.0,0.0,0.0,0.0,-6.203216616995633e-05,0.0005608813371509314,0.0005992206279188395,0.9995228052139282,0.0,0.0,0.0,0.15305845439434052,-2.517876148223877,4.209256172180176,-27.703882217407227,0
1863.3770000000004,-6.825184391345829e-05,1.2874522326455917e-05,-0.0002353364252485335,0.0,0.0,0.0,0.0,0.0017118488904088736,-0.006136561278253794,-0.00012015457468805835,0.9999532103538513,0.0,0.0,0.0,0.15194562077522278,-2.510580062866211,4.205397605895996,-27.502460479736328,0
1873.2929999999997,-9.728320037538651e-06,-7.744587492197752e-06,-0.00022373699175659567,0.0,0.0,0.0,0.0,-0.0011559363920241594,0.0013344371691346169,0.00026697671273723245,1.002069115638733,0.0,0.0,0.0,0.1522926241159439,-2.514145612716675,4.201103687286377,-27.56526756286621,0
1883.2029999999995,-6.00521634623874e-05,2.1072140953037888e-05,-0.0002541015564929694,0.0,0.0,0.0,0.0,0.0003680508234538138,-0.0007958675851114094,-0.0001463026273995638,1.0016518831253052,0.0,0.0,0.0,0.15140776336193085,-2.5117640495300293,4.202702045440674,-27.405107498168945,0
1893.1080000000002,-2.7534122637007385e-05,4.202865602564998e-05,-0.00023081347171682864,0.0,0.0,0.0,0.0,0.0012077667051926255,-0.002237909007817507,0.002411352936178446,1.0011096000671387,0.0,0.0,0.0,0.15142838656902313,-2.5084285736083984,4.200219631195068,-27.408838272094727,0
1903.0259999999998,-0.00011535092926351354,4.8732454160926864e-05,-0.00022344046737998724,0.0,0.0,0.0,0.0,0.0015067006461322308,-0.005717218387871981,-0.000679575779940933,0.9995948672294617,0.0,0.0,0.0,0.1517019420862198,-2.510098457336426,4.194934844970703,-27.45835304260254,0
1912.9349999999995,-2.145852158719208e-05,-5.427772521215957e-06,-0.00020716071594506502,0.0,0.0,0.0,0.0,0.00011927137529710308,-0.001677647465839982,-0.0002858946972992271,0.9990524053573608,0.0,0.0,0.0,0.1576840877532959,-2.5293006896972656,4.22075080871582,-28.5411319732666,0
1922.844000000001,-0.00010687685426091775,-2.289498115715105e-05,-0.00021099814330227673,0.0,0.0,0.0,0.0,-0.003192850388586521,-0.0037083469796925783,-0.0008960291161201894,0.999157190322876,0.0,0.0,0.0,0.15752695500850677,-2.53084397315979,4.225795269012451,-28.512691497802734,0
1932.7540000000008,-6.273014878388494e-05,-5.563139438891085e-06,-0.0001791991962818429,0.0,0.0,0.0,0.0,0.002085156971588731,0.0034231836907565594,-0.002099310513585806,0.996199905872345,0.0,0.0,0.0,0.16415084898471832,-2.529107093811035,4.251834869384766,-29.711631774902344,0
1942.6710000000003,-0.00017464396660216153,-3.356792876729742e-05,-0.00015220003842841834,0.0,0.0,0.0,0.0,-0.00023816694738343358,0.0005511143244802952,-0.0014918093802407384,1.0000011920928955,0.0,0.0,0.0,0.16336314380168915,-2.526287078857422,4.238555908203125,-29.56905174255371,0
1952.5779999999995,-6.991963891778141e-05,-4.827502925763838e-05,-0.00010782142635434866,0.0,0.0,0.0,0.0,-0.0011725088115781546,-0.0004000998451374471,0.0014947858871892095,1.0017858743667603,0.0,0.0,0.0,0.16382373869419098,-2.5279150009155273,4.229755401611328,-29.652423858642578,0
1962.4920000000002,-0.0001155802674475126,-2.2635158529737964e-05,-0.00013815048441756517,0.0,0.0,0.0,0.0,0.002292718505486846,0.0013525834074243903,0.0021543027833104134,0.9991326928138733,0.0,0.0,0.0,0.16263169050216675,-2.521569013595581,4.216571807861328,-29.436660766601562,0
1972.402,-8.105509186862037e-05,-2.554152706579771e-05,-0.00011669183004414663,0.0,0.0,0.0,0.0,0.0018260776996612549,-0.00042061624117195606,-0.0012511855456978083,0.9978071451187134,0.0,0.0,0.0,0.17054137587547302,-2.537256956100464,4.2326459884643555,-30.868328094482422,0
1982.3140000000003,-9.438805136596784e-05,3.085942080360837e-05,-0.000175007720827125,0.0,0.0,0.0,0.0,-9.62179183261469e-05,0.0008520418195985258,-0.00031570025021210313,0.9983123540878296,0.0,0.0,0.0,0.17118385434150696,-2.5361993312835693,4.219970226287842,-30.984619140625,0
1992.2309999999998,-1.3820306776324287e-05,-1.3494426639226731e-05,-0.00016027569654397666,0.0,0.0,0.0,0.0,0.0028464568313211203,0.002264485927298665,-0.0009687981219030917,1.0003197193145752,0.0,0.0,0.0,0.1700153648853302,-2.5344014167785645,4.217535018920898,-30.773117065429688,0
2002.139000000001,-7.877956522861496e-05,4.1871180656016804e-06,-0.0001771722745615989,0.0,0.0,0.0,0.0,-0.0018456848338246346,0.001411602133885026,0.0019548938143998384,1.0004831552505493,0.0,0.0,0.0,0.16966864466667175,-2.5332114696502686,4.213735580444336,-30.71036148071289,0
2012.0550000000003,-3.636948895291425e-05,-2.023132037720643e-05,-0.00016775791300460696,0.0,0.0,0.0,0.0,-0.002340912353247404,0.00262319459579885,-0.0008509918698109686,0.9989877343177795,0.0,0.0,0.0,0.169531911611557,-2.5287489891052246,4.198079586029053,-30.68561363220215,0
2021.9619999999995,-7.207524322438985e-05,1.8677079424378462e-05,-0.00021415205264929682,0.0,0.0,0.0,0.0,-3.960517278756015e-05,0.00015877744590397924,0.0019010916585102677,1.0006531476974487,0.0,0.0,0.0,0.16963033378124237,-2.5214855670928955,4.1960673332214355,-30.703428268432617,0
2031.880000000001,-4.1069259168580174e-05,5.071573832537979e-05,-0.0001881585776573047,0.0,0.0,0.0,0.0,0.0037109132390469313,0.004418025724589825,0.00124436488840729,1.0012352466583252,0.0,0.0,0.0,0.1707274466753006,-2.5110483169555664,4.196155548095703,-30.902006149291992,0
2041.7839999999997,-9.099649469135329e-05,6.831401697127149e-05,-0.00023322828928939998,0.0,0.0,0.0,0.0,0.002858238760381937,-0.0011566492030397058,0.0022442094050347805,0.9999592304229736,0.0,0.0,0.0,0.17134545743465424,-2.5151455402374268,4.185690879821777,-31.01386833190918,0
2051.6990000000005,-3.085660137003288e-05,5.691580372513272e-05,-0.00021621529594995081,0.0,0.0,0.0,0.0,0.0017826397670432925,0.0004480602510739118,0.0003472843673080206,0.9983817338943481,0.0,0.0,0.0,0.17837227880954742,-2.531079053878784,4.191893577575684,-32.28573989868164,0
2061.615,-0.00010173417103942484,2.896114528994076e-05,-0.0002568255295045674,0.0,0.0,0.0,0.0,0.0031870794482529163,-0.004818540532141924,-0.0013532002922147512,1.0006219148635864,0.0,0.0,0.0,0.17735205590724945,-2.528251886367798,4.185129165649414,-32.10107421875,0
2071.5249999999996,-3.999840919277631e-05,2.2706022718921304e-05,-0.00023484468692913651,0.0,0.0,0.0,0.0,0.0017088789027184248,-0.00015640436322428286,-0.0004585652204696089,0.9998058080673218,0.0,0.0,0.0,0.17790044844150543,-2.5367000102996826,4.176510334014893,-32.20033264160156,0
2081.428,-0.00013591941387858242,-3.033071152458433e-06,-0.0002454213099554181,0.0,0.0,0.0,0.0,-0.0012375011574476957,0.0023697263095527887,0.00026119285030290484,0.9992468953132629,0.0,0.0,0.0,0.17736992239952087,-2.5294418334960938,4.177457809448242,-32.10430908203125,0
2091.3469999999998,-7.306090265046805e-05,3.050196255571791e-06,-0.00021724514954257756,0.0,0.0,0.0,0.0,-0.0007021977216936648,0.0006693557952530682,-0.0008230477105826139,0.9994211196899414,0.0,0.0,0.0,0.1848277598619461,-2.537942409515381,4.189525604248047,-33.454193115234375,0
2101.251,-0.0001448594412067905,3.3234191505471244e-05,-0.00023010004952084273,0.0,0.0,0.0,0.0,0.0011915296781808138,-0.0009589411783963442,0.0013989987783133984,0.9997649788856506,0.0,0.0,0.0,0.18529537320137024,-2.530287027359009,4.19050931930542,-33.5388298034668,0
