timestamp,stateEstimate.x,stateEstimate.y,stateEstimate.z,controller.cmd_thrust,controller.cmd_roll,controller.cmd_pitch,controller.cmd_yaw,controller.r_roll,controller.r_pitch,controller.r_yaw,controller.accelz,controller.actuatorThrust,controller.roll,controller.pitch,controller.yaw,controller.rollRate,controller.pitchRate,controller.yawRate,controller.ctr_yaw
0.0,-0.003101686015725136,-0.006696008611470461,-0.00020427844719961286,0.0,0.0,0.0,0.0,-0.0024981293827295303,-0.001030885730870068,-0.0021976882126182318,1.0002920627593994,0.0,0.0,0.0,7.448546409606934,-3.601975679397583,5.500108242034912,-1348.20166015625,0
9.899000000001251,-0.0030723849777132273,-0.006695571821182966,-0.00017759147158358246,0.0,0.0,0.0,0.0,0.001041684183292091,0.0012368198949843645,-0.0003017474664375186,1.0005027055740356,0.0,0.0,0.0,7.449262619018555,-3.5992681980133057,5.509310722351074,-1348.331298828125,0
19.82600000000093,-0.0030777279753237963,-0.006654772441834211,-0.00020923931151628494,0.0,0.0,0.0,0.0,-0.002433628076687455,-0.003443390130996704,-0.002076884964480996,1.0007516145706177,0.0,0.0,0.0,7.441860198974609,-3.59669828414917,5.505295276641846,-1346.991455078125,0
29.721000000001368,-0.003098507411777973,-0.006585968658328056,-0.00017327716341242194,0.0,0.0,0.0,0.0,1.3491924619302154e-05,-0.0017638978315517306,0.00020051197498105466,0.9996402859687805,0.0,0.0,0.0,7.440871715545654,-3.5860660076141357,5.50405740737915,-1346.8126220703125,0
39.64500000000044,-0.0031084513757377863,-0.006560298148542643,-0.00020847645646426827,0.0,0.0,0.0,0.0,-0.001144502079114318,-0.0018702064407989383,-0.00487461918964982,1.00030517578125,0.0,0.0,0.0,7.435186386108398,-3.5792505741119385,5.510464191436768,-1345.7835693359375,0
49.54500000000007,-0.00307924160733819,-0.006604305934160948,-0.00020762845815625042,0.0,0.0,0.0,0.0,-0.0007291411748155951,-0.00035029620630666614,-0.0003436711267568171,1.0003799200057983,0.0,0.0,0.0,7.4394450187683105,-3.5838494300842285,5.517192363739014,-1346.554443359375,0
59.470000000001164,-0.0030943057499825954,-0.006574477069079876,-0.00023366189270745963,0.0,0.0,0.0,0.0,0.0002946027962025255,-0.0003399324486963451,-0.001595326466485858,0.9988963007926941,0.0,0.0,0.0,7.433343887329102,-3.578281879425049,5.5154924392700195,-1345.4500732421875,0
69.3680000000004,-0.0030808907467871904,-0.0065398383885622025,-0.0002063529536826536,0.0,0.0,0.0,0.0,0.00020555066294036806,6.884357571834698e-05,0.0012511531822383404,0.9978342056274414,0.0,0.0,0.0,7.434926986694336,-3.5704307556152344,5.524799823760986,-1345.7366943359375,0
79.29500000000007,-0.0031056383159011602,-0.006553277373313904,-0.00023927693837322295,0.0,0.0,0.0,0.0,0.00218814960680902,-0.001392643665894866,-0.0012355252401903272,0.9994834661483765,0.0,0.0,0.0,7.427117347717285,-3.5642173290252686,5.5158796310424805,-1344.3231201171875,0
89.19100000000071,-0.0030887380708009005,-0.006557697430253029,-0.00023169843188952655,0.0,0.0,0.0,0.0,-0.0007760217995382845,-0.0003520637401379645,0.0034024869091808796,1.0003496408462524,0.0,0.0,0.0,7.433324337005615,-3.573352098464966,5.518754005432129,-1345.446533203125,0
99.1130000000012,-0.0031201920937746763,-0.006569372955709696,-0.00025576152256689966,0.0,0.0,0.0,0.0,0.0005975840613245964,-0.0015003482112661004,0.0009022442973218858,0.9986762404441833,0.0,0.0,0.0,7.432769298553467,-3.5754215717315674,5.51437520980835,-1345.3460693359375,0
109.02900000000045,-0.003042209893465042,-0.006586750503629446,-0.00022985739633440971,0.0,0.0,0.0,0.0,-0.0016245553269982338,-0.002424058271571994,-0.0008758171461522579,0.9984385967254639,0.0,0.0,0.0,7.437182426452637,-3.584996461868286,5.523536682128906,-1346.144775390625,0
118.94300000000112,-0.0030770564917474985,-0.006604761350899935,-0.0002496578963473439,0.0,0.0,0.0,0.0,0.0016149338334798813,0.0014398809289559722,0.002107857493683696,0.9977769255638123,0.0,0.0,0.0,7.436099052429199,-3.590151071548462,5.530635356903076,-1345.94873046875,0
128.84900000000016,-0.003109124256297946,-0.006588275544345379,-0.0002564807655289769,0.0,0.0,0.0,0.0,-0.0004645409935619682,-0.0022922006901353598,8.306966628879309e-05,0.9983462691307068,0.0,0.0,0.0,7.429351806640625,-3.5904150009155273,5.515881538391113,-1344.7275390625,0
138.7530000000006,-0.0031271351035684347,-0.006588670890778303,-0.0002894973731599748,0.0,0.0,0.0,0.0,0.001203504973091185,0.0014332253485918045,0.0028855695854872465,0.9995406270027161,0.0,0.0,0.0,7.42188024520874,-3.586906909942627,5.511477947235107,-1343.3751220703125,0
148.67100000000028,-0.003159902524203062,-0.0065694269724190235,-0.00030129097285680473,0.0,0.0,0.0,0.0,0.0009369295439682901,-0.0016400325112044811,-0.00028727840981446207,0.9999147653579712,0.0,0.0,0.0,7.414417743682861,-3.5820443630218506,5.5029191970825195,-1342.0242919921875,0
158.57200000000012,-0.0031810642685741186,-0.006553808692842722,-0.0003321173426229507,0.0,0.0,0.0,0.0,0.0002538012049626559,0.003933181520551443,-0.0038145307917147875,0.999291181564331,0.0,0.0,0.0,7.4075026512146,-3.578841209411621,5.494643688201904,-1340.772705078125,0
168.487000000001,-0.003036285052075982,-0.006647544447332621,-0.00028021083562634885,0.0,0.0,0.0,0.0,0.0005448908777907491,-0.0014319214969873428,0.0008162286831066012,0.9968103766441345,0.0,0.0,0.0,7.415378093719482,-3.618166208267212,5.536317825317383,-1342.1982421875,0
178.40100000000166,-0.003008264349773526,-0.006586183328181505,-0.00034171310835517943,0.0,0.0,0.0,0.0,-0.0011728189419955015,-0.0017197135603055358,0.0014463912229984999,0.9987115263938904,0.0,0.0,0.0,7.409204483032227,-3.6132915019989014,5.530465126037598,-1341.0806884765625,0
188.32400000000052,-0.0030269448179751635,-0.006569441873580217,-0.0003589517145883292,0.0,0.0,0.0,0.0,0.0005855103954672813,0.0026553573552519083,-0.0015360142569988966,0.9967990517616272,0.0,0.0,0.0,7.401920795440674,-3.612050771713257,5.533547878265381,-1339.7623291015625,0
198.21800000000076,-0.003069113940000534,-0.006598510779440403,-0.0003670163278002292,0.0,0.0,0.0,0.0,-0.0018831342458724976,-0.00035796454176306725,0.0021717760246247053,0.9989176392555237,0.0,0.0,0.0,7.393490791320801,-3.610318660736084,5.522925853729248,-1338.2364501953125,0
208.13400000000001,-0.003021316137164831,-0.006593693513423204,-0.00034117652103304863,0.0,0.0,0.0,0.0,0.0006592567660845816,-0.0007729552453383803,-0.0013465493684634566,0.9989287853240967,0.0,0.0,0.0,7.401524543762207,-3.6122934818267822,5.5345458984375,-1339.690673828125,0
218.04100000000108,-0.003067022655159235,-0.006610949989408255,-0.00034339603735134006,0.0,0.0,0.0,0.0,0.0019067329121753573,-0.003317762166261673,-0.004931797739118338,0.9991457462310791,0.0,0.0,0.0,7.3941779136657715,-3.6095969676971436,5.527562618255615,-1338.3609619140625,0
227.96000000000095,-0.003012293018400669,-0.006536555476486683,-0.0002854229533113539,0.0,0.0,0.0,0.0,-0.0015182796632871032,-0.0004082423693034798,0.002369162393733859,0.9979461431503296,0.0,0.0,0.0,7.394650936126709,-3.5911550521850586,5.545848369598389,-1338.446533203125,0
237.8630000000012,-0.0030663274228572845,-0.006572898477315903,-0.0002872220065910369,0.0,0.0,0.0,0.0,0.0006695112097077072,-1.2691039046330843e-05,-0.00075956538785249,0.998842179775238,0.0,0.0,0.0,7.395252227783203,-3.5917673110961914,5.549829959869385,-1338.5552978515625,0
247.78100000000086,-0.0030707092955708504,-0.006529017351567745,-0.000276380917057395,0.0,0.0,0.0,0.0,-0.001107893418520689,0.0016120107611641288,0.00010291735816281289,0.999459445476532,0.0,0.0,0.0,7.399412631988525,-3.5893423557281494,5.5428900718688965,-1339.308349609375,0
257.6850000000013,-0.0031106420792639256,-0.0065641747787594795,-0.000302214379189536,0.0,0.0,0.0,0.0,-0.0021502238232642412,0.0005821142694912851,0.0032553686760365963,0.9995537400245667,0.0,0.0,0.0,7.393428325653076,-3.5869760513305664,5.535813331604004,-1338.2252197265625,0
267.6040000000012,-0.0030544637702405453,-0.006534132175147533,-0.0002691542904358357,0.0,0.0,0.0,0.0,-0.0008354394230991602,-0.0005150967626832426,-0.0013279869453981519,1.0011967420578003,0.0,0.0,0.0,7.4003987312316895,-3.584994316101074,5.537142753601074,-1339.48681640625,0
277.509,-0.003089504549279809,-0.006555248983204365,-0.0002933005744125694,0.0,0.0,0.0,0.0,0.0020750423427671194,0.005203705281019211,-0.002724891062825918,1.0008624792099,0.0,0.0,0.0,7.402200222015381,-3.589042901992798,5.532583236694336,-1339.8128662109375,0
287.4230000000007,-0.003087880788370967,-0.00653420202434063,-0.00028428275254555047,0.0,0.0,0.0,0.0,-0.004276271443814039,-0.001180526101961732,0.0021278199274092913,1.0004709959030151,0.0,0.0,0.0,7.409029483795166,-3.5891849994659424,5.524518013000488,-1341.049072265625,0
297.33800000000156,-0.0031744863372296095,-0.006615042686462402,-0.00027481905999593437,0.0,0.0,0.0,0.0,0.002265829825773835,0.001753868767991662,-0.0006940114544704556,1.0003315210342407,0.0,0.0,0.0,7.411894798278809,-3.595792531967163,5.5113091468811035,-1341.567626953125,0
307.2490000000016,-0.003209182992577553,-0.006610426586121321,-0.0002796344633679837,0.0,0.0,0.0,0.0,0.00027134380070492625,0.0015787517186254263,-0.0007868932443670928,0.9991588592529297,0.0,0.0,0.0,7.405144691467285,-3.5945026874542236,5.496838092803955,-1340.345947265625,0
317.15700000000106,-0.003216813551262021,-0.006645153276622295,-0.00033652083948254585,0.0,0.0,0.0,0.0,0.0026177598629146814,-0.0019728790502995253,0.00018413558427710086,1.0001847743988037,0.0,0.0,0.0,7.405953407287598,-3.603393316268921,5.491264820098877,-1340.4921875,0
327.0720000000001,-0.003127027302980423,-0.006624406203627586,-0.0002543683222029358,0.0,0.0,0.0,0.0,0.003659237641841173,0.0053769382648169994,-0.0006661010556854308,0.9998975992202759,0.0,0.0,0.0,7.407941818237305,-3.6019678115844727,5.509983062744141,-1340.8521728515625,0
336.9790000000012,-0.003162457374855876,-0.006664032116532326,-0.00027244570082984865,0.0,0.0,0.0,0.0,0.0026313457638025284,0.0029982670675963163,-0.001199105754494667,1.001072645187378,0.0,0.0,0.0,7.411605358123779,-3.6129543781280518,5.494820594787598,-1341.5152587890625,0
346.89200000000164,-0.003076272550970316,-0.006678007543087006,-0.00022785968030802906,0.0,0.0,0.0,0.0,-0.0021829186007380486,-0.0032005065586417913,-0.001872213208116591,1.0038191080093384,0.0,0.0,0.0,7.418006896972656,-3.6189184188842773,5.4976911544799805,-1342.674072265625,0
356.8020000000015,-0.00306991720572114,-0.006646358408033848,-0.00025629816809669137,0.0,0.0,0.0,0.0,-1.3718558875552844e-05,-0.0005277571035549045,1.0606776413624175e-05,1.0010344982147217,0.0,0.0,0.0,7.410604476928711,-3.6123294830322266,5.4987688064575195,-1341.3341064453125,0
366.71800000000076,-0.0030958536081016064,-0.006646677386015654,-0.0002536519314162433,0.0,0.0,0.0,0.0,-0.00038839742774143815,-0.006278018467128277,-3.666757038445212e-05,1.0008715391159058,0.0,0.0,0.0,7.4036865234375,-3.602189064025879,5.494863986968994,-1340.0819091796875,0
376.6230000000014,-0.0031040669418871403,-0.006632062140852213,-0.0002705463266465813,0.0,0.0,0.0,0.0,0.0007435196312144399,0.003542504273355007,-0.0034962769132107496,1.0005605220794678,0.0,0.0,0.0,7.395849704742432,-3.5960066318511963,5.49489688873291,-1338.6634521484375,0
386.5400000000009,-0.0031313817016780376,-0.0066322204656898975,-0.00026753442944027483,0.0,0.0,0.0,0.0,-0.0007280151476152241,-0.004504488315433264,0.0010047605028375983,1.00265634059906,0.0,0.0,0.0,7.388259410858154,-3.5904862880706787,5.488114356994629,-1337.2896728515625,0
396.4470000000001,-0.0031382956076413393,-0.0066246516071259975,-0.00029480355442501605,0.0,0.0,0.0,0.0,-0.0009227481205016375,0.0037059281021356583,-4.968028952134773e-05,0.999850332736969,0.0,0.0,0.0,7.379978656768799,-3.5853872299194336,5.497708320617676,-1335.7908935546875,0
406.3720000000012,-0.0030181873589754105,-0.006704275496304035,-0.00022455000726040453,0.0,0.0,0.0,0.0,-0.000582254258915782,0.0008334258454851806,-0.0006078231963329017,0.9987675547599792,0.0,0.0,0.0,7.389430046081543,-3.611919403076172,5.529832363128662,-1337.50146484375,0
416.27000000000044,-0.0030537934508174658,-0.006741596385836601,-0.00021344886044971645,0.0,0.0,0.0,0.0,0.0006501394091174006,0.0016656970838084817,0.003916923888027668,0.9985859990119934,0.0,0.0,0.0,7.396826267242432,-3.616119623184204,5.520002841949463,-1338.8402099609375,0
426.1950000000015,-0.0030737174674868584,-0.006747756153345108,-0.00020601818687282503,0.0,0.0,0.0,0.0,0.001823408529162407,0.005708246026188135,-0.00041951608727686107,0.9990538954734802,0.0,0.0,0.0,7.389787673950195,-3.609096050262451,5.511711597442627,-1337.5662841796875,0
436.09799999999996,-0.0030955763068050146,-0.006757859140634537,-0.00020001291704829782,0.0,0.0,0.0,0.0,0.0016109358984977007,-0.0030438019894063473,-0.00020525051513686776,0.9997852444648743,0.0,0.0,0.0,7.382452011108398,-3.6064465045928955,5.487610816955566,-1336.238525390625,0
446.01500000000124,-0.003048000391572714,-0.006765004713088274,-0.00014821089280303568,0.0,0.0,0.0,0.0,0.00036707607796415687,-0.002534765750169754,0.0013871599221602082,0.9982672929763794,0.0,0.0,0.0,7.389604091644287,-3.6116597652435303,5.499865531921387,-1337.532958984375,0
455.9150000000009,-0.0030604125931859016,-0.006772987078875303,-0.00016065259114839137,0.0,0.0,0.0,0.0,0.0012582720955833793,0.0007985496777109802,-0.0023235308472067118,0.998490571975708,0.0,0.0,0.0,7.399082183837891,-3.609633684158325,5.494946479797363,-1339.2486572265625,0
465.83600000000115,-0.003103139577433467,-0.006689931266009808,-0.00012404264998622239,0.0,0.0,0.0,0.0,-0.0017828099662438035,0.0033811593893915415,-0.004705994855612516,0.9997841715812683,0.0,0.0,0.0,7.404845714569092,-3.5973782539367676,5.482594966888428,-1340.291748046875,0
475.7380000000012,-0.0031251939944922924,-0.006712866947054863,-0.00013711828796658665,0.0,0.0,0.0,0.0,0.0006888787029311061,-0.0004037997859995812,0.002520553069189191,0.999235212802887,0.0,0.0,0.0,7.397239685058594,-3.591080665588379,5.471246242523193,-1338.9150390625,0
485.6680000000015,-0.0031270182225853205,-0.006646228954195976,-9.172510908683762e-05,0.0,0.0,0.0,0.0,0.0002333732700208202,0.00043477999861352146,0.0003248565481044352,0.9998544454574585,0.0,0.0,0.0,7.399406433105469,-3.5780491828918457,5.471160888671875,-1339.307373046875,0
495.57100000000173,-0.00313118495978415,-0.006624048110097647,-0.00010830133396666497,0.0,0.0,0.0,0.0,0.0006986260414123535,0.004979999270290136,-0.0016411242540925741,1.0011249780654907,0.0,0.0,0.0,7.3988752365112305,-3.5742640495300293,5.47438907623291,-1339.2110595703125,0
505.4850000000006,-0.003117878222838044,-0.006592833437025547,-7.323441241169348e-05,0.0,0.0,0.0,0.0,-0.0046659414656460285,-0.0018423129804432392,-0.0027515473775565624,0.9988921284675598,0.0,0.0,0.0,7.401491165161133,-3.570384979248047,5.458215713500977,-1339.6845703125,0
515.384,-0.0031371216755360365,-0.0066329920664429665,-0.00010037764877779409,0.0,0.0,0.0,0.0,0.0008023976115509868,0.00572569714859128,-0.0008951664203777909,0.9985839128494263,0.0,0.0,0.0,7.407098770141602,-3.5722546577453613,5.450656890869141,-1340.6995849609375,0
525.3090000000011,-0.0031170323491096497,-0.006612902972847223,-7.006989471847191e-05,0.0,0.0,0.0,0.0,-0.001816019881516695,-0.00011303862265776843,-0.0012597845634445548,1.0002248287200928,0.0,0.0,0.0,7.410384178161621,-3.5647358894348145,5.444388389587402,-1341.294189453125,0
535.2090000000007,-0.003135258797556162,-0.006640051491558552,-9.504765330348164e-05,0.0,0.0,0.0,0.0,-0.0016648112796247005,-0.0009955642744898796,0.00041312017128802836,0.9993760585784912,0.0,0.0,0.0,7.415984153747559,-3.5621705055236816,5.430404186248779,-1342.307861328125,0
545.130000000001,-0.0030765219125896692,-0.006666946224868298,-7.279556302819401e-05,0.0,0.0,0.0,0.0,-0.0017903606640174985,-0.0031801031436771154,0.002483522053807974,0.9994214773178101,0.0,0.0,0.0,7.423831462860107,-3.560971260070801,5.444230079650879,-1343.728271484375,0
555.0300000000007,-0.00309961661696434,-0.006695884745568037,-9.518965089228004e-05,0.0,0.0,0.0,0.0,0.0039004781283438206,-0.0006809582118876278,0.0015737744979560375,1.001070499420166,0.0,0.0,0.0,7.429011821746826,-3.5594799518585205,5.4421539306640625,-1344.6658935546875,0
564.9480000000003,-0.003058305475860834,-0.006705669220536947,-7.095950422808528e-05,0.0,0.0,0.0,0.0,0.0003427517367526889,-0.0022386210039258003,-0.00015279579383786768,1.0015153884887695,0.0,0.0,0.0,7.430816173553467,-3.565589189529419,5.445986747741699,-1344.9925537109375,0
574.8550000000014,-0.003076188499107957,-0.0067240153439342976,-9.723480616230518e-05,0.0,0.0,0.0,0.0,-0.0007353357505053282,0.006136807147413492,-0.0014315728330984712,1.0013421773910522,0.0,0.0,0.0,7.438889980316162,-3.567413568496704,5.443097114562988,-1346.453857421875,0
584.777,-0.003054301254451275,-0.006721177138388157,-7.54791108192876e-05,0.0,0.0,0.0,0.0,-0.0001433266297681257,0.002406901214271784,0.00023566759773530066,0.999157726764679,0.0,0.0,0.0,7.44409704208374,-3.5676071643829346,5.430911064147949,-1347.3963623046875,0
594.6760000000013,-0.003030434250831604,-0.006670641712844372,-0.0001197836099890992,0.0,0.0,0.0,0.0,-0.004568261094391346,-0.0010270618367940187,0.002276853658258915,0.9991727471351624,0.0,0.0,0.0,7.4376068115234375,-3.5597996711730957,5.423069000244141,-1346.2215576171875,0
604.594000000001,-0.0030581702012568712,-0.006658896803855896,-0.00012032238737447187,0.0,0.0,0.0,0.0,0.0007409559329971671,-0.003329208819195628,0.001476474804803729,1.0010180473327637,0.0,0.0,0.0,7.439012050628662,-3.5557303428649902,5.414806842803955,-1346.4759521484375,0
614.4990000000016,-0.0030405353754758835,-0.006620837841182947,-0.00017326648230664432,0.0,0.0,0.0,0.0,0.0017853400204330683,-0.0006108616362325847,0.0011457806685939431,1.0001226663589478,0.0,0.0,0.0,7.446374893188477,-3.5496084690093994,5.425528526306152,-1347.80859375,0
624.4200000000001,-0.0030572516843676567,-0.00659030070528388,-0.00016309547936543822,0.0,0.0,0.0,0.0,0.0006131030386313796,0.0017637581331655383,-0.0003021594020538032,1.00119948387146,0.0,0.0,0.0,7.4475603103637695,-3.5476949214935303,5.430131912231445,-1348.023193359375,0
634.3220000000001,-0.00303057418204844,-0.0065664928406476974,-0.00024539700825698674,0.0,0.0,0.0,0.0,-0.0013660143595188856,0.0003759601677302271,-0.0009612319408915937,1.0005488395690918,0.0,0.0,0.0,7.441135406494141,-3.544574022293091,5.42669677734375,-1346.8603515625,0
644.2420000000002,-0.003062162082642317,-0.006551670841872692,-0.00025213381741195917,0.0,0.0,0.0,0.0,0.0016193690244108438,0.0020331554114818573,-0.0017438394716009498,1.0001590251922607,0.0,0.0,0.0,7.43328857421875,-3.535388469696045,5.417212009429932,-1345.4400634765625,0
654.1470000000008,-0.0030872379429638386,-0.006573525723069906,-0.00028405117336660624,0.0,0.0,0.0,0.0,-0.00015187948883976787,0.0010508201085031033,-0.0009550003451295197,1.00055992603302,0.0,0.0,0.0,7.439250469207764,-3.546196222305298,5.410441875457764,-1346.5191650390625,0
664.0700000000015,-0.003023630939424038,-0.006604413036257029,-0.0002556038089096546,0.0,0.0,0.0,0.0,0.0021316250786185265,-0.004156369715929031,0.0038453913293778896,0.9983706474304199,0.0,0.0,0.0,7.446308612823486,-3.5562307834625244,5.424586772918701,-1347.796630859375,0
673.978000000001,-0.003054088680073619,-0.006610303185880184,-0.00027066352777183056,0.0,0.0,0.0,0.0,-0.00020581878197845072,0.0008594035170972347,0.0026608563493937254,1.0008251667022705,0.0,0.0,0.0,7.439738750457764,-3.557293653488159,5.424641132354736,-1346.6075439453125,0
683.8990000000013,-0.003083895891904831,-0.006596572231501341,-0.00027746628620661795,0.0,0.0,0.0,0.0,-0.002461340744048357,-0.003289003623649478,0.0027267239056527615,1.0000263452529907,0.0,0.0,0.0,7.432902812957764,-3.5493626594543457,5.40924596786499,-1345.3702392578125,0
693.7920000000013,-0.0031060839537531137,-0.006607318762689829,-0.000310617673676461,0.0,0.0,0.0,0.0,-0.003037508111447096,0.004041864536702633,-0.0006914649857208133,1.000471830368042,0.0,0.0,0.0,7.425725936889648,-3.544785976409912,5.407540798187256,-1344.0711669921875,0
703.7120000000014,-0.0030788786243647337,-0.006563006900250912,-0.0002583712921477854,0.0,0.0,0.0,0.0,-0.001780197606422007,-0.0026108070742338896,-0.003487787675112486,0.9997115731239319,0.0,0.0,0.0,7.424724102020264,-3.537675619125366,5.416476726531982,-1343.889892578125,0
713.616,-0.0031611931044608355,-0.0066270469687879086,-0.0002490412734914571,0.0,0.0,0.0,0.0,0.0016875204164534807,-1.0337056664866395e-05,-0.0020453580655157566,1.0010216236114502,0.0,0.0,0.0,7.43159818649292,-3.5389809608459473,5.406164169311523,-1345.134033203125,0
723.5330000000013,-0.0031671756878495216,-0.006526014767587185,-0.00018986254872288555,0.0,0.0,0.0,0.0,-0.0025945010129362345,6.266116542974487e-05,-0.001627981080673635,0.9987490177154541,0.0,0.0,0.0,7.430499076843262,-3.525418281555176,5.408032417297363,-1344.9351806640625,0
733.4400000000005,-0.003186187706887722,-0.006530304439365864,-0.00022382270253729075,0.0,0.0,0.0,0.0,0.005067832767963409,0.0005747444229200482,-0.002964775310829282,0.9981940984725952,0.0,0.0,0.0,7.42363166809082,-3.5137178897857666,5.40056037902832,-1343.692138671875,0
743.3610000000008,-0.003118227468803525,-0.006516803987324238,-0.00017949406174011528,0.0,0.0,0.0,0.0,0.0021839693654328585,-0.0005645342753268778,-0.000328528432874009,0.9993748664855957,0.0,0.0,0.0,7.424423694610596,-3.526928424835205,5.405289173126221,-1343.83544921875,0
753.2610000000004,-0.0031864631455391645,-0.0065919179469347,-0.00018353054474573582,0.0,0.0,0.0,0.0,-0.003070480190217495,-0.0003341463452670723,-0.001507340813986957,0.9986069798469543,0.0,0.0,0.0,7.4294352531433105,-3.542142629623413,5.396632194519043,-1344.74267578125,0
763.1840000000011,-0.003155159531161189,-0.006577023770660162,-0.00015163214993663132,0.0,0.0,0.0,0.0,0.0006719572702422738,-0.0024437978863716125,0.00036298122722655535,1.0002254247665405,0.0,0.0,0.0,7.4344258308410645,-3.5357248783111572,5.40370512008667,-1345.6458740234375,0
773.0900000000001,-0.0031956546008586884,-0.00658572418615222,-0.00016453987336717546,0.0,0.0,0.0,0.0,-0.0017795407911762595,0.0014705522917211056,-0.00248661357909441,0.998672366142273,0.0,0.0,0.0,7.433547019958496,-3.5362942218780518,5.405329704284668,-1345.4869384765625,0
783.0030000000006,-0.003140365006402135,-0.006601147819310427,-0.00013636403309646994,0.0,0.0,0.0,0.0,0.002450812142342329,-0.0012555578723549843,0.004110272973775864,1.000657320022583,0.0,0.0,0.0,7.425193786621094,-3.526477813720703,5.38878059387207,-1343.974853515625,0
792.9110000000001,-0.003191376570612192,-0.00664199935272336,-0.00015485088806599379,0.0,0.0,0.0,0.0,-0.0022577117197215557,-0.004247039090842009,-0.000930539274122566,0.9992759227752686,0.0,0.0,0.0,7.432947635650635,-3.5421154499053955,5.377928733825684,-1345.3782958984375,0
802.8260000000009,-0.003236318938434124,-0.006630245130509138,-0.00015405763406306505,0.0,0.0,0.0,0.0,-0.00018528426880948246,0.003383549628779292,-0.004388806410133839,0.9981356859207153,0.0,0.0,0.0,7.425502300262451,-3.5369162559509277,5.387516498565674,-1344.0306396484375,0
812.7290000000012,-0.0032257060520350933,-0.006577838212251663,-0.00021163788915146142,0.0,0.0,0.0,0.0,-0.0006896049599163234,-0.00023366988170892,3.0921687539375853e-06,0.9984151124954224,0.0,0.0,0.0,7.417547702789307,-3.5315399169921875,5.382513046264648,-1342.5909423828125,0
822.6530000000002,-0.003074047854170203,-0.006630040239542723,-0.0001285122416447848,0.0,0.0,0.0,0.0,-0.0012427307665348053,0.002571716671809554,-0.0017262316541746259,1.0003933906555176,0.0,0.0,0.0,7.418188571929932,-3.5459866523742676,5.4172210693359375,-1342.7069091796875,0
832.5580000000009,-0.003068884601816535,-0.006600437220185995,-0.00018038820417132229,0.0,0.0,0.0,0.0,0.00041358949965797365,-0.0003603135410230607,0.001311911386437714,1.0002527236938477,0.0,0.0,0.0,7.42471981048584,-3.5396804809570312,5.412052631378174,-1343.8890380859375,0
842.4740000000002,-0.003079304937273264,-0.006604472175240517,-0.0001829018583521247,0.0,0.0,0.0,0.0,-0.002975638723000884,0.000922231818549335,0.00037726707523688674,1.001786708831787,0.0,0.0,0.0,7.428800106048584,-3.5468637943267822,5.409509658813477,-1344.6275634765625,0
852.375,-0.0030956403352320194,-0.006589945871382952,-0.00021565944189205766,0.0,0.0,0.0,0.0,-0.002063545398414135,-0.003810308873653412,-0.00012549891835078597,1.0002743005752563,0.0,0.0,0.0,7.420766830444336,-3.5423390865325928,5.400286674499512,-1343.1737060546875,0
862.2950000000001,-0.0031328045297414064,-0.00657710712403059,-0.0002188877551816404,0.0,0.0,0.0,0.0,-0.0008067739545367658,-0.0017708040541037917,0.003035397967323661,0.9993360042572021,0.0,0.0,0.0,7.413241863250732,-3.5375044345855713,5.401037216186523,-1341.8115234375,0
872.2050000000017,-0.00318575045093894,-0.006635476369410753,-0.00023343414068222046,0.0,0.0,0.0,0.0,-0.0024044958408921957,0.003393975319340825,-0.00036863298737443984,0.9977971315383911,0.0,0.0,0.0,7.419699668884277,-3.546950340270996,5.3885040283203125,-1342.98046875,0
882.1200000000008,-0.0030820814426988363,-0.00670235138386488,-0.00018205077503807843,0.0,0.0,0.0,0.0,-0.0020871232263743877,0.001407549250870943,0.00035998891689814627,0.9988027215003967,0.0,0.0,0.0,7.421789646148682,-3.5623185634613037,5.406044006347656,-1343.3587646484375,0
892.023000000001,-0.0031093701254576445,-0.006676689255982637,-0.00019131007138639688,0.0,0.0,0.0,0.0,0.0019978454802185297,0.0007799726445227861,-0.0042205373756587505,0.9992169141769409,0.0,0.0,0.0,7.421182632446289,-3.5528056621551514,5.398615837097168,-1343.2489013671875,0
901.9430000000011,-0.003149511758238077,-0.006667662877589464,-0.00019487165263853967,0.0,0.0,0.0,0.0,0.0009223411907441914,0.0009840924758464098,0.0009755927021615207,1.0005879402160645,0.0,0.0,0.0,7.412917613983154,-3.5529072284698486,5.389659881591797,-1341.7528076171875,0
911.8460000000014,-0.0031819394789636135,-0.0066969930194318295,-0.00023398463963530958,0.0,0.0,0.0,0.0,-0.0006790457991883159,-0.0020258573349565268,-0.0006456326227635145,1.0020639896392822,0.0,0.0,0.0,7.4212470054626465,-3.5655462741851807,5.380950450897217,-1343.260498046875,0
921.7670000000016,-0.0032244743779301643,-0.006690334528684616,-0.00023910246090963483,0.0,0.0,0.0,0.0,0.002155088121071458,0.0037768343463540077,0.0004075553151778877,1.0004364252090454,0.0,0.0,0.0,7.413501262664795,-3.5590131282806396,5.380621910095215,-1341.8583984375,0
931.6660000000011,-0.0032223027665168047,-0.006649552378803492,-0.00030068791238591075,0.0,0.0,0.0,0.0,-0.00020315509755164385,0.0015571782132610679,-0.0008599068969488144,1.0010102987289429,0.0,0.0,0.0,7.406723976135254,-3.558131456375122,5.365325927734375,-1340.6317138671875,0
941.5960000000014,-0.003261878853663802,-0.006638091057538986,-0.0003082350012846291,0.0,0.0,0.0,0.0,0.0009904104517772794,0.0032119364477694035,0.0027097484562546015,0.9979928135871887,0.0,0.0,0.0,7.399137496948242,-3.555445671081543,5.351057529449463,-1339.258544921875,0
951.491,-0.003282502992078662,-0.006598163396120071,-0.00033573299879208207,0.0,0.0,0.0,0.0,0.0008559646084904671,-5.6794458942022175e-05,0.0032843765802681446,0.9987093210220337,0.0,0.0,0.0,7.404175758361816,-3.547905921936035,5.349195957183838,-1340.1705322265625,0
961.4150000000009,-0.003323957556858659,-0.006584571674466133,-0.00034630903974175453,0.0,0.0,0.0,0.0,8.095837256405503e-05,0.0021502645686268806,-0.003910366911441088,0.9991209506988525,0.0,0.0,0.0,7.397445201873779,-3.5463368892669678,5.345915794372559,-1338.9522705078125,0
971.3130000000001,-0.003353473264724016,-0.00660986453294754,-0.0003925515338778496,0.0,0.0,0.0,0.0,-0.000794760009739548,-0.001330090221017599,0.0032001566141843796,0.9992711544036865,0.0,0.0,0.0,7.402866840362549,-3.558184862136841,5.337391376495361,-1339.9337158203125,0
981.237000000001,-0.003396987449377775,-0.006600233726203442,-0.0004069577844347805,0.0,0.0,0.0,0.0,-0.001981234410777688,-0.005187461152672768,0.00316160568036139,0.9988732933998108,0.0,0.0,0.0,7.395262241363525,-3.5513570308685303,5.329981803894043,-1338.55712890625,0
991.139000000001,-0.00342547963373363,-0.0066168103367090225,-0.0004537258355412632,0.0,0.0,0.0,0.0,-0.0021954153198748827,0.006109523121267557,-0.00041333356057293713,0.998387336730957,0.0,0.0,0.0,7.40718936920166,-3.558495044708252,5.336860179901123,-1340.7159423828125,0
1001.0650000000005,-0.0034715174697339535,-0.006610406097024679,-0.00047271972289308906,0.0,0.0,0.0,0.0,0.00059945770772174,0.0008827957208268344,0.002097033429890871,0.9996586441993713,0.0,0.0,0.0,7.398635387420654,-3.549969434738159,5.32464075088501,-1339.167724609375,0
1010.9620000000014,-0.0034615611657500267,-0.00657257903367281,-0.0005407072021625936,0.0,0.0,0.0,0.0,-0.0018222446087747812,1.1424853255448397e-05,0.001542333047837019,0.9990350604057312,0.0,0.0,0.0,7.398547649383545,-3.5339577198028564,5.352878093719482,-1339.1517333984375,0
1020.8810000000012,-0.0035052336752414703,-0.006559567991644144,-0.0005654232809320092,0.0,0.0,0.0,0.0,-0.00045132747618481517,-0.0011175364488735795,0.0004985558334738016,0.9993010759353638,0.0,0.0,0.0,7.390260696411133,-3.5248477458953857,5.345808029174805,-1337.65185546875,0
1030.782000000001,-0.003503211308270693,-0.006528459023684263,-0.0006297360523603857,0.0,0.0,0.0,0.0,-0.0012966541107743979,-0.0008038557134568691,0.0015986483776941895,0.998879075050354,0.0,0.0,0.0,7.399999141693115,-3.5124731063842773,5.368020057678223,-1339.41455078125,0
1040.7160000000003,-0.003546475898474455,-0.006510213017463684,-0.0006594918668270111,0.0,0.0,0.0,0.0,-0.0005663688061758876,-5.372038867790252e-05,-0.001223566709086299,0.9986284971237183,0.0,0.0,0.0,7.393444538116455,-3.500274419784546,5.364462852478027,-1338.228271484375,0
1050.6090000000004,-0.003559292294085026,-0.006491401698440313,-0.0007209244067780674,0.0,0.0,0.0,0.0,0.0022785288747400045,0.002083476400002837,-0.0024213630240410566,1.0005310773849487,0.0,0.0,0.0,7.393506050109863,-3.4941866397857666,5.376124382019043,-1338.2393798828125,0
1060.5350000000017,-0.0036041848361492157,-0.0064719184301793575,-0.0007546539418399334,0.0,0.0,0.0,0.0,-0.0005366342957131565,-0.0014209034852683544,-0.0012449842179194093,0.999833881855011,0.0,0.0,0.0,7.385972499847412,-3.4939661026000977,5.368993759155273,-1336.875732421875,0
1070.4320000000007,-0.0036594290286302567,-0.006491275038570166,-0.0008004346746020019,0.0,0.0,0.0,0.0,0.0037921962793916464,0.0036941866856068373,0.001323642791248858,0.9996912479400635,0.0,0.0,0.0,7.397169589996338,-3.5111002922058105,5.357070446014404,-1338.9024658203125,0
1080.357,-0.0037110012490302324,-0.006472194567322731,-0.0008347008842974901,0.0,0.0,0.0,0.0,0.0004175797803327441,0.0030422036070376635,0.0003854068636428565,1.00027334690094,0.0,0.0,0.0,7.389734745025635,-3.5128462314605713,5.340845584869385,-1337.556640625,0
1090.2530000000006,-0.0037648205179721117,-0.006451630499213934,-0.0008690493414178491,0.0,0.0,0.0,0.0,-0.0001514987088739872,0.006167030893266201,-0.0008836551569402218,0.9998028874397278,0.0,0.0,0.0,7.3826470375061035,-3.512369394302368,5.328210353851318,-1336.2738037109375,0
1100.1620000000003,-0.0038194525986909866,-0.0064308359287679195,-0.0009032597299665213,0.0,0.0,0.0,0.0,0.0034180914517492056,-0.005198840517550707,-0.00027335769846104085,0.9992554783821106,0.0,0.0,0.0,7.375021934509277,-3.509455919265747,5.311251640319824,-1334.8936767578125,0
1110.0740000000005,-0.0038755761925131083,-0.006410273257642984,-0.0009377577225677669,0.0,0.0,0.0,0.0,0.000931583228521049,0.001725538750179112,0.002403321908786893,0.9986060857772827,0.0,0.0,0.0,7.367756366729736,-3.5125598907470703,5.3135986328125,-1333.57861328125,0
1119.9970000000012,-0.0039345575496554375,-0.006389795336872339,-0.0009730170131660998,0.0,0.0,0.0,0.0,-0.0020132935605943203,-0.0011431857710704207,-0.0026651902589946985,0.9995790719985962,0.0,0.0,0.0,7.3616485595703125,-3.5105667114257812,5.304723262786865,-1332.47314453125,0
1129.9010000000017,-0.003996033221483231,-0.006368567235767841,-0.0010090292198583484,0.0,0.0,0.0,0.0,0.004481886979192495,0.0024323861580342054,0.0005932932253926992,0.9993841052055359,0.0,0.0,0.0,7.354310035705566,-3.5041301250457764,5.299492835998535,-1331.1446533203125,0
1139.8270000000011,-0.004059415310621262,-0.006345327477902174,-0.0010456210002303123,0.0,0.0,0.0,0.0,6.22513543930836e-05,0.001625856850296259,-0.0031752486247569323,0.9981594681739807,0.0,0.0,0.0,7.347947120666504,-3.5087671279907227,5.289860725402832,-1329.992919921875,0
1149.7270000000008,-0.0041255950927734375,-0.0063199326395988464,-0.001083196490071714,0.0,0.0,0.0,0.0,0.000886357796844095,0.0013470398262143135,0.0027319209184497595,0.9986638426780701,0.0,0.0,0.0,7.339620113372803,-3.5045828819274902,5.279871940612793,-1328.48583984375,0
1159.643,-0.003155869198963046,-0.006670179311186075,-0.00020962966664228588,0.0,0.0,0.0,0.0,0.0007810499519109726,-0.006963401101529598,0.005462141707539558,0.9999866485595703,0.0,0.0,0.0,7.3454718589782715,-3.5781619548797607,5.422415733337402,-1329.5450439453125,0
1169.5480000000007,-0.0031867683865129948,-0.0066587841138243675,-0.000218555549508892,0.0,0.0,0.0,0.0,0.0007653718930669129,0.001214771531522274,0.0006679339567199349,0.998450756072998,0.0,0.0,0.0,7.338907241821289,-3.5795462131500244,5.426494121551514,-1328.3568115234375,0
1179.4670000000006,-0.0031272440683096647,-0.006666374392807484,-0.0001854975998867303,0.0,0.0,0.0,0.0,-0.0003516721772029996,0.0032464719843119383,-0.0014356074389070272,0.9979785680770874,0.0,0.0,0.0,7.353904724121094,-3.5848419666290283,5.430552005767822,-1331.0712890625,0
1189.375,-0.0031602110248059034,-0.006654786411672831,-0.00019474825239740312,0.0,0.0,0.0,0.0,0.0009988064412027597,-0.0018149284878745675,-0.003084023017436266,0.9984299540519714,0.0,0.0,0.0,7.345421314239502,-3.5801265239715576,5.416991710662842,-1329.5357666015625,0
1199.2880000000005,-0.0031471929978579283,-0.006614401005208492,-0.0001630810584174469,0.0,0.0,0.0,0.0,0.0002596476406324655,-0.001888041035272181,0.004576087463647127,0.9990318417549133,0.0,0.0,0.0,7.3581719398498535,-3.566871166229248,5.422435760498047,-1331.84375,0
1209.1980000000003,-0.003182915272191167,-0.006598447449505329,-0.0001723336026770994,0.0,0.0,0.0,0.0,-0.0019343500025570393,-0.0009788221213966608,0.0034046985674649477,0.99920254945755,0.0,0.0,0.0,7.352446556091309,-3.562847852706909,5.422543048858643,-1330.807373046875,0
1219.112000000001,-0.003107449971139431,-0.006588258780539036,-0.00017464131815358996,0.0,0.0,0.0,0.0,-0.0014862496173009276,0.00019720390264410526,0.0008287082891911268,0.9989126920700073,0.0,0.0,0.0,7.369576454162598,-3.5646109580993652,5.429741859436035,-1333.907958984375,0
1229.023000000001,-0.003142319153994322,-0.006573373917490244,-0.0001843381905928254,0.0,0.0,0.0,0.0,-0.0008495678193867207,0.0008033312624320388,-0.00030461448477581143,1.0010786056518555,0.0,0.0,0.0,7.362522602081299,-3.5602121353149414,5.424654006958008,-1332.63134765625,0
1238.933000000001,-0.003086894052103162,-0.006571188103407621,-0.00020076923829037696,0.0,0.0,0.0,0.0,-0.0011400695657357574,0.0020172237418591976,0.002297973493114114,1.003633737564087,0.0,0.0,0.0,7.370822906494141,-3.5651137828826904,5.432018756866455,-1334.1336669921875,0
1248.8410000000003,-0.003121171146631241,-0.006556098349392414,-0.00020830043649766594,0.0,0.0,0.0,0.0,0.0014893659390509129,-0.0032968695741146803,-0.0002020735410042107,0.9995688796043396,0.0,0.0,0.0,7.363038063049316,-3.559831142425537,5.416106700897217,-1332.724609375,0
1258.7580000000016,-0.0030599243473261595,-0.0065168580040335655,-0.00018878193804994226,0.0,0.0,0.0,0.0,0.00016866432270035148,-0.0037418848369270563,0.0012087627546861768,0.9977121353149414,0.0,0.0,0.0,7.365991592407227,-3.5551161766052246,5.439193248748779,-1333.2591552734375,0
1268.6680000000015,-0.003093800973147154,-0.006499092560261488,-0.00019268220057711005,0.0,0.0,0.0,0.0,0.002019267063587904,-0.0013456845190376043,-0.0003708549775183201,0.9994672536849976,0.0,0.0,0.0,7.359046936035156,-3.5491297245025635,5.442137718200684,-1332.002197265625,0
1278.576000000001,-0.003103580791503191,-0.006489316001534462,-0.00020491973555181175,0.0,0.0,0.0,0.0,0.004350006114691496,0.004408661276102066,0.002661247970536351,1.001084566116333,0.0,0.0,0.0,7.373177528381348,-3.558950424194336,5.44759464263916,-1334.559814453125,0
1288.487000000001,-0.003140251850709319,-0.006472076755017042,-0.00021014951926190406,0.0,0.0,0.0,0.0,0.0034680417738854885,0.00010308958007954061,-0.002535368548706174,0.9998940825462341,0.0,0.0,0.0,7.366298198699951,-3.5614845752716064,5.431169509887695,-1333.3145751953125,0
1298.3990000000013,-0.0031146991532295942,-0.006471077911555767,-0.0002213317493442446,0.0,0.0,0.0,0.0,0.00106047373265028,-0.002051958814263344,-0.003008961444720626,0.9978387355804443,0.0,0.0,0.0,7.367011547088623,-3.57266902923584,5.447448253631592,-1333.4437255859375,0
1308.3140000000003,-0.003153655445203185,-0.006455258931964636,-0.0002262408088427037,0.0,0.0,0.0,0.0,-0.0003913676191587001,0.00012953183613717556,-0.0005921981646679342,0.9987450242042542,0.0,0.0,0.0,7.3594651222229,-3.5682694911956787,5.453875541687012,-1332.077880859375,0
1318.219000000001,-0.0031303404830396175,-0.006460913922637701,-0.00023406284162774682,0.0,0.0,0.0,0.0,-0.00016102399968076497,0.002565602771937847,0.0009289575391449034,1.0022673606872559,0.0,0.0,0.0,7.361896991729736,-3.5815210342407227,5.47084379196167,-1332.51806640625,0
1328.1310000000012,-0.0031864510383456945,-0.0064844670705497265,-0.000248803902650252,0.0,0.0,0.0,0.0,-0.0024572957772761583,-0.0025318339467048645,0.0013808744261041284,1.000580072402954,0.0,0.0,0.0,7.364368438720703,-3.5904126167297363,5.460603713989258,-1332.96533203125,0
1338.0430000000015,-0.0031225106213241816,-0.006506037432700396,-0.00020419769862201065,0.0,0.0,0.0,0.0,9.306088031735271e-06,-0.0001908803533297032,0.00013564313121605664,1.000086784362793,0.0,0.0,0.0,7.3654255867004395,-3.5922985076904297,5.471942901611328,-1333.15673828125,0
1347.9630000000016,-0.0031585765536874533,-0.00651319557800889,-0.00024424033472314477,0.0,0.0,0.0,0.0,-0.0011186636984348297,-0.002540166489779949,0.0028475236613303423,0.9997576475143433,0.0,0.0,0.0,7.36547327041626,-3.5940101146698,5.464138507843018,-1333.1654052734375,0
1357.8640000000014,-0.003069051308557391,-0.006570430472493172,-0.00020968433818779886,0.0,0.0,0.0,0.0,0.003256857628002763,0.00043392868246883154,-0.002600270789116621,0.9992217421531677,0.0,0.0,0.0,7.378955364227295,-3.6032142639160156,5.477077960968018,-1335.6055908203125,0
1367.7830000000013,-0.003069912316277623,-0.006561949849128723,-0.00029703736072406173,0.0,0.0,0.0,0.0,-0.0031151468865573406,0.005894949194043875,-0.0002525747404433787,1.0003830194473267,0.0,0.0,0.0,7.38875150680542,-3.6099135875701904,5.478993892669678,-1337.378662109375,0
1377.684000000001,-0.0030911352951079607,-0.006536026950925589,-0.0002875762293115258,0.0,0.0,0.0,0.0,0.0005215890123508871,0.004803189542144537,-0.0017146164318546653,0.998150646686554,0.0,0.0,0.0,7.39342737197876,-3.6015422344207764,5.4600138664245605,-1338.22509765625,0
1387.6090000000004,-0.003147016279399395,-0.006565142422914505,-0.0003040806914214045,0.0,0.0,0.0,0.0,-0.002402404323220253,0.003966541029512882,-0.001279075164347887,1.0017497539520264,0.0,0.0,0.0,7.392576217651367,-3.602365732192993,5.442690849304199,-1338.0709228515625,0
1397.5070000000014,-0.00315056461840868,-0.006551383528858423,-0.00029186398023739457,0.0,0.0,0.0,0.0,0.003726659342646599,-0.0011319414479658008,0.0016309494385495782,0.9999618530273438,0.0,0.0,0.0,7.402169227600098,-3.5918383598327637,5.435087203979492,-1339.8072509765625,0
1407.4350000000013,-0.003194960532709956,-0.00655985064804554,-0.00031365189352072775,0.0,0.0,0.0,0.0,-0.0023269327357411385,0.00449685612693429,-0.0015236794715747237,0.9997822046279907,0.0,0.0,0.0,7.401861190795898,-3.5920612812042236,5.432441711425781,-1339.7515869140625,0
1417.3330000000005,-0.0032439560163766146,-0.00655154325067997,-0.00032046993146650493,0.0,0.0,0.0,0.0,0.004400627687573433,-0.0014673558762297034,0.002397415926679969,1.0011030435562134,0.0,0.0,0.0,7.393947601318359,-3.5863125324249268,5.41367769241333,-1338.3192138671875,0
1427.2510000000002,-0.003299298230558634,-0.00659547233954072,-0.00034434080589562654,0.0,0.0,0.0,0.0,-0.0015486605698242784,-0.004668883979320526,0.001222413731738925,1.0001314878463745,0.0,0.0,0.0,7.396407127380371,-3.595200538635254,5.408483505249023,-1338.764404296875,0
1437.1550000000007,-0.003119894303381443,-0.006694255396723747,-0.0002582493470981717,0.0,0.0,0.0,0.0,0.0001336780987912789,-0.001741929561831057,0.0010179567616432905,1.0020140409469604,0.0,0.0,0.0,7.401909828186035,-3.611271381378174,5.4589619636535645,-1339.760498046875,0
1447.0800000000017,-0.003137298859655857,-0.006652036681771278,-0.00028345242026261985,0.0,0.0,0.0,0.0,-0.0003312672197353095,0.004091540351510048,0.000576250022277236,0.9998140931129456,0.0,0.0,0.0,7.3940277099609375,-3.603445529937744,5.455239772796631,-1338.3336181640625,0
1456.9810000000016,-0.003183293156325817,-0.006642898544669151,-0.0002842049871105701,0.0,0.0,0.0,0.0,-0.00044919768697582185,-0.0014281761832535267,0.003687737975269556,1.0018950700759888,0.0,0.0,0.0,7.386206150054932,-3.596742630004883,5.443325519561768,-1336.91796875,0
1466.9010000000017,-0.00320248631760478,-0.006625656504184008,-0.0003236551710870117,0.0,0.0,0.0,0.0,-0.00010581536480458453,-0.0022991951555013657,-0.00019973018788732588,1.001291275024414,0.0,0.0,0.0,7.386083126068115,-3.5933175086975098,5.445221424102783,-1336.895751953125,0
1476.800000000001,-0.003076331689953804,-0.006633596494793892,-0.00021184141223784536,0.0,0.0,0.0,0.0,-0.0005098847323097289,0.004647654481232166,0.0017186630284413695,1.000270962715149,0.0,0.0,0.0,7.390500068664551,-3.5996809005737305,5.481385231018066,-1337.6951904296875,0
1486.7210000000014,-0.0031463832128793,-0.006672442425042391,-0.0001902532676467672,0.0,0.0,0.0,0.0,0.00034649422741495073,-0.0011618678690865636,0.0026276789139956236,0.9972479939460754,0.0,0.0,0.0,7.384026527404785,-3.596492290496826,5.4645280838012695,-1336.5235595703125,0
1496.6220000000012,-0.0030675570014864206,-0.0066549633629620075,-0.00011329290282446891,0.0,0.0,0.0,0.0,0.0003710412420332432,0.0027301739901304245,-0.0034344010055065155,0.9990785717964172,0.0,0.0,0.0,7.388265609741211,-3.5945982933044434,5.48297119140625,-1337.290771484375,0
1506.549000000001,-0.0030764357652515173,-0.006632560398429632,-0.00014230891247279942,0.0,0.0,0.0,0.0,0.0018463574815541506,0.00341554032638669,-0.00021723355166614056,0.9990252256393433,0.0,0.0,0.0,7.380129337310791,-3.590564012527466,5.473082542419434,-1335.818115234375,0
1516.4480000000003,-0.00309160677716136,-0.006595240905880928,-0.00010981114610331133,0.0,0.0,0.0,0.0,0.0034784928429871798,0.002052436815574765,0.0009826323948800564,0.9999896287918091,0.0,0.0,0.0,7.388860702514648,-3.582301378250122,5.46354866027832,-1337.3984375,0
1526.3670000000002,-0.003107798518612981,-0.006586570292711258,-0.00014141916471999139,0.0,0.0,0.0,0.0,0.0037587066181004047,0.003616809146478772,-0.0019082754151895642,1.0012493133544922,0.0,0.0,0.0,7.3890604972839355,-3.583796262741089,5.457326889038086,-1337.4345703125,0
1536.2720000000008,-0.0031409282237291336,-0.006578064523637295,-0.00013251132622826844,0.0,0.0,0.0,0.0,-0.003879424650222063,-0.003050610888749361,0.0006192554137669504,1.0021761655807495,0.0,0.0,0.0,7.395359516143799,-3.5880534648895264,5.446221351623535,-1338.5748291015625,0
1546.1960000000017,-0.0032004297245293856,-0.006634608376771212,-0.00013981244410388172,0.0,0.0,0.0,0.0,-0.0011732263956218958,0.0013386247446760535,-0.00012872704246547073,0.9989508390426636,0.0,0.0,0.0,7.405513763427734,-3.587465286254883,5.439451217651367,-1340.4127197265625,0
1556.0930000000008,-0.0031838484574109316,-0.006632890552282333,-0.00010808234947035089,0.0,0.0,0.0,0.0,0.0029886290431022644,0.0007910129497759044,-0.006706969812512398,1.0015630722045898,0.0,0.0,0.0,7.413081169128418,-3.5858240127563477,5.433815002441406,-1341.782470703125,0
1566.0110000000004,-0.0032184221781790257,-0.006657226476818323,-0.00013543908426072448,0.0,0.0,0.0,0.0,-0.0015128313098102808,0.004005910363048315,0.002668655477464199,1.0005548000335693,0.0,0.0,0.0,7.418266296386719,-3.5988926887512207,5.424657344818115,-1342.7210693359375,0
1575.916000000001,-0.003183958353474736,-0.006627429276704788,-7.896345050539821e-05,0.0,0.0,0.0,0.0,-0.001256739953532815,-0.00201640697196126,-0.0022868283558636904,0.9997523427009583,0.0,0.0,0.0,7.418698310852051,-3.592329502105713,5.421071529388428,-1342.7991943359375,0
1585.8390000000018,-0.0032088651787489653,-0.006648913491517305,-0.00011665419151540846,0.0,0.0,0.0,0.0,0.001745718065649271,0.0015283302636817098,-0.00046597025357186794,0.9985969066619873,0.0,0.0,0.0,7.424491882324219,-3.591531753540039,5.420599937438965,-1343.847900390625,0
1595.7450000000008,-0.00318352272734046,-0.006608955562114716,-6.08194968663156e-05,0.0,0.0,0.0,0.0,0.0008732526330277324,0.0034350603818893433,0.0008789851563051343,1.0012273788452148,0.0,0.0,0.0,7.426287651062012,-3.5871431827545166,5.417276382446289,-1344.1728515625,0
1605.657000000001,-0.0032141576521098614,-0.006633117329329252,-9.576336742611602e-05,0.0,0.0,0.0,0.0,-0.0006947270012460649,0.0028864345513284206,0.0030360515229403973,1.001698613166809,0.0,0.0,0.0,7.429806709289551,-3.591003179550171,5.4124345779418945,-1344.809814453125,0
1615.5690000000013,-0.0031697815284132957,-0.006628285627812147,-4.6669665607623756e-05,0.0,0.0,0.0,0.0,-0.002465649740770459,-0.002686833729967475,-8.974269439931959e-05,0.9999536275863647,0.0,0.0,0.0,7.431053161621094,-3.590585231781006,5.4163007736206055,-1345.035400390625,0
1625.482,-0.0031948641408234835,-0.006647392176091671,-8.099786646198481e-05,0.0,0.0,0.0,0.0,-0.002469777362421155,0.003446018323302269,-0.0015309547306969762,0.9999052286148071,0.0,0.0,0.0,7.432527542114258,-3.589282274246216,5.4184417724609375,-1345.3023681640625,0
1635.3910000000014,-0.003140664892271161,-0.006674457341432571,-4.299978900235146e-05,0.0,0.0,0.0,0.0,0.0021958888974040747,-0.0009030581568367779,-0.0017838763305917382,1.0011498928070068,0.0,0.0,0.0,7.433239936828613,-3.588108777999878,5.419908046722412,-1345.4312744140625,0
1645.3070000000007,-0.0031222389079630375,-0.006617280654609203,-9.473751561017707e-05,0.0,0.0,0.0,0.0,-0.0005384947289712727,-0.0011995438253507018,-0.0026836323086172342,0.9991816282272339,0.0,0.0,0.0,7.425924777984619,-3.585818290710449,5.410302639007568,-1344.107177734375,0
1655.2220000000016,-0.0031730488408356905,-0.006610418204218149,-8.581829752074555e-05,0.0,0.0,0.0,0.0,0.0003588235122151673,0.0010375672718510032,0.002428669249638915,1.0011773109436035,0.0,0.0,0.0,7.41798210144043,-3.5792324542999268,5.40427827835083,-1342.669677734375,0
1665.1360000000004,-0.003173263743519783,-0.006603572517633438,-0.00014053918130230159,0.0,0.0,0.0,0.0,0.002160070464015007,-0.005800032522529364,0.00022914686996955425,1.0017707347869873,0.0,0.0,0.0,7.410754680633545,-3.5775485038757324,5.393813610076904,-1341.3612060546875,0
1675.050000000001,-0.003218158148229122,-0.006595694925636053,-0.00013555701298173517,0.0,0.0,0.0,0.0,-0.001803012564778328,-0.005333117209374905,0.0009037766722030938,1.0012335777282715,0.0,0.0,0.0,7.4030256271362305,-3.578902006149292,5.393253803253174,-1339.9622802734375,0
1684.9490000000005,-0.0032039883080869913,-0.006570793222635984,-0.00021227181423455477,0.0,0.0,0.0,0.0,-0.0011864671250805259,0.004625069908797741,-0.0011781682260334492,1.0023610591888428,0.0,0.0,0.0,7.41217565536499,-3.567495822906494,5.424257755279541,-1341.618408203125,0
1694.8540000000012,-0.0031582508236169815,-0.006555384024977684,-0.00013235815276857466,0.0,0.0,0.0,0.0,-0.00046475412091240287,0.001361419097520411,0.0015311895404011011,0.9990218877792358,0.0,0.0,0.0,7.411665916442871,-3.566316843032837,5.433924198150635,-1341.5262451171875,0
1704.7780000000002,-0.0031738898251205683,-0.006585473194718361,-0.00019765646720770746,0.0,0.0,0.0,0.0,0.0013809171505272388,0.0021417259704321623,-0.0027166905347257853,0.996797502040863,0.0,0.0,0.0,7.416764736175537,-3.5692386627197266,5.428667068481445,-1342.44921875,0
1714.6850000000013,-0.003168596187606454,-0.006514342967420816,-0.00013485523231793195,0.0,0.0,0.0,0.0,-0.00014175729302223772,-0.0019012559205293655,0.0008110764320008457,0.9998310208320618,0.0,0.0,0.0,7.409125804901123,-3.5725181102752686,5.411931991577148,-1341.06640625,0
1724.5960000000014,-0.0032290813978761435,-0.006585100665688515,-0.00015923069440759718,0.0,0.0,0.0,0.0,0.004295694641768932,0.0009375349036417902,0.004395094234496355,1.0015915632247925,0.0,0.0,0.0,7.414988040924072,-3.5828428268432617,5.400503635406494,-1342.1275634765625,0
1734.5130000000008,-0.0031703603453934193,-0.006589289754629135,-0.00011434699990786612,0.0,0.0,0.0,0.0,0.0008791492437012494,0.002651187824085355,0.002931783674284816,1.00027334690094,0.0,0.0,0.0,7.419105529785156,-3.5926787853240967,5.399549961090088,-1342.8729248046875,0
1744.4210000000003,-0.003169744974002242,-0.006567193195223808,-0.00017209426732733846,0.0,0.0,0.0,0.0,-0.0012232102453708649,0.002769721206277609,0.000651319685857743,1.0015186071395874,0.0,0.0,0.0,7.412826061248779,-3.5890514850616455,5.387701034545898,-1341.7362060546875,0
1754.3330000000005,-0.0031530794221907854,-0.0065537793561816216,-0.0001391223049722612,0.0,0.0,0.0,0.0,-0.002417700830847025,-0.0018759409431368113,0.0007956058252602816,1.0006963014602661,0.0,0.0,0.0,7.412725448608398,-3.588928461074829,5.386556148529053,-1341.718017578125,0
1764.2380000000012,-0.0032141869887709618,-0.006611152086406946,-0.00015103559417184442,0.0,0.0,0.0,0.0,0.002483491087332368,0.0008357978076674044,0.00031112792203202844,0.9986581802368164,0.0,0.0,0.0,7.41612434387207,-3.592527151107788,5.386632919311523,-1342.333251953125,0
1774.1550000000007,-0.0031626755371689796,-0.006592143326997757,-9.585311636328697e-05,0.0,0.0,0.0,0.0,-1.4462578292295802e-05,-0.0015548326773568988,-0.001008717343211174,0.999846339225769,0.0,0.0,0.0,7.417187213897705,-3.596982479095459,5.3940510749816895,-1342.5257568359375,0
1784.0660000000007,-0.003213411895558238,-0.006637481041252613,-0.00011552591604413465,0.0,0.0,0.0,0.0,-0.0032389438711106777,0.0021210883278399706,0.0005516228848136961,1.0006523132324219,0.0,0.0,0.0,7.423680305480957,-3.597365140914917,5.389257907867432,-1343.7010498046875,0
1793.978000000001,-0.00317159341648221,-0.006629086099565029,-7.115030894055963e-05,0.0,0.0,0.0,0.0,0.0013819659361615777,0.0006241066730581224,0.0020273192785680294,1.000955581665039,0.0,0.0,0.0,7.423758506774902,-3.5916097164154053,5.394917011260986,-1343.7152099609375,0
1803.8850000000002,-0.0031569749116897583,-0.006587685085833073,-0.00013188250886742026,0.0,0.0,0.0,0.0,0.0028801332227885723,0.0038440139032900333,0.0022668445017188787,0.9991082549095154,0.0,0.0,0.0,7.417298793792725,-3.59067702293396,5.400839328765869,-1342.5458984375,0
1813.809000000001,-0.0031518442556262016,-0.006567086558789015,-0.00010153720359085128,0.0,0.0,0.0,0.0,0.0007564229308627546,0.00025800333241932094,0.001618417794816196,0.99984210729599,0.0,0.0,0.0,7.4212212562561035,-3.596458911895752,5.3907856941223145,-1343.255859375,0
1823.7150000000001,-0.0031599586363881826,-0.006545186508446932,-0.00014843414828646928,0.0,0.0,0.0,0.0,0.0033433199860155582,0.003976479638367891,0.0021789385937154293,1.0015641450881958,0.0,0.0,0.0,7.413451194763184,-3.5908679962158203,5.383511543273926,-1341.849365234375,0
1833.6170000000002,-0.0031330669298768044,-0.006562325172126293,-0.0001311204832745716,0.0,0.0,0.0,0.0,0.0008624150650575757,0.004807898309081793,0.0031656879000365734,1.0010125637054443,0.0,0.0,0.0,7.414872646331787,-3.5972635746002197,5.379894256591797,-1342.1065673828125,0
1843.5300000000007,-0.003191279014572501,-0.006609353702515364,-0.00014870931045152247,0.0,0.0,0.0,0.0,0.0001888176630018279,-0.0007253129733726382,-0.002317718230187893,0.9991760849952698,0.0,0.0,0.0,7.421871662139893,-3.600733518600464,5.3625993728637695,-1343.37353515625,0
1853.4390000000003,-0.003241171594709158,-0.00659521808847785,-0.00014498349628411233,0.0,0.0,0.0,0.0,0.0011921878904104233,0.003513806266710162,0.001826081657782197,1.00051748752594,0.0,0.0,0.0,7.414323806762695,-3.5952634811401367,5.366968631744385,-1342.00732421875,0
1863.3510000000006,-0.003268314292654395,-0.006628168746829033,-0.0001914060121634975,0.0,0.0,0.0,0.0,0.005081384442746639,0.0017287516966462135,0.0008557138498872519,0.998668372631073,0.0,0.0,0.0,7.422651290893555,-3.604320526123047,5.364907264709473,-1343.5146484375,0
1873.2620000000006,-0.0033192369155585766,-0.00661487365141511,-0.0001913973392220214,0.0,0.0,0.0,0.0,0.0029329683165997267,6.261789530981332e-05,0.0017779895570129156,1.00110924243927,0.0,0.0,0.0,7.415212631225586,-3.6073105335235596,5.35642147064209,-1342.168212890625,0
1883.1760000000013,-0.003318775910884142,-0.0065664127469062805,-0.0002529969497118145,0.0,0.0,0.0,0.0,-0.0005221633473411202,0.000712162465788424,0.0005542600410990417,1.0006769895553589,0.0,0.0,0.0,7.407899856567383,-3.6066665649414062,5.344709396362305,-1340.844482421875,0
1893.0910000000003,-0.0033691697753965855,-0.00654964754357934,-0.00025670553441159427,0.0,0.0,0.0,0.0,0.00135296699590981,0.0012146872468292713,0.0006366886664181948,0.9989107847213745,0.0,0.0,0.0,7.400169849395752,-3.602430582046509,5.333960056304932,-1339.4454345703125,0
1902.9970000000012,-0.003327556187286973,-0.00647776247933507,-0.0003665404219646007,0.0,0.0,0.0,0.0,0.0008184422622434795,-0.0008089269394986331,0.0005696344305761158,0.9984933137893677,0.0,0.0,0.0,7.396631717681885,-3.587357521057129,5.374205112457275,-1338.8050537109375,0
1912.9150000000009,-0.0030791182070970535,-0.006636235862970352,-0.00024131708778440952,0.0,0.0,0.0,0.0,0.00011082068522227928,0.006145883351564407,-0.0011510128388181329,1.0000561475753784,0.0,0.0,0.0,7.4034271240234375,-3.641359329223633,5.4450578689575195,-1340.034912109375,0
1922.817000000001,-0.0030486180912703276,-0.006596580613404512,-0.0003231576702091843,0.0,0.0,0.0,0.0,0.0007619023672305048,0.0012165878433734179,-0.0006511536194011569,0.999718189239502,0.0,0.0,0.0,7.3954620361328125,-3.635380983352661,5.42769193649292,-1338.5933837890625,0
1932.737000000001,-0.0030680180061608553,-0.006583916023373604,-0.0003346558951307088,0.0,0.0,0.0,0.0,-0.0006411097710952163,5.237878576735966e-05,0.005062365438789129,0.9986557364463806,0.0,0.0,0.0,7.389013290405273,-3.633741855621338,5.4251933097839355,-1337.426025390625,0
1942.643,-0.003095855936408043,-0.006590654142200947,-0.00034490955295041203,0.0,0.0,0.0,0.0,0.00012195714225526899,-0.00033079402055591345,-0.0004914740566164255,1.0006959438323975,0.0,0.0,0.0,7.382073879241943,-3.6278674602508545,5.424671173095703,-1336.170166015625,0
1952.559000000001,-0.003006367478519678,-0.006585464812815189,-0.00027729032444767654,0.0,0.0,0.0,0.0,-0.0016416746657341719,0.0006575977895408869,0.00024796175421215594,1.0019497871398926,0.0,0.0,0.0,7.386617183685303,-3.633321523666382,5.43958854675293,-1336.992431640625,0
1962.4620000000014,-0.003062754636630416,-0.006604040041565895,-0.00024373324413318187,0.0,0.0,0.0,0.0,0.0012868354097008705,-0.0017280132742598653,0.0013065967941656709,0.9997602105140686,0.0,0.0,0.0,7.392917156219482,-3.631157636642456,5.423040390014648,-1338.1328125,0
1972.3950000000004,-0.003056870773434639,-0.006558775901794434,-0.0002155775437131524,0.0,0.0,0.0,0.0,0.001851345063187182,0.0009921963792294264,0.00027836018125526607,0.9982524514198303,0.0,0.0,0.0,7.400161266326904,-3.6227495670318604,5.429008960723877,-1339.4439697265625,0
1982.286,-0.0031209257431328297,-0.006619862746447325,-0.00019833461556117982,0.0,0.0,0.0,0.0,0.0004887848626822233,0.0006604078807868063,0.005004988517612219,1.0006439685821533,0.0,0.0,0.0,7.404420852661133,-3.628535747528076,5.417572975158691,-1340.21484375,0
1992.2050000000017,-0.0031090721022337675,-0.006573682650923729,-0.0001630545884836465,0.0,0.0,0.0,0.0,-0.0009699505171738565,0.0029025673866271973,-0.002677396172657609,0.9998073577880859,0.0,0.0,0.0,7.412838935852051,-3.6194801330566406,5.422232151031494,-1341.738525390625,0
2002.112000000001,-0.003118753433227539,-0.00657341443002224,-0.00019235070794820786,0.0,0.0,0.0,0.0,0.0037119737826287746,0.00048501300625503063,-0.00252312864176929,0.997672438621521,0.0,0.0,0.0,7.405366897583008,-3.611722469329834,5.411461353302002,-1340.38623046875,0
2012.0250000000015,-0.0031109200790524483,-0.006560726091265678,-0.00017711870896164328,0.0,0.0,0.0,0.0,-0.0015791266923770308,0.002800593851134181,-0.0017054222989827394,0.9993687868118286,0.0,0.0,0.0,7.41366720199585,-3.6157000064849854,5.4040021896362305,-1341.8885498046875,0
2021.9310000000005,-0.003127036616206169,-0.006575126200914383,-0.00020610108913388103,0.0,0.0,0.0,0.0,-0.0008207451901398599,-0.0014622119488194585,0.001627236371859908,0.9986069202423096,0.0,0.0,0.0,7.412829399108887,-3.611562967300415,5.389395713806152,-1341.73681640625,0
2031.8510000000006,-0.003112842096015811,-0.006542530842125416,-0.0001806409563869238,0.0,0.0,0.0,0.0,0.0020719722378998995,0.0017164971213787794,-0.004858304746448994,0.9994539022445679,0.0,0.0,0.0,7.414336204528809,-3.5998010635375977,5.394835948944092,-1342.009521484375,0
2041.759,-0.00313152396120131,-0.006556800566613674,-0.0002096128446282819,0.0,0.0,0.0,0.0,0.0008899124222807586,-0.0009141529444605112,0.0014616599073633552,0.9995877146720886,0.0,0.0,0.0,7.406592845916748,-3.5976946353912354,5.394935131072998,-1340.6080322265625,0
2051.6720000000005,-0.0031059659086167812,-0.00660072173923254,-0.0002175716363126412,0.0,0.0,0.0,0.0,-0.0032405718229711056,-0.0021227560937404633,-2.062357816612348e-05,0.9966554045677185,0.0,0.0,0.0,7.41209077835083,-3.604062795639038,5.384177207946777,-1341.6031494140625,0
2061.581,-0.0031616450287401676,-0.006660111714154482,-0.00022525203530676663,0.0,0.0,0.0,0.0,0.00250673433765769,-0.0019445563666522503,0.0012033280218020082,0.9975181221961975,0.0,0.0,0.0,7.415672779083252,-3.6061458587646484,5.3776140213012695,-1342.25146484375,0
2071.51,-0.0030954114627093077,-0.006656089797616005,-0.00019147804414387792,0.0,0.0,0.0,0.0,0.0001269111962756142,-0.0014770529232919216,0.0014886994613334537,0.9981226325035095,0.0,0.0,0.0,7.4209794998168945,-3.6100053787231445,5.3895039558410645,-1343.2120361328125,0
2081.4050000000007,-0.003095193300396204,-0.006634517572820187,-0.0002359738282393664,0.0,0.0,0.0,0.0,-0.00038096922799013555,0.0007215269724838436,-0.002847993979230523,0.9971606731414795,0.0,0.0,0.0,7.414121150970459,-3.606698513031006,5.3825364112854,-1341.9705810546875,0
2091.3280000000013,-0.0031268794555217028,-0.006628150586038828,-0.00024815966025926173,0.0,0.0,0.0,0.0,-0.0005910063628107309,0.003080902621150017,0.0003427340416237712,0.9973827600479126,0.0,0.0,0.0,7.4059319496154785,-3.6007657051086426,5.379570960998535,-1340.48828125,0
2101.229000000001,-0.003172366414219141,-0.006675214506685734,-0.00026909264852292836,0.0,0.0,0.0,0.0,-0.0017418364295735955,0.0013303450541570783,-0.001687917741946876,0.9984473586082458,0.0,0.0,0.0,7.409347057342529,-3.6094839572906494,5.361213207244873,-1341.1064453125,0
2111.1450000000004,-0.003209357149899006,-0.006670210510492325,-0.0002862907131202519,0.0,0.0,0.0,0.0,0.002523425966501236,0.0020272836554795504,-0.00041171128395944834,0.9980447888374329,0.0,0.0,0.0,7.400322437286377,-3.601240634918213,5.354765892028809,-1339.47314453125,0
2121.0620000000017,-0.003218364669010043,-0.0066458480432629585,-0.0003428967029321939,0.0,0.0,0.0,0.0,-0.0013734687818214297,0.003191303927451372,0.0016131155425682664,0.9975717663764954,0.0,0.0,0.0,7.400067329406738,-3.604001045227051,5.347960472106934,-1339.4268798828125,0
2130.9710000000014,-0.0032560566905885935,-0.006637693382799625,-0.00036663372884504497,0.0,0.0,0.0,0.0,-0.0007454091100953519,0.0014567016623914242,0.0033676400780677795,1.0002577304840088,0.0,0.0,0.0,7.392611503601074,-3.6017587184906006,5.336758613586426,-1338.077392578125,0
