timestamp,stateEstimate.x,stateEstimate.y,stateEstimate.z,controller.cmd_thrust,controller.cmd_roll,controller.cmd_pitch,controller.cmd_yaw,controller.r_roll,controller.r_pitch,controller.r_yaw,controller.accelz,controller.actuatorThrust,controller.roll,controller.pitch,controller.yaw,controller.rollRate,controller.pitchRate,controller.yawRate,controller.ctr_yaw
0.0,-0.012434502132236958,0.016171546652913094,-0.0001991786266444251,0.0,0.0,0.0,0.0,-0.0029814993031322956,-0.0011505831498652697,-0.0006656924379058182,0.9986908435821533,0.0,0.0,0.0,-15.975814819335938,1.2287548780441284,4.300605773925781,2891.654541015625,0
9.885000000000218,-0.012459985911846161,0.016071798279881477,-0.00020422920351848006,0.0,0.0,0.0,0.0,0.0003790977643802762,0.0028393464162945747,0.0013172670733183622,1.0005019903182983,0.0,0.0,0.0,-15.95883846282959,1.230968713760376,4.300577163696289,2888.58154296875,0
19.808000000000902,-0.012406003661453724,0.016104362905025482,-0.00016788368520792574,0.0,0.0,0.0,0.0,0.00020250699890311807,-0.0025078800972551107,0.0010463306680321693,1.0023454427719116,0.0,0.0,0.0,-15.970273971557617,1.239396095275879,4.308557033538818,2890.6513671875,0
29.71900000000096,-0.012424559332430363,0.016017824411392212,-0.00016974112077150494,0.0,0.0,0.0,0.0,-0.0018434507073834538,-0.004727877210825682,-0.002214353298768401,0.9992479085922241,0.0,0.0,0.0,-15.962504386901855,1.224839687347412,4.308058261871338,2889.245361328125,0
39.63199999999961,-0.012453971430659294,0.016050785779953003,-0.00015933840768411756,0.0,0.0,0.0,0.0,-0.003029564395546913,-0.0033736596815288067,0.00018278822244610637,0.998121440410614,0.0,0.0,0.0,-15.973963737487793,1.2335418462753296,4.311610221862793,2891.319091796875,0
49.53600000000006,-0.012492339126765728,0.01596769504249096,-0.00013203501293901354,0.0,0.0,0.0,0.0,0.0010620253160595894,0.002730613574385643,0.001174809760414064,0.9982086420059204,0.0,0.0,0.0,-15.964661598205566,1.2208853960037231,4.31943941116333,2889.6357421875,0
59.45399999999972,-0.012478853575885296,0.01605811156332493,-7.255521632032469e-05,0.0,0.0,0.0,0.0,0.0002683043712750077,-0.00431246031075716,0.0035806423984467983,1.0006837844848633,0.0,0.0,0.0,-15.974592208862305,1.2264028787612915,4.311402797698975,2891.43310546875,0
69.36200000000099,-0.012464268133044243,0.016007278114557266,-0.0001129082593251951,0.0,0.0,0.0,0.0,0.0011963003780692816,-0.0033881179988384247,-0.0016279220581054688,0.9996910691261292,0.0,0.0,0.0,-15.965373039245605,1.210344910621643,4.323169708251953,2889.764404296875,0
79.28000000000065,-0.012454058974981308,0.016023457050323486,-0.00011181575973751023,0.0,0.0,0.0,0.0,-0.0044007739052176476,-0.00233292649500072,0.00019728027109522372,0.9983476400375366,0.0,0.0,0.0,-15.949796676635742,1.206503987312317,4.326475620269775,2886.945068359375,0
89.1810000000005,-0.012409260496497154,0.015976682305336,-0.0001946094271261245,0.0,0.0,0.0,0.0,0.0021940041333436966,-0.002299202373251319,0.0026996529195457697,0.9987193942070007,0.0,0.0,0.0,-15.934226036071777,1.2108389139175415,4.323699474334717,2884.126953125,0
99.10400000000118,-0.01239740289747715,0.0159903634339571,-0.00020252482499927282,0.0,0.0,0.0,0.0,0.00014939563698135316,-0.00686409929767251,0.0037297422531992197,1.0025749206542969,0.0,0.0,0.0,-15.917794227600098,1.2047208547592163,4.324646949768066,2881.152587890625,0
109.00600000000122,-0.012368431314826012,0.015960853546857834,-0.00025482114870101213,0.0,0.0,0.0,0.0,0.0002800016663968563,0.0022357702255249023,0.0010037601459771395,1.0007996559143066,0.0,0.0,0.0,-15.906848907470703,1.1951185464859009,4.351325035095215,2879.17138671875,0
118.9260000000013,-0.012356091290712357,0.015971338376402855,-0.00026414403691887856,0.0,0.0,0.0,0.0,-0.0024902918376028538,-0.005642800126224756,0.0003105542855337262,1.0007824897766113,0.0,0.0,0.0,-15.892006874084473,1.1937460899353027,4.348702430725098,2876.48486328125,0
128.83700000000135,-0.012357641011476517,0.01595870777964592,-0.00026904718833975494,0.0,0.0,0.0,0.0,0.0010751483496278524,0.0004222143325023353,-0.0029639543499797583,0.9995080828666687,0.0,0.0,0.0,-15.886358261108398,1.185681700706482,4.350588321685791,2875.46240234375,0
138.7510000000002,-0.012350057251751423,0.015969455242156982,-0.0002768343547359109,0.0,0.0,0.0,0.0,0.00031358315027318895,0.0019976391922682524,-0.0022650083992630243,0.9999904036521912,0.0,0.0,0.0,-15.871538162231445,1.1823526620864868,4.349679470062256,2872.780029296875,0
148.65400000000045,-0.012364046648144722,0.01592371053993702,-0.00029289646772667766,0.0,0.0,0.0,0.0,0.0005962505820207298,0.004757434129714966,-0.0031912480480968952,0.9998955726623535,0.0,0.0,0.0,-15.868733406066895,1.1501225233078003,4.3334269523620605,2872.272216796875,0
158.57500000000073,-0.012359876185655594,0.015930814668536186,-0.0003016006376128644,0.0,0.0,0.0,0.0,0.0013694299850612879,-0.001661985763348639,0.0023386806715279818,1.0004383325576782,0.0,0.0,0.0,-15.85349178314209,1.1420625448226929,4.317041397094727,2869.513427734375,0
168.47800000000097,-0.012365900911390781,0.01589922234416008,-0.0003252183669246733,0.0,0.0,0.0,0.0,0.0022309143096208572,0.0027650499250739813,-0.0018019600538536906,0.9985958933830261,0.0,0.0,0.0,-15.847914695739746,1.1192090511322021,4.315865516662598,2868.504150390625,0
178.39800000000105,-0.012364397756755352,0.015905167907476425,-0.00033508308115415275,0.0,0.0,0.0,0.0,0.004485925659537315,-0.0020747866947203875,-0.0006458009593188763,0.9998831748962402,0.0,0.0,0.0,-15.832191467285156,1.1170592308044434,4.305964469909668,2865.658203125,0
188.30299999999988,-0.012362838722765446,0.015911178663372993,-0.0003452119417488575,0.0,0.0,0.0,0.0,-0.003335719695314765,-0.0030660689808428288,0.0030200090259313583,1.0036230087280273,0.0,0.0,0.0,-15.81645679473877,1.1090736389160156,4.302898406982422,2862.810302734375,0
198.22299999999996,-0.012360742315649986,0.015916733071208,-0.0003533352573867887,0.0,0.0,0.0,0.0,0.0021241523791104555,-0.00285732070915401,-0.0023745796643197536,1.0012342929840088,0.0,0.0,0.0,-15.800621032714844,1.1117490530014038,4.3063883781433105,2859.943603515625,0
208.12900000000081,-0.012352717109024525,0.015875283628702164,-0.00039109375211410224,0.0,0.0,0.0,0.0,-0.004837831482291222,-0.002656629541888833,-0.00083180982619524,1.0012736320495605,0.0,0.0,0.0,-15.799431800842285,1.0871843099594116,4.314199447631836,2859.728515625,0
218.0560000000005,-0.012351472862064838,0.015876147896051407,-0.00039819031371735036,0.0,0.0,0.0,0.0,0.0011391786392778158,-0.002348614390939474,0.0017117188544943929,0.9998788237571716,0.0,0.0,0.0,-15.784598350524902,1.0973353385925293,4.320715427398682,2857.04345703125,0
227.94900000000052,-0.012350323610007763,0.015877237543463707,-0.0004049419949296862,0.0,0.0,0.0,0.0,-0.0007019853801466525,0.0018452043877914548,-0.0024263409432023764,1.000257968902588,0.0,0.0,0.0,-15.769805908203125,1.0954352617263794,4.318875312805176,2854.3662109375,0
237.875,-0.012349092401564121,0.01587838865816593,-0.0004114809271413833,0.0,0.0,0.0,0.0,-0.0007136990898288786,0.0009813649812713265,0.0009141680784523487,0.9997044205665588,0.0,0.0,0.0,-15.755160331726074,1.098097324371338,4.318264007568359,2851.71533203125,0
247.78100000000086,-0.012401393614709377,0.015855204313993454,-0.00039995057159103453,0.0,0.0,0.0,0.0,0.00021822976123075932,-0.0036913673393428326,-0.0035106781870126724,0.9971542358398438,0.0,0.0,0.0,-15.759840965270996,1.0807539224624634,4.303351879119873,2852.5625,0
257.70200000000114,-0.012406720779836178,0.015852564945816994,-0.00040639800135977566,0.0,0.0,0.0,0.0,-0.00018444113084115088,0.0005566140171140432,0.0015181953785941005,1.0001118183135986,0.0,0.0,0.0,-15.745599746704102,1.0749285221099854,4.295968055725098,2849.98486328125,0
267.59699999999975,-0.01241369266062975,0.015849310904741287,-0.00041372168925590813,0.0,0.0,0.0,0.0,-0.0009292912436649203,-0.0040573603473603725,-0.0040801516734063625,1.0000656843185425,0.0,0.0,0.0,-15.729849815368652,1.0714408159255981,4.291265487670898,2847.134033203125,0
277.52499999999964,-0.012422709725797176,0.015845440328121185,-0.00042093833326362073,0.0,0.0,0.0,0.0,-0.0007957026828080416,0.005079577211290598,-0.0022592362947762012,0.9980527758598328,0.0,0.0,0.0,-15.715226173400879,1.068792700767517,4.2944464683532715,2844.4873046875,0
287.4220000000005,-0.012433651834726334,0.015840968117117882,-0.00042888516327366233,0.0,0.0,0.0,0.0,-0.003008519299328327,-0.004589608870446682,0.0010766054037958384,0.9988448023796082,0.0,0.0,0.0,-15.70076847076416,1.0701781511306763,4.2795209884643555,2841.870361328125,0
297.35200000000077,-0.0124485082924366,0.015836015343666077,-0.0004388449597172439,0.0,0.0,0.0,0.0,-0.0014388946583494544,-0.0021065527107566595,0.002360689453780651,1.0009063482284546,0.0,0.0,0.0,-15.683839797973633,1.0766112804412842,4.290943622589111,2838.80615234375,0
307.2510000000002,-0.012465002946555614,0.01583186723291874,-0.0004478011978790164,0.0,0.0,0.0,0.0,0.0025696931406855583,0.0030702899675816298,0.0020660313311964273,1.0025804042816162,0.0,0.0,0.0,-15.666498184204102,1.0764955282211304,4.290953636169434,2835.667236328125,0
317.1779999999999,-0.012561939656734467,0.01607605814933777,-0.00026178808184340596,0.0,0.0,0.0,0.0,-0.001218573423102498,0.002581586129963398,0.005577420815825462,1.0017023086547852,0.0,0.0,0.0,-15.706490516662598,1.1346806287765503,4.250967979431152,2842.90625,0
327.0720000000001,-0.012582210823893547,0.01608888991177082,-0.0002562965964898467,0.0,0.0,0.0,0.0,-0.0013674645451828837,-0.0035843276418745518,-0.0010078767081722617,0.9983474016189575,0.0,0.0,0.0,-15.689695358276367,1.1319750547409058,4.234727382659912,2839.8662109375,0
336.9950000000008,-0.012603667564690113,0.01610162854194641,-0.0002508230390958488,0.0,0.0,0.0,0.0,-0.00018244452076032758,-0.004809835460036993,0.001541328034363687,1.0002899169921875,0.0,0.0,0.0,-15.674062728881836,1.1301504373550415,4.237637519836426,2837.036376953125,0
346.89500000000044,-0.012627490796148777,0.01611451804637909,-0.0002457843511365354,0.0,0.0,0.0,0.0,-0.0005570554058067501,0.0012284998083487153,0.0007767637143842876,1.0007920265197754,0.0,0.0,0.0,-15.658348083496094,1.126315712928772,4.246191024780273,2834.192138671875,0
356.8240000000005,-0.012652887962758541,0.0161276962608099,-0.000240080407820642,0.0,0.0,0.0,0.0,-0.0020982695277780294,0.0009084081393666565,0.000724500569049269,1.0006581544876099,0.0,0.0,0.0,-15.642616271972656,1.126386046409607,4.235482215881348,2831.344482421875,0
366.72600000000057,-0.012679032050073147,0.016140513122081757,-0.0002336344332434237,0.0,0.0,0.0,0.0,0.00013355100236367434,-0.00035925276461057365,1.763158979883883e-05,0.9997212886810303,0.0,0.0,0.0,-15.627070426940918,1.125421404838562,4.230227947235107,2828.53076171875,0
376.64400000000023,-0.012519367970526218,0.016203243285417557,-9.813813085202128e-05,0.0,0.0,0.0,0.0,-0.001170760951936245,-0.005878993310034275,-0.003286058781668544,0.9995126724243164,0.0,0.0,0.0,-15.669172286987305,1.1515626907348633,4.269577503204346,2836.1513671875,0
386.5450000000001,-0.012537290342152119,0.01621854119002819,-8.477929804939777e-05,0.0,0.0,0.0,0.0,0.0031004284974187613,0.00022452250414062291,0.0012884953757748008,1.000725269317627,0.0,0.0,0.0,-15.6541166305542,1.1515671014785767,4.283472061157227,2833.42626953125,0
396.46399999999994,-0.012503198347985744,0.01625284180045128,-5.435798084363341e-05,0.0,0.0,0.0,0.0,0.0008208777289837599,0.0018074943218380213,0.0012151891132816672,0.9988775849342346,0.0,0.0,0.0,-15.689899444580078,1.1523014307022095,4.287237644195557,2839.903076171875,0
406.3690000000006,-0.01251945085823536,0.016271688044071198,-3.9674341678619385e-05,0.0,0.0,0.0,0.0,0.0003196339530404657,-0.002236016560345888,-0.0007335139671340585,1.0005096197128296,0.0,0.0,0.0,-15.674178123474121,1.1492016315460205,4.282875061035156,2837.057373046875,0
416.2910000000011,-0.012543774209916592,0.016266243532299995,-5.974525265628472e-05,0.0,0.0,0.0,0.0,0.001082381815649569,0.0019181539537385106,-0.002334430580958724,1.001719355583191,0.0,0.0,0.0,-15.714838981628418,1.1451117992401123,4.297729969024658,2844.417236328125,0
426.1920000000009,-0.01256201695650816,0.016284001991152763,-4.579654341796413e-05,0.0,0.0,0.0,0.0,-0.00034867459908127785,-0.0014011068269610405,-0.0020079186651855707,1.001310110092163,0.0,0.0,0.0,-15.699528694152832,1.1402630805969238,4.2933878898620605,2841.646240234375,0
436.1090000000004,-0.012503139674663544,0.016304921358823776,-4.830540274269879e-05,0.0,0.0,0.0,0.0,0.0006446722545661032,-0.002155281137675047,-0.00423600384965539,1.0013772249221802,0.0,0.0,0.0,-15.737805366516113,1.1435660123825073,4.312983989715576,2848.573974609375,0
446.01800000000003,-0.012520396150648594,0.01632607914507389,-3.1919829780235887e-05,0.0,0.0,0.0,0.0,-0.001505151391029358,0.00037837817217223346,0.0030929897911846638,0.9994921684265137,0.0,0.0,0.0,-15.72313404083252,1.1422771215438843,4.312946796417236,2845.91845703125,0
455.9380000000001,-0.012470767833292484,0.01633443497121334,-4.0567949326941743e-05,0.0,0.0,0.0,0.0,0.00025581588852219284,-0.0011223882902413607,0.003575393231585622,0.9996131658554077,0.0,0.0,0.0,-15.756501197814941,1.1453442573547363,4.331505298614502,2851.9580078125,0
465.83899999999994,-0.012488361448049545,0.01635289378464222,-2.526241951272823e-05,0.0,0.0,0.0,0.0,0.0016856967704370618,0.001557625480927527,-0.0010125788394361734,1.0005409717559814,0.0,0.0,0.0,-15.73992919921875,1.1418665647506714,4.328922271728516,2848.958740234375,0
475.76300000000083,-0.012506931088864803,0.016370374709367752,-9.708051948109642e-06,0.0,0.0,0.0,0.0,0.0017818300984799862,-0.0024794498458504677,-0.0008979696431197226,0.9994453191757202,0.0,0.0,0.0,-15.724318504333496,1.137819766998291,4.323968887329102,2846.133056640625,0
485.6650000000009,-0.0125266807153821,0.01638764701783657,5.896723450860009e-06,0.0,0.0,0.0,0.0,0.0008153528906404972,-0.0030109244398772717,-0.0005988828488625586,1.0000673532485962,0.0,0.0,0.0,-15.708998680114746,1.1326712369918823,4.3236589431762695,2843.360107421875,0
495.59300000000076,-0.01245321799069643,0.01635955646634102,-2.9869421268813312e-05,0.0,0.0,0.0,0.0,-0.00029690819792449474,-0.0010110216680914164,0.004308455623686314,1.002657175064087,0.0,0.0,0.0,-15.73840618133545,1.1192775964736938,4.365349292755127,2848.682861328125,0
505.487000000001,-0.012484110891819,0.01629904843866825,-7.296776311704889e-05,0.0,0.0,0.0,0.0,-0.0006751166074536741,-0.0022801682353019714,0.000295861013000831,1.0003103017807007,0.0,0.0,0.0,-15.740581512451172,1.089355230331421,4.370975017547607,2849.07666015625,0
515.4120000000003,-0.012445911765098572,0.016266219317913055,-2.1868709154659882e-05,0.0,0.0,0.0,0.0,0.000914756441488862,0.0011466891737654805,0.0030274635646492243,1.0019068717956543,0.0,0.0,0.0,-15.770441055297852,1.0837879180908203,4.389362335205078,2854.481201171875,0
525.3160000000007,-0.012474481016397476,0.01619073748588562,-3.460661901044659e-05,0.0,0.0,0.0,0.0,-0.0002701574412640184,0.0005025075515732169,-0.00045985670294612646,1.0003435611724854,0.0,0.0,0.0,-15.773110389709473,1.0649112462997437,4.3891706466674805,2854.96435546875,0
535.2240000000002,-0.012457058764994144,0.01617281325161457,1.624908145458903e-05,0.0,0.0,0.0,0.0,0.0022856213618069887,-0.0024667272809892893,0.0033860953990370035,0.9980238676071167,0.0,0.0,0.0,-15.805520057678223,1.067508578300476,4.391167163848877,2860.830322265625,0
545.1470000000008,-0.012466124258935452,0.01610218919813633,-2.4031760403886437e-05,0.0,0.0,0.0,0.0,-0.0021943722385913134,-0.0037410289514809847,-0.004891251213848591,1.0010908842086792,0.0,0.0,0.0,-15.803958892822266,1.0524964332580566,4.394927024841309,2860.5478515625,0
555.0529999999999,-0.012465821579098701,0.016110649332404137,2.5740078854141757e-05,0.0,0.0,0.0,0.0,0.0032961468677967787,-0.0024477604310959578,-6.009020216879435e-05,1.0003513097763062,0.0,0.0,0.0,-15.826590538024902,1.0632429122924805,4.405366897583008,2864.644287109375,0
564.9740000000002,-0.012508579529821873,0.01599481701850891,3.170385753037408e-05,0.0,0.0,0.0,0.0,-0.002345410408452153,-0.001050740946084261,0.0020294019486755133,0.9992696046829224,0.0,0.0,0.0,-15.826356887817383,1.0487538576126099,4.407167911529541,2864.602294921875,0
574.875,-0.012459550984203815,0.015984321013092995,8.760707714827731e-05,0.0,0.0,0.0,0.0,-0.0006616634782403708,-0.0003853771195281297,-0.0010734277311712503,0.9992991089820862,0.0,0.0,0.0,-15.84709358215332,1.0568920373916626,4.421631813049316,2868.35546875,0
584.7990000000009,-0.012437247671186924,0.01593206822872162,2.659405981830787e-05,0.0,0.0,0.0,0.0,-0.0009249105933122337,-0.006102052051573992,-0.0012193553848192096,1.0018209218978882,0.0,0.0,0.0,-15.84781551361084,1.061034083366394,4.424158573150635,2868.486083984375,0
594.7000000000007,-0.012494388036429882,0.015997909009456635,8.547532343072817e-05,0.0,0.0,0.0,0.0,0.0029480496887117624,0.004781852010637522,0.00366371707059443,1.0007485151290894,0.0,0.0,0.0,-15.870513916015625,1.0679371356964111,4.436040878295898,2872.594482421875,0
604.6180000000004,-0.012488585896790028,0.015936005860567093,4.8886937292991206e-05,0.0,0.0,0.0,0.0,0.00036813723272643983,-0.0010145256528630853,0.001897077658213675,0.9977275133132935,0.0,0.0,0.0,-15.871047973632812,1.0598464012145996,4.426182270050049,2872.691162109375,0
614.523000000001,-0.012505034916102886,0.015984192490577698,0.00011164658644702286,0.0,0.0,0.0,0.0,0.0007548187277279794,0.002100506564602256,0.0008745825034566224,1.0003299713134766,0.0,0.0,0.0,-15.891911506652832,1.0701651573181152,4.428804874420166,2876.4677734375,0
624.4380000000001,-0.012463126331567764,0.01595512591302395,3.846211620839313e-05,0.0,0.0,0.0,0.0,0.002313923556357622,-0.0017096084775403142,0.0024804749991744757,0.9989718794822693,0.0,0.0,0.0,-15.89273452758789,1.0679868459701538,4.421416282653809,2876.616455078125,0
634.3460000000014,-0.012478964403271675,0.015972504392266273,7.457169704139233e-05,0.0,0.0,0.0,0.0,0.0020696159917861223,-0.0035196607932448387,-0.0022705814335495234,0.9997711777687073,0.0,0.0,0.0,-15.911612510681152,1.0727289915084839,4.426330089569092,2880.033447265625,0
644.2690000000002,-0.012443588115274906,0.015929333865642548,9.064828532245883e-07,0.0,0.0,0.0,0.0,0.001085086609236896,0.0007031949353404343,-0.0014717422891408205,1.0006357431411743,0.0,0.0,0.0,-15.9091215133667,1.0701271295547485,4.436990737915039,2879.582763671875,0
654.1779999999999,-0.012479746714234352,0.016002722084522247,5.856377902091481e-05,0.0,0.0,0.0,0.0,0.0008049071184359491,0.001181086990982294,0.0005880511016584933,1.0021958351135254,0.0,0.0,0.0,-15.926851272583008,1.078391432762146,4.428669452667236,2882.79150390625,0
664.0870000000014,-0.012412809766829014,0.01600431650876999,-4.204612923786044e-05,0.0,0.0,0.0,0.0,-0.002170996740460396,0.00012383075954858214,-0.0006642580265179276,0.9992241859436035,0.0,0.0,0.0,-15.9198637008667,1.0840269327163696,4.428328990936279,2881.527099609375,0
673.9930000000004,-0.012468965724110603,0.016062380746006966,-7.508579074055888e-06,0.0,0.0,0.0,0.0,0.0027989568188786507,-0.002942463383078575,0.00459281075745821,0.9989138841629028,0.0,0.0,0.0,-15.933871269226074,1.096795916557312,4.421494007110596,2884.0625,0
683.9189999999999,-0.012429730035364628,0.016012651845812798,-9.99973708530888e-05,0.0,0.0,0.0,0.0,0.0007624530699104071,0.004067090339958668,-0.004043580498546362,0.9990208148956299,0.0,0.0,0.0,-15.924233436584473,1.0915194749832153,4.429678916931152,2882.31787109375,0
693.8250000000007,-0.01248902641236782,0.01607447676360607,-7.096995250321925e-05,0.0,0.0,0.0,0.0,-0.0008977240649983287,0.0024507506750524044,0.0027152318507432938,1.000653624534607,0.0,0.0,0.0,-15.936416625976562,1.0976446866989136,4.40949010848999,2884.523193359375,0
703.7350000000006,-0.012487602420151234,0.01601046696305275,-0.00011834950419142842,0.0,0.0,0.0,0.0,0.0009425453026778996,0.001635469845496118,-0.0026124047581106424,1.0007073879241943,0.0,0.0,0.0,-15.918742179870605,1.0935689210891724,4.406200885772705,2881.323974609375,0
713.6450000000004,-0.012576901353895664,0.016103843227028847,-8.465261635137722e-05,0.0,0.0,0.0,0.0,0.0022919094190001488,0.0030147184152156115,0.002480908064171672,1.0016294717788696,0.0,0.0,0.0,-15.933014869689941,1.0999550819396973,4.38402795791626,2883.907470703125,0
723.5640000000003,-0.012566529214382172,0.016049981117248535,-0.00014671028475277126,0.0,0.0,0.0,0.0,-0.002091981004923582,-0.004732340574264526,-0.00024275030591525137,1.0016525983810425,0.0,0.0,0.0,-15.922868728637695,1.0887451171875,4.3731584548950195,2882.07080078125,0
733.4719999999998,-0.01252472773194313,0.0160956010222435,-8.896442159311846e-05,0.0,0.0,0.0,0.0,-0.001208282308652997,-0.00536517146974802,0.0007505090907216072,1.0006129741668701,0.0,0.0,0.0,-15.936857223510742,1.103732943534851,4.39396333694458,2884.60302734375,0
743.3870000000006,-0.012518019415438175,0.01602858677506447,-0.00014319625915959477,0.0,0.0,0.0,0.0,4.0072278352454305e-05,-0.0008849760051816702,-0.0019485204247757792,1.0004020929336548,0.0,0.0,0.0,-15.932351112365723,1.0975909233093262,4.40366792678833,2883.787353515625,0
753.2890000000007,-0.012541238218545914,0.01608978398144245,-9.952769323717803e-05,0.0,0.0,0.0,0.0,-0.0006434827228076756,0.0010195908835157752,0.002757804933935404,1.0007827281951904,0.0,0.0,0.0,-15.950509071350098,1.1113837957382202,4.396224021911621,2887.07421875,0
763.2139999999999,-0.012578686699271202,0.015989407896995544,-9.80775075731799e-05,0.0,0.0,0.0,0.0,0.00021822618145961314,-0.0020473035983741283,0.0016392593970522285,0.9992783665657043,0.0,0.0,0.0,-15.943315505981445,1.0931955575942993,4.389449596405029,2885.77197265625,0
773.1149999999998,-0.012580460868775845,0.016019051894545555,-5.9654441429302096e-05,0.0,0.0,0.0,0.0,-0.00023873502505011857,0.002421232871711254,-0.0030112862586975098,1.0004687309265137,0.0,0.0,0.0,-15.955971717834473,1.0991629362106323,4.394515514373779,2888.062744140625,0
783.0339999999997,-0.012548033148050308,0.015996651723980904,-0.00012325179704930633,0.0,0.0,0.0,0.0,0.0002544989692978561,-0.0011409331345930696,0.0009703118703328073,1.000487208366394,0.0,0.0,0.0,-15.950925827026367,1.0980024337768555,4.395925521850586,2887.1494140625,0
792.9390000000003,-0.012464427389204502,0.016031906008720398,-5.1862381951650605e-05,0.0,0.0,0.0,0.0,-0.00267736054956913,0.0001231709320563823,0.00011469327000668272,1.0002745389938354,0.0,0.0,0.0,-15.958473205566406,1.1121246814727783,4.41050386428833,2888.515380859375,0
802.8610000000008,-0.012460453435778618,0.01594981551170349,-9.285288251703605e-05,0.0,0.0,0.0,0.0,-0.00048654121928848326,0.0025268683675676584,0.0010670843767002225,0.9988769888877869,0.0,0.0,0.0,-15.951615333557129,1.1019874811172485,4.41773796081543,2887.274169921875,0
812.7650000000012,-0.012481705285608768,0.016022713854908943,-3.422761437832378e-05,0.0,0.0,0.0,0.0,-0.003042339812964201,0.00011241775064263493,7.908626685093623e-06,0.9998863339424133,0.0,0.0,0.0,-15.963815689086914,1.1161359548568726,4.410396099090576,2889.482421875,0
822.6800000000003,-0.012407426722347736,0.01606926880776882,-0.00011909016029676422,0.0,0.0,0.0,0.0,0.002132808556780219,0.0005294416332617402,-0.0020924117416143417,0.9998696446418762,0.0,0.0,0.0,-15.956816673278809,1.1358035802841187,4.419317722320557,2888.215576171875,0
832.5900000000001,-0.012430435046553612,0.016088515520095825,-9.932286775438115e-05,0.0,0.0,0.0,0.0,6.748114537913352e-05,0.007657918147742748,-0.0011846082052215934,0.9976227283477783,0.0,0.0,0.0,-15.972688674926758,1.134940505027771,4.418139934539795,2891.08837890625,0
842.509,-0.012401841580867767,0.016049111261963844,-0.00016065890667960048,0.0,0.0,0.0,0.0,-0.0007202595006674528,0.0018350188620388508,0.002118349075317383,0.9999632835388184,0.0,0.0,0.0,-15.963179588317871,1.1309796571731567,4.4065141677856445,2889.3671875,0
852.4220000000005,-0.01245464850217104,0.016119157895445824,-0.0001270413340535015,0.0,0.0,0.0,0.0,-0.0010112811578437686,-0.0011914466740563512,0.0029031061567366123,1.0012739896774292,0.0,0.0,0.0,-15.976629257202148,1.147352695465088,4.398420810699463,2891.8017578125,0
862.3280000000013,-0.012445809319615364,0.016091471537947655,-0.00015334284398704767,0.0,0.0,0.0,0.0,-0.0004158467927481979,-0.003936610650271177,0.0020191804505884647,0.9989823698997498,0.0,0.0,0.0,-15.967729568481445,1.1430174112319946,4.398362159729004,2890.19091796875,0
872.241,-0.012499700300395489,0.016141172498464584,-0.00012965391215402633,0.0,0.0,0.0,0.0,0.0013595180353149772,0.0014602791052311659,-0.00238287216052413,1.0001238584518433,0.0,0.0,0.0,-15.980464935302734,1.1572415828704834,4.398239612579346,2892.495849609375,0
882.1620000000003,-0.012472501955926418,0.016088375821709633,-0.00020384394156280905,0.0,0.0,0.0,0.0,-0.0024495841935276985,-0.0008821796509437263,-0.00125629804097116,0.9992215037345886,0.0,0.0,0.0,-15.96501636505127,1.150787115097046,4.398815155029297,2889.69970703125,0
892.0670000000009,-0.012469340115785599,0.01614503748714924,-0.00015767650620546192,0.0,0.0,0.0,0.0,-0.0023750485852360725,-0.0044974396005272865,-0.0007992514874786139,1.0021283626556396,0.0,0.0,0.0,-15.977339744567871,1.1679562330245972,4.403993606567383,2891.93017578125,0
901.978000000001,-0.012442110106348991,0.016114195808768272,-0.00022137790801934898,0.0,0.0,0.0,0.0,0.0032041401136666536,-0.0015619429759681225,0.000337711680913344,1.0015056133270264,0.0,0.0,0.0,-15.972461700439453,1.1727020740509033,4.417801380157471,2891.04736328125,0
911.889000000001,-0.012520696967840195,0.01617242582142353,-0.00020785523520316929,0.0,0.0,0.0,0.0,-0.00119624228682369,0.0004646474262699485,0.00039139596628956497,1.000815749168396,0.0,0.0,0.0,-15.982977867126465,1.1758731603622437,4.408492088317871,2892.950927734375,0
921.8070000000007,-0.012522904202342033,0.016138389706611633,-0.00022993647144176066,0.0,0.0,0.0,0.0,0.00015300211089197546,-0.002640897873789072,0.0020798533223569393,1.0023175477981567,0.0,0.0,0.0,-15.97512149810791,1.1770225763320923,4.409463882446289,2891.529052734375,0
931.7110000000011,-0.012495736591517925,0.01618288829922676,-0.00018003031436819583,0.0,0.0,0.0,0.0,0.0034794581588357687,0.0020035007037222385,-0.0025058668106794357,1.0004388093948364,0.0,0.0,0.0,-15.987496376037598,1.1933363676071167,4.425844192504883,2893.768798828125,0
941.625,-0.012493420392274857,0.016084175556898117,-0.00023319644969888031,0.0,0.0,0.0,0.0,-0.0006669423310086131,-0.0009178798063658178,-0.005876705516129732,0.9983788728713989,0.0,0.0,0.0,-15.97165584564209,1.1839910745620728,4.418161392211914,2890.9013671875,0
951.5450000000001,-0.012440231628715992,0.016093365848064423,-0.0001943078968906775,0.0,0.0,0.0,0.0,0.00241660769097507,0.0031193308532238007,-0.000343075895216316,0.9993077516555786,0.0,0.0,0.0,-15.986645698547363,1.1930766105651855,4.435704708099365,2893.61474609375,0
961.4639999999999,-0.012451181188225746,0.016034262254834175,-0.00020339837647043169,0.0,0.0,0.0,0.0,0.0015050554648041725,-0.002691728062927723,0.001916305860504508,0.9996446967124939,0.0,0.0,0.0,-15.970987319946289,1.1863514184951782,4.421641826629639,2890.780517578125,0
971.3670000000002,-0.012449600733816624,0.01604939065873623,-0.00017623005260247737,0.0,0.0,0.0,0.0,-0.0010149007430300117,0.00012970666284672916,0.0007912503788247705,0.9962018132209778,0.0,0.0,0.0,-15.98409652709961,1.191067099571228,4.428414344787598,2893.1533203125,0
981.2820000000011,-0.012491350993514061,0.015936877578496933,-0.00016848066297825426,0.0,0.0,0.0,0.0,-0.002192145911976695,0.0005813070456497371,0.0013246429152786732,0.999312162399292,0.0,0.0,0.0,-15.97697639465332,1.173962950706482,4.423326015472412,2891.864501953125,0
991.2049999999999,-0.012447572313249111,0.015977708622813225,-0.00010644788562785834,0.0,0.0,0.0,0.0,0.0003345081931911409,0.0015633117873221636,-0.0026228041388094425,0.9983369708061218,0.0,0.0,0.0,-15.987747192382812,1.1938799619674683,4.431529521942139,2893.81396484375,0
1001.103000000001,-0.012439440004527569,0.01592176780104637,-0.00014520544209517539,0.0,0.0,0.0,0.0,-0.0026167044416069984,-0.0007387303630821407,-0.0013975839829072356,0.997067391872406,0.0,0.0,0.0,-15.983094215393066,1.1842645406723022,4.431778430938721,2892.971923828125,0
1011.0159999999996,-0.012483380734920502,0.01602938584983349,-7.940366776892915e-05,0.0,0.0,0.0,0.0,0.0013193441554903984,-0.0012585382210090756,-0.004656048491597176,0.9991313219070435,0.0,0.0,0.0,-15.995487213134766,1.2083426713943481,4.417909622192383,2895.21484375,0
1020.9200000000001,-0.012473863549530506,0.015975894406437874,-0.00012362716370262206,0.0,0.0,0.0,0.0,0.0034549932461231947,0.0030511929653584957,-0.002101966179907322,1.0013270378112793,0.0,0.0,0.0,-15.987168312072754,1.1996605396270752,4.426275253295898,2893.70947265625,0
1030.8400000000001,-0.012476583011448383,0.01604781672358513,-6.812114588683471e-05,0.0,0.0,0.0,0.0,-0.0037359343841671944,-0.0008479587268084288,0.003829037072136998,1.0014458894729614,0.0,0.0,0.0,-15.995989799499512,1.2105034589767456,4.417757511138916,2895.305908203125,0
1040.7520000000004,-0.012459829449653625,0.015995634719729424,-0.00011929697939194739,0.0,0.0,0.0,0.0,0.0024112826213240623,-0.0016943280352279544,0.002013215096667409,0.9985647201538086,0.0,0.0,0.0,-15.986090660095215,1.2080376148223877,4.419455051422119,2893.51416015625,0
1050.6670000000013,-0.012521610595285892,0.01606321893632412,-9.027546911966056e-05,0.0,0.0,0.0,0.0,0.0007140250527299941,0.00026984006399288774,-0.001811694586649537,1.0000437498092651,0.0,0.0,0.0,-15.99660587310791,1.216546893119812,4.413315296173096,2895.417724609375,0
1060.5680000000011,-0.012538345530629158,0.01599768176674843,-9.541487088426948e-05,0.0,0.0,0.0,0.0,0.0002003194240387529,0.0019421216566115618,0.0002457613009028137,0.9997156262397766,0.0,0.0,0.0,-15.991056442260742,1.205631971359253,4.406018257141113,2894.4130859375,0
1070.487000000001,-0.012488692998886108,0.016047533601522446,-3.583178113331087e-05,0.0,0.0,0.0,0.0,-0.00042391952592879534,-0.0002871098986361176,-0.003594527719542384,0.9996941089630127,0.0,0.0,0.0,-15.995625495910645,1.214448094367981,4.406362533569336,2895.239990234375,0
1080.3999999999996,-0.01247147936373949,0.01599123142659664,-7.657370588276535e-05,0.0,0.0,0.0,0.0,0.0009134046849794686,0.003818730590865016,-0.002080775098875165,1.0003516674041748,0.0,0.0,0.0,-15.986353874206543,1.2062336206436157,4.4061174392700195,2893.56201171875,0
1090.308000000001,-0.01247528474777937,0.016009384766221046,-5.574549868470058e-05,0.0,0.0,0.0,0.0,0.0022335266694426537,-0.0008882523397915065,0.0016104117967188358,1.0001188516616821,0.0,0.0,0.0,-15.997810363769531,1.2079979181289673,4.398481369018555,2895.635498046875,0
1100.2160000000003,-0.01244749128818512,0.015973933041095734,-0.00010261569696012884,0.0,0.0,0.0,0.0,-5.793475793325342e-05,-0.000357885321136564,-0.0005662484327331185,1.0009156465530396,0.0,0.0,0.0,-15.991454124450684,1.1980834007263184,4.39721155166626,2894.48486328125,0
1110.1400000000012,-0.012469611130654812,0.016054434701800346,-5.5720560339977965e-05,0.0,0.0,0.0,0.0,-0.00026853790041059256,-0.0015416082460433245,-0.0017368773696944118,0.9992198348045349,0.0,0.0,0.0,-16.00149917602539,1.2142901420593262,4.38541841506958,2896.30322265625,0
1120.0519999999997,-0.012458213604986668,0.015997963026165962,-9.212258737534285e-05,0.0,0.0,0.0,0.0,0.0009641540818847716,0.002834026236087084,-0.001273870700970292,1.000694751739502,0.0,0.0,0.0,-15.992136001586914,1.2015291452407837,4.384815692901611,2894.6083984375,0
1129.9570000000003,-0.012541157193481922,0.016065215691924095,-7.637428643647581e-05,0.0,0.0,0.0,0.0,-0.003650241531431675,-0.003636375069618225,0.0008407659479416907,0.9997522234916687,0.0,0.0,0.0,-16.001991271972656,1.20377516746521,4.361204147338867,2896.39208984375,0
1139.8639999999996,-0.012500067241489887,0.016085704788565636,-0.00013080856297165155,0.0,0.0,0.0,0.0,-0.0005805518012493849,0.001639096182771027,-0.0015463673043996096,1.0013384819030762,0.0,0.0,0.0,-15.993916511535645,1.2097347974777222,4.3721418380737305,2894.930908203125,0
1149.7890000000007,-0.01248785201460123,0.016149813309311867,-8.352094300789759e-05,0.0,0.0,0.0,0.0,-0.0008584648603573442,0.002666679210960865,-0.003521601902320981,1.0028258562088013,0.0,0.0,0.0,-16.004833221435547,1.2223939895629883,4.365148544311523,2896.906494140625,0
1159.6940000000013,-0.012441541999578476,0.016140466555953026,-0.00015306695422623307,0.0,0.0,0.0,0.0,-0.001477156882174313,0.00035767664667218924,-0.0009995305445045233,0.9999856948852539,0.0,0.0,0.0,-15.990554809570312,1.224518895149231,4.35372257232666,2894.322265625,0
1169.6059999999998,-0.012458034791052341,0.016196105629205704,-0.00012326550495345145,0.0,0.0,0.0,0.0,0.0007376864086836576,-0.0012917619897052646,0.0035309731028974056,1.0010236501693726,0.0,0.0,0.0,-15.999478340148926,1.2336721420288086,4.351837158203125,2895.937255859375,0
1179.5079999999998,-0.012443090789020061,0.01611350104212761,-0.00018148907111026347,0.0,0.0,0.0,0.0,-0.00145520584192127,-0.0023397773038595915,-0.0001713074598228559,1.0016456842422485,0.0,0.0,0.0,-15.982556343078613,1.229764461517334,4.35062837600708,2892.87451171875,0
1189.4300000000003,-0.012458099983632565,0.016171613708138466,-0.00015117744624149054,0.0,0.0,0.0,0.0,0.0003514884738251567,0.001292325439862907,-0.0006848134216852486,1.0018243789672852,0.0,0.0,0.0,-15.991771697998047,1.2424030303955078,4.353533744812012,2894.54248046875,0
1199.3370000000014,-0.012418970465660095,0.01615263894200325,-0.00021352134353946894,0.0,0.0,0.0,0.0,-0.0006065472261980176,-0.0011559890117496252,-0.0022925229277461767,0.9979686141014099,0.0,0.0,0.0,-15.985902786254883,1.2351399660110474,4.3537139892578125,2893.48046875,0
1209.2520000000004,-0.012433936819434166,0.01620510034263134,-0.00018681037181522697,0.0,0.0,0.0,0.0,0.00043108107638545334,-0.0028893761336803436,0.0012673158198595047,1.0001580715179443,0.0,0.0,0.0,-15.99570083618164,1.245127558708191,4.356890678405762,2895.253662109375,0
1219.1560000000009,-0.01242451649159193,0.01616164855659008,-0.0002183347096433863,0.0,0.0,0.0,0.0,-0.00136463507078588,-0.0010444693034514785,-0.0010134243639186025,0.9995932579040527,0.0,0.0,0.0,-15.979991912841797,1.2439830303192139,4.369126796722412,2892.410400390625,0
1229.0740000000005,-0.01244268286973238,0.01617543026804924,-0.00021702118101529777,0.0,0.0,0.0,0.0,0.0008371577132493258,0.0050324504263699055,-0.001794076175428927,0.9997836351394653,0.0,0.0,0.0,-15.99321174621582,1.2486209869384766,4.369989395141602,2894.802978515625,0
1238.9920000000002,-0.012420373037457466,0.016147732734680176,-0.00026462526875548065,0.0,0.0,0.0,0.0,0.0007362007745541632,0.003523837076500058,0.0010641877306625247,0.9972437024116516,0.0,0.0,0.0,-15.985158920288086,1.2380043268203735,4.358434200286865,2893.345458984375,0
1248.8970000000008,-0.012431821785867214,0.01616187021136284,-0.00026610339409671724,0.0,0.0,0.0,0.0,0.00011728960816981271,-0.00020827061962336302,-0.0003879058640450239,0.9963167309761047,0.0,0.0,0.0,-15.99611759185791,1.2373995780944824,4.343457221984863,2895.329345703125,0
1258.8070000000007,-0.012464061379432678,0.01606442593038082,-0.0002699671604204923,0.0,0.0,0.0,0.0,0.0003494965494610369,0.0017958119278773665,0.0013607486616820097,0.9982913732528687,0.0,0.0,0.0,-15.988423347473145,1.2131015062332153,4.336073875427246,2893.936279296875,0
1268.7260000000006,-0.012434601783752441,0.0161445215344429,-0.00021893451048526913,0.0,0.0,0.0,0.0,0.0034463112242519855,-0.00021604952053166926,0.004253049846738577,0.9985796213150024,0.0,0.0,0.0,-15.995989799499512,1.224133014678955,4.335557460784912,2895.305908203125,0
1278.6319999999996,-0.01246714498847723,0.016042398288846016,-0.00022032162814866751,0.0,0.0,0.0,0.0,0.002806937089189887,0.0018062586896121502,-0.0010944170644506812,0.9992461800575256,0.0,0.0,0.0,-15.979819297790527,1.218976616859436,4.330939292907715,2892.379150390625,0
1288.5439999999999,-0.012414095923304558,0.01609860360622406,-0.00017016094352584332,0.0,0.0,0.0,0.0,-0.001056157168932259,0.0010650930926203728,0.0011188507778570056,1.0002219676971436,0.0,0.0,0.0,-15.996411323547363,1.2251805067062378,4.3308234214782715,2895.38232421875,0
1298.4610000000011,-0.012426542118191719,0.016016487032175064,-0.0001840961049310863,0.0,0.0,0.0,0.0,0.0010482141515240073,-0.0015174533473327756,0.0017754348227754235,1.0004076957702637,0.0,0.0,0.0,-15.990583419799805,1.2096009254455566,4.326756954193115,2894.32763671875,0
1308.3649999999998,-0.012414072640240192,0.016025623306632042,-0.00018959687440656126,0.0,0.0,0.0,0.0,-0.002705454360693693,-0.0017387950792908669,-0.0029197323601692915,0.9981993436813354,0.0,0.0,0.0,-15.973376274108887,1.2081340551376343,4.324929237365723,2891.213134765625,0
1318.282000000001,-0.012406070716679096,0.015972105786204338,-0.00021795337670482695,0.0,0.0,0.0,0.0,0.000554308295249939,0.001920063397847116,0.0005982875009067357,1.0001704692840576,0.0,0.0,0.0,-15.968716621398926,1.1980044841766357,4.32383394241333,2890.369384765625,0
1328.1890000000003,-0.012441390193998814,0.01607118546962738,-0.0001568256557220593,0.0,0.0,0.0,0.0,-0.001754237455315888,-0.0004697690310422331,0.0010293913073837757,1.0003167390823364,0.0,0.0,0.0,-15.977995872497559,1.2222415208816528,4.306314945220947,2892.049072265625,0
1338.103000000001,-0.01244626846164465,0.01600029319524765,-0.00018374122737441212,0.0,0.0,0.0,0.0,0.004917911719530821,0.0013264138251543045,-4.023629298899323e-05,0.9998282790184021,0.0,0.0,0.0,-15.961963653564453,1.2224894762039185,4.301678657531738,2889.147216796875,0
1348.0169999999998,-0.01245306059718132,0.01609201170504093,-0.00011826894478872418,0.0,0.0,0.0,0.0,-0.005978518631309271,-0.002757869428023696,0.0005858725635334849,0.9986147284507751,0.0,0.0,0.0,-15.974997520446777,1.2291558980941772,4.290145397186279,2891.506591796875,0
1357.929,-0.012452793307602406,0.01604449562728405,-0.0001387154625263065,0.0,0.0,0.0,0.0,-0.00029415416065603495,0.0004252728831488639,0.0029544879216700792,0.9992716312408447,0.0,0.0,0.0,-15.958939552307129,1.2362066507339478,4.292911529541016,2888.599853515625,0
1367.8410000000003,-0.012481924146413803,0.01611667312681675,-9.8998069006484e-05,0.0,0.0,0.0,0.0,0.0026474790647625923,-0.004368607886135578,0.00013588162255473435,0.9995971918106079,0.0,0.0,0.0,-15.96690845489502,1.2473398447036743,4.284478664398193,2890.042236328125,0
1377.75,-0.012475032359361649,0.01605227217078209,-0.0001392342965118587,0.0,0.0,0.0,0.0,-0.0007858792087063193,-0.0021374181378632784,-0.0026928281877189875,0.9986906051635742,0.0,0.0,0.0,-15.961158752441406,1.2302591800689697,4.291717529296875,2889.00146484375,0
1387.6599999999999,-0.012469171546399593,0.016121769323945045,-8.868892473401502e-05,0.0,0.0,0.0,0.0,-0.002457382157444954,-0.0017587896436452866,0.0012773819034919143,0.9990934729576111,0.0,0.0,0.0,-15.974976539611816,1.2437702417373657,4.2941975593566895,2891.50244140625,0
1397.5720000000001,-0.012452075257897377,0.016103552654385567,-0.00011752801947295666,0.0,0.0,0.0,0.0,0.0023202288430184126,-0.0014047976583242416,-0.0021315300837159157,1.0004396438598633,0.0,0.0,0.0,-15.965238571166992,1.2374117374420166,4.29442834854126,2889.740234375,0
1407.4840000000004,-0.012448878958821297,0.016148727387189865,-8.235375571530312e-05,0.0,0.0,0.0,0.0,-0.0014351533027365804,-0.0003546221414580941,0.0017245362978428602,1.0029011964797974,0.0,0.0,0.0,-15.977853775024414,1.2437843084335327,4.291437149047852,2892.0234375,0
1417.4030000000002,-0.012439755722880363,0.01610809937119484,-0.00010372877295594662,0.0,0.0,0.0,0.0,-0.005197327584028244,-0.0017964987782761455,-0.0020309535320848227,1.001880168914795,0.0,0.0,0.0,-15.961305618286133,1.2402019500732422,4.279857635498047,2889.028076171875,0
1427.313,-0.012443664483726025,0.016151411458849907,-6.845251482445747e-05,0.0,0.0,0.0,0.0,9.641612996347249e-05,-0.002365126507356763,-0.0034907676745206118,1.000239610671997,0.0,0.0,0.0,-15.97288703918457,1.2589728832244873,4.278361797332764,2891.12451171875,0
1437.2200000000012,-0.01242202240973711,0.016073031350970268,-0.0001223465515067801,0.0,0.0,0.0,0.0,0.0027884042356163263,0.002383512444794178,-0.00012097125727450475,0.9989290237426758,0.0,0.0,0.0,-15.957086563110352,1.2615598440170288,4.281174182891846,2888.264404296875,0
1447.1360000000004,-0.01251623872667551,0.01613738387823105,-0.00011035806528525427,0.0,0.0,0.0,0.0,-0.003190424758940935,-0.00037349481135606766,-0.0006576133309863508,0.9987309575080872,0.0,0.0,0.0,-15.97055435180664,1.268356442451477,4.261117935180664,2890.7021484375,0
1457.0550000000003,-0.0124547453597188,0.016142694279551506,-0.00019340298604220152,0.0,0.0,0.0,0.0,-0.00046150063280947506,-0.001671581994742155,0.0008026844006963074,0.9992193579673767,0.0,0.0,0.0,-15.964581489562988,1.2775883674621582,4.263430118560791,2889.621337890625,0
1466.9629999999997,-0.012450669892132282,0.01620013453066349,-0.00015941570745781064,0.0,0.0,0.0,0.0,0.002610614290460944,-5.330790008883923e-05,-0.0007541104569099844,1.0000011920928955,0.0,0.0,0.0,-15.978365898132324,1.2889556884765625,4.263448238372803,2892.115966796875,0
1476.8700000000008,-0.012423975393176079,0.016156041994690895,-0.00021393387578427792,0.0,0.0,0.0,0.0,0.0016720747807994485,-0.003529084613546729,-0.003949112258851528,1.0008240938186646,0.0,0.0,0.0,-15.969478607177734,1.2775647640228271,4.2689127922058105,2890.50732421875,0
1486.804,-0.012465064413845539,0.01610122062265873,-0.00018319982336834073,0.0,0.0,0.0,0.0,-0.0025472817942500114,0.0011863373219966888,-0.005453470163047314,0.9977381825447083,0.0,0.0,0.0,-15.98628044128418,1.2679194211959839,4.277935981750488,2893.548583984375,0
1496.6990000000005,-0.012452332302927971,0.016111239790916443,-0.000188435340533033,0.0,0.0,0.0,0.0,-0.0012791347689926624,-0.0021330583840608597,0.00239876052364707,1.00014328956604,0.0,0.0,0.0,-15.97198486328125,1.2713688611984253,4.275290489196777,2890.961181640625,0
1506.6059999999998,-0.01242025289684534,0.016129009425640106,-0.0001938155764946714,0.0,0.0,0.0,0.0,-0.0011512412456795573,-0.0017790542915463448,0.002055610064417124,1.0019018650054932,0.0,0.0,0.0,-15.98967170715332,1.2803339958190918,4.285468101501465,2894.162353515625,0
1516.5169999999998,-0.012405949644744396,0.016139475628733635,-0.00019910458649974316,0.0,0.0,0.0,0.0,-0.004025902599096298,0.0011185365729033947,-0.0020243111066520214,1.0004961490631104,0.0,0.0,0.0,-15.972896575927734,1.2817832231521606,4.284891605377197,2891.1259765625,0
1526.434000000001,-0.012435143813490868,0.016126932576298714,-0.00017131445929408073,0.0,0.0,0.0,0.0,-0.0021907745394855738,-0.002594277961179614,-0.0005005809362046421,1.0022430419921875,0.0,0.0,0.0,-15.990139961242676,1.2907544374465942,4.2771687507629395,2894.247314453125,0
1536.3410000000003,-0.012423047795891762,0.01613660156726837,-0.0001711586955934763,0.0,0.0,0.0,0.0,-0.002877334598451853,-0.0034911283291876316,0.003473360789939761,1.0022026300430298,0.0,0.0,0.0,-15.974390983581543,1.2891572713851929,4.278425216674805,2891.396728515625,0
1546.255000000001,-0.01246271189302206,0.016072558239102364,-0.00015011314826551825,0.0,0.0,0.0,0.0,-0.0005742913344874978,0.00017177735571749508,-0.00039426967850886285,1.0025379657745361,0.0,0.0,0.0,-15.982597351074219,1.3068304061889648,4.287423610687256,2892.8818359375,0
1556.17,-0.012451505288481712,0.01608108915388584,-0.0001438644976587966,0.0,0.0,0.0,0.0,8.980970596894622e-05,-0.0006608787225559354,-0.0006239886279217899,1.0009411573410034,0.0,0.0,0.0,-15.967101097106934,1.3058186769485474,4.284139633178711,2890.0771484375,0
1566.0780000000013,-0.012451784685254097,0.016057243570685387,-0.00012080817396054044,0.0,0.0,0.0,0.0,1.810827961890027e-05,-0.0019506829557940364,0.004229883197695017,1.0013389587402344,0.0,0.0,0.0,-15.985329627990723,1.3001173734664917,4.290611743927002,2893.37646484375,0
1575.9889999999996,-0.012440459802746773,0.01606610231101513,-0.00011067718878621235,0.0,0.0,0.0,0.0,-0.0015327229630202055,-0.0005010279128327966,-0.00012354683713056147,1.000104546546936,0.0,0.0,0.0,-15.969141960144043,1.2973017692565918,4.294480323791504,2890.44677734375,0
1585.9080000000013,-0.012490789406001568,0.01601630263030529,-4.894481025985442e-05,0.0,0.0,0.0,0.0,-0.00159962207544595,-0.0009788557654246688,-0.002477702684700489,0.9994325041770935,0.0,0.0,0.0,-15.986249923706055,1.294298529624939,4.293127059936523,2893.54296875,0
1595.821,-0.012500882148742676,0.01607363671064377,4.042643922730349e-06,0.0,0.0,0.0,0.0,0.0005926793674007058,0.00453721871599555,-0.0007283448940142989,1.0007734298706055,0.0,0.0,0.0,-15.99954605102539,1.3105669021606445,4.288041114807129,2895.94970703125,0
1605.7270000000008,-0.012476799078285694,0.016021868214011192,-2.6870051442529075e-05,0.0,0.0,0.0,0.0,0.0003796487580984831,0.000404360587708652,-0.0017454648623242974,1.0027555227279663,0.0,0.0,0.0,-15.991432189941406,1.2956424951553345,4.274999141693115,2894.48095703125,0
1615.6470000000008,-0.012476799078285694,0.016021868214011192,-2.6870051442529075e-05,0.0,0.0,0.0,0.0,0.0005966712487861514,-0.005198108032345772,0.0021814792416989803,1.0005080699920654,0.0,0.0,0.0,-15.991432189941406,1.2956424951553345,4.274999141693115,2894.48095703125,0
1625.558000000001,-0.01251389179378748,0.01601889356970787,-4.427576277521439e-05,0.0,0.0,0.0,0.0,-0.0004928739508613944,0.0006542842020280659,0.0009443357121199369,1.0003880262374878,0.0,0.0,0.0,-15.997320175170898,1.282678246498108,4.276103973388672,2895.546630859375,0
1635.4680000000008,-0.01251389179378748,0.01601889356970787,-4.427576277521439e-05,0.0,0.0,0.0,0.0,0.0011251441901549697,-1.8608259779284708e-05,0.0011642196914181113,1.000752329826355,0.0,0.0,0.0,-15.997320175170898,1.282678246498108,4.276103973388672,2895.546630859375,0
1645.384,-0.012492994777858257,0.01604863442480564,-1.835708462749608e-05,0.0,0.0,0.0,0.0,0.0006469407817348838,-0.00035195593954995275,0.00453636609017849,1.0032286643981934,0.0,0.0,0.0,-15.997031211853027,1.3071832656860352,4.273440361022949,2895.494384765625,0
1655.300000000001,-0.012492994777858257,0.01604863442480564,-1.835708462749608e-05,0.0,0.0,0.0,0.0,0.002968110842630267,0.003222145838662982,0.0014407600974664092,1.0015208721160889,0.0,0.0,0.0,-15.997031211853027,1.3071832656860352,4.273440361022949,2895.494384765625,0
1665.1990000000005,-0.012465073727071285,0.016067329794168472,-7.596476643811911e-05,0.0,0.0,0.0,0.0,0.00229270220734179,-0.00039382255636155605,0.00026929585146717727,1.0020294189453125,0.0,0.0,0.0,-16.002948760986328,1.3041349649429321,4.25988245010376,2896.5654296875,0
1675.1180000000004,-0.012463381513953209,0.016123315319418907,-2.745469282672275e-05,0.0,0.0,0.0,0.0,-0.0033330032601952553,-0.005464151501655579,0.003382527269423008,1.0001121759414673,0.0,0.0,0.0,-16.01430892944336,1.3124278783798218,4.257648944854736,2898.621826171875,0
1685.0220000000008,-0.012462534941732883,0.016044339165091515,-4.524281757767312e-05,0.0,0.0,0.0,0.0,-0.00044102990068495274,0.0007574542541988194,-0.000752237334381789,0.9992154836654663,0.0,0.0,0.0,-15.997459411621094,1.3100653886795044,4.255922317504883,2895.572021484375,0
1694.9480000000003,-0.012453760020434856,0.016100145876407623,7.1012191256158985e-06,0.0,0.0,0.0,0.0,0.0010386919602751732,0.0035388274118304253,0.0027125512715429068,0.9996107220649719,0.0,0.0,0.0,-16.006689071655273,1.3252556324005127,4.25980806350708,2897.242431640625,0
1704.8490000000002,-0.012415229342877865,0.016050856560468674,-4.958358113071881e-05,0.0,0.0,0.0,0.0,0.0004600857209879905,0.0011978449765592813,0.004665260668843985,1.0025428533554077,0.0,0.0,0.0,-15.989526748657227,1.3249906301498413,4.249630451202393,2894.13623046875,0
1714.768,-0.012441350147128105,0.016062453389167786,-3.688862489070743e-05,0.0,0.0,0.0,0.0,0.002134193666279316,0.003938550129532814,-0.0033035175874829292,1.0003890991210938,0.0,0.0,0.0,-16.002788543701172,1.3251601457595825,4.235105037689209,2896.53662109375,0
1724.679,-0.012430673465132713,0.016022861003875732,-5.341331416275352e-05,0.0,0.0,0.0,0.0,-0.0028144214302301407,0.0029430396389216185,0.0022457465529441833,1.000317931175232,0.0,0.0,0.0,-15.99480152130127,1.3077921867370605,4.232080459594727,2895.0908203125,0
1734.6110000000008,-0.012441875413060188,0.01609949581325054,-1.3315348041942343e-06,0.0,0.0,0.0,0.0,-0.00043271479080431163,0.0005415439372882247,-4.7697682020952925e-05,1.0019415616989136,0.0,0.0,0.0,-15.988611221313477,1.3130989074707031,4.206086158752441,2893.970458984375,0
1744.496000000001,-0.012448890134692192,0.01601722277700901,-3.17992853524629e-05,0.0,0.0,0.0,0.0,-0.0005146712064743042,0.0022877086885273457,-0.0015598159516230226,0.9990279674530029,0.0,0.0,0.0,-15.988611221313477,1.3130989074707031,4.206086158752441,2893.970458984375,0
1754.4220000000005,-0.012441269122064114,0.01606460101902485,1.1072929737565573e-05,0.0,0.0,0.0,0.0,-0.00020855729235336185,0.002284369431436062,0.0005571843357756734,0.9999026656150818,0.0,0.0,0.0,-16.003467559814453,1.3243625164031982,4.197094917297363,2896.659423828125,0
1764.3240000000005,-0.012428896501660347,0.01601286791265011,-1.4622188245994039e-05,0.0,0.0,0.0,0.0,-0.00034799971035681665,-0.0027813962660729885,-0.0026524076238274574,0.9998944401741028,0.0,0.0,0.0,-15.98763656616211,1.321323275566101,4.1925764083862305,2893.7939453125,0
1774.2389999999996,-0.012464029714465141,0.016077212989330292,2.507501994841732e-05,0.0,0.0,0.0,0.0,0.002370478119701147,0.004059844650328159,0.001301986863836646,0.9999130964279175,0.0,0.0,0.0,-15.999543190002441,1.3332351446151733,4.181948184967041,2895.94921875,0
1784.1499999999996,-0.0124810840934515,0.01600968837738037,3.360601112945005e-05,0.0,0.0,0.0,0.0,0.0022680219262838364,0.0019085011444985867,-0.0031061149202287197,1.001176357269287,0.0,0.0,0.0,-15.990341186523438,1.3161588907241821,4.180624008178711,2894.28369140625,0
1794.067000000001,-0.012479731813073158,0.016025982797145844,6.0639038565568626e-05,0.0,0.0,0.0,0.0,-0.00033266577520407736,0.0005512706120498478,0.0016172889154404402,1.0003252029418945,0.0,0.0,0.0,-16.00417709350586,1.315629005432129,4.170252323150635,2896.7880859375,0
1803.9670000000006,-0.01247637439519167,0.01597530022263527,5.193007018533535e-05,0.0,0.0,0.0,0.0,-0.0029978747479617596,-0.0021145453210920095,-0.002669141162186861,0.9995871782302856,0.0,0.0,0.0,-15.988734245300293,1.3071643114089966,4.1755266189575195,2893.99267578125,0
1813.8880000000008,-0.012573243118822575,0.0160320233553648,6.863963790237904e-05,0.0,0.0,0.0,0.0,0.0004924708628095686,-0.002065233653411269,-0.00038733903784304857,0.9993401169776917,0.0,0.0,0.0,-16.0004940032959,1.318697452545166,4.154575824737549,2896.12109375,0
1823.795,-0.01257641613483429,0.015950605273246765,4.368065856397152e-05,0.0,0.0,0.0,0.0,0.0027666387613862753,0.00011511205229908228,-0.001720532076433301,1.0003626346588135,0.0,0.0,0.0,-15.991623878479004,1.3013110160827637,4.161865711212158,2894.515625,0
1833.7110000000011,-0.01252009253948927,0.016005050390958786,0.0001105556875700131,0.0,0.0,0.0,0.0,-0.002727481536567211,-0.008313186466693878,0.0010312949307262897,1.0021075010299683,0.0,0.0,0.0,-16.003450393676758,1.309165358543396,4.174896717071533,2896.65625,0
1843.6190000000006,-0.012508283369243145,0.015973273664712906,9.1557863925118e-05,0.0,0.0,0.0,0.0,-0.0010917284525930882,-0.0022887447848916054,-0.0022130210418254137,1.0005813837051392,0.0,0.0,0.0,-15.995037078857422,1.3019176721572876,4.18206787109375,2895.133544921875,0
1853.5349999999999,-0.012491796165704727,0.016024107113480568,0.00014750845730304718,0.0,0.0,0.0,0.0,-0.002278060419484973,-0.0017711628461256623,0.0010365251218900084,1.0001285076141357,0.0,0.0,0.0,-16.008800506591797,1.3187776803970337,4.19883394241333,2897.624755859375,0
1863.4449999999997,-0.012442898005247116,0.015998750925064087,8.213871478801593e-05,0.0,0.0,0.0,0.0,-0.0024150393437594175,-0.0031035428401082754,0.002188104670494795,0.9982299208641052,0.0,0.0,0.0,-15.9989595413208,1.316298484802246,4.207004070281982,2895.843505859375,0
1873.3610000000008,-0.012479554861783981,0.01605365425348282,0.00011658036964945495,0.0,0.0,0.0,0.0,0.00010852572449948639,0.0017084955470636487,-0.0006713158218190074,0.9981991052627563,0.0,0.0,0.0,-16.007104873657227,1.3270854949951172,4.203670024871826,2897.31787109375,0
1883.264000000001,-0.01244713831692934,0.01601797342300415,6.108445813879371e-05,0.0,0.0,0.0,0.0,0.0018419306725263596,-0.0006014164537191391,0.0025504683144390583,0.998539924621582,0.0,0.0,0.0,-16.002153396606445,1.3155792951583862,4.206973075866699,2896.421630859375,0
1893.1850000000013,-0.01248215977102518,0.016090285032987595,9.45252540986985e-05,0.0,0.0,0.0,0.0,-0.0009534069686196744,0.003930135630071163,0.0022155980113893747,1.0002537965774536,0.0,0.0,0.0,-15.995366096496582,1.3142160177230835,4.18465518951416,2895.193115234375,0
1903.0910000000003,-0.01242415513843298,0.01607336290180683,1.5066520120399218e-07,0.0,0.0,0.0,0.0,0.00033414748031646013,0.0015959382290020585,-0.0001680892164586112,0.998456597328186,0.0,0.0,0.0,-15.995366096496582,1.3142160177230835,4.18465518951416,2895.193115234375,0
1913.0159999999996,-0.012445180676877499,0.016134442761540413,1.536763011245057e-05,0.0,0.0,0.0,0.0,-0.001344788004644215,0.0016015744768083096,0.0020034678746014833,0.9995018243789673,0.0,0.0,0.0,-15.990166664123535,1.3138327598571777,4.162858963012695,2894.251953125,0
1922.9140000000007,-0.01242639496922493,0.016108933836221695,-2.73115438176319e-05,0.0,0.0,0.0,0.0,0.0026862293016165495,0.002441245364025235,-0.000953841779846698,1.000687599182129,0.0,0.0,0.0,-15.997881889343262,1.3118326663970947,4.168045520782471,2895.6484375,0
1932.8400000000001,-0.012450143694877625,0.01617932878434658,-1.5205328054435086e-05,0.0,0.0,0.0,0.0,5.6812084949342534e-05,-0.0026061616372317076,0.00502309063449502,1.0010457038879395,0.0,0.0,0.0,-15.993294715881348,1.3130444288253784,4.159276008605957,2894.818115234375,0
1942.7399999999998,-0.012431724928319454,0.016112051904201508,-7.644259312655777e-05,0.0,0.0,0.0,0.0,-0.0009427587501704693,0.001641831360757351,0.0035042103845626116,1.0001400709152222,0.0,0.0,0.0,-15.993294715881348,1.3130444288253784,4.159276008605957,2894.818115234375,0
1952.6710000000003,-0.012547125108540058,0.016192080453038216,-7.290319626918063e-05,0.0,0.0,0.0,0.0,-0.0010888116667047143,0.0019452875712886453,-0.0007985386764630675,1.0003268718719482,0.0,0.0,0.0,-16.005922317504883,1.3226197957992554,4.147631645202637,2897.10400390625,0
1962.5720000000001,-0.012497108429670334,0.016199765726923943,-0.00016139124636538327,0.0,0.0,0.0,0.0,-3.191125506418757e-05,0.0017638102872297168,0.0020657952409237623,1.0001436471939087,0.0,0.0,0.0,-15.995774269104004,1.3259481191635132,4.1510090827941895,2895.266845703125,0
1972.4790000000012,-0.012485993094742298,0.01623600907623768,-0.00014659571752417833,0.0,0.0,0.0,0.0,0.0003124382346868515,0.005532655864953995,-0.0020799192134290934,0.9995646476745605,0.0,0.0,0.0,-16.010128021240234,1.3349100351333618,4.13969087600708,2897.864990234375,0
1982.3850000000002,-0.012484177947044373,0.016157280653715134,-0.0002062594285234809,0.0,0.0,0.0,0.0,-0.000922795501537621,-0.003528373781591654,0.0019874507561326027,0.9990753531455994,0.0,0.0,0.0,-15.99402904510498,1.3282132148742676,4.134972095489502,2894.950927734375,0
1992.2970000000005,-0.012542798183858395,0.016232993453741074,-0.00019942194921895862,0.0,0.0,0.0,0.0,0.0006131608970463276,0.003067288314923644,-0.0004324040492065251,0.9990573525428772,0.0,0.0,0.0,-16.003992080688477,1.3388216495513916,4.124478816986084,2896.75439453125,0
2002.210000000001,-0.012573529034852982,0.016139362007379532,-0.00022530689602717757,0.0,0.0,0.0,0.0,-0.0030316461343318224,0.0033186699729412794,3.640816066763364e-05,0.9996333718299866,0.0,0.0,0.0,-15.993961334228516,1.313187599182129,4.122040748596191,2894.93896484375,0
2012.1220000000012,-0.012528781779110432,0.01619316264986992,-0.00019458886526990682,0.0,0.0,0.0,0.0,0.0027622480411082506,0.0010122579988092184,0.0028531933203339577,1.00216805934906,0.0,0.0,0.0,-16.004711151123047,1.323117733001709,4.124039649963379,2896.884521484375,0
2022.036,-0.012508339248597622,0.016176609322428703,-0.00025603643734939396,0.0,0.0,0.0,0.0,-0.0023874512407928705,0.0009608962573111057,-0.0016202847473323345,1.0007308721542358,0.0,0.0,0.0,-15.995806694030762,1.3195432424545288,4.121535301208496,2895.272705078125,0
2031.9449999999997,-0.012448783032596111,0.016216589137911797,-0.00022574780450668186,0.0,0.0,0.0,0.0,0.001440682215616107,-0.0031319474801421165,0.00035526134888641536,1.0000628232955933,0.0,0.0,0.0,-16.0030460357666,1.326075792312622,4.128602027893066,2896.5830078125,0
2041.8559999999998,-0.01249560434371233,0.016110841184854507,-0.00022648756566923112,0.0,0.0,0.0,0.0,-0.0014985732268542051,-0.0013435767032206059,0.00011210257798666134,1.0005937814712524,0.0,0.0,0.0,-15.986000061035156,1.3262128829956055,4.133999347686768,2893.497802734375,0
2051.7710000000006,-0.012418990023434162,0.01611759513616562,-0.00020008864521514624,0.0,0.0,0.0,0.0,-0.0007676391978748143,0.001538634649477899,0.0001353083353023976,0.9998193383216858,0.0,0.0,0.0,-15.996145248413086,1.3344590663909912,4.153590679168701,2895.333984375,0
2061.6859999999997,-0.012413011863827705,0.016095852479338646,-0.00023291133402381092,0.0,0.0,0.0,0.0,-0.0013425815850496292,0.00034331000642850995,0.0025251121260225773,1.001298427581787,0.0,0.0,0.0,-15.979774475097656,1.3374427556991577,4.157212257385254,2892.370849609375,0
2071.599,-0.012323886156082153,0.016136201098561287,-0.00018331156752537936,0.0,0.0,0.0,0.0,0.0017042286926880479,0.0010751140071079135,-0.002332640578970313,0.998723566532135,0.0,0.0,0.0,-15.989473342895508,1.346521258354187,4.172070026397705,2894.12646484375,0
2081.509,-0.012379655614495277,0.016014138236641884,-0.0001660461857682094,0.0,0.0,0.0,0.0,0.0009085237979888916,0.003310645231977105,-0.00188655115198344,1.0005238056182861,0.0,0.0,0.0,-15.983152389526367,1.3163248300552368,4.170830726623535,2892.982421875,0
2091.4170000000013,-0.012372962199151516,0.01603352278470993,-0.00014992334763519466,0.0,0.0,0.0,0.0,-0.0003020320145878941,0.0006027510389685631,-0.005798693746328354,0.9992383122444153,0.0,0.0,0.0,-15.99441909790039,1.3164020776748657,4.167538642883301,2895.021728515625,0
2101.331,-0.012390275485813618,0.015967311337590218,-0.00015903226449154317,0.0,0.0,0.0,0.0,-0.002283363835886121,-0.0006365503650158644,0.000966939318459481,0.9980949759483337,0.0,0.0,0.0,-15.988003730773926,1.2964141368865967,4.161227226257324,2893.8603515625,0
2111.247000000001,-0.012450513429939747,0.016063425689935684,-0.00012179443729110062,0.0,0.0,0.0,0.0,-0.0005323183140717447,-0.00043414367246441543,0.0025375960394740105,0.9996165037155151,0.0,0.0,0.0,-15.999750137329102,1.309983491897583,4.148915767669678,2895.986572265625,0
2121.1540000000005,-0.012455273419618607,0.016000956296920776,-0.00014731222472619265,0.0,0.0,0.0,0.0,-0.0013275777455419302,0.0008237334550358355,-0.0027506761252880096,0.999291718006134,0.0,0.0,0.0,-15.994257926940918,1.2928004264831543,4.145830154418945,2894.992431640625,0
2131.0699999999997,-0.012462125159800053,0.016084879636764526,-9.784620488062501e-05,0.0,0.0,0.0,0.0,-0.0003347821475472301,0.0022304109297692776,-0.00015177066961769015,0.999841570854187,0.0,0.0,0.0,-16.005382537841797,1.3136029243469238,4.152137279510498,2897.006103515625,0
2140.978000000001,-0.012465856969356537,0.01602158136665821,-0.00012431840877979994,0.0,0.0,0.0,0.0,0.0025689948815852404,-0.0028640117961913347,0.002029862254858017,0.9991497993469238,0.0,0.0,0.0,-15.997002601623535,1.2902828454971313,4.147415637969971,2895.4892578125,0
2150.892,-0.01247622910887003,0.016090402379631996,-8.61377629917115e-05,0.0,0.0,0.0,0.0,-0.00040317702223546803,-0.0019255835795775056,-0.001672683167271316,0.9997490048408508,0.0,0.0,0.0,-16.007089614868164,1.2969081401824951,4.1440534591674805,2897.31494140625,0
