timestamp,stateEstimate.x,stateEstimate.y,stateEstimate.z,controller.cmd_thrust,controller.cmd_roll,controller.cmd_pitch,controller.cmd_yaw,controller.r_roll,controller.r_pitch,controller.r_yaw,controller.accelz,controller.actuatorThrust,controller.roll,controller.pitch,controller.yaw,controller.rollRate,controller.pitchRate,controller.yawRate,controller.ctr_yaw
0.0,1.4959691725380253e-05,-0.0001066422846633941,-0.00010400082828709856,0.0,0.0,0.0,0.0,0.00020744976063724607,-0.00564062362536788,0.0007945214747451246,0.9982330799102783,0.0,0.0,0.0,0.32227587699890137,2.5345866680145264,4.7248759269714355,-58.33257293701172,0
9.929000000000087,4.879942207480781e-05,-0.0001249920460395515,-5.798417987534776e-05,0.0,0.0,0.0,0.0,-0.0017388464184477925,-0.0027946392074227333,0.0002683287893887609,0.999352216720581,0.0,0.0,0.0,0.32224076986312866,2.5341269969940186,4.729870319366455,-58.32622146606445,0
19.816999999999098,1.913964115374256e-05,-9.318021329818293e-05,-7.915939204394817e-05,0.0,0.0,0.0,0.0,0.0021769918967038393,-0.002202363684773445,-4.837629967369139e-05,0.9990450739860535,0.0,0.0,0.0,0.32837459444999695,2.5488336086273193,4.743536949157715,-59.43645477294922,0
29.740999999999985,-6.426026084227487e-05,-0.00010482227662578225,-6.346168083837256e-05,0.0,0.0,0.0,0.0,0.003807611530646682,-0.005402986891567707,-0.002440405311062932,1.0018882751464844,0.0,0.0,0.0,0.3285349905490875,2.5493593215942383,4.7455973625183105,-59.465484619140625,0
39.64799999999923,-8.827737474348396e-05,-6.397476681740955e-05,-9.908782521961257e-05,0.0,0.0,0.0,0.0,-0.002770822960883379,-0.0005639843875542283,0.003200649283826351,0.9992788434028625,0.0,0.0,0.0,0.32850247621536255,2.5422964096069336,4.752389907836914,-59.45960235595703,0
49.56999999999971,-8.789276034804061e-05,-0.00010249531624140218,-6.930606468813494e-05,0.0,0.0,0.0,0.0,-0.0035337067674845457,-0.000909284339286387,-0.0005627306527458131,0.9996451139450073,0.0,0.0,0.0,0.3271806240081787,2.541910171508789,4.748547554016113,-59.22034454345703,0
59.469999999999345,-0.00010300184658262879,-6.319794192677364e-05,-0.00011617837299127132,0.0,0.0,0.0,0.0,-0.0026973714120686054,-0.0011548287002369761,-0.0004295354010537267,1.0006074905395508,0.0,0.0,0.0,0.3268072307109833,2.5474939346313477,4.7470784187316895,-59.15275573730469,0
69.39599999999882,-4.404080391395837e-05,-0.00011406236444599926,-7.686099706916139e-05,0.0,0.0,0.0,0.0,-0.00341857154853642,-0.0015982571057975292,0.0020787923131138086,1.0013048648834229,0.0,0.0,0.0,0.32720744609832764,2.5514512062072754,4.749053001403809,-59.22520065307617,0
79.29599999999846,-7.014896254986525e-05,-9.26511493162252e-05,-0.00011301530321361497,0.0,0.0,0.0,0.0,-0.0022615808993577957,-0.0009405456366948783,0.0027382944244891405,0.9980567693710327,0.0,0.0,0.0,0.3273922801017761,2.5493052005767822,4.753068447113037,-59.25865936279297,0
89.22699999999895,6.69275141262915e-06,-0.00014669762458652258,-6.405959720723331e-05,0.0,0.0,0.0,0.0,-0.0005314702284522355,-0.0015882663428783417,0.0025418950244784355,0.9984273910522461,0.0,0.0,0.0,0.3289250433444977,2.5535356998443604,4.755960941314697,-59.53608322143555,0
99.1239999999998,-1.173454165837029e-05,-0.00010865540389204398,-9.557161683915183e-05,0.0,0.0,0.0,0.0,0.0027393691707402468,-0.0017759498441591859,0.0013079113559797406,1.002032995223999,0.0,0.0,0.0,0.329022079706192,2.554422616958618,4.759858131408691,-59.553653717041016,0
109.04500000000007,-3.5612767533166334e-05,-0.0001245062449015677,-6.356776430038735e-05,0.0,0.0,0.0,0.0,-0.00037444368354044855,0.004232911858707666,0.002309737727046013,1.0000755786895752,0.0,0.0,0.0,0.32870426774024963,2.5409114360809326,4.762456893920898,-59.496124267578125,0
118.9489999999987,-0.00010722185834310949,-0.00017077516531571746,-5.851533933309838e-05,0.0,0.0,0.0,0.0,-0.002914225682616234,0.00038860380300320685,0.0030856896191835403,1.002301812171936,0.0,0.0,0.0,0.32882726192474365,2.536654233932495,4.758731365203857,-59.51838684082031,0
128.86999999999898,-0.00013194240455050021,-0.00011728080426109955,-7.58182504796423e-05,0.0,0.0,0.0,0.0,-0.0022584879770874977,-0.002130606211721897,-0.000104824299341999,1.0014877319335938,0.0,0.0,0.0,0.3289111852645874,2.5330638885498047,4.760517120361328,-59.53357696533203,0
138.77799999999843,-0.00020525979925878346,-0.00016230950132012367,-6.941395258763805e-05,0.0,0.0,0.0,0.0,0.00037532596616074443,-0.0028246273286640644,-0.0005590536748059094,0.9998367428779602,0.0,0.0,0.0,0.32944929599761963,2.53415584564209,4.755943298339844,-59.630977630615234,0
148.70699999999852,-0.00022855220595374703,-9.785380825633183e-05,-8.727948443265632e-05,0.0,0.0,0.0,0.0,0.0002224290801677853,-0.0006884622271172702,0.004284001421183348,0.998952329158783,0.0,0.0,0.0,0.32956382632255554,2.5348000526428223,4.76479959487915,-59.651710510253906,0
158.60699999999997,-0.0003014920512214303,-0.00013779863365925848,-8.107315079541877e-05,0.0,0.0,0.0,0.0,0.004970569163560867,0.0027313465252518654,-0.0020085612777620554,1.0003184080123901,0.0,0.0,0.0,0.3287426829338074,2.5266335010528564,4.756485462188721,-59.503082275390625,0
168.52999999999884,-0.0002904361463151872,-6.823815783718601e-05,-0.00014372391160577536,0.0,0.0,0.0,0.0,-0.0008802881930023432,-0.0030432555358856916,0.0007769910735078156,0.9983993172645569,0.0,0.0,0.0,0.33180034160614014,2.5657029151916504,4.793115139007568,-60.056522369384766,0
178.42799999999988,-0.0003571556881070137,-0.00010187830775976181,-0.00014373240992426872,0.0,0.0,0.0,0.0,-0.001327652600593865,0.0017336754826828837,-0.0024210885167121887,0.9990124106407166,0.0,0.0,0.0,0.33179470896720886,2.562025785446167,4.792910575866699,-60.055503845214844,0
188.35899999999856,-0.00038003569352440536,-8.092331700026989e-05,-0.0001737132843118161,0.0,0.0,0.0,0.0,-0.0016460297629237175,-0.005951568949967623,-0.0014809906715527177,1.0004808902740479,0.0,0.0,0.0,0.3310459554195404,2.5526771545410156,4.7888102531433105,-59.91997528076172,0
198.2609999999986,-0.00044647755566984415,-0.00011272348638158292,-0.00017756305169314146,0.0,0.0,0.0,0.0,-0.003468262730166316,0.001467476598918438,-0.0011339271441102028,1.0002464056015015,0.0,0.0,0.0,0.33018505573272705,2.554565668106079,4.788089275360107,-59.7641487121582,0
208.17999999999847,-0.00045284247607924044,-8.358930790564045e-05,-0.00021177611779421568,0.0,0.0,0.0,0.0,-0.0013994331238791347,5.160371438250877e-05,-0.0005982794100418687,0.9989811778068542,0.0,0.0,0.0,0.3291531503200531,2.563718557357788,4.7973761558532715,-59.57737731933594,0
218.08599999999933,-0.0005186547641642392,-0.00011351268767612055,-0.00021786510478705168,0.0,0.0,0.0,0.0,-0.002301609143614769,-0.004090113565325737,0.0028567928820848465,1.0011367797851562,0.0,0.0,0.0,0.32865220308303833,2.5575575828552246,4.789453029632568,-59.48670196533203,0
228.003999999999,-0.0004689434717874974,-4.500207433011383e-05,-0.00027038296684622765,0.0,0.0,0.0,0.0,-0.002697187941521406,-0.0008170679793693125,-0.0010504735400900245,0.9987488985061646,0.0,0.0,0.0,0.3327537178993225,2.607602596282959,4.839346408843994,-60.22908020019531,0
237.91100000000006,-0.0005264589563012123,-6.841700815130025e-05,-0.00028156308690086007,0.0,0.0,0.0,0.0,0.00013685718295164406,-0.0020653519313782454,0.0004988585133105516,0.9989864826202393,0.0,0.0,0.0,0.33251866698265076,2.6111035346984863,4.844635009765625,-60.18653869628906,0
247.82999999999993,-0.0004476098401937634,-4.642895419237902e-06,-0.0003488419170025736,0.0,0.0,0.0,0.0,-0.0008509378531016409,0.00029725811327807605,0.00315181165933609,1.0014525651931763,0.0,0.0,0.0,0.33883044123649597,2.6618924140930176,4.895445823669434,-61.328983306884766,0
257.73599999999897,-0.0004961805534549057,-2.1266736439429224e-05,-0.00036632848787121475,0.0,0.0,0.0,0.0,-0.001933487132191658,-0.0003043557226192206,-0.00015230652934405953,0.9993317127227783,0.0,0.0,0.0,0.3381126821041107,2.658050060272217,4.891623020172119,-61.199066162109375,0
267.66299999999865,-0.00043305291910655797,2.187442805734463e-05,-0.0004293945094104856,0.0,0.0,0.0,0.0,0.0025692975614219904,-0.001025400822982192,0.0028102295473217964,0.9990308284759521,0.0,0.0,0.0,0.335335373878479,2.6931889057159424,4.9302496910095215,-60.69636917114258,0
277.5619999999999,-0.0004801328759640455,8.063171662797686e-06,-0.000453255110187456,0.0,0.0,0.0,0.0,-0.0022062493953853846,-0.0002082774881273508,0.0017525103176012635,0.9988345503807068,0.0,0.0,0.0,0.33548617362976074,2.6852049827575684,4.921324729919434,-60.723663330078125,0
287.4879999999994,-0.00047477486077696085,5.623124889098108e-05,-0.0004786441277246922,0.0,0.0,0.0,0.0,-0.00044432361028157175,-0.0016203235136345029,-0.0013929499546065927,1.0004838705062866,0.0,0.0,0.0,0.3357803225517273,2.682089328765869,4.916091442108154,-60.77690505981445,0
297.3909999999996,-0.0005164089961908758,4.646687739295885e-05,-0.0005030937027186155,0.0,0.0,0.0,0.0,0.0014979152474552393,-0.002243345370516181,0.0015945243649184704,0.9990800619125366,0.0,0.0,0.0,0.3361593186855316,2.6881508827209473,4.92038631439209,-60.84550476074219,0
307.3229999999985,-0.0005181003944016993,8.995670214062557e-05,-0.0005292916321195662,0.0,0.0,0.0,0.0,-0.00012246427650097758,4.3994063162244856e-05,-0.003154918784275651,1.0004241466522217,0.0,0.0,0.0,0.34334370493888855,2.7088122367858887,4.930211067199707,-62.14589309692383,0
317.21599999999853,-0.0005599923897534609,8.34758102428168e-05,-0.0005547741893678904,0.0,0.0,0.0,0.0,-0.0004911798168905079,0.00241858116351068,0.001871659536845982,1.0015888214111328,0.0,0.0,0.0,0.3416965901851654,2.708787202835083,4.9211554527282715,-61.84775924682617,0
327.1459999999988,-0.0006038761930540204,7.61646733735688e-05,-0.0005799475475214422,0.0,0.0,0.0,0.0,-0.0016255457885563374,-0.004250162746757269,-0.0021256739273667336,0.9998462796211243,0.0,0.0,0.0,0.3409493863582611,2.704678773880005,4.922861576080322,-61.71251678466797,0
337.04599999999846,-0.0006514223641715944,6.713288894388825e-05,-0.0006039996515028179,0.0,0.0,0.0,0.0,-0.0007270561764016747,-0.002042246051132679,0.0038192840293049812,0.9987107515335083,0.0,0.0,0.0,0.3432518541812897,2.706105947494507,4.922754764556885,-62.12926483154297,0
346.96500000000015,-0.0007029111147858202,5.642612813971937e-05,-0.0006278525106608868,0.0,0.0,0.0,0.0,0.0028607016429305077,0.0018478260608389974,-0.004075027536600828,1.0008418560028076,0.0,0.0,0.0,0.34362927079200745,2.706089496612549,4.918344974517822,-62.19757843017578,0
356.869999999999,-0.0007572651957161725,4.4615138904191554e-05,-0.000651977548841387,0.0,0.0,0.0,0.0,-0.0010557733476161957,-0.0031944557558745146,-0.0017115564551204443,0.9989438056945801,0.0,0.0,0.0,0.3436046540737152,2.700298309326172,4.911041736602783,-62.1931266784668,0
366.79099999999926,-0.0008142194128595293,3.208581620128825e-05,-0.0006763191195204854,0.0,0.0,0.0,0.0,0.00044933584285899997,-0.0029358381871134043,-0.0014133219374343753,0.9995558261871338,0.0,0.0,0.0,0.34340527653694153,2.7004544734954834,4.907169342041016,-62.157039642333984,0
376.7039999999997,-0.0008738955366425216,1.9130631699226797e-05,-0.0007008558022789657,0.0,0.0,0.0,0.0,0.00018290428852196783,0.0027398455422371626,0.00041080761002376676,1.0003679990768433,0.0,0.0,0.0,0.3427838981151581,2.7027862071990967,4.915010452270508,-62.0445671081543,0
386.6299999999992,-0.0009360203985124826,5.356282599677797e-06,-0.0007257093675434589,0.0,0.0,0.0,0.0,0.0017066779546439648,-0.0010854939464479685,0.0019273703219369054,1.001807451248169,0.0,0.0,0.0,0.3416905701160431,2.7023074626922607,4.914248943328857,-61.84667205810547,0
396.52599999999984,-0.0010002786293625832,-9.849011803453322e-06,-0.0007501873187720776,0.0,0.0,0.0,0.0,0.0057343305088579655,0.0010775562841445208,-0.004517911933362484,1.0014153718948364,0.0,0.0,0.0,0.34099602699279785,2.699998617172241,4.904350757598877,-61.7209587097168,0
406.4439999999995,-0.0010668267495930195,-2.6949426683131605e-05,-0.0007732936646789312,0.0,0.0,0.0,0.0,0.0019575906917452812,-0.001018754905089736,0.00033815839560702443,1.0015671253204346,0.0,0.0,0.0,0.34003424644470215,2.6974174976348877,4.89873743057251,-61.546878814697266,0
416.34699999999975,-0.0011359304189682007,-4.555479245027527e-05,-0.000794657040387392,0.0,0.0,0.0,0.0,0.0008801246294751763,0.00012332102051004767,0.0002513478393666446,0.9991793036460876,0.0,0.0,0.0,0.3374842703342438,2.686387777328491,4.89273738861084,-61.085323333740234,0
426.27700000000004,-0.001207892899401486,-6.485055200755596e-05,-0.0008146226173266768,0.0,0.0,0.0,0.0,0.0014735988806933165,-0.001588671701028943,0.0008131869835779071,0.997649073600769,0.0,0.0,0.0,0.33796897530555725,2.679208755493164,4.88206672668457,-61.173057556152344,0
436.1829999999991,-0.001282815937884152,-8.617925050202757e-05,-0.0008350791176781058,0.0,0.0,0.0,0.0,0.0003617635811679065,0.0010291194776073098,0.0009343831916339695,0.9990125298500061,0.0,0.0,0.0,0.3383159339427948,2.6784584522247314,4.878591060638428,-61.23585510253906,0
446.09999999999854,-0.0013604206033051014,-0.00011096702655777335,-0.000857254141010344,0.0,0.0,0.0,0.0,0.00011971837375313044,-0.0013600941747426987,0.0027704350650310516,0.9995347857475281,0.0,0.0,0.0,0.3379948139190674,2.6700310707092285,4.874112606048584,-61.177734375,0
456.0099999999984,-0.001440726569853723,-0.00013888426474295557,-0.0008805568795651197,0.0,0.0,0.0,0.0,-0.0007844490464776754,-0.005218158476054668,0.0005300156190060079,1.0016123056411743,0.0,0.0,0.0,0.33826950192451477,2.670269250869751,4.874408721923828,-61.227455139160156,0
465.9259999999995,-0.0015234368620440364,-0.00016928650438785553,-0.000903809443116188,0.0,0.0,0.0,0.0,0.00016464477812405676,0.004568534903228283,-0.0033703544177114964,0.9998607039451599,0.0,0.0,0.0,0.3391185402870178,2.664393424987793,4.884991645812988,-61.38113021850586,0
475.83100000000013,-0.0016078338958323002,-0.00020160057465545833,-0.0009263072861358523,0.0,0.0,0.0,0.0,-0.0008679645834490657,-0.004481326788663864,0.0004786745994351804,0.9999653697013855,0.0,0.0,0.0,0.3386937379837036,2.665485143661499,4.878230094909668,-61.30424118041992,0
485.75,-0.0016942438669502735,-0.0002354947937419638,-0.0009483159519731998,0.0,0.0,0.0,0.0,0.0017296200385317206,-0.001119385939091444,-0.0022072065621614456,0.9997138381004333,0.0,0.0,0.0,0.33800455927848816,2.660050392150879,4.868406772613525,-61.17949676513672,0
495.65899999999965,-0.0017829859862104058,-0.0002706136438064277,-0.0009701349772512913,0.0,0.0,0.0,0.0,0.0005677154986187816,0.0010448549874126911,0.00030883014551363885,0.9996779561042786,0.0,0.0,0.0,0.33698025345802307,2.658299684524536,4.867729663848877,-60.99409484863281,0
505.5779999999995,-0.0018733623437583447,-0.00030716374749317765,-0.0009920550510287285,0.0,0.0,0.0,0.0,-0.002321903593838215,-0.002966907573863864,0.00197541993111372,1.0008032321929932,0.0,0.0,0.0,0.33600863814353943,2.65215802192688,4.859739780426025,-60.818233489990234,0
515.4799999999996,-0.0019651183392852545,-0.00034524689544923604,-0.0010142067912966013,0.0,0.0,0.0,0.0,0.001408151350915432,0.00012802872515749186,-0.0031538361217826605,0.998339056968689,0.0,0.0,0.0,0.3367093801498413,2.6547443866729736,4.861371994018555,-60.945068359375,0
525.4039999999986,-0.0020590410567820072,-0.0003850143402814865,-0.0010360971791669726,0.0,0.0,0.0,0.0,0.0017857648199424148,0.0005015659844502807,-0.0006726205465383828,0.9993060231208801,0.0,0.0,0.0,0.33673349022865295,2.658890962600708,4.8597412109375,-60.949432373046875,0
535.3159999999989,-0.0021559034939855337,-0.0004271910001989454,-0.0010585666168481112,0.0,0.0,0.0,0.0,0.0013777880230918527,0.00042059013503603637,0.000414772832300514,0.9989998936653137,0.0,0.0,0.0,0.33616310358047485,2.6529340744018555,4.857994556427002,-60.84619140625,0
545.2309999999998,-0.002255832776427269,-0.00047172827180474997,-0.0010818337323144078,0.0,0.0,0.0,0.0,-0.0002654425916261971,0.002354513853788376,-0.003018103539943695,1.0000334978103638,0.0,0.0,0.0,0.33565232157707214,2.6506733894348145,4.855936527252197,-60.75373840332031,0
555.1329999999998,-0.002358547179028392,-0.0005185298505239189,-0.0011053764028474689,0.0,0.0,0.0,0.0,0.0021459402050822973,-0.003987534902989864,-7.806595385773107e-05,0.999226450920105,0.0,0.0,0.0,0.33561378717422485,2.6481714248657227,4.861148834228516,-60.74676513671875,0
565.0639999999985,-0.0024632944259792566,-0.0005672411061823368,-0.0011290987022221088,0.0,0.0,0.0,0.0,-0.001432614866644144,0.0018928443314507604,0.0012836263049393892,0.9986035823822021,0.0,0.0,0.0,0.33557310700416565,2.644256114959717,4.864735126495361,-60.73939895629883,0
574.9609999999993,-0.002569865435361862,-0.0006171100540086627,-0.00115332065615803,0.0,0.0,0.0,0.0,0.0014552284264937043,-0.0009792884811758995,0.00026878868811763823,1.0016578435897827,0.0,0.0,0.0,0.33486223220825195,2.638866662979126,4.869460582733154,-60.61073303222656,0
584.8799999999992,-0.002678758231922984,-0.0006681274971924722,-0.0011780065251514316,0.0,0.0,0.0,0.0,-0.00291597843170166,-0.000961614481639117,0.0031703454442322254,1.0000402927398682,0.0,0.0,0.0,0.33503440022468567,2.6423022747039795,4.8677077293396,-60.64189910888672,0
594.7869999999984,-0.00020449441217351705,-0.0009111968684010208,0.0012103747576475143,0.0,0.0,0.0,0.0,-0.004379319027066231,-0.0010981791419908404,-0.0002737603208515793,0.9995947480201721,0.0,0.0,0.0,0.3358159065246582,2.6911051273345947,5.108733177185059,-60.783348083496094,0
604.7169999999987,-0.00024467220646329224,-0.0009598482283763587,0.0012469746870920062,0.0,0.0,0.0,0.0,0.001575400703586638,2.038872116827406e-05,0.0022909410763531923,0.9998321533203125,0.0,0.0,0.0,0.3349219858646393,2.689192295074463,5.1084771156311035,-60.62154769897461,0
614.6149999999998,-0.00026261774473823607,-0.0009543632622808218,0.001357654924504459,0.0,0.0,0.0,0.0,-0.0010780581505969167,0.00047088347491808236,0.0012518708826974034,1.0009266138076782,0.0,0.0,0.0,0.34093350172042847,2.7017104625701904,5.108354568481445,-61.70964050292969,0
624.5419999999995,-0.0003064758493565023,-0.001001535216346383,0.0013975368347018957,0.0,0.0,0.0,0.0,-0.0010446992237120867,-0.0018162494525313377,-0.0009576783049851656,1.0022034645080566,0.0,0.0,0.0,0.3417642116546631,2.698591947555542,5.103672027587891,-61.86000061035156,0
634.4409999999989,-0.00035232072696089745,-0.0010493334848433733,0.0014387380797415972,0.0,0.0,0.0,0.0,-0.00011463881673989818,-0.007547055371105671,0.0010433329734951258,0.9997344017028809,0.0,0.0,0.0,0.34173473715782166,2.6978442668914795,5.10354471206665,-61.85466384887695,0
644.3639999999996,-0.00039975609979592264,-0.0010984335094690323,0.001481459941715002,0.0,0.0,0.0,0.0,-0.0017887941794469953,-0.004636900499463081,-0.0010223700664937496,1.0012987852096558,0.0,0.0,0.0,0.3416688144207001,2.6968603134155273,5.104718208312988,-61.842735290527344,0
654.2709999999988,-0.000390953675378114,-0.0011038470547646284,0.0015558783197775483,0.0,0.0,0.0,0.0,-0.003597450442612171,-0.0011982725700363517,-0.0002037694357568398,1.00086510181427,0.0,0.0,0.0,0.3414926826953888,2.700840711593628,5.118533134460449,-61.81085968017578,0
664.1839999999993,-0.0004370117385406047,-0.0011545269517228007,0.001603077631443739,0.0,0.0,0.0,0.0,0.00032068751170299947,0.0007914205198176205,-0.000965519982855767,0.9997855424880981,0.0,0.0,0.0,0.3412483036518097,2.6959002017974854,5.121761798858643,-61.76662063598633,0
674.1009999999987,-0.00040919630555436015,-0.0011396599002182484,0.0016487888060510159,0.0,0.0,0.0,0.0,0.0006972142728045583,-0.00347841321490705,-0.0003358103858772665,0.9993141889572144,0.0,0.0,0.0,0.34930187463760376,2.708954334259033,5.1578288078308105,-63.22433090209961,0
684.018,-0.0004507232515607029,-0.001190340961329639,0.0016998474020510912,0.0,0.0,0.0,0.0,-9.840208804234862e-05,-0.0009596631280146539,-0.002948802663013339,0.9985816478729248,0.0,0.0,0.0,0.35002630949020386,2.7123212814331055,5.154145240783691,-63.355464935302734,0
693.9290000000001,-0.0004098681383766234,-0.0011720944894477725,0.0017161315772682428,0.0,0.0,0.0,0.0,0.0005729783442802727,-0.002865114714950323,2.656782089616172e-05,0.9988648295402527,0.0,0.0,0.0,0.35348570346832275,2.721942186355591,5.198972225189209,-63.98161315917969,0
703.8419999999987,-0.00044759685988537967,-0.0012224975507706404,0.0017681040335446596,0.0,0.0,0.0,0.0,-0.0018447493202984333,0.002235465683043003,0.0014191486407071352,1.0008964538574219,0.0,0.0,0.0,0.3541398346424103,2.7242887020111084,5.202403545379639,-64.10001373291016,0
713.7529999999988,-0.0004042449872940779,-0.0012182340724393725,0.0017774756997823715,0.0,0.0,0.0,0.0,0.0020347496028989553,-0.0007652461063116789,-8.442987018497661e-05,0.9991813898086548,0.0,0.0,0.0,0.3516770601272583,2.7303216457366943,5.239884853363037,-63.65424346923828,0
723.6669999999995,-0.0004385675420053303,-0.0012680882355198264,0.0018310812301933765,0.0,0.0,0.0,0.0,0.0010879015317186713,0.001644071307964623,-0.001725057722069323,0.9995975494384766,0.0,0.0,0.0,0.35223302245140076,2.723496198654175,5.242090225219727,-63.754878997802734,0
733.5859999999993,-0.0004166691505815834,-0.0012628553668037057,0.0018672642763704062,0.0,0.0,0.0,0.0,-0.00037611444713547826,-0.0036754722241312265,-0.004348428454250097,0.9990646243095398,0.0,0.0,0.0,0.35913291573524475,2.7293479442596436,5.261270999908447,-65.00377655029297,0
743.4899999999998,-0.00044949440052732825,-0.0013112613232806325,0.0019227636512368917,0.0,0.0,0.0,0.0,0.0011175499530509114,0.000910667353309691,-0.0031943696085363626,1.0016378164291382,0.0,0.0,0.0,0.35819876194000244,2.7329788208007812,5.262167930603027,-64.83468627929688,0
753.4069999999992,-0.00044982886174693704,-0.0012926497729495168,0.0019627928268164396,0.0,0.0,0.0,0.0,0.00043626289698295295,0.0011866214917972684,0.0012459289282560349,1.0018959045410156,0.0,0.0,0.0,0.3566470444202423,2.728214979171753,5.258889675140381,-64.55382537841797,0
763.3189999999995,-0.00048015659558586776,-0.0013404081109911203,0.002021885709837079,0.0,0.0,0.0,0.0,-0.00031947658862918615,-0.006074939854443073,0.0008254977874457836,1.002545952796936,0.0,0.0,0.0,0.35633400082588196,2.723609685897827,5.243375301361084,-64.49716186523438,0
773.2369999999992,-0.0004604589776135981,-0.0013486405368894339,0.0020695808343589306,0.0,0.0,0.0,0.0,0.0022713360376656055,0.0040581184439361095,-0.001418070518411696,1.001074194908142,0.0,0.0,0.0,0.35566750168800354,2.7190139293670654,5.239467144012451,-64.37652587890625,0
783.1419999999998,-0.0004842407943215221,-0.0013978052884340286,0.0021351617760956287,0.0,0.0,0.0,0.0,-0.0003280740638729185,-0.006083186250180006,0.005853945855051279,1.0011950731277466,0.0,0.0,0.0,0.35543644428253174,2.717750072479248,5.239583492279053,-64.33470153808594,0
793.0689999999995,-0.00043956152512691915,-0.001410102704539895,0.0021766708232462406,0.0,0.0,0.0,0.0,-0.0016985191032290459,0.001488187932409346,-0.001496642711572349,1.000791072845459,0.0,0.0,0.0,0.3554195463657379,2.718641519546509,5.240195274353027,-64.3316421508789,0
802.9689999999991,-0.00011538842954905704,-0.0002781845396384597,0.00013182766269892454,0.0,0.0,0.0,0.0,-0.0011363780358806252,0.0022545873653143644,-0.0032225106842815876,0.9995993375778198,0.0,0.0,0.0,0.36310628056526184,2.838107109069824,5.2791643142700195,-65.72295379638672,0
812.8869999999988,-1.4872079191263765e-05,-0.0003003717865794897,0.00022944649390410632,0.0,0.0,0.0,0.0,-0.0016154907643795013,-0.0017375062452629209,-0.0018359945388510823,0.9998635053634644,0.0,0.0,0.0,0.3629443645477295,2.833360195159912,5.274399757385254,-65.69364929199219,0
822.7919999999995,2.8870650567114353e-05,-0.0002184748009312898,0.0001550728193251416,0.0,0.0,0.0,0.0,0.0008938238606788218,-0.0046292622573673725,-0.0004036306927446276,1.0006301403045654,0.0,0.0,0.0,0.36192983388900757,2.8278796672821045,5.26813268661499,-65.51001739501953,0
832.7159999999985,2.2437601728597656e-05,-0.00023520573449786752,0.00017952124471776187,0.0,0.0,0.0,0.0,-0.002245563082396984,0.0007925779209472239,-0.0004080468788743019,0.9985376000404358,0.0,0.0,0.0,0.3625623881816864,2.817739248275757,5.27007532119751,-65.62451171875,0
842.6179999999986,3.0344963306561112e-05,-0.00023675842385273427,0.00016986302216537297,0.0,0.0,0.0,0.0,-0.001679287408478558,-0.004381667356938124,-0.0009962175972759724,0.9980074763298035,0.0,0.0,0.0,0.36152154207229614,2.8229100704193115,5.267104625701904,-65.43611907958984,0
852.5379999999986,-2.0490957467700355e-05,-0.00026690002414397895,0.00016723957378417253,0.0,0.0,0.0,0.0,-0.0020226845517754555,-0.0026264910120517015,-0.002893011551350355,0.9986386895179749,0.0,0.0,0.0,0.3605024516582489,2.8190877437591553,5.272462844848633,-65.25166320800781,0
862.4439999999995,-5.469658844958758e-06,-0.000268317642621696,0.00014789422857575119,0.0,0.0,0.0,0.0,0.0006717639043927193,0.0020606706384569407,-0.001879165880382061,1.000401496887207,0.0,0.0,0.0,0.3597414493560791,2.8118896484375,5.271793365478516,-65.1139144897461,0
872.3689999999988,2.0335690351203084e-05,-0.0002611244563013315,0.00019212020561099052,0.0,0.0,0.0,0.0,0.0004914366872981191,-0.0007357081049121916,-0.0001123349429690279,1.000368356704712,0.0,0.0,0.0,0.3601328432559967,2.804278612136841,5.262137413024902,-65.18475341796875,0
882.2709999999988,5.471251279232092e-05,-0.0002133590169250965,0.00017111501074396074,0.0,0.0,0.0,0.0,-0.001925105694681406,0.001934111351147294,0.0020430756267160177,0.999731183052063,0.0,0.0,0.0,0.3593445420265198,2.794947862625122,5.2552008628845215,-65.04207611083984,0
892.1929999999993,-8.025749411899596e-05,-0.00018972366524394602,0.00016811306704767048,0.0,0.0,0.0,0.0,0.00403597904369235,-0.0035919996444135904,0.0035243609454482794,0.9994580745697021,0.0,0.0,0.0,0.35909971594810486,2.7971277236938477,5.246799468994141,-64.99775695800781,0
902.1029999999992,-5.575816976488568e-05,-0.00019052435527555645,0.00012732556206174195,0.0,0.0,0.0,0.0,-0.001270638545975089,-0.0015676110051572323,0.0010623577982187271,1.0009292364120483,0.0,0.0,0.0,0.35940513014793396,2.7865610122680664,5.247432708740234,-65.05304718017578,0
912.0209999999988,-5.836943455506116e-05,-0.0002148431376554072,0.0001399080065311864,0.0,0.0,0.0,0.0,-0.0024013235233724117,-0.0005780966603197157,0.0010427732486277819,1.0012611150741577,0.0,0.0,0.0,0.3592800498008728,2.781741142272949,5.247766494750977,-65.03040313720703,0
921.9319999999989,3.1958543331711553e-06,-0.00014674301201011986,6.952692638151348e-05,0.0,0.0,0.0,0.0,0.0017354247393086553,0.0016400204040110111,0.0015983835328370333,0.9999563097953796,0.0,0.0,0.0,0.3594868779182434,2.783125162124634,5.238265037536621,-65.06784057617188,0
931.8469999999998,-4.5452303311321884e-05,-0.00018433075456414372,5.426260395324789e-05,0.0,0.0,0.0,0.0,0.00011329295375617221,-1.848056126618758e-05,-0.002023231005296111,0.9994758367538452,0.0,0.0,0.0,0.3597898483276367,2.7857656478881836,5.2322235107421875,-65.12267303466797,0
941.7529999999988,-7.971517334226519e-06,-0.00014619754801969975,-8.225323426813702e-07,0.0,0.0,0.0,0.0,0.0001641927083255723,-0.005033029243350029,0.0014521273551508784,1.001314640045166,0.0,0.0,0.0,0.358877032995224,2.777892589569092,5.2285261154174805,-64.95745849609375,0
951.6829999999991,-3.8871738070156425e-05,-0.00015458209963981062,2.5148815439024474e-06,0.0,0.0,0.0,0.0,-0.0013332420494407415,-0.002184775425121188,0.0012782886624336243,1.0002120733261108,0.0,0.0,0.0,0.3585264980792999,2.7754433155059814,5.229748249053955,-64.89401245117188,0
961.5769999999993,2.3849659555708058e-05,-9.426221367903054e-05,-8.79271756275557e-05,0.0,0.0,0.0,0.0,0.0033196506556123495,0.005163130816072226,0.0010273015359416604,1.0010912418365479,0.0,0.0,0.0,0.35824427008628845,2.769083261489868,5.224735736846924,-64.84292602539062,0
971.5,4.285146133042872e-05,-0.00011803090455941856,-7.909319538157433e-05,0.0,0.0,0.0,0.0,0.0007980665541253984,-0.0025739851407706738,0.0012510112719610333,1.0012900829315186,0.0,0.0,0.0,0.35746243596076965,2.7626094818115234,5.206968784332275,-64.701416015625,0
981.4129999999986,7.003668724792078e-05,-4.492235166253522e-05,-0.00020974014478269964,0.0,0.0,0.0,0.0,-0.002363406354561448,-6.766799924662337e-05,0.0015570292016491294,1.0009135007858276,0.0,0.0,0.0,0.35804927349090576,2.7615177631378174,5.206467628479004,-64.80763244628906,0
991.3279999999995,4.8215104470727965e-05,-7.484121306333691e-05,-0.0002226881479145959,0.0,0.0,0.0,0.0,-0.0016457083402201533,-0.0002696154697332531,0.000814249855466187,0.9989537000656128,0.0,0.0,0.0,0.357768714427948,2.761902332305908,5.201006889343262,-64.75685119628906,0
1001.2309999999998,3.9866630686447024e-05,-6.292536272667348e-05,-0.0002669627428986132,0.0,0.0,0.0,0.0,0.0012628554832190275,-0.005329040810465813,-0.0010722214356064796,1.000082015991211,0.0,0.0,0.0,0.3578185439109802,2.7666749954223633,5.1964874267578125,-64.765869140625,0
1011.1499999999996,1.489058013248723e-05,-9.49596069403924e-05,-0.00028192251920700073,0.0,0.0,0.0,0.0,-0.0019164284458383918,0.005066534969955683,-0.0037026230711489916,1.0019012689590454,0.0,0.0,0.0,0.35858824849128723,2.763862371444702,5.205126762390137,-64.90518188476562,0
1021.0659999999989,1.4342125723487698e-05,-9.146307274932042e-05,-0.0002952546637970954,0.0,0.0,0.0,0.0,0.005175279453396797,0.0012448241468518972,-0.0007775032427161932,1.0003042221069336,0.0,0.0,0.0,0.3582872450351715,2.7687840461730957,5.1943278312683105,-64.8507080078125,0
1030.9849999999988,-1.2882394003099762e-05,-0.00012440157297533005,-0.0003080572932958603,0.0,0.0,0.0,0.0,0.0005876208306290209,-0.002493583830073476,0.000459539849543944,0.9984576106071472,0.0,0.0,0.0,0.35803502798080444,2.7613627910614014,5.192514896392822,-64.8050537109375,0
1040.8849999999984,1.1667522812786046e-05,-0.00012606920790858567,-0.000277427927358076,0.0,0.0,0.0,0.0,0.0048499382100999355,0.004462050274014473,0.001134252641350031,0.9997037649154663,0.0,0.0,0.0,0.3567391037940979,2.7585794925689697,5.183090686798096,-64.57048797607422,0
1050.8089999999993,-1.9084600353380665e-05,-0.0001613929052837193,-0.0002873374614864588,0.0,0.0,0.0,0.0,-0.001502030179835856,-0.0007042507058940828,0.004874139092862606,0.9986350536346436,0.0,0.0,0.0,0.3567315638065338,2.744413137435913,5.175965785980225,-64.56912231445312,0
1060.7099999999991,8.501592674292624e-05,-0.00014079402899369597,-0.00023288580996450037,0.0,0.0,0.0,0.0,-0.0002551865472923964,0.0009126851218752563,0.001978278160095215,0.9983104467391968,0.0,0.0,0.0,0.3575199544429779,2.742065906524658,5.168787479400635,-64.71182250976562,0
1070.6349999999984,5.2147297537885606e-05,-0.00017889348964672536,-0.00023858623171690851,0.0,0.0,0.0,0.0,-0.00028986678807996213,-0.0010065669193863869,-0.0010276657994836569,0.9987414479255676,0.0,0.0,0.0,0.35787948966026306,2.745534896850586,5.154726505279541,-64.77690124511719,0
1080.5369999999984,2.113469054165762e-05,-0.00011204175825696439,-0.0002677028242032975,0.0,0.0,0.0,0.0,-0.00020119061809964478,-0.0018503805622458458,-0.00011922045086976141,0.9989224672317505,0.0,0.0,0.0,0.365421324968338,2.7507941722869873,5.156836986541748,-66.1419906616211,0
1090.4619999999995,-1.5424137018271722e-05,-0.0001487501140218228,-0.0002773245796561241,0.0,0.0,0.0,0.0,-0.0007031143177300692,0.0009678126079961658,0.0006506413337774575,1.0005549192428589,0.0,0.0,0.0,0.3662608563899994,2.7514026165008545,5.150781631469727,-66.29393768310547,0
1100.3639999999996,-2.2852847905596718e-05,-0.00011590872600208968,-0.0002475928340572864,0.0,0.0,0.0,0.0,0.0022431164979934692,0.0020084192510694265,-0.0044510276056826115,1.0008823871612549,0.0,0.0,0.0,0.3672243654727936,2.7482681274414062,5.143613815307617,-66.46833801269531,0
1110.2909999999993,-6.268599827308208e-05,-0.00015337560034822673,-0.0002533202350605279,0.0,0.0,0.0,0.0,-0.00021554436534643173,0.0004640192200895399,0.0028097727335989475,1.0006368160247803,0.0,0.0,0.0,0.36580345034599304,2.7456319332122803,5.1376118659973145,-66.2111587524414,0
1120.1899999999987,-9.545375360175967e-05,-0.0001301306183449924,-0.00017984426813200116,0.0,0.0,0.0,0.0,0.0014016669010743499,-0.001967467600479722,-0.00027058282284997404,0.9995886087417603,0.0,0.0,0.0,0.3656703531742096,2.747783660888672,5.130809307098389,-66.18706512451172,0
1130.1119999999992,-0.0001346452918369323,-0.00016695083468221128,-0.00017767422832548618,0.0,0.0,0.0,0.0,-0.003819497302174568,-0.0038320927415043116,0.003410347504541278,0.9990077614784241,0.0,0.0,0.0,0.36455774307250977,2.7432968616485596,5.122933864593506,-65.98567962646484,0
1140.0169999999998,-9.942134056473151e-05,-0.00010195122740697116,-0.0001353094557998702,0.0,0.0,0.0,0.0,0.002858043648302555,-0.0028304809238761663,0.003852798603475094,0.9992281794548035,0.0,0.0,0.0,0.36518070101737976,2.7463576793670654,5.1176018714904785,-66.09843444824219,0
1149.9359999999997,-0.00013854802818968892,-0.00013766031770501286,-0.00013050406414549798,0.0,0.0,0.0,0.0,0.0017372152069583535,-0.00015731612802483141,-0.0016426675720140338,0.997572660446167,0.0,0.0,0.0,0.36566030979156494,2.745130777359009,5.121794700622559,-66.18524169921875,0
1159.842999999999,-0.0001101022498914972,-0.00010619212116580456,-9.272306488128379e-05,0.0,0.0,0.0,0.0,0.002667028456926346,-0.0033765563275665045,0.0002750567509792745,0.9990814328193665,0.0,0.0,0.0,0.36535370349884033,2.746457815170288,5.119326114654541,-66.12975311279297,0
1169.7639999999992,-0.00014860053488519043,-0.00014343179645948112,-8.734525908948854e-05,0.0,0.0,0.0,0.0,-0.0011944799916818738,-9.425143798580393e-05,6.612663855776191e-05,0.9983938932418823,0.0,0.0,0.0,0.3639588952064514,2.7422173023223877,5.119113922119141,-65.87728118896484,0
1179.6689999999999,-8.391779556404799e-05,-7.908349653007463e-05,-9.678085916675627e-05,0.0,0.0,0.0,0.0,0.0035341191105544567,-0.005354185122996569,0.0030223247595131397,1.0003066062927246,0.0,0.0,0.0,0.36333054304122925,2.737417459487915,5.116657257080078,-65.7635498046875,0
1189.5939999999991,-0.00012116245488869026,-0.00011457530490588397,-9.423328447155654e-05,0.0,0.0,0.0,0.0,-0.0012699810322374105,-0.003924763295799494,0.0047014388255774975,1.001059651374817,0.0,0.0,0.0,0.3637974262237549,2.7326016426086426,5.121603488922119,-65.84805297851562,0
1199.4959999999992,-9.368069731863216e-05,-0.0001200949409394525,-6.521902105305344e-05,0.0,0.0,0.0,0.0,-0.0017818815540522337,-0.0038058815989643335,0.0015437941765412688,0.9998242855072021,0.0,0.0,0.0,0.3640919625759125,2.728663682937622,5.128950595855713,-65.9013671875,0
1209.4179999999997,-0.00013072426372673362,-0.0001566579012433067,-5.913864879403263e-05,0.0,0.0,0.0,0.0,0.0019090254791080952,-0.0032265495974570513,0.0031605293042957783,0.9999313354492188,0.0,0.0,0.0,0.36485087871551514,2.7275636196136475,5.129780292510986,-66.03873443603516,0
1219.3229999999985,-3.196753459633328e-05,-9.924264304572716e-05,-8.315239392686635e-05,0.0,0.0,0.0,0.0,-0.0011353882728144526,0.00021152253611944616,0.0013168773148208857,1.000138521194458,0.0,0.0,0.0,0.3656849265098572,2.7247753143310547,5.130444049835205,-66.189697265625,0
1229.241,-6.859517452539876e-05,-0.0001350097154499963,-7.851941336411983e-05,0.0,0.0,0.0,0.0,0.0015940871089696884,-0.006833340507000685,0.0012995654251426458,0.9991821050643921,0.0,0.0,0.0,0.3663482666015625,2.7291476726531982,5.1415181159973145,-66.30976104736328,0
1239.1499999999996,1.797720506147016e-05,-6.654376193182543e-05,-0.0001040672286762856,0.0,0.0,0.0,0.0,-0.000369244342437014,9.578558092471212e-05,0.0016508606495335698,0.9992882013320923,0.0,0.0,0.0,0.36581239104270935,2.729729175567627,5.14858341217041,-66.21277618408203,0
1249.0739999999987,-1.7343887520837598e-05,-0.00010268353798892349,-0.00010125696280738339,0.0,0.0,0.0,0.0,0.003593123983591795,-0.0009920158190652728,0.0036040451377630234,0.9977226257324219,0.0,0.0,0.0,0.3651776611804962,2.724977970123291,5.146527290344238,-66.09788513183594,0
1258.9779999999992,1.4553641449310817e-05,-4.866283416049555e-05,-0.0001194616561406292,0.0,0.0,0.0,0.0,0.0018469378119334579,-0.003735591657459736,-9.02873434824869e-05,0.9999657273292542,0.0,0.0,0.0,0.36538395285606384,2.7179999351501465,5.140385627746582,-66.13522338867188,0
1268.896999999999,-1.9758257622015662e-05,-8.434596384176984e-05,-0.0001198380850837566,0.0,0.0,0.0,0.0,-0.0011739743640646338,0.0001795808639144525,-0.001916956389322877,1.0010124444961548,0.0,0.0,0.0,0.3652017414569855,2.710789442062378,5.141922950744629,-66.10224151611328,0
1278.8019999999997,4.638857353711501e-05,-6.113498966442421e-05,-0.00015075140981934965,0.0,0.0,0.0,0.0,0.0015324928099289536,-0.0006301541579887271,0.0003590834094211459,1.0007489919662476,0.0,0.0,0.0,0.37422019243240356,2.7145276069641113,5.153742790222168,-67.73460388183594,0
1288.723,1.3853048585588112e-05,-9.791985212359577e-05,-0.0001522319798823446,0.0,0.0,0.0,0.0,0.00022503026411868632,0.0020293330308049917,0.0025989084970206022,0.9994041323661804,0.0,0.0,0.0,0.3731459379196167,2.7117650508880615,5.1498589515686035,-67.5401611328125,0
1298.628999999999,3.56873897544574e-05,-0.00016188248991966248,-0.00014573082444258034,0.0,0.0,0.0,0.0,0.0007925307145342231,-0.0029327606316655874,0.005009475164115429,0.9999727010726929,0.0,0.0,0.0,0.37378084659576416,2.7103922367095947,5.141812324523926,-67.65507507324219,0
1308.5529999999999,1.242049620486796e-06,-0.0002011355827562511,-0.00014555451343767345,0.0,0.0,0.0,0.0,-6.618742918362841e-05,-0.0018361022230237722,0.0029941704124212265,1.0030573606491089,0.0,0.0,0.0,0.3742501437664032,2.707458257675171,5.139760971069336,-67.7400131225586,0
1318.4560000000001,-1.1405219311200199e-06,-0.00021183185162954032,-8.844549302011728e-05,0.0,0.0,0.0,0.0,-0.0026817789766937494,-0.00490685785189271,-0.0018924595788121223,0.9982606768608093,0.0,0.0,0.0,0.3736734688282013,2.706310987472534,5.14191198348999,-67.6356430053711,0
1328.3759999999984,-3.9051468775141984e-05,-0.00024983257753774524,-8.120026905089617e-05,0.0,0.0,0.0,0.0,-0.0013234518701210618,-0.0028086723759770393,0.004664111882448196,0.9998054504394531,0.0,0.0,0.0,0.37211641669273376,2.7058210372924805,5.144374847412109,-67.35381317138672,0
1338.2839999999997,-1.8279723008163273e-05,-0.00024267190019600093,-3.48993853549473e-05,0.0,0.0,0.0,0.0,0.0015764159616082907,0.005892941728234291,-0.0032773222774267197,0.9985514283180237,0.0,0.0,0.0,0.38069087266921997,2.711202383041382,5.152070999145508,-68.90580749511719,0
1348.2019999999993,-5.758438419434242e-05,-0.00028239356470294297,-2.5169450964313e-05,0.0,0.0,0.0,0.0,-0.0008141779690049589,0.0034071486443281174,0.002818176755681634,1.0011582374572754,0.0,0.0,0.0,0.38021260499954224,2.7038955688476562,5.140153884887695,-68.8192367553711,0
1358.1089999999986,-4.853523932979442e-05,-0.0002301365602761507,2.758826269655401e-07,0.0,0.0,0.0,0.0,0.0024128977674990892,-0.0008045442518778145,0.002082789782434702,1.0025545358657837,0.0,0.0,0.0,0.3794555366039276,2.6985669136047363,5.118239879608154,-68.68219757080078,0
1368.0369999999984,-9.124062489718199e-05,-0.00026890734443441033,1.1832489690277725e-05,0.0,0.0,0.0,0.0,-0.0019095828756690025,-0.0007923623197712004,-0.0036750391591340303,1.000319480895996,0.0,0.0,0.0,0.3788393437862396,2.693638563156128,5.1129279136657715,-68.57067108154297,0
1377.9349999999995,-8.897820225683972e-05,-0.0001500786020187661,-1.5973273548297584e-05,0.0,0.0,0.0,0.0,-0.0020430609583854675,0.009208706207573414,-0.004459151066839695,0.9994601011276245,0.0,0.0,0.0,0.37972792983055115,2.6930627822875977,5.113160133361816,-68.73151397705078,0
1387.8589999999986,-0.00013516275794245303,-0.00018281329539604485,-4.634071956388652e-06,0.0,0.0,0.0,0.0,0.0006428645574487746,0.002545031486079097,6.343064160319045e-05,1.001096487045288,0.0,0.0,0.0,0.37776586413383484,2.6989545822143555,5.096616744995117,-68.37637329101562,0
1397.7609999999986,4.826322401640937e-05,-8.528880425728858e-05,-5.894951755180955e-05,0.0,0.0,0.0,0.0,-0.0015470514772459865,-0.01231416780501604,0.002672497881576419,1.0009782314300537,0.0,0.0,0.0,0.3769069015979767,2.69580078125,5.074562072753906,-68.22090148925781,0
1407.690999999999,6.200232746778056e-05,-5.8303583500673994e-05,-0.00010551212471909821,0.0,0.0,0.0,0.0,0.0016557398485019803,0.004001020919531584,-0.0014844716060906649,1.0016601085662842,0.0,0.0,0.0,0.37666282057762146,2.6859629154205322,5.084537029266357,-68.17672729492188,0
1417.5879999999997,-2.3602095097885467e-05,-5.988719567540102e-05,-9.933116234606132e-05,0.0,0.0,0.0,0.0,-0.0036132982932031155,0.00014071763143874705,-0.0015007867477834225,1.0012611150741577,0.0,0.0,0.0,0.37550416588783264,2.6825315952301025,5.085651397705078,-67.96699523925781,0
1427.5099999999984,-4.464840094442479e-05,-5.143466842127964e-05,-0.00011205420742044225,0.0,0.0,0.0,0.0,-0.0031217490322887897,-0.006389866583049297,0.006041795946657658,1.0006004571914673,0.0,0.0,0.0,0.3756456971168518,2.6795620918273926,5.092438697814941,-67.99261474609375,0
1437.4139999999989,-6.0887119616381824e-05,-6.54094765195623e-05,-8.403592073591426e-05,0.0,0.0,0.0,0.0,0.004178896546363831,-0.0049550835974514484,-0.0021255516912788153,1.0008066892623901,0.0,0.0,0.0,0.37594711780548096,2.6805226802825928,5.093621253967285,-68.04718017578125,0
1447.3469999999998,-6.728124571964145e-05,-4.2816893255803734e-05,-0.00011340466880938038,0.0,0.0,0.0,0.0,-0.0010882556671276689,0.008439765311777592,0.00043253469630144536,1.0008156299591064,0.0,0.0,0.0,0.3761068880558014,2.6781864166259766,5.0937395095825195,-68.07610321044922,0
1457.241,4.604277705766435e-07,-0.00011202590394532308,-9.052180394064635e-05,0.0,0.0,0.0,0.0,-0.0010085211833938956,-0.0007943973178043962,0.00178267783485353,0.9986187219619751,0.0,0.0,0.0,0.37545785307884216,2.6754980087280273,5.078619956970215,-67.95861053466797,0
1467.1679999999997,-7.991907295945566e-06,-8.597214036853984e-05,-0.00011435041960794479,0.0,0.0,0.0,0.0,0.0018315521301701665,0.0005599388969130814,-0.001440668711438775,0.9983547329902649,0.0,0.0,0.0,0.3768853545188904,2.6708176136016846,5.072346210479736,-68.21700286865234,0
1477.0679999999993,-1.936777880473528e-05,-0.00010576931526884437,-9.12233954295516e-05,0.0,0.0,0.0,0.0,-0.002371096983551979,0.0006265955162234604,-0.0006342353881336749,1.0021435022354126,0.0,0.0,0.0,0.37575408816337585,2.6679537296295166,5.065365314483643,-68.01223754882812,0
1486.9969999999994,-2.6937601433019154e-05,-8.115275704767555e-05,-0.00012048921780660748,0.0,0.0,0.0,0.0,-0.0005754743469879031,-0.0013658475363627076,0.0015365572180598974,0.9999160170555115,0.0,0.0,0.0,0.37632593512535095,2.6731157302856445,5.06523323059082,-68.1157455444336,0
1496.9039999999986,4.797859946847893e-05,-0.0001057537883752957,-7.127127901185304e-05,0.0,0.0,0.0,0.0,9.498831059318036e-05,0.0031601886730641127,-0.0010463615180924535,0.9994917511940002,0.0,0.0,0.0,0.37512242794036865,2.673039674758911,5.072554111480713,-67.89790344238281,0
1506.807999999999,3.0895120289642364e-05,-9.683477401267737e-05,-8.579882705816999e-05,0.0,0.0,0.0,0.0,-0.005441729445010424,-0.007794536650180817,0.0005916496156714857,1.0004466772079468,0.0,0.0,0.0,0.3749028742313385,2.6717796325683594,5.06173849105835,-67.85816955566406,0
1516.7209999999995,5.8070585509995e-05,-0.00012794078793376684,-5.041042095399462e-05,0.0,0.0,0.0,0.0,-0.0006559709436260164,-7.700497371843085e-05,-0.0001656723761698231,1.0020291805267334,0.0,0.0,0.0,0.3745642602443695,2.668609142303467,5.058090686798096,-67.796875,0
1526.634,4.4269087084103376e-05,-0.00011158100824104622,-6.453692185459659e-05,0.0,0.0,0.0,0.0,0.00101467443164438,-0.0016439610626548529,-0.0032133781351149082,0.9980087280273438,0.0,0.0,0.0,0.37517258524894714,2.674208879470825,5.070793151855469,-67.906982421875,0
1536.5479999999989,4.1082643292611465e-05,-0.0001312024105573073,-3.3630276448093355e-05,0.0,0.0,0.0,0.0,-0.0011069851461797953,0.004014043137431145,0.0013362924801185727,0.9982685446739197,0.0,0.0,0.0,0.37515392899513245,2.6663765907287598,5.063514232635498,-67.90360260009766,0
1546.4699999999993,-9.542804946249817e-06,-0.00016901346680242568,-2.09122990781907e-05,0.0,0.0,0.0,0.0,0.00031319857225753367,-0.0027889818884432316,-0.0017282133921980858,1.000757098197937,0.0,0.0,0.0,0.37409403920173645,2.656675100326538,5.061051845550537,-67.7117691040039,0
1556.3779999999988,4.300021464587189e-05,-0.00019646344298962504,2.9232791348476894e-05,0.0,0.0,0.0,0.0,0.0024672066792845726,6.75040646456182e-05,0.002101662801578641,0.9982733130455017,0.0,0.0,0.0,0.36663639545440674,2.6582107543945312,5.059752941131592,-66.36192321777344,0
1566.2889999999989,1.642309689486865e-05,-0.00020575794042088091,2.571347249613609e-05,0.0,0.0,0.0,0.0,-0.003944950643926859,0.0004482317599467933,-0.004877615254372358,1.0014402866363525,0.0,0.0,0.0,0.36628904938697815,2.6523876190185547,5.054429531097412,-66.29904174804688,0
1576.200999999999,-6.21917934040539e-05,-0.00019512127619236708,5.443434201879427e-05,0.0,0.0,0.0,0.0,-0.0015091660898178816,0.0021765525452792645,0.0014859074726700783,1.0012576580047607,0.0,0.0,0.0,0.3650668263435364,2.6488847732543945,5.051231384277344,-66.07781982421875,0
1586.1189999999988,-8.239120506914333e-05,-0.00020718139421660453,3.564160942914896e-05,0.0,0.0,0.0,0.0,-0.0035703398752957582,0.0021023910958319902,-0.0009153718128800392,0.9997837543487549,0.0,0.0,0.0,0.364073783159256,2.654512643814087,5.048312187194824,-65.8980712890625,0
1596.0289999999986,-4.075871765962802e-05,-0.00025125863612629473,7.528337300755084e-05,0.0,0.0,0.0,0.0,-0.004466398153454065,-0.003230493748560548,-0.0020220973528921604,1.002424955368042,0.0,0.0,0.0,0.3651067912578583,2.655944347381592,5.0440754890441895,-66.0850601196289,0
1605.9439999999995,-3.745950380107388e-05,-0.00021603412460535765,4.821808397537097e-05,0.0,0.0,0.0,0.0,0.0015842764405533671,-0.0034955015871673822,0.0019712941721081734,1.0005508661270142,0.0,0.0,0.0,0.3712644875049591,2.673227071762085,5.048094272613525,-67.1996078491211,0
1615.857,-3.6428180465009063e-05,-0.00023876542400103062,8.886168507160619e-05,0.0,0.0,0.0,0.0,-0.0024458086118102074,0.0031464931089431047,-1.290324598812731e-05,1.000057339668274,0.0,0.0,0.0,0.3709475100040436,2.679260015487671,5.047328948974609,-67.1422348022461,0
1625.777,5.66722246730933e-06,-0.00015268313291016966,2.8769734853995033e-05,0.0,0.0,0.0,0.0,0.0015417719259858131,-0.0031625141855329275,0.004472509492188692,0.9993725419044495,0.0,0.0,0.0,0.37206733226776123,2.6742773056030273,5.043056488037109,-67.34493255615234,0
1635.6809999999987,-3.454857869655825e-05,-0.00017086997104343027,5.4374228056985885e-05,0.0,0.0,0.0,0.0,-0.0012510104570537806,-0.0063309213146567345,0.00214417465031147,1.0026010274887085,0.0,0.0,0.0,0.3727912902832031,2.6755707263946533,5.0498366355896,-67.47596740722656,0
1645.5939999999991,-6.17250270806835e-06,-0.00010821552132256329,-2.329217295482522e-06,0.0,0.0,0.0,0.0,-0.0018211128190159798,-0.004238214809447527,0.0011485300492495298,1.002795934677124,0.0,0.0,0.0,0.3721608519554138,2.668586254119873,5.051512241363525,-67.36185455322266,0
1655.5069999999996,-7.016632298473269e-05,-0.00014779299090150744,2.3478837647417095e-06,0.0,0.0,0.0,0.0,-0.00013516691979020834,0.0012743661645799875,-0.00022838999575469643,1.0013086795806885,0.0,0.0,0.0,0.3718867301940918,2.6704390048980713,5.058291912078857,-67.31224060058594,0
1665.42,-5.184254769119434e-05,-0.00010134374315384775,-4.949375579599291e-05,0.0,0.0,0.0,0.0,0.0001906988036353141,-0.004405259154736996,-0.0026563135907053947,1.0002371072769165,0.0,0.0,0.0,0.37204447388648987,2.667801856994629,5.054226875305176,-67.3407974243164,0
1675.342999999999,-6.109708192525432e-05,-0.0001281091244891286,-2.3359578335657716e-05,0.0,0.0,0.0,0.0,-0.0031194924376904964,0.001838165451772511,6.398735422408208e-06,1.0007643699645996,0.0,0.0,0.0,0.37177181243896484,2.670499801635742,5.0606865882873535,-67.29142761230469,0
1685.2509999999984,-3.793829819187522e-05,-4.1557621443644166e-05,-6.192763976287097e-05,0.0,0.0,0.0,0.0,-0.0023914198391139507,0.0029734992422163486,0.0017273055855184793,1.0027188062667847,0.0,0.0,0.0,0.3705734610557556,2.671311616897583,5.0435614585876465,-67.07453918457031,0
1695.1629999999986,-3.155608646920882e-05,-8.866334246704355e-05,-4.223091673338786e-05,0.0,0.0,0.0,0.0,0.0036927892360836267,-0.0012604746734723449,0.00018551420362200588,1.0022246837615967,0.0,0.0,0.0,0.37082141637802124,2.668630599975586,5.0377302169799805,-67.11941528320312,0
1705.074999999999,-3.7391320802271366e-05,-6.68380525894463e-05,-7.137825741665438e-05,0.0,0.0,0.0,0.0,0.002904615132138133,0.000570454343687743,0.001199448248371482,1.0015116930007935,0.0,0.0,0.0,0.368801474571228,2.6689453125,5.026244163513184,-66.75379943847656,0
1714.9889999999996,4.21341355831828e-05,-0.00010870745609281585,-1.946073825820349e-05,0.0,0.0,0.0,0.0,0.0030855275690555573,-0.0009863936575129628,-0.0036753802560269833,1.0013145208358765,0.0,0.0,0.0,0.36763259768486023,2.660942554473877,5.022538185119629,-66.54222869873047,0
1724.8999999999996,3.153354919049889e-05,-8.709743997314945e-05,-3.5806529922410846e-05,0.0,0.0,0.0,0.0,-0.0009743357077240944,-0.002328346949070692,0.0016303237061947584,1.00127112865448,0.0,0.0,0.0,0.36758846044540405,2.6563589572906494,5.0236005783081055,-66.53423309326172,0
1734.813,7.960035873111337e-05,-0.00015984616766218096,-8.826414159557316e-06,0.0,0.0,0.0,0.0,0.0008926616865210235,0.0003450728254392743,-0.0003141812630929053,1.0019348859786987,0.0,0.0,0.0,0.36694633960723877,2.657003164291382,5.020882606506348,-66.41801452636719,0
1744.7329999999984,6.800381379434839e-05,-0.0001290661166422069,-1.4802452824369539e-05,0.0,0.0,0.0,0.0,-0.0013019200414419174,0.0005070471670478582,0.0006489749066531658,0.9981846213340759,0.0,0.0,0.0,0.36648115515708923,2.650714159011841,5.021058559417725,-66.33381652832031,0
1754.6389999999992,6.440863944590092e-05,-0.00015360044199042022,2.4160955945262685e-05,0.0,0.0,0.0,0.0,-0.001010236912406981,0.0032492715399712324,-0.0023623148445039988,0.999969482421875,0.0,0.0,0.0,0.36690694093704224,2.6554181575775146,5.004140853881836,-66.41088104248047,0
1764.5599999999995,9.427365876035765e-05,-0.0001040143397403881,-2.9214981623226777e-05,0.0,0.0,0.0,0.0,0.0018221817445009947,-0.0023343663197010756,-0.0005568815977312624,1.0008251667022705,0.0,0.0,0.0,0.36044636368751526,2.673476457595825,5.012960910797119,-65.24150848388672,0
1774.4659999999985,2.2480575353256427e-05,-0.0001396843872498721,-2.4579981982242316e-05,0.0,0.0,0.0,0.0,0.002961559221148491,0.002171984640881419,-0.00149696902371943,1.000390648841858,0.0,0.0,0.0,0.35453760623931885,2.6720404624938965,5.019983291625977,-64.17201232910156,0
1784.3899999999994,4.644245927920565e-05,-8.871703903423622e-05,-7.966061093611643e-05,0.0,0.0,0.0,0.0,-0.0013475442538037896,-0.00047393556451424956,-0.0006224643439054489,1.000808835029602,0.0,0.0,0.0,0.3545544743537903,2.663785457611084,5.009771823883057,-64.17506408691406,0
1794.2919999999995,7.26783400750719e-05,-0.00012699473882094026,-4.9569178372621536e-05,0.0,0.0,0.0,0.0,0.0006098673911765218,-0.002496150555089116,0.0001912644220283255,1.0017762184143066,0.0,0.0,0.0,0.3452061116695404,2.6612961292266846,5.011401176452637,-62.48299026489258,0
1804.2150000000001,8.345001697307453e-05,-8.22840811451897e-05,-9.417626279173419e-05,0.0,0.0,0.0,0.0,0.001601753174327314,-0.0028500540647655725,-0.0019147961866110563,0.9996351599693298,0.0,0.0,0.0,0.34487539529800415,2.663640260696411,5.007414817810059,-62.42313003540039,0
1814.119999999999,2.9688346330658533e-05,-0.00011045992141589522,-8.646459900774062e-05,0.0,0.0,0.0,0.0,0.0006276852800510824,-0.002709694905206561,-0.0028730647172778845,1.000383734703064,0.0,0.0,0.0,0.3439289927482605,2.657271385192871,5.006371021270752,-62.2518310546875,0
1824.048999999999,3.875942638842389e-05,-7.568309956695884e-05,-0.00014134954835753888,0.0,0.0,0.0,0.0,0.0016230707988142967,0.0031037989538162947,0.0029359187465161085,1.0003324747085571,0.0,0.0,0.0,0.34474852681159973,2.6554105281829834,5.0162482261657715,-62.400169372558594,0
1833.9449999999997,-1.960707777470816e-05,-8.112038631225005e-05,-0.00012697192141786218,0.0,0.0,0.0,0.0,0.0007102841627784073,0.00034781487192958593,-0.0007770892698317766,1.001745581626892,0.0,0.0,0.0,0.34424668550491333,2.654794216156006,5.016854286193848,-62.30933380126953,0
1843.8759999999984,-7.485818514396669e-06,4.49954404757591e-06,-0.0001706845941953361,0.0,0.0,0.0,0.0,0.002474631881341338,-0.0008976843673735857,0.002149782609194517,1.0041555166244507,0.0,0.0,0.0,0.3446319103240967,2.652190923690796,5.01598596572876,-62.37906265258789,0
1853.771999999999,-5.338313258107519e-06,-4.306692426325753e-05,-0.00015418101975228637,0.0,0.0,0.0,0.0,-0.0028071170672774315,0.0019167608115822077,0.0013110173167660832,1.000463843345642,0.0,0.0,0.0,0.3458963930606842,2.64624285697937,5.014697551727295,-62.607933044433594,0
1863.688,-4.292607991374098e-05,-3.82245889340993e-05,-0.0001606354198884219,0.0,0.0,0.0,0.0,0.00126755575183779,0.0002012122276937589,0.0012746044667437673,0.9991971850395203,0.0,0.0,0.0,0.34576717019081116,2.652895450592041,5.010900974273682,-62.58454513549805,0
1873.6029999999992,-5.520522245205939e-05,-4.463004370336421e-05,-0.00011944911966565996,0.0,0.0,0.0,0.0,0.003097526729106903,-0.004405677318572998,0.003212801180779934,0.9987756609916687,0.0,0.0,0.0,0.34591686725616455,2.646052122116089,5.007166385650635,-62.611637115478516,0
1883.5339999999997,-8.299823821289465e-05,-3.5045795812038705e-05,-0.0001375960564473644,0.0,0.0,0.0,0.0,0.0010934587335214019,0.001141197164542973,-0.0037415572442114353,1.0000652074813843,0.0,0.0,0.0,0.34545695781707764,2.641254425048828,5.007895469665527,-62.52839660644531,0
1893.4299999999985,-5.008632069802843e-05,-5.6534019677201286e-05,-8.855104533722624e-05,0.0,0.0,0.0,0.0,-0.001389919314533472,-0.004615382757037878,0.0014614941319450736,1.0014872550964355,0.0,0.0,0.0,0.34595146775245667,2.6393280029296875,5.005801677703857,-62.61790466308594,0
1903.3579999999984,-7.48513120925054e-05,-4.6550267143175006e-05,-0.0001085371186491102,0.0,0.0,0.0,0.0,-0.0019245378207415342,-0.001426734495908022,-0.0010399940656498075,1.0005184412002563,0.0,0.0,0.0,0.3459797203540802,2.6331639289855957,5.007500171661377,-62.623016357421875,0
1913.2579999999998,3.0095727197476663e-05,-9.720601519802585e-05,-5.2819646953139454e-05,0.0,0.0,0.0,0.0,0.0013665864244103432,-0.0028349431231617928,-0.003334337379783392,0.9987071752548218,0.0,0.0,0.0,0.346510648727417,2.6294960975646973,5.018144130706787,-62.7191162109375,0
1923.1759999999995,1.0426645530969836e-05,-8.065968722803518e-05,-6.813383515691385e-05,0.0,0.0,0.0,0.0,0.0011907245498150587,-0.0016267556929960847,-0.0027747347485274076,1.0009504556655884,0.0,0.0,0.0,0.34412309527397156,2.632676362991333,5.015420913696289,-62.286964416503906,0
1933.0849999999991,5.24501119798515e-05,-0.00012209430860821158,-2.438110823277384e-05,0.0,0.0,0.0,0.0,-0.0015009177150204778,-0.0030265410896390676,-0.000646280066575855,1.0029698610305786,0.0,0.0,0.0,0.3441745340824127,2.6306827068328857,5.018797397613525,-62.2962760925293,0
1943.0109999999986,4.3157360778423026e-05,-0.00010132711759069934,-4.9225182010559365e-05,0.0,0.0,0.0,0.0,-0.0020591705106198788,0.003454165533185005,-0.002407065127044916,0.9994019269943237,0.0,0.0,0.0,0.3433258831501007,2.6310555934906006,5.0337605476379395,-62.142669677734375,0
1952.9089999999997,-2.2218344383873045e-05,-0.00013545172987505794,-3.78310214728117e-05,0.0,0.0,0.0,0.0,-0.0016883265925571322,0.0017194660613313317,0.003097058739513159,0.9997682571411133,0.0,0.0,0.0,0.3424798548221588,2.633798122406006,5.024101734161377,-61.989532470703125,0
1962.825999999999,-5.6175813369918615e-05,-0.00011342122888891026,-2.9303077099029906e-05,0.0,0.0,0.0,0.0,-0.0015795639483258128,0.0006180309574119747,-0.002397597301751375,1.00052011013031,0.0,0.0,0.0,0.3419851064682007,2.635862112045288,5.0233540534973145,-61.89998245239258,0
1972.7329999999984,-2.80941094388254e-07,-0.00013943847443442792,2.9773287678835914e-05,0.0,0.0,0.0,0.0,-0.001387126510962844,0.0027923183515667915,-0.001650086254812777,1.002591848373413,0.0,0.0,0.0,0.34182050824165344,2.6400465965270996,5.018522262573242,-61.87018966674805,0
1982.6639999999989,-4.1532442992320284e-05,-0.00015768935554660857,3.7632369640050456e-05,0.0,0.0,0.0,0.0,-6.822688010288402e-05,-0.0039130039513111115,7.10340536898002e-05,1.0040888786315918,0.0,0.0,0.0,0.34110116958618164,2.6390023231506348,5.003608226776123,-61.739994049072266,0
1992.5639999999985,-9.277921344619244e-05,-0.00016607384895905852,7.513364835176617e-05,0.0,0.0,0.0,0.0,-0.002039135666564107,0.003064957680180669,-5.951744242338464e-05,1.001397728919983,0.0,0.0,0.0,0.3399563431739807,2.6402781009674072,4.997957706451416,-61.532772064208984,0
2002.485999999999,-0.00013083868543617427,-0.0001706275943433866,8.937319944379851e-05,0.0,0.0,0.0,0.0,-0.00039853801717981696,0.003859160002321005,-0.0033160466700792313,1.0021209716796875,0.0,0.0,0.0,0.33865371346473694,2.6415321826934814,5.000252723693848,-61.296993255615234,0
2012.3859999999986,-2.258169843116775e-05,-0.00023022286768537015,0.0001604329445399344,0.0,0.0,0.0,0.0,0.0011772852158173919,-0.003995957784354687,-0.001147954142652452,1.0012845993041992,0.0,0.0,0.0,0.3393222391605377,2.634758234024048,4.997439384460449,-61.41800308227539,0
2022.312,-4.891058779321611e-05,-0.00022637518122792244,0.0001782215404091403,0.0,0.0,0.0,0.0,-0.0005669695674441755,-0.0025342735461890697,0.0011908737942576408,1.0007895231246948,0.0,0.0,0.0,0.3390681743621826,2.634892463684082,4.985167980194092,-61.372013092041016,0
2032.2159999999985,-5.1527615141822025e-05,-0.0002814342442434281,0.00022184886620379984,0.0,0.0,0.0,0.0,0.0002237092558061704,-0.0022697001695632935,0.0005890378379262984,1.0009735822677612,0.0,0.0,0.0,0.33919334411621094,2.628615379333496,4.986550807952881,-61.39467239379883,0
2042.134,-2.05283777177101e-05,-0.00022037381131667644,0.000184963209903799,0.0,0.0,0.0,0.0,-0.001419923617504537,-0.00036153721157461405,-0.00017088203458115458,1.0003859996795654,0.0,0.0,0.0,0.3395865857601166,2.6296966075897217,4.991684436798096,-61.465850830078125,0
2052.0369999999984,3.617046240833588e-05,-0.0002861164975911379,0.00023708459048066288,0.0,0.0,0.0,0.0,2.906217923737131e-05,0.0003840894205495715,-0.0027243595104664564,1.000423550605774,0.0,0.0,0.0,0.3386569917201996,2.6299405097961426,4.986438751220703,-61.29759216308594,0
2061.9629999999997,5.444093403639272e-05,-0.00024705842952243984,0.00020629343634936959,0.0,0.0,0.0,0.0,-7.705100870225579e-05,0.0027570128440856934,-0.005156084429472685,0.9997313618659973,0.0,0.0,0.0,0.33837273716926575,2.630293846130371,4.981758117675781,-61.24613571166992,0
2071.865,5.5841210269136354e-05,-0.00029080628883093596,0.0002489121106918901,0.0,0.0,0.0,0.0,-0.00179597781971097,0.001183203188702464,0.0004334703553467989,1.0009269714355469,0.0,0.0,0.0,0.33764031529426575,2.6339828968048096,4.974661827087402,-61.11356735229492,0
2081.7919999999995,0.00010673605720512569,-0.00020087014127057046,0.00019268148753326386,0.0,0.0,0.0,0.0,0.0009452445665374398,0.0005591875524260104,-0.004715484566986561,1.0021514892578125,0.0,0.0,0.0,0.3373222351074219,2.6351735591888428,4.976914405822754,-61.055992126464844,0
2091.690999999999,-2.672609298315365e-06,-0.0002466150326654315,0.00019244756549596786,0.0,0.0,0.0,0.0,-0.0039014259818941355,0.00013594003394246101,0.001999765867367387,1.0029499530792236,0.0,0.0,0.0,0.3357633352279663,2.6319260597229004,4.956847667694092,-60.77383041381836,0
2101.615,6.572710844920948e-05,-0.00015372941561508924,0.00010261640272801742,0.0,0.0,0.0,0.0,-0.0022686910815536976,0.002178831957280636,-0.002603221917524934,1.0016765594482422,0.0,0.0,0.0,0.3355545699596405,2.626647710800171,4.946167469024658,-60.73604965209961,0
2111.5249999999996,-1.825009167077951e-05,-0.0002106673055095598,0.00010204612772213295,0.0,0.0,0.0,0.0,0.0012801368720829487,0.00309464568272233,-0.0006078619626350701,1.002420425415039,0.0,0.0,0.0,0.3343115746974945,2.6236953735351562,4.942156791687012,-60.51105880737305,0
