timestamp,stateEstimate.x,stateEstimate.y,stateEstimate.z,controller.cmd_thrust,controller.cmd_roll,controller.cmd_pitch,controller.cmd_yaw,controller.r_roll,controller.r_pitch,controller.r_yaw,controller.accelz,controller.actuatorThrust,controller.roll,controller.pitch,controller.yaw,controller.rollRate,controller.pitchRate,controller.yawRate,controller.ctr_yaw
0.0,-0.012679426930844784,-0.0037577184848487377,-0.0005818060017190874,0.0,0.0,0.0,0.0,0.0009388350299559534,0.005097373854368925,-0.0036651999689638615,0.9989532232284546,0.0,0.0,0.0,9.637632369995117,3.504688024520874,7.8702569007873535,-1744.4306640625,0
9.903999999998632,-0.012711409479379654,-0.003768093651160598,-0.0005927804159000516,0.0,0.0,0.0,0.0,0.0023838358465582132,-0.00440421886742115,0.00044809075188823044,0.9982884526252747,0.0,0.0,0.0,9.627431869506836,3.5029776096343994,7.853065013885498,-1742.58447265625,0
19.816999999999098,-0.01270732656121254,-0.0037317106034606695,-0.0006139266770333052,0.0,0.0,0.0,0.0,0.00032293706317432225,-0.0014970641350373626,-0.0008199203293770552,1.000764012336731,0.0,0.0,0.0,9.642730712890625,3.502793073654175,7.85196590423584,-1745.353515625,0
29.740999999999985,-0.012765876948833466,-0.003753735451027751,-0.0006013170350342989,0.0,0.0,0.0,0.0,-0.0020126760937273502,0.0023674466647207737,0.002827150747179985,1.0015276670455933,0.0,0.0,0.0,9.645170211791992,3.4995014667510986,7.838804721832275,-1745.794921875,0
39.64899999999943,-0.012749366462230682,-0.003757751313969493,-0.0005918521201238036,0.0,0.0,0.0,0.0,-0.0007072922307997942,-0.0035944217815995216,0.0011138077825307846,1.0004454851150513,0.0,0.0,0.0,9.649967193603516,3.5038928985595703,7.833233833312988,-1746.6632080078125,0
49.55899999999929,-0.012768039479851723,-0.0037781689316034317,-0.0005800015642307699,0.0,0.0,0.0,0.0,-0.0002301038766745478,-0.0013230883050709963,0.0017230813391506672,1.0011415481567383,0.0,0.0,0.0,9.658853530883789,3.501418113708496,7.831903457641602,-1748.271728515625,0
59.466999999998734,-0.01273955125361681,-0.003770088078454137,-0.0005545132444240153,0.0,0.0,0.0,0.0,7.847913366276771e-05,0.0005611928645521402,-0.0011332056019455194,1.0010908842086792,0.0,0.0,0.0,9.660880088806152,3.5030548572540283,7.84561014175415,-1748.6385498046875,0
69.40399999999863,-0.012821554206311703,-0.0037907222285866737,-0.0005511026829481125,0.0,0.0,0.0,0.0,0.0014425825793296099,0.0013553345343098044,-0.002926628803834319,1.0002021789550781,0.0,0.0,0.0,9.65580940246582,3.4999120235443115,7.832632541656494,-1747.7205810546875,0
79.29699999999866,-0.012737121433019638,-0.0037752774078398943,-0.0005212037358433008,0.0,0.0,0.0,0.0,0.0006571720005013049,-0.005847007967531681,0.002857817569747567,0.9984133243560791,0.0,0.0,0.0,9.668231010437012,3.499044179916382,7.843535423278809,-1749.968994140625,0
89.20499999999993,-0.012805376201868057,-0.0037915296852588654,-0.0005254521383903921,0.0,0.0,0.0,0.0,5.2740615501534194e-05,0.00031758102704770863,-0.00037470622919499874,0.9993392825126648,0.0,0.0,0.0,9.659875869750977,3.4968738555908203,7.848483562469482,-1748.4566650390625,0
99.11799999999857,-0.01273580826818943,-0.0037736843805760145,-0.0005006648134440184,0.0,0.0,0.0,0.0,-0.001842471887357533,-0.0010408979142084718,0.0017092459602281451,0.9994612336158752,0.0,0.0,0.0,9.668743133544922,3.497776746749878,7.856070518493652,-1750.0616455078125,0
109.03499999999985,-0.012801060453057289,-0.0037938684690743685,-0.0005079327966086566,0.0,0.0,0.0,0.0,-0.0010472668800503016,-0.00023964763386175036,0.0006012379308231175,0.9979521632194519,0.0,0.0,0.0,9.65697193145752,3.492431402206421,7.839723110198975,-1747.93115234375,0
118.94999999999891,-0.012724807485938072,-0.0037880397867411375,-0.00048478340613655746,0.0,0.0,0.0,0.0,-0.003749108174815774,-0.0006918192957527936,0.002163923578336835,0.997077226638794,0.0,0.0,0.0,9.670208930969238,3.4898698329925537,7.849503993988037,-1750.326904296875,0
128.85699999999997,-0.012778111733496189,-0.003791224444285035,-0.0004991503083147109,0.0,0.0,0.0,0.0,0.0026797044556587934,0.001328217564150691,0.00017302452761214226,0.9974510073661804,0.0,0.0,0.0,9.659708023071289,3.4925036430358887,7.840699672698975,-1748.4263916015625,0
138.77399999999943,-0.012800410389900208,-0.003741030814126134,-0.00048602992319501936,0.0,0.0,0.0,0.0,0.0015713529428467155,-0.0023195534013211727,-0.0014755520969629288,0.9974725246429443,0.0,0.0,0.0,9.659708023071289,3.4925036430358887,7.840699672698975,-1748.4263916015625,0
148.6849999999995,-0.012894355691969395,-0.003759081708267331,-0.00046859317808412015,0.0,0.0,0.0,0.0,-0.002444688929244876,0.0017526911105960608,0.0019526802934706211,1.0017508268356323,0.0,0.0,0.0,9.65377140045166,3.4773623943328857,7.823193550109863,-1747.3516845703125,0
158.59799999999996,-0.012894355691969395,-0.003759081708267331,-0.00046859317808412015,0.0,0.0,0.0,0.0,0.00037185134715400636,-0.0056550088338553905,-1.4504732462228276e-05,1.001682996749878,0.0,0.0,0.0,9.65377140045166,3.4773623943328857,7.823193550109863,-1747.3516845703125,0
168.5109999999986,-0.012908326461911201,-0.003720926819369197,-0.0005411675665527582,0.0,0.0,0.0,0.0,0.0012909669894725084,-0.004890549462288618,-0.0022839566227048635,0.999238133430481,0.0,0.0,0.0,9.64430046081543,3.4946320056915283,7.856264591217041,-1745.6375732421875,0
178.42399999999907,-0.01275407150387764,-0.003752096090465784,-0.0004890953423455358,0.0,0.0,0.0,0.0,0.00020263773330952972,-0.0038030294235795736,0.0035063917748630047,0.9985144734382629,0.0,0.0,0.0,9.656134605407715,3.4810900688171387,7.886284351348877,-1747.7794189453125,0
188.33499999999913,-0.012775854207575321,-0.0037566416431218386,-0.0005517981480807066,0.0,0.0,0.0,0.0,0.0006258795619942248,-0.0005977274267934263,-0.003801946993917227,0.9994056224822998,0.0,0.0,0.0,9.644270896911621,3.477820873260498,7.895045280456543,-1745.6322021484375,0
198.2579999999998,-0.012785453349351883,-0.003719984320923686,-0.000531165162101388,0.0,0.0,0.0,0.0,-0.004708509426563978,-0.004044033121317625,-0.0007081752410158515,0.9986042976379395,0.0,0.0,0.0,9.646771430969238,3.482417106628418,7.88985538482666,-1746.084716796875,0
208.15999999999985,-0.01283194962888956,-0.0037901350297033787,-0.0005485622677952051,0.0,0.0,0.0,0.0,0.0001669813209446147,-0.0006170764681883156,-0.001424770220182836,0.997553825378418,0.0,0.0,0.0,9.642847061157227,3.4807322025299072,7.89339017868042,-1745.37451171875,0
218.0759999999991,-0.012836597859859467,-0.0037632687017321587,-0.0005309829721227288,0.0,0.0,0.0,0.0,0.0031822444871068,-0.001105841831304133,0.0013292727526277304,0.9999719858169556,0.0,0.0,0.0,9.633777618408203,3.46761155128479,7.879122257232666,-1743.73291015625,0
227.98199999999997,-0.012809566222131252,-0.0037829584907740355,-0.0005865809507668018,0.0,0.0,0.0,0.0,-0.0005493178032338619,-0.00041511148447170854,0.0023496507201343775,0.9974735379219055,0.0,0.0,0.0,9.633777618408203,3.46761155128479,7.879122257232666,-1743.73291015625,0
237.90200000000004,-0.012835636734962463,-0.003775164019316435,-0.0005832166061736643,0.0,0.0,0.0,0.0,-0.0008436999632976949,-0.002109294291585684,0.0014938941458240151,1.0002549886703491,0.0,0.0,0.0,9.615839004516602,3.4586715698242188,7.874310493469238,-1740.486083984375,0
247.80199999999968,-0.012788423337042332,-0.0037024577613919973,-0.000623007828835398,0.0,0.0,0.0,0.0,-0.0013532612938433886,0.00019617295765783638,0.0013071554712951183,1.0012845993041992,0.0,0.0,0.0,9.627045631408691,3.4708340167999268,7.884258270263672,-1742.514404296875,0
257.72400000000016,-0.012821588665246964,-0.0037151917349547148,-0.0006383624859154224,0.0,0.0,0.0,0.0,-0.00014565962192136794,-0.004439930431544781,0.0003597159229684621,1.000902771949768,0.0,0.0,0.0,9.617152214050293,3.4698116779327393,7.879382610321045,-1740.7236328125,0
267.628999999999,-0.012827296741306782,-0.003738747676834464,-0.0006925892666913569,0.0,0.0,0.0,0.0,0.00048626362695358694,0.0007468186086043715,-0.0002845004783011973,1.0002248287200928,0.0,0.0,0.0,9.61522388458252,3.4621329307556152,7.880453109741211,-1740.374755859375,0
277.5579999999991,-0.012732132337987423,-0.0037513975985348225,-0.000647345557808876,0.0,0.0,0.0,0.0,-0.0011860796948894858,0.0051636528223752975,0.00010396271682111546,0.9991158246994019,0.0,0.0,0.0,9.62408447265625,3.450230360031128,7.896823883056641,-1741.978515625,0
287.4539999999997,-0.012773042544722557,-0.0037633320316672325,-0.0006274707848206162,0.0,0.0,0.0,0.0,-0.001165104447863996,-0.0032304031774401665,-0.0005495445220731199,1.001120686531067,0.0,0.0,0.0,9.626575469970703,3.443516254425049,7.884921073913574,-1742.4293212890625,0
297.3769999999986,-0.012796773575246334,-0.003776873927563429,-0.0006346376612782478,0.0,0.0,0.0,0.0,-0.0008070028852671385,0.0019679006654769182,-0.002850899938493967,1.0005345344543457,0.0,0.0,0.0,9.61726188659668,3.439509868621826,7.870023250579834,-1740.74365234375,0
307.27800000000025,-0.012823455967009068,-0.0037772159557789564,-0.0006319817039184272,0.0,0.0,0.0,0.0,-0.002318105660378933,-0.003756629303097725,-7.082012598402798e-05,0.9990079998970032,0.0,0.0,0.0,9.605669021606445,3.447218418121338,7.857414245605469,-1738.645263671875,0
317.1939999999995,-0.012728225439786911,-0.003786463523283601,-0.0005671282997354865,0.0,0.0,0.0,0.0,-0.0008021269459277391,0.002557333093136549,0.0003367094905115664,1.000968098640442,0.0,0.0,0.0,9.613401412963867,3.443294048309326,7.880306243896484,-1740.044921875,0
327.10199999999895,-0.012715841643512249,-0.0037474448326975107,-0.0005977718974463642,0.0,0.0,0.0,0.0,-0.0023832700680941343,-0.0002610775700304657,-0.00019497689208947122,1.000015377998352,0.0,0.0,0.0,9.61587142944336,3.453145980834961,7.879645347595215,-1740.491943359375,0
337.0199999999986,-0.012671218253672123,-0.003781445324420929,-0.0005922183627262712,0.0,0.0,0.0,0.0,-0.0024793886113911867,-0.007268604356795549,-0.0008043863344937563,0.9989598989486694,0.0,0.0,0.0,9.617722511291504,3.4514431953430176,7.881478786468506,-1740.826904296875,0
346.9300000000003,-0.012750444933772087,-0.003828237298876047,-0.0005232203984633088,0.0,0.0,0.0,0.0,-0.0010405286448076367,0.001953623490408063,0.00020679752924479544,0.9979749321937561,0.0,0.0,0.0,9.61494255065918,3.4464032649993896,7.876504898071289,-1740.3238525390625,0
356.8590000000004,-0.012719014659523964,-0.003819938749074936,-0.0004897414473816752,0.0,0.0,0.0,0.0,-0.0023604007437825203,0.0018564013298600912,0.0037551464047282934,0.9988406896591187,0.0,0.0,0.0,9.618675231933594,3.4454267024993896,7.862353324890137,-1740.9993896484375,0
366.7519999999986,-0.012737658806145191,-0.0038425272796303034,-0.0005019176169298589,0.0,0.0,0.0,0.0,0.0034729570616036654,0.0030815950594842434,-0.004527996759861708,0.9998659491539001,0.0,0.0,0.0,9.618549346923828,3.444646120071411,7.856059551239014,-1740.9765625,0
376.6779999999999,-0.012764831073582172,-0.0038584480062127113,-0.0004989996668882668,0.0,0.0,0.0,0.0,-0.0034978685434907675,-0.006146177649497986,0.0002617966092657298,0.9963554739952087,0.0,0.0,0.0,9.61030387878418,3.436237335205078,7.841121196746826,-1739.484130859375,0
386.58100000000013,-0.012794258072972298,-0.0038046063855290413,-0.0004664468578994274,0.0,0.0,0.0,0.0,-0.0001903713127830997,0.00030635957955382764,9.678950846137013e-06,0.9977034330368042,0.0,0.0,0.0,9.614936828613281,3.4372775554656982,7.835811614990234,-1740.32275390625,0
396.5029999999988,-0.012756972573697567,-0.0037791652139276266,-0.00040763671859167516,0.0,0.0,0.0,0.0,-0.0014226468047127128,-0.006525299046188593,-0.0023512248881161213,0.9996510744094849,0.0,0.0,0.0,9.61545467376709,3.4403254985809326,7.848315238952637,-1740.41650390625,0
406.40300000000025,-0.012805096805095673,-0.003812373150140047,-0.000389483553590253,0.0,0.0,0.0,0.0,-0.0002290803677169606,0.0004530962905846536,-0.0009764720452949405,0.9998921155929565,0.0,0.0,0.0,9.619519233703613,3.430870532989502,7.838328838348389,-1741.1522216796875,0
416.3249999999989,-0.012763315811753273,-0.0038329684175550938,-0.0003718239313457161,0.0,0.0,0.0,0.0,-0.0012792724883183837,-0.002635199809446931,-0.0005496356752701104,0.9993301033973694,0.0,0.0,0.0,9.626072883605957,3.4216115474700928,7.843335151672363,-1742.33837890625,0
426.22599999999875,-0.01274726539850235,-0.0037677534855902195,-0.0004012103599961847,0.0,0.0,0.0,0.0,-0.001900383154861629,-0.0005928580649197102,0.00029956153593957424,0.9992188215255737,0.0,0.0,0.0,9.62639331817627,3.4346065521240234,7.850720405578613,-1742.396240234375,0
436.15399999999863,-0.012776876799762249,-0.0037744231522083282,-0.0003971729602199048,0.0,0.0,0.0,0.0,-0.00044349688687361777,0.0017592841759324074,-0.0028601307421922684,0.9985618591308594,0.0,0.0,0.0,9.61793327331543,3.436307907104492,7.849499225616455,-1740.8651123046875,0
446.0509999999995,-0.012782824225723743,-0.003762507811188698,-0.0004216124943923205,0.0,0.0,0.0,0.0,0.002304532565176487,-0.0022821968887001276,0.004317543935030699,0.9985669255256653,0.0,0.0,0.0,9.614713668823242,3.4375479221343994,7.841243743896484,-1740.2822265625,0
455.97299999999996,-0.01281221117824316,-0.003769477130845189,-0.0004213046922814101,0.0,0.0,0.0,0.0,-0.00028487941017374396,0.0034086634404957294,0.0008115226519294083,0.9992806911468506,0.0,0.0,0.0,9.60456371307373,3.4373085498809814,7.838539123535156,-1738.4451904296875,0
465.8819999999996,-0.01279918197542429,-0.0037517936434596777,-0.0004840184992644936,0.0,0.0,0.0,0.0,0.003860880620777607,-0.004992138594388962,-0.002952567068859935,0.9989606142044067,0.0,0.0,0.0,9.604720115661621,3.4334425926208496,7.8541579246521,-1738.473388671875,0
475.79699999999866,-0.01282824482768774,-0.003756867488846183,-0.0004903487279079854,0.0,0.0,0.0,0.0,-0.0012216874165460467,-0.0015404787845909595,0.0013554953038692474,1.0002650022506714,0.0,0.0,0.0,9.593730926513672,3.4312565326690674,7.843844413757324,-1736.484375,0
485.7049999999999,-0.012868483550846577,-0.003750287462025881,-0.0004800519091077149,0.0,0.0,0.0,0.0,-0.0009995111031457782,-0.003675927873700857,-0.0005707761156372726,0.997951090335846,0.0,0.0,0.0,9.598427772521973,3.43320369720459,7.847923278808594,-1737.3345947265625,0
495.6209999999992,-0.012778068892657757,-0.0037593392189592123,-0.00040040441672317684,0.0,0.0,0.0,0.0,-0.0007493902230635285,0.0007428843528032303,0.002899312414228916,0.9983077049255371,0.0,0.0,0.0,9.603031158447266,3.4281084537506104,7.876363277435303,-1738.1676025390625,0
505.53299999999945,-0.012757685035467148,-0.003724193898960948,-0.0004708506166934967,0.0,0.0,0.0,0.0,-0.0013419361785054207,-0.0014644658658653498,0.0014986846363171935,0.998455822467804,0.0,0.0,0.0,9.606088638305664,3.4365289211273193,7.886954307556152,-1738.720947265625,0
515.4480000000003,-0.012819026596844196,-0.0037347786128520966,-0.000486522214487195,0.0,0.0,0.0,0.0,-0.003097306238487363,-0.0016382185276597738,0.0013250620104372501,0.9999542832374573,0.0,0.0,0.0,9.587700843811035,3.4365336894989014,7.873624801635742,-1735.3929443359375,0
525.3559999999998,-0.012807746417820454,-0.003736072452738881,-0.000508266210090369,0.0,0.0,0.0,0.0,0.0015957590658217669,0.0008680159226059914,-0.002227219520136714,0.9979529976844788,0.0,0.0,0.0,9.598984718322754,3.4353182315826416,7.878169536590576,-1737.435302734375,0
535.280999999999,-0.012798402458429337,-0.0037526129744946957,-0.0004950588336214423,0.0,0.0,0.0,0.0,0.0006668545538559556,-0.00182245799805969,-0.0003825901076197624,0.9980093836784363,0.0,0.0,0.0,9.57800579071045,3.4401187896728516,7.866643905639648,-1733.6380615234375,0
545.1890000000003,-0.012797831557691097,-0.0037885813508182764,-0.0005213310359977186,0.0,0.0,0.0,0.0,-0.001986503368243575,-0.004436046350747347,-0.002527018077671528,0.9969753623008728,0.0,0.0,0.0,9.583992004394531,3.4337449073791504,7.867383003234863,-1734.7215576171875,0
555.0969999999998,-0.012747904285788536,-0.0038398343604058027,-0.0005355899920687079,0.0,0.0,0.0,0.0,-0.0016544645186513662,-0.002282197354361415,-0.0009789102477952838,0.9978627562522888,0.0,0.0,0.0,9.581208229064941,3.4250872135162354,7.873544692993164,-1734.2178955078125,0
565.0010000000002,-0.012754019349813461,-0.0038606279995292425,-0.000541170418728143,0.0,0.0,0.0,0.0,-0.0006444602040573955,0.0014783592196181417,0.0009281406528316438,0.9988167881965637,0.0,0.0,0.0,9.587382316589355,3.4223062992095947,7.873583793640137,-1735.335205078125,0
574.9229999999989,-0.012739349156618118,-0.0038245159666985273,-0.0005183964385651052,0.0,0.0,0.0,0.0,-0.003468836424872279,-0.004512707237154245,-0.0008091219351626933,1.0015926361083984,0.0,0.0,0.0,9.5927152633667,3.4287688732147217,7.873589515686035,-1736.300537109375,0
584.8379999999997,-0.012769294902682304,-0.003846427658572793,-0.0005506321904249489,0.0,0.0,0.0,0.0,-8.038741361815482e-05,0.002088534412905574,0.0033048749901354313,1.000247836112976,0.0,0.0,0.0,9.592366218566895,3.424647808074951,7.867319583892822,-1736.2374267578125,0
594.7469999999994,-0.012735378928482533,-0.003820611396804452,-0.0005281133344396949,0.0,0.0,0.0,0.0,-0.00119873252697289,-0.000579226587433368,-0.0017077808734029531,0.9971342086791992,0.0,0.0,0.0,9.600114822387695,3.429152250289917,7.867034912109375,-1737.639892578125,0
604.6620000000003,-0.012733111158013344,-0.003776134457439184,-0.0005745790549553931,0.0,0.0,0.0,0.0,0.002614470897242427,0.0012869604397565126,0.00025174353504553437,0.9984720349311829,0.0,0.0,0.0,9.59154224395752,3.426783323287964,7.865088939666748,-1736.0882568359375,0
614.5720000000001,-0.012686229310929775,-0.0037748771719634533,-0.0005627942155115306,0.0,0.0,0.0,0.0,-0.0030385737773030996,-0.0003923898620996624,0.0005123472074046731,0.9977408051490784,0.0,0.0,0.0,9.592158317565918,3.421841621398926,7.868014335632324,-1736.1998291015625,0
624.485999999999,-0.012731511145830154,-0.0037765398155897856,-0.0005646146018989384,0.0,0.0,0.0,0.0,-0.0027851080521941185,-0.001561282086186111,0.003503997577354312,0.9973611235618591,0.0,0.0,0.0,9.593335151672363,3.4199771881103516,7.862010478973389,-1736.412841796875,0
634.3940000000002,-0.012789645232260227,-0.0037340077105909586,-0.0005674650310538709,0.0,0.0,0.0,0.0,0.0026376221794635057,0.0018597741145640612,-0.003754252102226019,0.9974539279937744,0.0,0.0,0.0,9.583066940307617,3.4213855266571045,7.863422393798828,-1734.55419921875,0
644.3040000000001,-0.012836593203246593,-0.0037648282013833523,-0.0005867808940820396,0.0,0.0,0.0,0.0,0.0006020091823302209,0.0039016769733279943,-0.0018766585271805525,1.0017237663269043,0.0,0.0,0.0,9.581832885742188,3.4113759994506836,7.852619171142578,-1734.3306884765625,0
654.2240000000002,-0.012876174412667751,-0.003772675758227706,-0.000604536384344101,0.0,0.0,0.0,0.0,-0.0019029187969863415,-0.00030370280728675425,-0.0022624144330620766,0.9990586042404175,0.0,0.0,0.0,9.57198715209961,3.4133801460266113,7.837984561920166,-1732.548583984375,0
664.1409999999996,-0.012942672707140446,-0.0038210880011320114,-0.0005984180024825037,0.0,0.0,0.0,0.0,0.0011459854431450367,0.0009655045578256249,-0.0032144272699952126,1.001389503479004,0.0,0.0,0.0,9.571739196777344,3.4002771377563477,7.8195085525512695,-1732.5037841796875,0
674.0429999999997,-0.012776298448443413,-0.003843058366328478,-0.0005091504426673055,0.0,0.0,0.0,0.0,0.0012809362960979342,-0.0037761288695037365,-0.00043202927918173373,0.9994174242019653,0.0,0.0,0.0,9.580076217651367,3.394864559173584,7.861666679382324,-1734.012939453125,0
683.9599999999991,-0.012819729745388031,-0.003824871964752674,-0.00048814102774485946,0.0,0.0,0.0,0.0,-0.0010906902607530355,0.0022654267959296703,-0.0019328227499499917,0.997802734375,0.0,0.0,0.0,9.584280014038086,3.395583391189575,7.857719421386719,-1734.7738037109375,0
693.8729999999996,-0.012856637127697468,-0.003837261348962784,-0.0004916122416034341,0.0,0.0,0.0,0.0,0.0016182680847123265,0.0015600997721776366,-0.0034723307471722364,0.9994690418243408,0.0,0.0,0.0,9.574849128723145,3.393376111984253,7.8522629737854,-1733.0667724609375,0
703.7860000000001,-0.012862668372690678,-0.0037876046262681484,-0.0005197756690904498,0.0,0.0,0.0,0.0,0.0017826083349063993,0.007638601120561361,-0.0026009459979832172,0.9996296167373657,0.0,0.0,0.0,9.581225395202637,3.4020402431488037,7.85264253616333,-1734.220703125,0
713.6929999999993,-0.012765703722834587,-0.003795265220105648,-0.00045587049680761993,0.0,0.0,0.0,0.0,-0.00016534171300008893,0.0002891498734243214,0.0057909246534109116,1.0003764629364014,0.0,0.0,0.0,9.58335018157959,3.3897292613983154,7.863719940185547,-1734.60546875,0
723.6119999999992,-0.012813202105462551,-0.003807819914072752,-0.0004391694092191756,0.0,0.0,0.0,0.0,0.0014509616885334253,0.0005496090743690729,0.0024496205151081085,0.998342752456665,0.0,0.0,0.0,9.58647346496582,3.3934433460235596,7.855893135070801,-1735.170654296875,0
733.5239999999994,-0.0128488102927804,-0.003818230237811804,-0.0004392433911561966,0.0,0.0,0.0,0.0,-0.0015360891120508313,-0.0038848670665174723,0.0024578513111919165,0.9994187951087952,0.0,0.0,0.0,9.577402114868164,3.379979372024536,7.846909523010254,-1733.5286865234375,0
743.4369999999999,-0.012859453447163105,-0.0038289781659841537,-0.00048488867469131947,0.0,0.0,0.0,0.0,0.0009746287832967937,0.00064825703157112,-0.00204138970002532,1.0009785890579224,0.0,0.0,0.0,9.579987525939941,3.3775594234466553,7.844883918762207,-1733.9969482421875,0
753.3429999999989,-0.012766662985086441,-0.0038294836413115263,-0.0004156653303653002,0.0,0.0,0.0,0.0,-0.0006473266403190792,-0.0007056852919049561,0.002537526423111558,0.9985040426254272,0.0,0.0,0.0,9.58259105682373,3.3684768676757812,7.865542888641357,-1734.4681396484375,0
763.2569999999996,-0.012776176445186138,-0.0038191787898540497,-0.00044510868610814214,0.0,0.0,0.0,0.0,-0.0009362684213556349,-0.004620364401489496,0.0037815021350979805,0.9974180459976196,0.0,0.0,0.0,9.58655071258545,3.3724632263183594,7.872804164886475,-1735.1846923828125,0
773.1719999999987,-0.01280967891216278,-0.003829811466857791,-0.0004459358169697225,0.0,0.0,0.0,0.0,0.0032158182002604008,0.001374375424347818,-0.00115923339035362,0.9975167512893677,0.0,0.0,0.0,9.576579093933105,3.369971990585327,7.862087249755859,-1733.3800048828125,0
783.0900000000001,-0.012844394892454147,-0.0038552351761609316,-0.0004546509007923305,0.0,0.0,0.0,0.0,0.0003690216108225286,-0.001757669379003346,7.486355025321245e-05,1.000857949256897,0.0,0.0,0.0,9.575292587280273,3.358336925506592,7.8650922775268555,-1733.14697265625,0
792.9979999999996,-0.012765592895448208,-0.0038624589797109365,-0.0003983800997957587,0.0,0.0,0.0,0.0,-0.0019513905281201005,-0.00535441841930151,-0.0009389727492816746,1.0013768672943115,0.0,0.0,0.0,9.582192420959473,3.353081703186035,7.874344825744629,-1734.39599609375,0
802.905999999999,-0.012755075469613075,-0.0038065663538873196,-0.0004359560552984476,0.0,0.0,0.0,0.0,0.002872042590752244,0.00104418583214283,-0.0009906231425702572,1.0004481077194214,0.0,0.0,0.0,9.586209297180176,3.3639180660247803,7.88797664642334,-1735.1229248046875,0
812.8249999999989,-0.012788228690624237,-0.0038170875050127506,-0.0004375011194497347,0.0,0.0,0.0,0.0,-1.656074709899258e-05,0.0014437983045354486,0.0033073099330067635,0.9995723366737366,0.0,0.0,0.0,9.577146530151367,3.3548238277435303,7.890139102935791,-1733.482666015625,0
822.7330000000002,-0.012797821313142776,-0.003784339176490903,-0.000459193077404052,0.0,0.0,0.0,0.0,0.00032095122151076794,0.004949618596583605,-2.6897809220827185e-05,0.9967821836471558,0.0,0.0,0.0,9.583958625793457,3.3599395751953125,7.890899658203125,-1734.715576171875,0
832.6399999999994,-0.012808672152459621,-0.003777220379561186,-0.0004239158006384969,0.0,0.0,0.0,0.0,-0.0014870729064568877,-0.0002237320877611637,-0.008081820793449879,0.9998427033424377,0.0,0.0,0.0,9.579784393310547,3.3517580032348633,7.878330230712891,-1733.9600830078125,0
842.5529999999999,-0.012799406424164772,-0.0037944118957966566,-0.0004534477193374187,0.0,0.0,0.0,0.0,0.0011792021105065942,0.004309247713536024,0.0008350864518433809,1.0007356405258179,0.0,0.0,0.0,9.595438957214355,3.3470892906188965,7.881224632263184,-1736.79345703125,0
852.4669999999987,-0.012873434461653233,-0.0037917017471045256,-0.00045779632637277246,0.0,0.0,0.0,0.0,-0.0011038080556318164,-0.0003113007405772805,4.363705102150561e-06,1.0011613368988037,0.0,0.0,0.0,9.591657638549805,3.3367979526519775,7.865214824676514,-1736.109130859375,0
862.3809999999994,-0.012841750867664814,-0.003748226910829544,-0.0004900325438939035,0.0,0.0,0.0,0.0,-0.0027582733891904354,0.000496931083034724,-0.0031931824050843716,0.9977433085441589,0.0,0.0,0.0,9.60688304901123,3.3431434631347656,7.871945381164551,-1738.8648681640625,0
872.2860000000001,-0.012822354212403297,-0.0037449297960847616,-0.0004608483286574483,0.0,0.0,0.0,0.0,0.0006469577201642096,0.00012907419295515865,0.0017684355843812227,0.9980800747871399,0.0,0.0,0.0,9.600703239440918,3.3390848636627197,7.876429557800293,-1737.7464599609375,0
882.1999999999989,-0.01280149258673191,-0.003722347319126129,-0.0004863713402301073,0.0,0.0,0.0,0.0,-0.001183604821562767,-0.001560041680932045,-0.004293269477784634,0.9978045225143433,0.0,0.0,0.0,9.610880851745605,3.342284917831421,7.880893230438232,-1739.588623046875,0
892.116,-0.012883263640105724,-0.0037382994778454304,-0.00050135119818151,0.0,0.0,0.0,0.0,0.00025432417169213295,0.0003725761780515313,0.002102209720760584,0.9992334246635437,0.0,0.0,0.0,9.59223461151123,3.3459794521331787,7.872246265411377,-1736.2135009765625,0
902.0259999999998,-0.012872213497757912,-0.003763643791899085,-0.0005296748713590205,0.0,0.0,0.0,0.0,0.0005462296539917588,0.002529251854866743,-0.006107797846198082,1.0005483627319336,0.0,0.0,0.0,9.609721183776855,3.338195323944092,7.875518798828125,-1739.3785400390625,0
911.9380000000001,-0.012915663421154022,-0.003775776596739888,-0.0005423396942205727,0.0,0.0,0.0,0.0,-0.0013558610808104277,-0.003693114733323455,-0.0016038682078942657,1.0002080202102661,0.0,0.0,0.0,9.600675582885742,3.336379051208496,7.860971927642822,-1737.7412109375,0
921.8500000000004,-0.012953303754329681,-0.0037762115243822336,-0.000551929697394371,0.0,0.0,0.0,0.0,-0.0018419973785057664,-0.001846264349296689,0.001949984347447753,1.0003741979599,0.0,0.0,0.0,9.599961280822754,3.3380777835845947,7.849294662475586,-1737.612060546875,0
931.7649999999994,-0.012993356212973595,-0.0037875117268413305,-0.0005619182484224439,0.0,0.0,0.0,0.0,-0.001304344623349607,0.0017938695382326841,0.0011881082318723202,1.000090479850769,0.0,0.0,0.0,9.59097957611084,3.3368966579437256,7.861697673797607,-1735.9864501953125,0
941.6769999999997,-0.012980934232473373,-0.003728325478732586,-0.0006339443498291075,0.0,0.0,0.0,0.0,-0.001562120858579874,-0.0019618950318545103,-0.0009950579842552543,0.9991263151168823,0.0,0.0,0.0,9.591182708740234,3.3579721450805664,7.891502857208252,-1736.023193359375,0
951.5849999999991,-0.012749047949910164,-0.003827896201983094,-0.0005102179711684585,0.0,0.0,0.0,0.0,0.002070833696052432,-0.004356386139988899,-0.00036100149736739695,0.9991503357887268,0.0,0.0,0.0,9.598090171813965,3.320831060409546,7.954392910003662,-1737.2733154296875,0
961.4959999999992,-0.012718063779175282,-0.0037517992313951254,-0.0005607246421277523,0.0,0.0,0.0,0.0,-0.0014884945703670382,-0.006929286755621433,-0.0008918918902054429,0.9987680315971375,0.0,0.0,0.0,9.598748207092285,3.338141679763794,7.960071086883545,-1737.392578125,0
971.4089999999997,-0.012702562846243382,-0.003735410748049617,-0.000543280562851578,0.0,0.0,0.0,0.0,0.0022865093778818846,0.002849970944225788,-0.0021183774806559086,0.9994116425514221,0.0,0.0,0.0,9.603527069091797,3.337791919708252,7.969096660614014,-1738.2574462890625,0
981.3239999999987,-0.012733202427625656,-0.003747774986550212,-0.0005381695809774101,0.0,0.0,0.0,0.0,-0.0001764063345035538,0.00360296294093132,-0.0006961183389648795,1.0001238584518433,0.0,0.0,0.0,9.603312492370605,3.3332417011260986,7.967212200164795,-1738.21875,0
991.2369999999992,-0.012726354412734509,-0.0037439202424138784,-0.0005377588095143437,0.0,0.0,0.0,0.0,0.003491097129881382,0.0009705431293696165,-0.0026155791711062193,1.0002495050430298,0.0,0.0,0.0,9.609416007995605,3.3376729488372803,7.949089050292969,-1739.323486328125,0
1001.1459999999988,-0.012762460857629776,-0.003774126060307026,-0.0005352668231353164,0.0,0.0,0.0,0.0,-0.001320048002526164,0.002360300160944462,-4.432564674061723e-05,0.9989796280860901,0.0,0.0,0.0,9.61270523071289,3.330660820007324,7.937100887298584,-1739.9188232421875,0
1011.0599999999995,-0.012784969992935658,-0.003785222303122282,-0.0005408077850006521,0.0,0.0,0.0,0.0,0.001380103756673634,-0.0016702049179002643,0.0026883946266025305,0.9981573224067688,0.0,0.0,0.0,9.602426528930664,3.3239641189575195,7.926781177520752,-1738.05810546875,0
1020.9789999999994,-0.012804527767002583,-0.003814883530139923,-0.0005622532335110009,0.0,0.0,0.0,0.0,0.004926405847072601,-7.550890586571768e-05,-0.0002481284027453512,0.9981825947761536,0.0,0.0,0.0,9.605120658874512,3.312302827835083,7.924306869506836,-1738.5458984375,0
1030.884,-0.01282937079668045,-0.0038282510358840227,-0.0005705679068341851,0.0,0.0,0.0,0.0,0.0035398919135332108,-0.0008496504160575569,0.0013647443847730756,1.0010688304901123,0.0,0.0,0.0,9.596416473388672,3.3062069416046143,7.919137477874756,-1736.970458984375,0
1040.8009999999995,-0.01284322515130043,-0.0037922316696494818,-0.000580782420001924,0.0,0.0,0.0,0.0,-0.0017522017005831003,0.00033490126952528954,0.00315646268427372,0.9993362426757812,0.0,0.0,0.0,9.599360466003418,3.3144638538360596,7.91910982131958,-1737.50341796875,0
1050.7079999999987,-0.01274375431239605,-0.0038044198881834745,-0.0005077505484223366,0.0,0.0,0.0,0.0,-0.0021373280324041843,-0.005340752191841602,-0.0010752618545666337,0.9975026249885559,0.0,0.0,0.0,9.604774475097656,3.3046529293060303,7.936460018157959,-1738.4832763671875,0
1060.6219999999994,-0.012780102901160717,-0.0038024981040507555,-0.00047595248906873167,0.0,0.0,0.0,0.0,-0.000708710344042629,0.005300456658005714,0.0007813403499312699,0.9990973472595215,0.0,0.0,0.0,9.613936424255371,3.3065555095672607,7.92911434173584,-1740.1416015625,0
1070.5329999999994,-0.012801425531506538,-0.003818304743617773,-0.0004782294563483447,0.0,0.0,0.0,0.0,-0.002879905980080366,-0.0028266110457479954,0.0004760824958793819,0.9982551336288452,0.0,0.0,0.0,9.604737281799316,3.3132693767547607,7.926418304443359,-1738.4765625,0
1080.4480000000003,-0.012800903059542179,-0.0038023069500923157,-0.0005045341677032411,0.0,0.0,0.0,0.0,0.0005234694690443575,-0.0008892345358617604,-0.002216259716078639,1.0014680624008179,0.0,0.0,0.0,9.603582382202148,3.313645601272583,7.922572135925293,-1738.2674560546875,0
1090.3580000000002,-0.012742018327116966,-0.0038004203233867884,-0.0004618682141881436,0.0,0.0,0.0,0.0,0.0006004826864227653,0.005707558710128069,-0.0013370274100452662,0.9984455704689026,0.0,0.0,0.0,9.60664176940918,3.315553665161133,7.925754547119141,-1738.8212890625,0
1100.2709999999988,-0.012746090069413185,-0.0037962980568408966,-0.0004809514502994716,0.0,0.0,0.0,0.0,-0.005272963084280491,0.0004644698929041624,-0.00010441769700264558,0.9997342228889465,0.0,0.0,0.0,9.607124328613281,3.3111929893493652,7.914876937866211,-1738.9085693359375,0
1110.191999999999,-0.012764179147779942,-0.003810364753007889,-0.0004842928610742092,0.0,0.0,0.0,0.0,0.00251403427682817,-0.003805482294410467,0.003801052924245596,1.000646948814392,0.0,0.0,0.0,9.597848892211914,3.31418776512146,7.898852825164795,-1737.229736328125,0
1120.0959999999995,-0.012767842039465904,-0.003786479588598013,-0.0004952905001118779,0.0,0.0,0.0,0.0,0.0017098928801715374,-0.0019096339819952846,-0.0013980836374685168,0.9989798665046692,0.0,0.0,0.0,9.599749565124512,3.3228251934051514,7.8955793380737305,-1737.57373046875,0
1130.0069999999996,-0.012763573788106441,-0.0037552842404693365,-0.00046622665831819177,0.0,0.0,0.0,0.0,-0.00027330763987265527,-0.003951221238821745,-0.0014017701614648104,0.9989858865737915,0.0,0.0,0.0,9.605790138244629,3.3291211128234863,7.899477005004883,-1738.6671142578125,0
1139.923999999999,-0.012739822268486023,-0.0037285813596099615,-0.0005218591541051865,0.0,0.0,0.0,0.0,-0.001166870235465467,0.00405536312609911,0.0007492608856409788,0.999967634677887,0.0,0.0,0.0,9.609123229980469,3.3317790031433105,7.899191856384277,-1739.2705078125,0
1149.8329999999987,-0.012782455421984196,-0.0037119723856449127,-0.0005259427125565708,0.0,0.0,0.0,0.0,0.004103624261915684,-0.002578132785856724,0.00380526902154088,0.9997625350952148,0.0,0.0,0.0,9.599544525146484,3.3309097290039062,7.893845081329346,-1737.53662109375,0
1159.7439999999988,-0.012797573581337929,-0.00370782520622015,-0.0005322090000845492,0.0,0.0,0.0,0.0,-0.0002531377540435642,0.0003595090238377452,0.002232892904430628,1.0018203258514404,0.0,0.0,0.0,9.601911544799805,3.3366854190826416,7.888647079467773,-1737.965087890625,0
1169.6579999999994,-0.012751612812280655,-0.0037397798150777817,-0.0005168583593331277,0.0,0.0,0.0,0.0,-0.003666690783575177,-0.0006779838004149497,0.0021298686042428017,0.9998478293418884,0.0,0.0,0.0,9.595723152160645,3.3235552310943604,7.882533073425293,-1736.844970703125,0
1179.5720000000001,-0.01276084128767252,-0.0037456308491528034,-0.0005112134967930615,0.0,0.0,0.0,0.0,-0.0019822155591100454,-0.005879750940948725,0.001846793107688427,1.000935673713684,0.0,0.0,0.0,9.612096786499023,3.3216750621795654,7.882742404937744,-1739.8087158203125,0
1189.4830000000002,-0.012743881903588772,-0.0037738513201475143,-0.0004919979255646467,0.0,0.0,0.0,0.0,0.0041145263239741325,-0.00020731538825202733,0.00028627694700844586,1.000321626663208,0.0,0.0,0.0,9.610198974609375,3.3299224376678467,7.886919021606445,-1739.4649658203125,0
1199.3949999999986,-0.012750125490128994,-0.0037853363901376724,-0.0004931929870508611,0.0,0.0,0.0,0.0,-0.0036072111688554287,-0.002422888996079564,-8.955088560469449e-05,0.998630166053772,0.0,0.0,0.0,9.62140941619873,3.327956438064575,7.887275218963623,-1741.494384765625,0
1209.3059999999987,-0.0127470213919878,-0.0038077521603554487,-0.00047321521560661495,0.0,0.0,0.0,0.0,-0.0012323159025982022,-0.0032117259688675404,0.0029564788565039635,1.0000373125076294,0.0,0.0,0.0,9.618353843688965,3.32350492477417,7.8819899559021,-1740.941162109375,0
1219.2240000000002,-0.012736164033412933,-0.003781742649152875,-0.00048177017015405,0.0,0.0,0.0,0.0,-0.0014168681809678674,-0.0024551686365157366,0.00040919077582657337,1.0001767873764038,0.0,0.0,0.0,9.62768840789795,3.3276455402374268,7.885048866271973,-1742.6307373046875,0
1229.137999999999,-0.01272253505885601,-0.0037947024684399366,-0.0004696158866863698,0.0,0.0,0.0,0.0,-0.0010958296479657292,-0.002670138608664274,0.005014005117118359,0.9999346733093262,0.0,0.0,0.0,9.636390686035156,3.3251774311065674,7.890110969543457,-1744.2059326171875,0
1239.0479999999989,-0.01270049624145031,-0.003777597099542618,-0.0005153944948688149,0.0,0.0,0.0,0.0,-0.003432000521570444,0.0013425515498965979,0.0019713572692126036,0.9979917407035828,0.0,0.0,0.0,9.635732650756836,3.330411672592163,7.899045467376709,-1744.0869140625,0
1248.9660000000003,-0.01270824670791626,-0.0037735437508672476,-0.0005069453036412597,0.0,0.0,0.0,0.0,0.0007201657863333821,0.003797912737354636,-0.0008267503581009805,0.998762845993042,0.0,0.0,0.0,9.640081405639648,3.3366920948028564,7.897100925445557,-1744.8739013671875,0
1258.875,-0.012727958150207996,-0.0037926596123725176,-0.0005144536262378097,0.0,0.0,0.0,0.0,0.0010901351924985647,-0.005916615016758442,-0.0019492229912430048,0.9991947412490845,0.0,0.0,0.0,9.639848709106445,3.3342397212982178,7.888288497924805,-1744.8319091796875,0
1268.7939999999999,-0.012826158665120602,-0.0037570379208773375,-0.0005186767666600645,0.0,0.0,0.0,0.0,-0.0003014025278389454,0.0006547248922288418,0.006928985007107258,0.9984250664710999,0.0,0.0,0.0,9.630887031555176,3.3352413177490234,7.885496616363525,-1743.209716796875,0
1278.7029999999995,-0.012844109907746315,-0.003783712163567543,-0.0005418522632680833,0.0,0.0,0.0,0.0,-0.0006859742570668459,-0.0005645941128022969,-0.0012324353447183967,0.9989264011383057,0.0,0.0,0.0,9.630623817443848,3.3382654190063477,7.88995361328125,-1743.1619873046875,0
1288.610999999999,-0.012749689631164074,-0.003790467046201229,-0.0005054392968304455,0.0,0.0,0.0,0.0,-0.0034642391838133335,-0.006569786462932825,0.005569710396230221,0.997160017490387,0.0,0.0,0.0,9.634275436401367,3.334965705871582,7.893624782562256,-1743.8231201171875,0
1298.530999999999,-0.012733718380331993,-0.003777115372940898,-0.0005597294075414538,0.0,0.0,0.0,0.0,0.0014645782066509128,0.002281517954543233,0.003432059660553932,0.9992704391479492,0.0,0.0,0.0,9.624223709106445,3.3399226665496826,7.893987655639648,-1742.0037841796875,0
1308.441999999999,-0.012728807516396046,-0.0037606360856443644,-0.0005474723875522614,0.0,0.0,0.0,0.0,-0.004763409029692411,0.0018327335128560662,0.0021015373058617115,0.9981887936592102,0.0,0.0,0.0,9.628183364868164,3.3444931507110596,7.892145156860352,-1742.72021484375,0
1318.3490000000002,-0.012768183834850788,-0.0037882160395383835,-0.0005486583104357123,0.0,0.0,0.0,0.0,8.364477253053337e-05,-0.000757287023589015,-0.0031191138550639153,0.9987102746963501,0.0,0.0,0.0,9.62610912322998,3.342937707901001,7.878424644470215,-1742.344970703125,0
1328.2659999999996,-0.012734388001263142,-0.0037791146896779537,-0.0005265185027383268,0.0,0.0,0.0,0.0,-0.0011201977031305432,-0.0005537901888601482,0.0028576322365552187,1.0004022121429443,0.0,0.0,0.0,9.630645751953125,3.3396835327148438,7.877373695373535,-1743.166015625,0
1338.1809999999987,-0.012761745601892471,-0.0037757304962724447,-0.0005312397261150181,0.0,0.0,0.0,0.0,0.0005885138525627553,-0.0025256313383579254,-0.0006311068427748978,0.999194860458374,0.0,0.0,0.0,9.631564140319824,3.343996047973633,7.879954814910889,-1743.332275390625,0
1348.0949999999993,-0.012750429101288319,-0.0037916628643870354,-0.0005276852170936763,0.0,0.0,0.0,0.0,-0.0026078629307448864,0.0014887581346556544,-0.0004952649469487369,0.9994518160820007,0.0,0.0,0.0,9.634747505187988,3.3400726318359375,7.877138614654541,-1743.908447265625,0
1357.9989999999998,-0.012784893624484539,-0.00382653484120965,-0.0005420124507509172,0.0,0.0,0.0,0.0,0.0007579242810606956,0.0025046051014214754,0.0006250119768083096,1.0000077486038208,0.0,0.0,0.0,9.639143943786621,3.330803871154785,7.869810104370117,-1744.7042236328125,0
1367.92,-0.012722956947982311,-0.003853851929306984,-0.0005268220556899905,0.0,0.0,0.0,0.0,-0.00036031074705533683,-0.006881271954625845,0.0007741242297925055,0.9986078143119812,0.0,0.0,0.0,9.639004707336426,3.3224613666534424,7.881063461303711,-1744.678955078125,0
1377.825999999999,-0.012737528420984745,-0.0038306699134409428,-0.0005370405851863325,0.0,0.0,0.0,0.0,-0.0012100564781576395,-0.0015821635024622083,0.0013962212251499295,0.9993236660957336,0.0,0.0,0.0,9.64023494720459,3.3285958766937256,7.887104034423828,-1744.9017333984375,0
1387.7420000000002,-0.012733005918562412,-0.0038085917476564646,-0.0005140301072970033,0.0,0.0,0.0,0.0,0.0011730025289580226,0.0024596573784947395,-0.005612027365714312,0.9977958798408508,0.0,0.0,0.0,9.642879486083984,3.331359624862671,7.885487079620361,-1745.38037109375,0
1397.6539999999986,-0.012748128734529018,-0.0037947825621813536,-0.0005264802020974457,0.0,0.0,0.0,0.0,-0.0021313687320798635,-0.0030658459290862083,0.0029909000732004642,0.9986533522605896,0.0,0.0,0.0,9.639779090881348,3.3379626274108887,7.8778157234191895,-1744.819091796875,0
1407.5649999999987,-0.01277829147875309,-0.003817131510004401,-0.0005325601669028401,0.0,0.0,0.0,0.0,-0.00029636177350766957,0.0024159178137779236,-0.0012921476736664772,0.9985641837120056,0.0,0.0,0.0,9.630931854248047,3.3356223106384277,7.87202787399292,-1743.2178955078125,0
1417.4789999999994,-0.012791268527507782,-0.0037926286458969116,-0.0005465765716508031,0.0,0.0,0.0,0.0,0.0021438710391521454,-0.002189262770116329,-0.00012120372412027791,1.000265121459961,0.0,0.0,0.0,9.627785682678223,3.337372303009033,7.8719940185546875,-1742.6484375,0
1427.393,-0.012823046185076237,-0.0038140923716127872,-0.0005546567845158279,0.0,0.0,0.0,0.0,-0.0038415368180722,-0.0008111722418107092,0.002318732440471649,0.9994556307792664,0.0,0.0,0.0,9.617393493652344,3.3401260375976562,7.865463733673096,-1740.767333984375,0
1437.2999999999993,-0.012874619103968143,-0.003837867174297571,-0.0005354779423214495,0.0,0.0,0.0,0.0,0.0014106763992458582,0.000745023658964783,0.0033245340455323458,0.9962188005447388,0.0,0.0,0.0,9.62154769897461,3.329066753387451,7.856637954711914,-1741.5191650390625,0
1447.2060000000001,-0.012815311551094055,-0.0038223073352128267,-0.000453433720394969,0.0,0.0,0.0,0.0,0.00062683125725016,0.00180568709038198,-0.0025853519327938557,0.9992786049842834,0.0,0.0,0.0,9.61163330078125,3.329362392425537,7.846073150634766,-1739.7247314453125,0
1457.125,-0.012826448306441307,-0.00382202654145658,-0.00048532403889112175,0.0,0.0,0.0,0.0,0.0015477037522941828,0.000995009671896696,-0.0015203506918624043,1.0007994174957275,0.0,0.0,0.0,9.612482070922852,3.3302650451660156,7.833110332489014,-1739.8782958984375,0
1467.0299999999988,-0.012855896726250648,-0.003841770812869072,-0.0004895117599517107,0.0,0.0,0.0,0.0,0.0009995021391659975,0.001515052281320095,-0.0012292355531826615,0.9991780519485474,0.0,0.0,0.0,9.602768898010254,3.32851243019104,7.828466892242432,-1738.1202392578125,0
1476.9480000000003,-0.01285362709313631,-0.0038078853394836187,-0.0005186176276765764,0.0,0.0,0.0,0.0,-0.0029032479505985975,-0.0013997815549373627,-0.002621263964101672,0.9973515272140503,0.0,0.0,0.0,9.60451889038086,3.329515218734741,7.824673175811768,-1738.43701171875,0
1486.866,-0.012881038710474968,-0.0038267974741756916,-0.0005251637194305658,0.0,0.0,0.0,0.0,-0.001686561037786305,0.001695065526291728,-0.00017928946181200445,0.9977883100509644,0.0,0.0,0.0,9.594239234924316,3.3295350074768066,7.817313194274902,-1736.576416015625,0
1496.7759999999998,-0.012885875068604946,-0.003808810608461499,-0.0005590382497757673,0.0,0.0,0.0,0.0,0.001345310010947287,-0.004438231699168682,0.0010766529012471437,0.9991129040718079,0.0,0.0,0.0,9.595335960388184,3.3385674953460693,7.818610191345215,-1736.77490234375,0
1506.687,-0.012787224724888802,-0.0038241553120315075,-0.0004905557143501937,0.0,0.0,0.0,0.0,-0.003303326666355133,0.003949862439185381,0.002366973552852869,0.9977478981018066,0.0,0.0,0.0,9.59686279296875,3.336045980453491,7.83553409576416,-1737.05126953125,0
1516.598,-0.012792294844985008,-0.003819818375632167,-0.0005247464287094772,0.0,0.0,0.0,0.0,-0.0012381681008264422,-0.0016402920009568334,-0.0030504518654197454,0.9977468848228455,0.0,0.0,0.0,9.598567008972168,3.342388153076172,7.826092720031738,-1737.3597412109375,0
1526.5109999999986,-0.012726527638733387,-0.0038502083625644445,-0.0005101272836327553,0.0,0.0,0.0,0.0,0.0022236965596675873,0.0012658591149374843,-0.0033322442322969437,0.9973548650741577,0.0,0.0,0.0,9.603510856628418,3.33259654045105,7.833177089691162,-1738.254638671875,0
1536.429,-0.012744635343551636,-0.003834795905277133,-0.0005238594021648169,0.0,0.0,0.0,0.0,-0.0021955277770757675,-0.0009232677984982729,-0.0039161681197583675,0.9980565905570984,0.0,0.0,0.0,9.605104446411133,3.3262126445770264,7.819474220275879,-1738.5428466796875,0
1546.3349999999991,-0.012772244401276112,-0.0038512384053319693,-0.0005378796486184001,0.0,0.0,0.0,0.0,0.0008386682602576911,0.0037312519270926714,0.0015160409966483712,0.9985618591308594,0.0,0.0,0.0,9.594222068786621,3.3281919956207275,7.814111709594727,-1736.5732421875,0
1556.2569999999996,-0.012763218954205513,-0.0038101105019450188,-0.0005972149083390832,0.0,0.0,0.0,0.0,0.0033829736057668924,-0.00433305324986577,-0.004324905574321747,0.9996642470359802,0.0,0.0,0.0,9.5957612991333,3.3385534286499023,7.822510242462158,-1736.851806640625,0
1566.161,-0.012756158597767353,-0.0037867582868784666,-0.0005811274168081582,0.0,0.0,0.0,0.0,-0.003385136602446437,-0.002719883807003498,0.002566504990682006,0.9994560480117798,0.0,0.0,0.0,9.601605415344238,3.340609073638916,7.82352876663208,-1737.9095458984375,0
1576.0789999999997,-0.01274566538631916,-0.0037255259230732918,-0.0006260081427171826,0.0,0.0,0.0,0.0,0.0001310595980612561,0.0026895792689174414,-0.005278096534311771,0.9989997148513794,0.0,0.0,0.0,9.603166580200195,3.358502149581909,7.835908889770508,-1738.1922607421875,0
1585.982,-0.012807397171854973,-0.0036956416442990303,-0.0006419884157367051,0.0,0.0,0.0,0.0,-0.0014487112639471889,-0.006546189077198505,0.0026905187405645847,0.9987730383872986,0.0,0.0,0.0,9.593393325805664,3.3502535820007324,7.8298139572143555,-1736.423095703125,0
1595.9069999999992,-0.012857774272561073,-0.0037179028149694204,-0.0006421071011573076,0.0,0.0,0.0,0.0,-0.004890444688498974,0.0002669568348210305,0.0007149179582484066,0.9975492358207703,0.0,0.0,0.0,9.596814155578613,3.353706121444702,7.829487323760986,-1737.04248046875,0
1605.8109999999997,-0.012890640646219254,-0.0037285941652953625,-0.0006612795405089855,0.0,0.0,0.0,0.0,0.0014193749520927668,0.0016888565151020885,0.00538451736792922,0.9994608163833618,0.0,0.0,0.0,9.58816909790039,3.3585574626922607,7.827595233917236,-1735.477783203125,0
1615.726999999999,-0.01293050218373537,-0.003775624558329582,-0.00068885792279616,0.0,0.0,0.0,0.0,-0.002166289836168289,-0.0008437548531219363,-0.0011936698574572802,1.000648856163025,0.0,0.0,0.0,9.592833518981934,3.3421335220336914,7.817385196685791,-1736.3218994140625,0
1625.6329999999998,-0.0127771757543087,-0.0037895299028605223,-0.0006043316680006683,0.0,0.0,0.0,0.0,-0.0002666451036930084,0.0022317601833492517,-0.00444860989227891,1.000077724456787,0.0,0.0,0.0,9.595683097839355,3.340405225753784,7.849130630493164,-1736.837646484375,0
1635.5569999999989,-0.012808999978005886,-0.0038030846044421196,-0.0006141674239188433,0.0,0.0,0.0,0.0,-0.0005652116378769279,-0.000630989670753479,-0.00038917732308618724,0.9995304346084595,0.0,0.0,0.0,9.59689712524414,3.3409862518310547,7.838551998138428,-1737.0574951171875,0
1645.4650000000001,-0.012837338261306286,-0.0038194775115698576,-0.0006264420226216316,0.0,0.0,0.0,0.0,-0.0006002852460369468,-0.0013942400692030787,-0.004326450638473034,0.9981062412261963,0.0,0.0,0.0,9.58582592010498,3.3364267349243164,7.832891464233398,-1735.0535888671875,0
1655.3760000000002,-0.012861617840826511,-0.003805537009611726,-0.0006320642423816025,0.0,0.0,0.0,0.0,-0.0007034250302240252,0.0025155090261250734,-0.0017617465928196907,0.9983111619949341,0.0,0.0,0.0,9.591043472290039,3.3368334770202637,7.824355125427246,-1735.9979248046875,0
1665.2799999999988,-0.012892202474176884,-0.003823845647275448,-0.000645554973743856,0.0,0.0,0.0,0.0,-5.5916152632562444e-05,-0.0033673644065856934,0.0006029626238159835,0.9988676309585571,0.0,0.0,0.0,9.581095695495605,3.3383889198303223,7.814784049987793,-1734.197509765625,0
1675.2029999999995,-0.012887103483080864,-0.0037948957178741693,-0.0007038945332169533,0.0,0.0,0.0,0.0,-0.0015099499141797423,0.0023460271768271923,0.0006709896842949092,0.9986844658851624,0.0,0.0,0.0,9.580916404724121,3.3425192832946777,7.828788757324219,-1734.1649169921875,0
1685.1090000000004,-0.012766195461153984,-0.003804965643212199,-0.0006147894309833646,0.0,0.0,0.0,0.0,-0.0033442401327192783,-0.00176715396810323,0.0003788616450037807,0.9995641112327576,0.0,0.0,0.0,9.585001945495605,3.3351340293884277,7.8472490310668945,-1734.904541015625,0
1695.0259999999998,-0.01276668906211853,-0.0038035549223423004,-0.0006564016221091151,0.0,0.0,0.0,0.0,-0.0021396102383732796,0.0019003605702891946,-0.0007495802128687501,0.99919193983078,0.0,0.0,0.0,9.584310531616211,3.339600086212158,7.852960109710693,-1734.779296875,0
1704.9269999999997,-0.01284189522266388,-0.003704296424984932,-0.0006245789118111134,0.0,0.0,0.0,0.0,-0.0023627716582268476,-0.001294526970013976,0.0006737936055287719,0.9982795715332031,0.0,0.0,0.0,9.574020385742188,3.340210199356079,7.842249870300293,-1732.9166259765625,0
1714.848,-0.01288091391324997,-0.0037439961452037096,-0.000627588015049696,0.0,0.0,0.0,0.0,0.0021256799809634686,-0.001393933198414743,-0.002839993219822645,0.998278796672821,0.0,0.0,0.0,9.57178020477295,3.3367862701416016,7.83527135848999,-1732.51123046875,0
1724.7609999999986,-0.012799869291484356,-0.0037165442481637,-0.0005811213050037622,0.0,0.0,0.0,0.0,-0.00361078092828393,-0.00025183591060340405,-0.0007329833460971713,0.9988394379615784,0.0,0.0,0.0,9.576750755310059,3.3331148624420166,7.828926086425781,-1733.410888671875,0
1734.673999999999,-0.012842429801821709,-0.003758192528039217,-0.0005758291808888316,0.0,0.0,0.0,0.0,-7.177332736318931e-05,0.002124167513102293,8.743732905713841e-05,0.9996741414070129,0.0,0.0,0.0,9.577308654785156,3.3299720287323,7.815283298492432,-1733.511962890625,0
1744.5820000000003,-0.012866292148828506,-0.0037765197921544313,-0.0005848171422258019,0.0,0.0,0.0,0.0,-0.00046554396976716816,-0.0056801182217895985,-0.00108518882188946,0.998898446559906,0.0,0.0,0.0,9.56853199005127,3.3331298828125,7.813532829284668,-1731.9232177734375,0
1754.4969999999994,-0.012882467359304428,-0.0037741505075246096,-0.0005993174854665995,0.0,0.0,0.0,0.0,-0.001754073309712112,0.0027526658959686756,-7.42368065402843e-05,0.9972692728042603,0.0,0.0,0.0,9.559089660644531,3.331209659576416,7.81060791015625,-1730.2142333984375,0
1764.4009999999998,-0.012909439392387867,-0.0037923422642052174,-0.0006100140744820237,0.0,0.0,0.0,0.0,0.00026989280013367534,-0.0005510551854968071,0.00031356432009488344,0.9984695315361023,0.0,0.0,0.0,9.549880027770996,3.3349907398223877,7.7958598136901855,-1728.54736328125,0
1774.325999999999,-0.012920253910124302,-0.003785847220569849,-0.0006433955859392881,0.0,0.0,0.0,0.0,0.000192594961845316,0.0030840870458632708,0.001490592840127647,1.0006272792816162,0.0,0.0,0.0,9.554276466369629,3.3359129428863525,7.799572467803955,-1729.3431396484375,0
1784.226999999999,-0.012785803526639938,-0.003810642985627055,-0.0005546729662455618,0.0,0.0,0.0,0.0,0.001897039939649403,-0.005273507442325354,0.00022048009850550443,0.9995042085647583,0.0,0.0,0.0,9.562153816223145,3.32572603225708,7.8258562088012695,-1730.7689208984375,0
1794.1479999999992,-0.01280092354863882,-0.0038225590251386166,-0.0005720889894291759,0.0,0.0,0.0,0.0,-0.0009071044623851776,-0.0009192688739858568,0.0005154057289473712,0.999793529510498,0.0,0.0,0.0,9.566656112670898,3.323340654373169,7.839138507843018,-1731.583740234375,0
1804.0529999999999,-0.012758241035044193,-0.003818614175543189,-0.0005430764285847545,0.0,0.0,0.0,0.0,0.0017505157738924026,0.0014979576226323843,0.0004517803026828915,0.9996645450592041,0.0,0.0,0.0,9.57507038116455,3.324855327606201,7.83986234664917,-1733.10693359375,0
1813.9740000000002,-0.012779578566551208,-0.003822210943326354,-0.0005452780751511455,0.0,0.0,0.0,0.0,-0.0011618654243648052,-0.00461072800680995,0.0022051921114325523,0.9993782639503479,0.0,0.0,0.0,9.580617904663086,3.3238441944122314,7.833858489990234,-1734.1109619140625,0
1823.8760000000002,-0.01280415803194046,-0.0038468276616185904,-0.0005500322440639138,0.0,0.0,0.0,0.0,0.0008386393892578781,-0.0018445922760292888,-0.0022183896508067846,0.9994795322418213,0.0,0.0,0.0,9.57222843170166,3.328387975692749,7.834208965301514,-1732.59228515625,0
1833.8059999999987,-0.012815698981285095,-0.0038447557017207146,-0.0005684141651727259,0.0,0.0,0.0,0.0,0.0005906809237785637,-0.0035883579403162003,0.002070564543828368,0.9985424876213074,0.0,0.0,0.0,9.573319435119629,3.3271090984344482,7.829737186431885,-1732.7899169921875,0
1843.700999999999,-0.012772690504789352,-0.0038387677632272243,-0.0005193801480345428,0.0,0.0,0.0,0.0,-0.0025430747773498297,0.0009013724629767239,-0.0021462005097419024,1.0001718997955322,0.0,0.0,0.0,9.582121849060059,3.323890209197998,7.835424423217773,-1734.383056640625,0
1853.6219999999994,-0.012748234905302525,-0.003778054378926754,-0.0005708073731511831,0.0,0.0,0.0,0.0,-0.0007014299044385552,-0.00140670919790864,-0.0023580158594995737,1.001641035079956,0.0,0.0,0.0,9.588690757751465,3.3376858234405518,7.8346099853515625,-1735.572021484375,0
1863.5329999999994,-0.012778498232364655,-0.0037989825941622257,-0.0005761907086707652,0.0,0.0,0.0,0.0,-0.0028776638209819794,-0.003979077562689781,0.0012085322523489594,0.9997815489768982,0.0,0.0,0.0,9.579095840454102,3.331113815307617,7.822998046875,-1733.83544921875,0
1873.4519999999993,-0.0128132663667202,-0.0038130739703774452,-0.0005750404670834541,0.0,0.0,0.0,0.0,0.002828792668879032,-0.002111276611685753,0.00047358317533507943,1.0008127689361572,0.0,0.0,0.0,9.579655647277832,3.3378846645355225,7.825758457183838,-1733.936767578125,0
1883.351999999999,-0.012748864479362965,-0.003848598338663578,-0.000535690865945071,0.0,0.0,0.0,0.0,-0.003978969994932413,-0.0009038003627210855,0.00202409690245986,1.0016186237335205,0.0,0.0,0.0,9.583518028259277,3.331017017364502,7.835926532745361,-1734.6358642578125,0
1893.2690000000002,-0.0127739692106843,-0.0038473543245345354,-0.000528815551660955,0.0,0.0,0.0,0.0,-0.0008292982238344848,-0.0028600324876606464,0.0013545292895287275,1.0009959936141968,0.0,0.0,0.0,9.582008361816406,3.3405752182006836,7.836530685424805,-1734.362548828125,0
1903.1819999999989,-0.012784700840711594,-0.0038203359581530094,-0.0005326385144144297,0.0,0.0,0.0,0.0,0.0002400499943178147,0.002589511452242732,-0.0026955066714435816,0.9980911016464233,0.0,0.0,0.0,9.587859153747559,3.3460516929626465,7.841253280639648,-1735.4215087890625,0
1913.0910000000003,-0.01281298790127039,-0.0038438935298472643,-0.0005291399429552257,0.0,0.0,0.0,0.0,-0.001078302739188075,0.00018160694162361324,-0.0011917900992557406,0.9985661506652832,0.0,0.0,0.0,9.57888412475586,3.348165988922119,7.8326568603515625,-1733.797119140625,0
1923.0059999999994,-0.012756978161633015,-0.0038073379546403885,-0.0005018532974645495,0.0,0.0,0.0,0.0,0.0011811669683083892,0.0005017995135858655,0.0015980867901816964,1.0003178119659424,0.0,0.0,0.0,9.60008430480957,3.3578574657440186,7.843189239501953,-1737.63427734375,0
1932.9129999999986,-0.012784102000296116,-0.003832076909020543,-0.0004982163663953543,0.0,0.0,0.0,0.0,0.0021944621112197638,0.003234833013266325,0.0002936599776148796,0.9988722205162048,0.0,0.0,0.0,9.591595649719238,3.3525619506835938,7.837425231933594,-1736.0977783203125,0
1942.8279999999995,-0.012568701058626175,-0.003909646533429623,-0.0004479813214857131,0.0,0.0,0.0,0.0,0.0032351301051676273,0.005806559231132269,-0.0004567765863612294,1.0006576776504517,0.0,0.0,0.0,9.603309631347656,3.329629421234131,7.848965167999268,-1738.2181396484375,0
1952.7439999999988,-0.012594134546816349,-0.003938865382224321,-0.00044088499271310866,0.0,0.0,0.0,0.0,-0.0004387329099699855,0.0015397226670756936,-0.003087403252720833,1.001476526260376,0.0,0.0,0.0,9.593838691711426,3.3234922885894775,7.828801155090332,-1736.5037841796875,0
1962.661,-0.012606943026185036,-0.003909940831363201,-0.0004308090137783438,0.0,0.0,0.0,0.0,-0.002668299013748765,-0.0066765048541128635,5.658993904944509e-05,0.9992457032203674,0.0,0.0,0.0,9.595477104187012,3.3365871906280518,7.8194074630737305,-1736.8004150390625,0
1972.563,-0.01263553649187088,-0.0039381892420351505,-0.00042163897887803614,0.0,0.0,0.0,0.0,0.003154898062348366,0.004907143302261829,-0.0030465268064290285,0.9973934292793274,0.0,0.0,0.0,9.587404251098633,3.3389384746551514,7.828767776489258,-1735.339111328125,0
1982.4750000000004,-0.012525439262390137,-0.0040022218599915504,-0.00038331220275722444,0.0,0.0,0.0,0.0,-0.00020734514691866934,-0.0015873670345172286,0.0011801673099398613,0.9980176091194153,0.0,0.0,0.0,9.596536636352539,3.3188958168029785,7.834597110748291,-1736.9921875,0
1992.3889999999992,-0.012549776583909988,-0.00403609499335289,-0.0003751060285139829,0.0,0.0,0.0,0.0,0.0007540085935033858,-0.0021067846100777388,0.0016782355960458517,0.9994251728057861,0.0,0.0,0.0,9.586355209350586,3.3159172534942627,7.822930812835693,-1735.1494140625,0
2002.2999999999993,-0.012576313689351082,-0.0039634197019040585,-0.000382236234145239,0.0,0.0,0.0,0.0,0.00116521748714149,0.0030530306976288557,9.856957331066951e-05,1.0001474618911743,0.0,0.0,0.0,9.598840713500977,3.3303821086883545,7.829507350921631,-1737.4091796875,0
2012.2119999999995,-0.012599450536072254,-0.0039965687319636345,-0.0003762675041798502,0.0,0.0,0.0,0.0,-0.002378864213824272,0.00013508069969248027,0.003645901335403323,0.9995335340499878,0.0,0.0,0.0,9.588728904724121,3.328887939453125,7.828491687774658,-1735.5789794921875,0
2022.1309999999994,-0.01269607339054346,-0.0038586314767599106,-0.00040438672294840217,0.0,0.0,0.0,0.0,0.0026749863754957914,0.0022927315440028906,0.0007089591817930341,0.9988102912902832,0.0,0.0,0.0,9.601680755615234,3.356041669845581,7.819791316986084,-1737.92333984375,0
2032.0439999999999,-0.01272313017398119,-0.0038893159944564104,-0.00040115148294717073,0.0,0.0,0.0,0.0,-0.0008538214606232941,-0.0009432188235223293,8.93771939445287e-05,0.9985644221305847,0.0,0.0,0.0,9.591690063476562,3.3494861125946045,7.797034740447998,-1736.114990234375,0
2041.9629999999997,-0.012718080542981625,-0.0038587667513638735,-0.0004231627972330898,0.0,0.0,0.0,0.0,0.0003147643874399364,0.001410171389579773,-0.00046126122470013797,0.9991821646690369,0.0,0.0,0.0,9.595392227172852,3.36138653755188,7.807473659515381,-1736.7850341796875,0
2051.865,-0.012744744308292866,-0.003888816572725773,-0.00042377327918075025,0.0,0.0,0.0,0.0,0.002668751170858741,0.0012796994997188449,-2.7033484002458863e-06,1.0004072189331055,0.0,0.0,0.0,9.585976600646973,3.3555474281311035,7.794637203216553,-1735.0809326171875,0
2061.779999999999,-0.012751145288348198,-0.0039155203849077225,-0.0004581778193823993,0.0,0.0,0.0,0.0,0.00034138059709221125,-0.0021604865323752165,0.00043291138717904687,0.9990679621696472,0.0,0.0,0.0,9.58929443359375,3.3447277545928955,7.7853922843933105,-1735.681396484375,0
2071.6859999999997,-0.012777951546013355,-0.003947988618165255,-0.0004613470518961549,0.0,0.0,0.0,0.0,-0.00481571676209569,0.002783817006275058,0.003931846935302019,0.9997423887252808,0.0,0.0,0.0,9.579817771911621,3.344594717025757,7.785982608795166,-1733.966064453125,0
2081.6000000000004,-0.012890561483800411,-0.003781659062951803,-0.0005251970142126083,0.0,0.0,0.0,0.0,-0.00394390569999814,-0.002824765630066395,-0.005541006103157997,1.000622034072876,0.0,0.0,0.0,9.585955619812012,3.397254467010498,7.761338710784912,-1735.0770263671875,0
2091.5109999999986,-0.01292874664068222,-0.0038049998693168163,-0.0005316042806953192,0.0,0.0,0.0,0.0,0.0018392964266240597,0.0018783019622787833,-0.00448481272906065,1.0008199214935303,0.0,0.0,0.0,9.575033187866211,3.4004461765289307,7.756496429443359,-1733.10009765625,0
2101.423999999999,-0.012855347245931625,-0.003766048001125455,-0.0005289824912324548,0.0,0.0,0.0,0.0,0.0025456701405346394,-0.0018649076810106635,0.0011542545398697257,1.0003284215927124,0.0,0.0,0.0,9.595236778259277,3.3987879753112793,7.762536525726318,-1736.7569580078125,0
2111.3410000000003,-0.012896419502794743,-0.003787774359807372,-0.0005326782120391726,0.0,0.0,0.0,0.0,0.000627596746198833,0.003637682180851698,-0.001855933922342956,0.9996371865272522,0.0,0.0,0.0,9.585813522338867,3.3865420818328857,7.7549967765808105,-1735.0513916015625,0
2121.249,-0.01276612188667059,-0.003747237380594015,-0.0005379506037570536,0.0,0.0,0.0,0.0,0.00044125397107563913,0.0028788840863853693,0.0017584264278411865,0.9990686178207397,0.0,0.0,0.0,9.599342346191406,3.3957552909851074,7.765259742736816,-1737.5,0
2131.163999999999,-0.012804563157260418,-0.0037693404592573643,-0.0005417666397988796,0.0,0.0,0.0,0.0,0.0012454038951545954,0.0019379808800294995,0.0008573366794735193,0.9994670748710632,0.0,0.0,0.0,9.590266227722168,3.386388063430786,7.756687641143799,-1735.8572998046875,0
2141.0739999999987,-0.012830415740609169,-0.003776608733460307,-0.000557618448510766,0.0,0.0,0.0,0.0,-0.0011804522946476936,-0.0008895900100469589,-0.0017960733966901898,0.9972726702690125,0.0,0.0,0.0,9.590578079223633,3.377695322036743,7.750380039215088,-1735.91357421875,0
