timestamp,stateEstimate.x,stateEstimate.y,stateEstimate.z,controller.cmd_thrust,controller.cmd_roll,controller.cmd_pitch,controller.cmd_yaw,controller.r_roll,controller.r_pitch,controller.r_yaw,controller.accelz,controller.actuatorThrust,controller.roll,controller.pitch,controller.yaw,controller.rollRate,controller.pitchRate,controller.yawRate,controller.ctr_yaw
0.0,-0.00013958319323137403,0.00010634762293193489,-0.00033745294786058366,0.0,0.0,0.0,0.0,0.002058933023363352,0.000574125733692199,-0.0015690948348492384,0.9975371956825256,0.0,0.0,0.0,0.23162539303302765,-2.303644895553589,4.490079402923584,-41.92465591430664,0
9.913000000000466,-1.1278531019343063e-05,4.5025582949165255e-05,-0.00031519410549663007,0.0,0.0,0.0,0.0,-0.0004956033080816269,-0.0024593586567789316,-0.00085381482494995,1.0002068281173706,0.0,0.0,0.0,0.2319962978363037,-2.30741286277771,4.488879680633545,-41.99179458618164,0
19.822000000000116,-8.473255729768425e-05,4.275982064427808e-05,-0.000323962711263448,0.0,0.0,0.0,0.0,0.001115399762056768,-0.0019986636471003294,0.0009983489289879799,0.9990603923797607,0.0,0.0,0.0,0.23231157660484314,-2.3062736988067627,4.483219146728516,-42.048858642578125,0
29.736000000000786,2.058922291325871e-06,1.558240114718501e-06,-0.00030998256988823414,0.0,0.0,0.0,0.0,-0.0011269452515989542,-0.00825174804776907,-0.0009126078221015632,1.001962423324585,0.0,0.0,0.0,0.23863331973552704,-2.3181605339050293,4.498767375946045,-43.1931037902832,0
39.65300000000025,-0.00011932745110243559,-5.5257263738894835e-05,-0.0002834436309058219,0.0,0.0,0.0,0.0,0.0011066426523029804,0.00287566427141428,-0.0038364834617823362,1.0007171630859375,0.0,0.0,0.0,0.2384001910686493,-2.3172523975372314,4.5123395919799805,-43.150909423828125,0
49.55999999999949,-3.882558303303085e-05,-6.59753059153445e-05,-0.00024685359676368535,0.0,0.0,0.0,0.0,-0.0009549856767989695,-0.0012928288197144866,0.005309001076966524,0.9983047842979431,0.0,0.0,0.0,0.23734916746616364,-2.3106930255889893,4.505672931671143,-42.960670471191406,0
59.47400000000016,-0.00010574627231108025,-6.3393781601917e-05,-0.0002489711041562259,0.0,0.0,0.0,0.0,0.002353842370212078,-0.0019953204318881035,0.001938458764925599,1.000766634941101,0.0,0.0,0.0,0.2367708384990692,-2.311767339706421,4.508578300476074,-42.85599136352539,0
69.38700000000063,-0.00010754304094007239,2.796055923681706e-06,-0.00019344058819115162,0.0,0.0,0.0,0.0,-0.0012641430366784334,-0.001784654799848795,0.0010242272401228547,1.0004607439041138,0.0,0.0,0.0,0.24450978636741638,-2.31160306930542,4.535557270050049,-44.25675964355469,0
79.30400000000009,-0.00011742237984435633,-3.664743053377606e-05,-0.00020384354866109788,0.0,0.0,0.0,0.0,-0.001773612224496901,-0.0013412436237558722,-0.0006195337628014386,1.000614047050476,0.0,0.0,0.0,0.24450978636741638,-2.31160306930542,4.535557270050049,-44.25675964355469,0
89.21199999999953,-0.0001887550752144307,6.0079335526097566e-05,-0.0001559447991894558,0.0,0.0,0.0,0.0,-0.0005156912957318127,0.00017513494822196662,0.0019870209507644176,0.9989110827445984,0.0,0.0,0.0,0.24506188929080963,-2.3059301376342773,4.5305047035217285,-44.356685638427734,0
99.12199999999939,-0.00020053530170116574,-4.532946604740573e-06,-0.00017595929966773838,0.0,0.0,0.0,0.0,0.0014620216097682714,-0.0019314998062327504,-0.0002547609037719667,0.9993740320205688,0.0,0.0,0.0,0.24506188929080963,-2.3059301376342773,4.5305047035217285,-44.356685638427734,0
109.04299999999967,-0.00022173707839101553,1.2186688763904385e-05,-0.00014097792154643685,0.0,0.0,0.0,0.0,0.0013064024969935417,-0.0028555612079799175,0.002892225282266736,1.0007799863815308,0.0,0.0,0.0,0.244874969124794,-2.296945333480835,4.513871192932129,-44.322853088378906,0
118.95499999999993,-0.00021300984371919185,-1.6644420611555688e-05,-0.00016988669813144952,0.0,0.0,0.0,0.0,0.0005369768477976322,0.0022563172969967127,-0.001409652060829103,1.0005067586898804,0.0,0.0,0.0,0.244874969124794,-2.296945333480835,4.513871192932129,-44.322853088378906,0
128.86399999999958,-0.00017808395205065608,3.427669798838906e-05,-9.396279347129166e-05,0.0,0.0,0.0,0.0,0.0026255520060658455,0.0012643469963222742,0.003178940387442708,1.00132155418396,0.0,0.0,0.0,0.24479836225509644,-2.3013758659362793,4.503009796142578,-44.308990478515625,0
138.77700000000004,-0.00017977070820052177,-2.4423494323855266e-05,-0.00012417082325555384,0.0,0.0,0.0,0.0,0.0008965366869233549,0.001337297260761261,0.0011962110875174403,0.9997538924217224,0.0,0.0,0.0,0.24479836225509644,-2.3013758659362793,4.503009796142578,-44.308990478515625,0
148.6910000000007,-0.00015712875756435096,1.8845876184059307e-06,-5.7499491958878934e-05,0.0,0.0,0.0,0.0,-0.0018887791084125638,0.0010302914306521416,-0.004275699146091938,0.9994356036186218,0.0,0.0,0.0,0.24372927844524384,-2.29909086227417,4.489197731018066,-44.11548614501953,0
158.60499999999956,-0.0001314485998591408,-2.2204570996109396e-05,-0.00010526841651881114,0.0,0.0,0.0,0.0,-0.001184191438369453,0.0004233957442920655,-0.0013426501536741853,0.9984859228134155,0.0,0.0,0.0,0.2327781468629837,-2.301629066467285,4.495368957519531,-42.133304595947266,0
168.51499999999942,-0.00013761926675215364,-1.007056562229991e-05,-6.65703191771172e-05,0.0,0.0,0.0,0.0,0.0029124203138053417,0.0025935072917491198,0.004168356768786907,1.0025205612182617,0.0,0.0,0.0,0.24015308916568756,-2.3002872467041016,4.492025852203369,-43.46818542480469,0
178.42499999999927,-0.00013466562086250633,-4.9200163630302995e-05,-9.34389972826466e-05,0.0,0.0,0.0,0.0,0.0009634344023652375,0.0011577592231333256,-0.0009107188088819385,1.0028280019760132,0.0,0.0,0.0,0.24015308916568756,-2.3002872467041016,4.492025852203369,-43.46818542480469,0
188.34599999999955,-0.00011728730169124901,-6.845113239251077e-05,-5.104812589706853e-05,0.0,0.0,0.0,0.0,0.000395326322177425,-0.0013174350606277585,0.0006769773899577558,0.9998061656951904,0.0,0.0,0.0,0.2396574169397354,-2.2963180541992188,4.480477809906006,-43.37847137451172,0
198.25900000000001,-4.70105696876999e-05,-2.5889374228427187e-05,-0.00012405036250129342,0.0,0.0,0.0,0.0,-5.676602086168714e-05,0.0014482327969744802,0.00018333119805902243,0.9995872974395752,0.0,0.0,0.0,0.2396574169397354,-2.2963180541992188,4.480477809906006,-43.37847137451172,0
208.16699999999946,-0.00016435318684671074,1.1725509466486983e-05,-0.00012469408102333546,0.0,0.0,0.0,0.0,0.002590087242424488,-0.0002902443811763078,0.0020688073709607124,0.9991511106491089,0.0,0.0,0.0,0.24008359014987946,-2.292595624923706,4.470519542694092,-43.45560836791992,0
218.0759999999991,-0.00011995117529295385,-1.5326985476349364e-06,-0.00019043016072828323,0.0,0.0,0.0,0.0,0.000989368068985641,0.0011436030035838485,-0.0010971612064167857,0.9998378753662109,0.0,0.0,0.0,0.24008359014987946,-2.292595624923706,4.470519542694092,-43.45560836791992,0
227.9950000000008,-0.0001222636637976393,3.231472510378808e-05,-0.00015619921032339334,0.0,0.0,0.0,0.0,0.0014432002790272236,1.798567973310128e-05,0.0001510590227553621,0.9990841150283813,0.0,0.0,0.0,0.23976929485797882,-2.2925267219543457,4.467139720916748,-43.398719787597656,0
237.90500000000065,-8.770511340117082e-05,3.699774242704734e-05,-0.0002005971036851406,0.0,0.0,0.0,0.0,0.0014062600675970316,-0.0030252416618168354,-0.0025598593056201935,0.9993759989738464,0.0,0.0,0.0,0.2326127588748932,-2.290327787399292,4.474295616149902,-42.103370666503906,0
247.8169999999991,-1.0877505701500922e-05,-1.253232858289266e-05,-0.00018655299209058285,0.0,0.0,0.0,0.0,-0.002272320445626974,0.00383271393366158,0.0024748912546783686,1.0005120038986206,0.0,0.0,0.0,0.23118972778320312,-2.28836727142334,4.48031759262085,-41.84579849243164,0
257.72700000000077,-3.9280268538277596e-05,2.581028275017161e-05,-0.00022802455350756645,0.0,0.0,0.0,0.0,0.001795451040379703,0.0006339863175526261,0.003211094532161951,1.0029011964797974,0.0,0.0,0.0,0.23056714236736298,-2.279749631881714,4.4773759841918945,-41.73311233520508,0
267.64700000000084,-1.5319602653107722e-06,4.203212301945314e-05,-0.00019949558191001415,0.0,0.0,0.0,0.0,0.0013618848752230406,-0.0014041514368727803,0.0021835414227098227,1.00028657913208,0.0,0.0,0.0,0.23096632957458496,-2.2782468795776367,4.468052864074707,-41.80536651611328,0
277.5540000000001,-5.709421748179011e-05,6.071529060136527e-05,-0.0002174546680180356,0.0,0.0,0.0,0.0,0.001959353918209672,0.0031402448657900095,-0.0011464604176580906,0.998598575592041,0.0,0.0,0.0,0.23176631331443787,-2.2779064178466797,4.469158172607422,-41.950164794921875,0
287.46500000000015,-1.7813754311646335e-05,4.0897772123571485e-05,-0.00020377816690597683,0.0,0.0,0.0,0.0,0.0004014589940197766,-3.436029874137603e-05,0.0016295239329338074,0.9997615218162537,0.0,0.0,0.0,0.23982353508472443,-2.289742946624756,4.487668037414551,-43.408538818359375,0
297.3850000000002,-0.0001312173408223316,-2.8636963179451413e-05,-0.00020123625290580094,0.0,0.0,0.0,0.0,0.001411298755556345,-3.878134521073662e-05,0.001597213326022029,1.0012035369873047,0.0,0.0,0.0,0.23998314142227173,-2.292088508605957,4.4694366455078125,-43.43742752075195,0
307.3029999999999,-0.00012168334797024727,1.0986621418851428e-05,-0.0001671004865784198,0.0,0.0,0.0,0.0,-0.0031366627663373947,0.0006183652440086007,-0.0038065824192017317,1.0029410123825073,0.0,0.0,0.0,0.24718932807445526,-2.2966530323028564,4.471919536590576,-44.74176025390625,0
317.20700000000033,-0.00020205570035614073,-1.7132584616774693e-05,-0.00017774388834368438,0.0,0.0,0.0,0.0,0.002366795437410474,0.002110098022967577,-0.0016492718132212758,1.0006250143051147,0.0,0.0,0.0,0.24728599190711975,-2.2874817848205566,4.474063396453857,-44.75925827026367,0
327.1149999999998,-0.00013396212307270616,-1.4685298083350062e-05,-0.00012881889415439218,0.0,0.0,0.0,0.0,0.0005216749268583953,-0.0011741922935470939,0.0016993287717923522,0.9989669919013977,0.0,0.0,0.0,0.24546991288661957,-2.291785478591919,4.472548007965088,-44.4305419921875,0
337.02299999999923,-0.00020827064872719347,-3.8995916838757694e-05,-0.0001382658228976652,0.0,0.0,0.0,0.0,0.002386801177635789,0.0009151023114100099,-0.002268634969368577,1.0003710985183716,0.0,0.0,0.0,0.24562057852745056,-2.287471055984497,4.472375392913818,-44.45781326293945,0
346.9439999999995,-0.00015436953981406987,-2.2474825527751818e-05,-8.66592163220048e-05,0.0,0.0,0.0,0.0,0.00019704799342434853,-0.0029659620486199856,-0.0038133871275931597,1.0003403425216675,0.0,0.0,0.0,0.24443812668323517,-2.286531686782837,4.465266704559326,-44.2437858581543,0
356.84599999999955,-0.0002164327452192083,-2.8703529096674174e-05,-0.00010308660421287641,0.0,0.0,0.0,0.0,0.0003981437475886196,0.0019830430392175913,0.001399163156747818,1.002957820892334,0.0,0.0,0.0,0.24304530024528503,-2.28896164894104,4.46142053604126,-43.99168014526367,0
366.7659999999996,-0.00013101610238663852,-3.255692354287021e-05,-4.5229953684611246e-05,0.0,0.0,0.0,0.0,-0.003042271826416254,-0.003976375330239534,-0.0033638866152614355,1.00077486038208,0.0,0.0,0.0,0.24298380315303802,-2.2917871475219727,4.4549665451049805,-43.98054885864258,0
376.6769999999997,-0.00014517322415485978,-1.0954398021567613e-05,-0.00010451621346874163,0.0,0.0,0.0,0.0,-0.0021583084017038345,0.0008357478654943407,0.0024846249725669622,0.9990757703781128,0.0,0.0,0.0,0.24315090477466583,-2.288945436477661,4.458104133605957,-44.01079559326172,0
386.59499999999935,-0.00019651761977002025,4.820001777261496e-06,-9.771018085302785e-05,0.0,0.0,0.0,0.0,0.0015813562786206603,-0.002955440664663911,0.0026262386236339808,1.0005412101745605,0.0,0.0,0.0,0.24212077260017395,-2.287081480026245,4.461955547332764,-43.8243408203125,0
396.4959999999992,-0.000251414516242221,4.147492290940136e-06,-0.0001249166380148381,0.0,0.0,0.0,0.0,-0.0022024493664503098,0.002183470642194152,0.0003556937735993415,1.001270055770874,0.0,0.0,0.0,0.24159452319145203,-2.285311698913574,4.461111068725586,-43.729087829589844,0
406.40699999999924,-0.00017740167095325887,6.234291504370049e-06,-6.968306115595624e-05,0.0,0.0,0.0,0.0,-0.0008843595278449357,0.0003288359148427844,0.0005817803903482854,1.0009019374847412,0.0,0.0,0.0,0.24234221875667572,-2.2777979373931885,4.460196495056152,-43.86442184448242,0
416.3240000000005,-0.00023494313063565642,-4.397839802550152e-06,-9.35672433115542e-05,0.0,0.0,0.0,0.0,-0.0010896731400862336,-0.0024991328828036785,-0.0005183896282687783,1.0008903741836548,0.0,0.0,0.0,0.24239014089107513,-2.275545358657837,4.45335578918457,-43.87310028076172,0
426.23699999999917,-0.00015806176816113293,-3.7823810998816043e-06,-3.533971539582126e-05,0.0,0.0,0.0,0.0,-0.0007122278911992908,-0.0018801873084157705,-0.00677243247628212,1.000486135482788,0.0,0.0,0.0,0.24171645939350128,-2.2667510509490967,4.4503984451293945,-43.75115966796875,0
436.14500000000044,-0.00015931710368022323,6.2756342231296e-05,-9.276487253373489e-05,0.0,0.0,0.0,0.0,8.088765025604516e-05,-0.0009869737550616264,0.0014690650859847665,0.9997751712799072,0.0,0.0,0.0,0.24122826755046844,-2.2702219486236572,4.455597400665283,-43.66279220581055,0
446.0650000000005,-0.00010945519898086786,5.5708063882775605e-05,-5.519093247130513e-05,0.0,0.0,0.0,0.0,-0.0020172835793346167,-0.0005273643764667213,-0.0019325565081089735,0.9988354444503784,0.0,0.0,0.0,0.2402622103691101,-2.262782573699951,4.445152282714844,-43.487937927246094,0
455.97199999999975,-0.0001913257292471826,1.423456342308782e-05,-6.512024265248328e-05,0.0,0.0,0.0,0.0,1.8801862097461708e-05,-0.001994804013520479,0.0006045274785719812,0.9995668530464172,0.0,0.0,0.0,0.23992620408535004,-2.259129524230957,4.434640884399414,-43.427120208740234,0
465.8870000000006,-0.00020580457930918783,5.9049420087831095e-05,-2.9544575227191672e-05,0.0,0.0,0.0,0.0,-0.00026705939671956003,-0.004055191297084093,0.0026226090267300606,1.0012412071228027,0.0,0.0,0.0,0.23946212232112885,-2.2546164989471436,4.43910026550293,-43.34312057495117,0
475.8009999999995,-0.0002595027908682823,4.956330667482689e-05,-6.661776569671929e-05,0.0,0.0,0.0,0.0,0.00038592901546508074,-0.0014312489656731486,0.0014777852920815349,1.0021870136260986,0.0,0.0,0.0,0.23944294452667236,-2.2550480365753174,4.438879013061523,-43.33964920043945,0
485.71299999999974,-0.00020850059809163213,-6.91442983224988e-06,-5.2381568821147084e-05,0.0,0.0,0.0,0.0,-0.0003975135914515704,0.0020675132982432842,0.00079820875544101,1.0010911226272583,0.0,0.0,0.0,0.23898598551750183,-2.2516021728515625,4.437865257263184,-43.256935119628906,0
495.6280000000006,-0.0002291305863764137,2.459090501361061e-05,-0.00010863478382816538,0.0,0.0,0.0,0.0,0.0009693360771052539,-0.004789858590811491,0.0046030860394239426,1.0008336305618286,0.0,0.0,0.0,0.23305954039096832,-2.250356674194336,4.442103385925293,-42.18423843383789,0
505.53399999999965,-0.00016927441174630076,-4.543107934296131e-06,-7.978460052981973e-05,0.0,0.0,0.0,0.0,-0.0011461899848654866,-0.002083975588902831,0.0019351289374753833,0.9990741610527039,0.0,0.0,0.0,0.23203717172145844,-2.2449662685394287,4.447160243988037,-41.99919128417969,0
515.4459999999999,-0.0002311460266355425,-1.527806671219878e-05,-0.00010209653555648401,0.0,0.0,0.0,0.0,0.00041931431042030454,0.004286781884729862,-0.0040689376182854176,0.998740017414093,0.0,0.0,0.0,0.23198866844177246,-2.24324107170105,4.4503655433654785,-41.990413665771484,0
525.3639999999996,-0.00017072961782105267,-1.4151923096505925e-05,-5.8589088439475745e-05,0.0,0.0,0.0,0.0,0.003731237957254052,0.004413621965795755,0.0013984134420752525,0.9992210268974304,0.0,0.0,0.0,0.23157760500907898,-2.2380542755126953,4.446342468261719,-41.9160041809082,0
535.2729999999992,-0.0002205636992584914,-1.669338598730974e-05,-9.140582551481202e-05,0.0,0.0,0.0,0.0,-0.0013573224423453212,-0.004539725370705128,0.002750694053247571,1.000449299812317,0.0,0.0,0.0,0.2307167798280716,-2.238903760910034,4.434800148010254,-41.760196685791016,0
545.1849999999995,-0.00014977161481510848,-3.271312016295269e-05,-5.454287747852504e-05,0.0,0.0,0.0,0.0,0.0037323269061744213,-0.005487614311277866,-0.006278356537222862,0.9979528188705444,0.0,0.0,0.0,0.23782901465892792,-2.2516658306121826,4.454524517059326,-43.04752731323242,0
555.098,-0.00018479737627785653,-8.930383046390489e-06,-9.504728222964332e-05,0.0,0.0,0.0,0.0,0.00189286470413208,0.002056669909507036,-0.005103702656924725,1.0000702142715454,0.0,0.0,0.0,0.23725898563861847,-2.252537727355957,4.462183952331543,-42.9443473815918,0
565.0100000000002,-0.00010156352072954178,-5.546440297621302e-05,-6.729170127073303e-05,0.0,0.0,0.0,0.0,0.0015475769760087132,-0.00021269683202262968,0.002057827776297927,0.9992063045501709,0.0,0.0,0.0,0.23664554953575134,-2.2553577423095703,4.464877128601074,-42.83331298828125,0
574.9220000000005,-0.00014243106124922633,-3.0946594051783904e-05,-9.953288827091455e-05,0.0,0.0,0.0,0.0,-0.0015511253150179982,0.0011684000492095947,-0.0026388163678348064,0.9999226927757263,0.0,0.0,0.0,0.22849401831626892,-2.2587897777557373,4.453799724578857,-41.357872009277344,0
584.8400000000001,-8.33640806376934e-05,-7.228675531223416e-05,-8.13911683508195e-05,0.0,0.0,0.0,0.0,-0.001862816629000008,-1.929908830788918e-05,-0.003620593110099435,1.0015748739242554,0.0,0.0,0.0,0.22718442976474762,-2.2532684803009033,4.44149112701416,-41.12083053588867,0
594.7489999999998,-9.008326014736667e-05,-4.961580998497084e-06,-0.00013873058196622878,0.0,0.0,0.0,0.0,0.0010507164988666773,0.001782286912202835,0.00019126327242702246,1.0000381469726562,0.0,0.0,0.0,0.22678422927856445,-2.2532031536102295,4.437798976898193,-41.04840087890625,0
604.6589999999997,-7.902463403297588e-05,3.355708031449467e-07,-0.00012693491589743644,0.0,0.0,0.0,0.0,-0.007219379767775536,-0.0016192998737096786,0.0024878219701349735,0.9993155598640442,0.0,0.0,0.0,0.23388946056365967,-2.255903959274292,4.450716972351074,-42.33445739746094,0
614.5799999999999,-0.00010473142174305394,5.005508864996955e-05,-0.0001745993795339018,0.0,0.0,0.0,0.0,-0.0005330218118615448,-0.003830584930256009,0.0003279036609455943,0.9997891187667847,0.0,0.0,0.0,0.22652117908000946,-2.248378276824951,4.456796646118164,-41.00078582763672,0
624.491,-4.8193651309702545e-05,1.711590084596537e-05,-0.00015876043471507728,0.0,0.0,0.0,0.0,0.0006871227524243295,-0.0028009770903736353,-0.0011404651449993253,0.9991866946220398,0.0,0.0,0.0,0.22635211050510406,-2.239017963409424,4.464765548706055,-40.970184326171875,0
634.3989999999994,-0.00011408740829210728,-1.3334247341845185e-05,-0.00019670453912112862,0.0,0.0,0.0,0.0,-0.0008860166417434812,0.002229257021099329,0.002374004339799285,0.9997495412826538,0.0,0.0,0.0,0.22592326998710632,-2.235421657562256,4.463657379150391,-40.89256286621094,0
644.3109999999997,-0.00010062817455036566,2.1969179215375334e-05,-0.00017294885765295476,0.0,0.0,0.0,0.0,0.0029539575334638357,0.00012240131036378443,-0.0035296231508255005,0.9992069005966187,0.0,0.0,0.0,0.23382873833179474,-2.2342238426208496,4.475494861602783,-42.32346725463867,0
654.223,-0.00019495130982249975,-5.533387593459338e-06,-0.00018014793749898672,0.0,0.0,0.0,0.0,0.0019349909853190184,-0.0008603249443694949,-0.002079553669318557,1.0006769895553589,0.0,0.0,0.0,0.23325097560882568,-2.2338004112243652,4.469261646270752,-42.21888732910156,0
664.1370000000006,-0.00016617009532637894,-4.7424586227862164e-05,-0.00015753079787828028,0.0,0.0,0.0,0.0,-0.0009036604897119105,0.000806596246547997,0.00020009931176900864,0.9993596076965332,0.0,0.0,0.0,0.23283548653125763,-2.238262414932251,4.458306312561035,-42.1436882019043,0
674.0490000000009,-0.00023923360276967287,-1.7488184312242083e-05,-0.00016031620907597244,0.0,0.0,0.0,0.0,0.0012218570336699486,0.00012487088679336011,-0.00011040715617127717,1.0005197525024414,0.0,0.0,0.0,0.2329753339290619,-2.237713575363159,4.46015739440918,-42.16899871826172,0
683.9650000000001,-0.00016981161024887115,-6.202816439326853e-05,-0.00014622931485064328,0.0,0.0,0.0,0.0,0.0012609281111508608,-0.0030463458970189095,0.0033430554904043674,0.9988527297973633,0.0,0.0,0.0,0.23243294656276703,-2.2360894680023193,4.454105377197266,-42.070823669433594,0
693.8739999999998,-0.00024391472106799483,-3.445125912548974e-05,-0.00014817147166468203,0.0,0.0,0.0,0.0,0.0009607789688743651,-0.002368445275351405,0.004857753403484821,0.999978244304657,0.0,0.0,0.0,0.23284372687339783,-2.2375805377960205,4.449437618255615,-42.145179748535156,0
703.7900000000009,-0.00014568718324881047,-3.731311880983412e-05,-0.00013990807929076254,0.0,0.0,0.0,0.0,-0.004377732984721661,-0.0033149949740618467,0.0008720586192794144,1.0014996528625488,0.0,0.0,0.0,0.23294411599636078,-2.2382302284240723,4.445228099822998,-42.16334533691406,0
713.7009999999991,-0.0001558743679197505,5.179366780794226e-06,-0.0001133722034865059,0.0,0.0,0.0,0.0,0.0015867090551182628,-0.00218986882828176,-0.0005329056293703616,1.0001704692840576,0.0,0.0,0.0,0.23433609306812286,-2.225698471069336,4.444288730621338,-42.41529846191406,0
723.6219999999994,-0.00020368238619994372,1.7699727322906256e-05,-0.00015745610289741307,0.0,0.0,0.0,0.0,0.0015742381801828742,0.0010694798547774553,-0.0037899925373494625,1.001000165939331,0.0,0.0,0.0,0.23369944095611572,-2.2302229404449463,4.446481704711914,-42.30006408691406,0
733.5290000000005,-9.94427246041596e-05,-2.457112941556261e-06,-0.00010979667422361672,0.0,0.0,0.0,0.0,0.001162820146419108,0.0012924340553581715,0.0006794724613428116,1.0011111497879028,0.0,0.0,0.0,0.23276066780090332,-2.230381727218628,4.441896438598633,-42.13014221191406,0
743.4369999999999,-0.0001143937261076644,5.17211010446772e-05,-0.00016911780403461307,0.0,0.0,0.0,0.0,-0.002000648295506835,-0.00348668172955513,0.002973952330648899,0.9991055130958557,0.0,0.0,0.0,0.23129095137119293,-2.2313029766082764,4.43970251083374,-41.86412048339844,0
753.3590000000004,-6.433126691263169e-05,1.636269735172391e-05,-0.00015720173541922122,0.0,0.0,0.0,0.0,0.0007616885122843087,-0.0012877254048362374,0.0007307548657990992,1.0024027824401855,0.0,0.0,0.0,0.23189467191696167,-2.228376626968384,4.441666603088379,-41.97339630126953,0
763.2720000000008,-0.00013877837045583874,6.876221050333697e-06,-0.0001747576316120103,0.0,0.0,0.0,0.0,-6.4886417021625675e-06,-0.003069284139201045,6.464606121880934e-05,1.004185438156128,0.0,0.0,0.0,0.23102734982967377,-2.2256410121917725,4.444434642791748,-41.816410064697266,0
773.1759999999995,-6.202182703418657e-05,1.0200751603406388e-05,-0.00012929101649206132,0.0,0.0,0.0,0.0,-0.0003383987641427666,0.0012316805077716708,0.0010512466542422771,0.9999412298202515,0.0,0.0,0.0,0.2305557131767273,-2.2283942699432373,4.441915512084961,-41.73104476928711,0
783.0949999999993,-0.0001405967923346907,-1.7891677998704836e-05,-0.00014089418982621282,0.0,0.0,0.0,0.0,-0.0005235712742432952,-0.000343019055435434,-0.0009596553863957524,0.9977508187294006,0.0,0.0,0.0,0.22877714037895203,-2.2271556854248047,4.433300018310547,-41.409114837646484,0
793.0079999999998,-7.06361752236262e-05,-2.9909835575381294e-05,-9.978164598578587e-05,0.0,0.0,0.0,0.0,0.0018588664242997766,-0.004552139434963465,-0.00014742511848453432,1.0007216930389404,0.0,0.0,0.0,0.22831979393959045,-2.224210023880005,4.438554286956787,-41.32633590698242,0
802.9179999999997,-0.0001375510764773935,-4.657508907257579e-05,-0.00011769302363973111,0.0,0.0,0.0,0.0,0.0004833878483623266,-0.0004843587812501937,-0.0017184742027893662,1.0014768838882446,0.0,0.0,0.0,0.2272082269191742,-2.2142906188964844,4.438270092010498,-41.12514114379883,0
812.8299999999999,-0.00013210349425207824,-2.984677121276036e-05,-9.172967838821933e-05,0.0,0.0,0.0,0.0,0.001282232697121799,-0.001182419597171247,0.0013513568555936217,0.9993718862533569,0.0,0.0,0.0,0.23554794490337372,-2.223017930984497,4.439356327056885,-42.6346435546875,0
822.7450000000008,-0.0001676563551882282,-8.635175618110225e-06,-0.00013054077862761915,0.0,0.0,0.0,0.0,0.0004694261297117919,0.005907840095460415,0.002026020549237728,0.998656690120697,0.0,0.0,0.0,0.23434855043888092,-2.225867509841919,4.429444313049316,-42.41755294799805,0
832.6530000000002,-7.826010551070794e-05,-1.0740495781647041e-05,-7.96606982476078e-05,0.0,0.0,0.0,0.0,-0.00037572052679024637,-0.003746823640540242,0.0047905840910971165,0.997868537902832,0.0,0.0,0.0,0.2347012162208557,-2.2247047424316406,4.422130107879639,-42.48138427734375,0
842.5640000000003,-0.00010544528777245432,-5.704199338651961e-06,-0.00013620102254208177,0.0,0.0,0.0,0.0,-0.0013509312411770225,-0.00041876002796925604,-0.0012713822070509195,1.0008790493011475,0.0,0.0,0.0,0.23496180772781372,-2.2260072231292725,4.420407772064209,-42.5285530090332,0
852.4789999999994,-6.411315553123131e-05,8.377156518690754e-06,-0.00010074851888930425,0.0,0.0,0.0,0.0,0.004112208262085915,-0.004195865243673325,0.0025550322607159615,1.0008623600006104,0.0,0.0,0.0,0.23482519388198853,-2.219719171524048,4.419559001922607,-42.50382614135742,0
862.3989999999994,-0.00014734668366145343,-2.344985114177689e-05,-0.00011376025213394314,0.0,0.0,0.0,0.0,0.0012226310791447759,0.0002152375818695873,0.0020053242333233356,0.9974961280822754,0.0,0.0,0.0,0.23425514996051788,-2.2200679779052734,4.41667366027832,-42.4006462097168,0
872.3060000000005,-0.00015091906243469566,5.941267772868741e-06,-8.766604150878266e-05,0.0,0.0,0.0,0.0,-0.004756483249366283,-0.005116719286888838,-0.002905367873609066,0.9979574084281921,0.0,0.0,0.0,0.23428753018379211,-2.2267441749572754,4.404067516326904,-42.40650939941406,0
882.2160000000003,-0.0001732757082208991,7.244820153573528e-05,-0.00013868798851035535,0.0,0.0,0.0,0.0,-0.0009210777934640646,-0.00012535607675090432,0.0005158745916560292,1.0016306638717651,0.0,0.0,0.0,0.23436151444911957,-2.2142632007598877,4.405526161193848,-42.419898986816406,0
892.1270000000004,-7.50847757444717e-05,2.4941075025708415e-05,-0.00011147360055474564,0.0,0.0,0.0,0.0,0.005944137927144766,0.006189756561070681,0.00029352205456234515,1.0018588304519653,0.0,0.0,0.0,0.23349222540855408,-2.208256721496582,4.413500785827637,-42.26255798339844,0
902.0470000000005,-0.0001273222005693242,7.834975804144051e-06,-0.00016314313688781112,0.0,0.0,0.0,0.0,-0.00034615033655427396,-0.0014436546480283141,0.00534724909812212,0.9992925524711609,0.0,0.0,0.0,0.232464998960495,-2.2164976596832275,4.391867637634277,-42.07662582397461,0
911.9560000000001,-3.884730176650919e-05,-3.460478183114901e-06,-0.00012825340672861785,0.0,0.0,0.0,0.0,0.005429916083812714,0.002676654839888215,-0.006066261325031519,1.0008575916290283,0.0,0.0,0.0,0.24064908921718597,-2.2248942852020264,4.414554595947266,-43.557960510253906,0
921.8719999999994,-7.291814836207777e-05,4.424164944794029e-05,-0.00017134789959527552,0.0,0.0,0.0,0.0,-0.0009939258452504873,0.0027844333089888096,0.001725238747894764,1.0000157356262207,0.0,0.0,0.0,0.23973773419857025,-2.2265126705169678,4.401727676391602,-43.393009185791016,0
931.7780000000002,-2.8747128453687765e-05,3.2596104574622586e-05,-0.00015395540685858577,0.0,0.0,0.0,0.0,-0.0030207219533622265,-0.0024229257833212614,-0.0011319825425744057,0.9993676543235779,0.0,0.0,0.0,0.24467353522777557,-2.237502336502075,4.410512924194336,-44.28639602661133,0
941.6929999999993,-0.00011934374924749136,4.005058144684881e-06,-0.00016438186867162585,0.0,0.0,0.0,0.0,-0.0008137324475683272,-0.005446104798465967,0.0008770096465013921,1.001052975654602,0.0,0.0,0.0,0.23613062500953674,-2.243504047393799,4.411637783050537,-42.7401123046875,0
951.6039999999994,-0.00013792613754048944,4.40733929281123e-05,-0.00014739875041414052,0.0,0.0,0.0,0.0,-0.0005732639692723751,0.004132983740419149,-0.001036530127748847,1.0007221698760986,0.0,0.0,0.0,0.23584489524364471,-2.235912322998047,4.416758060455322,-42.68839645385742,0
961.5149999999994,-0.00020613256492652,4.540508598438464e-05,-0.00017237251449842006,0.0,0.0,0.0,0.0,-0.0005287966341711581,-0.0012944289483129978,0.001378652872517705,0.9996824860572815,0.0,0.0,0.0,0.23389755189418793,-2.2339234352111816,4.4120049476623535,-42.33592224121094,0
971.4279999999999,-0.00010098255734192207,1.566098944749683e-05,-0.00013478819164447486,0.0,0.0,0.0,0.0,0.0003520420577842742,-0.0018438069382682443,-0.003100781003013253,1.0018155574798584,0.0,0.0,0.0,0.23406678438186646,-2.2315495014190674,4.412087440490723,-42.366554260253906,0
981.3410000000003,-0.00016784362378530204,1.6573836546740495e-05,-0.0001595681969774887,0.0,0.0,0.0,0.0,0.0014012946048751473,-0.0002767246915027499,0.00017458602087572217,1.0017139911651611,0.0,0.0,0.0,0.23353298008441925,-2.2268147468566895,4.404265880584717,-42.269935607910156,0
991.2530000000006,-8.051045733736828e-05,1.4193716197041795e-05,-0.00011595032265176997,0.0,0.0,0.0,0.0,-0.0008665365166962147,-0.0016544901300221682,0.0032972414046525955,0.9993743896484375,0.0,0.0,0.0,0.2333986759185791,-2.2228188514709473,4.401082992553711,-42.24562072753906,0
1001.1659999999993,-0.00014665571507066488,2.1596097212750465e-05,-0.00013644791033584625,0.0,0.0,0.0,0.0,-0.0014867022400721908,-0.002171459374949336,-0.0015268247807398438,0.9995477199554443,0.0,0.0,0.0,0.23363372683525085,-2.2183635234832764,4.3994646072387695,-42.28816604614258,0
1011.0779999999995,-9.166698146145791e-05,5.798636266263202e-06,-0.00011030730820493773,0.0,0.0,0.0,0.0,-0.00024311624292749912,0.0011093643261119723,-0.0006737890653312206,1.0003312826156616,0.0,0.0,0.0,0.23261114954948425,-2.207688093185425,4.402125358581543,-42.103084564208984,0
1020.9959999999992,-0.00014977194950915873,1.197149140352849e-05,-0.00014007028948981315,0.0,0.0,0.0,0.0,-0.00017813968588598073,0.0004909496637992561,-0.0011742447968572378,0.9992952346801758,0.0,0.0,0.0,0.23262612521648407,-2.202605962753296,4.403134822845459,-42.10578918457031,0
1030.9060000000009,-5.7141856814268976e-05,-1.4462639228440821e-05,-0.00010552536696195602,0.0,0.0,0.0,0.0,0.000899360456969589,-0.0004067214031238109,0.0006597153842449188,1.0012003183364868,0.0,0.0,0.0,0.23287993669509888,-2.199594497680664,4.393863201141357,-42.151729583740234,0
1040.816999999999,-0.0001899784547276795,4.234048901707865e-05,-0.00012291999883018434,0.0,0.0,0.0,0.0,-0.001137120183557272,-0.0009577073506079614,-0.0035019980277866125,1.0006157159805298,0.0,0.0,0.0,0.23101381957530975,-2.1934421062469482,4.386026859283447,-41.813961029052734,0
1050.7279999999992,-6.244233372854069e-05,-5.008646439819131e-06,-9.358738316223025e-05,0.0,0.0,0.0,0.0,0.002049458911642432,-0.005280123557895422,0.0018399114487692714,0.9984577298164368,0.0,0.0,0.0,0.23101381957530975,-2.1934421062469482,4.386026859283447,-41.813961029052734,0
1060.6450000000004,-0.00019575604528654367,4.5999895519344136e-05,-0.00011238342267461121,0.0,0.0,0.0,0.0,0.0027630343101918697,0.0032168577890843153,-0.0028214429039508104,0.9988836646080017,0.0,0.0,0.0,0.23102974891662598,-2.1908693313598633,4.38674783706665,-41.81684112548828,0
1070.557999999999,-5.440240784082562e-05,-1.1340556739014573e-05,-8.223629265557975e-05,0.0,0.0,0.0,0.0,0.0003591490094549954,-0.00019139342475682497,0.000438402610598132,1.0007857084274292,0.0,0.0,0.0,0.23102974891662598,-2.1908693313598633,4.38674783706665,-41.81684112548828,0
1080.4670000000006,-0.0001871563435997814,4.296481347410008e-05,-9.909100481308997e-05,0.0,0.0,0.0,0.0,-0.0031870740931481123,-0.003105181735008955,-0.0004997784271836281,0.9993545413017273,0.0,0.0,0.0,0.22926545143127441,-2.1859896183013916,4.377645969390869,-41.497501373291016,0
1090.3790000000008,-0.0001161210602731444,3.1178660719888285e-05,-7.538055797340348e-05,0.0,0.0,0.0,0.0,0.00034174174652434886,0.0008559957495890558,-0.0010804927442222834,0.9986782670021057,0.0,0.0,0.0,0.22926545143127441,-2.1859896183013916,4.377645969390869,-41.497501373291016,0
1100.307999999999,-0.0001319289003731683,0.00010208236199105158,-0.00013738969573751092,0.0,0.0,0.0,0.0,-0.00035385103547014296,-0.0005042334669269621,-0.0031989964190870523,1.0016510486602783,0.0,0.0,0.0,0.22799628973007202,-2.181429147720337,4.3814616203308105,-41.267784118652344,0
1110.2119999999995,-3.388075128896162e-05,5.303986108629033e-05,-0.0001198319805553183,0.0,0.0,0.0,0.0,0.00032421568175777793,-0.002699217526242137,-0.00019649016030598432,1.0017169713974,0.0,0.0,0.0,0.22783906757831573,-2.181872844696045,4.376552104949951,-41.239322662353516,0
1120.1270000000004,-8.213486580643803e-05,6.940145249245688e-05,-0.00015806910232640803,0.0,0.0,0.0,0.0,-0.001042321790009737,2.294934711244423e-05,0.00276648486033082,1.0002065896987915,0.0,0.0,0.0,0.22699055075645447,-2.1816303730010986,4.3814191818237305,-41.08573913574219,0
1130.0319999999992,-1.850172338890843e-05,5.327184044290334e-05,-0.00013945394312031567,0.0,0.0,0.0,0.0,-0.0025120608042925596,-0.001692664111033082,-0.0010909081902354956,1.0015121698379517,0.0,0.0,0.0,0.22748272120952606,-2.1831486225128174,4.3798747062683105,-41.17482376098633,0
1139.9519999999993,-6.89190419507213e-05,4.4569278543349355e-05,-0.0001832182751968503,0.0,0.0,0.0,0.0,0.0019169431179761887,-0.0037284023128449917,0.0019462968921288848,0.9998272657394409,0.0,0.0,0.0,0.22113759815692902,-2.1851508617401123,4.38411283493042,-40.026344299316406,0
1149.8590000000004,-3.0175935535226017e-05,6.175041198730469e-05,-0.0001607115991646424,0.0,0.0,0.0,0.0,0.0006710346788167953,-0.005495496094226837,0.0012454786337912083,1.0006890296936035,0.0,0.0,0.0,0.22144313156604767,-2.182973623275757,4.390841960906982,-40.08164596557617,0
1159.7739999999994,-0.00010006248339777812,3.652736995718442e-05,-0.0001894387387437746,0.0,0.0,0.0,0.0,0.004953977186232805,0.0015124781057238579,-0.0032919638324528933,1.0002795457839966,0.0,0.0,0.0,0.22105471789836884,-2.1856236457824707,4.382139682769775,-40.01134490966797,0
1169.6859999999997,-6.470315565820783e-05,4.922402877127752e-05,-0.00017050045426003635,0.0,0.0,0.0,0.0,-0.002986809005960822,-0.0008430244051851332,-0.0003259536752011627,1.0003924369812012,0.0,0.0,0.0,0.22005566954612732,-2.186978816986084,4.382014751434326,-39.83051300048828,0
1179.607,-0.00011206021736143157,4.223236828693189e-05,-0.00021617376478388906,0.0,0.0,0.0,0.0,0.0044685248285532,-0.0007781589520163834,0.002202368341386318,0.9992482662200928,0.0,0.0,0.0,0.21965332329273224,-2.1852011680603027,4.380189418792725,-39.7576904296875,0
1189.5059999999994,-0.00011253122647758573,6.767425657017156e-05,-0.00020641826267819852,0.0,0.0,0.0,0.0,-0.0010839765891432762,-0.0009224473615176976,-0.0018762893741950393,0.9992059469223022,0.0,0.0,0.0,0.218534916639328,-2.1817212104797363,4.377604961395264,-39.555259704589844,0
1199.4279999999999,-0.00020373222650960088,4.4485583202913404e-05,-0.00021272590674925596,0.0,0.0,0.0,0.0,0.0025347110349684954,-0.0016816090792417526,-0.0028055354487150908,1.0016778707504272,0.0,0.0,0.0,0.2175402194261551,-2.1779274940490723,4.371384143829346,-39.37520980834961,0
1209.3320000000003,-0.00014328361430671066,6.431338260881603e-05,-0.00017550212214700878,0.0,0.0,0.0,0.0,0.000838153122458607,-0.0007864360813982785,-0.00010187750012846664,0.9994988441467285,0.0,0.0,0.0,0.21573412418365479,-2.1815452575683594,4.36534309387207,-39.04830551147461,0
1219.2659999999996,-0.00022368690406437963,4.282960799173452e-05,-0.00019054615404456854,0.0,0.0,0.0,0.0,0.00026235953555442393,-0.0019207753939554095,0.0042402674444019794,0.9995208382606506,0.0,0.0,0.0,0.21637296676635742,-2.1739656925201416,4.3625006675720215,-39.16393280029297,0
1229.1579999999994,-9.173373109661043e-05,2.445092104608193e-05,-0.00013683982251677662,0.0,0.0,0.0,0.0,0.0009215263999067247,0.00043679625377990305,-0.002694479888305068,0.9995507001876831,0.0,0.0,0.0,0.21551339328289032,-2.173255205154419,4.349583148956299,-39.00835037231445,0
1239.0779999999995,-0.00015635212184861302,2.0898800357826985e-05,-0.00015708140563219786,0.0,0.0,0.0,0.0,-6.0021284298272803e-05,0.0004138030344620347,-0.004348759539425373,1.0022703409194946,0.0,0.0,0.0,0.2167009711265564,-2.175405979156494,4.346725940704346,-39.22330856323242,0
1248.982,-0.00012991050607524812,8.467591214866843e-06,-0.0001407421223120764,0.0,0.0,0.0,0.0,-0.0035782165359705687,0.0017482051625847816,0.0003151933487970382,1.0019440650939941,0.0,0.0,0.0,0.21675097942352295,-2.170419692993164,4.330626010894775,-39.23236083984375,0
1258.9089999999997,-0.00018447144248057157,1.798133598640561e-05,-0.0001678598637226969,0.0,0.0,0.0,0.0,-0.0005382687668316066,-9.23830084502697e-05,0.0007038851617835462,1.0016391277313232,0.0,0.0,0.0,0.2162744551897049,-2.165437936782837,4.340371131896973,-39.14610290527344,0
1268.8089999999993,-4.7376714064739645e-05,-4.9990972911473364e-05,-0.00012996396981179714,0.0,0.0,0.0,0.0,0.003248077118769288,-0.0006336319493129849,0.0035769289825111628,0.9977682828903198,0.0,0.0,0.0,0.21507889032363892,-2.1603055000305176,4.334921836853027,-38.92970657348633,0
1278.7360000000008,-0.00010716813267208636,-4.8824029363458976e-05,-0.00014438341895584017,0.0,0.0,0.0,0.0,0.0005217233556322753,-0.0027171806432306767,0.004417783115059137,1.0004520416259766,0.0,0.0,0.0,0.21630078554153442,-2.163126230239868,4.330977916717529,-39.15087127685547,0
1288.6329999999998,-5.5628883274039254e-05,-3.335272413096391e-05,-0.00010546258272370324,0.0,0.0,0.0,0.0,0.0019417458679527044,-0.0017382479272782803,0.002275461796671152,1.0014771223068237,0.0,0.0,0.0,0.22511163353919983,-2.1667068004608154,4.346773624420166,-40.74565124511719,0
1298.5589999999993,-0.000131040666019544,-4.293223173590377e-05,-0.00011126800382044166,0.0,0.0,0.0,0.0,0.00032961927354335785,0.0057349125854671,-0.0005076119559817016,1.0002453327178955,0.0,0.0,0.0,0.22508670389652252,-2.1666479110717773,4.332937717437744,-40.74114227294922,0
1308.4570000000003,-5.123601295053959e-05,-8.311193960253149e-05,-7.878663745941594e-05,0.0,0.0,0.0,0.0,-0.0015873986994847655,0.001944581395946443,0.0005718048196285963,1.0004891157150269,0.0,0.0,0.0,0.22465886175632477,-2.1692447662353516,4.33433198928833,-40.663700103759766,0
1318.3809999999994,-0.00011183702008565888,-7.888061372796074e-05,-9.397260146215558e-05,0.0,0.0,0.0,0.0,0.0008154033566825092,0.0034050762187689543,-0.004330908413976431,1.000770926475525,0.0,0.0,0.0,0.22463135421276093,-2.1679728031158447,4.324891567230225,-40.65872573852539,0
1328.2839999999997,-6.878277054056525e-05,-7.285775791388005e-05,-5.3877996833762154e-05,0.0,0.0,0.0,0.0,0.0008829525904729962,-0.0004239067784510553,-0.0019271238707005978,1.0000832080841064,0.0,0.0,0.0,0.23051193356513977,-2.1733386516571045,4.336718559265137,-41.72311782836914,0
1338.2019999999993,-5.5529922974528745e-05,2.1242225557216443e-05,-0.00011764969531213865,0.0,0.0,0.0,0.0,0.0015379238175228238,-0.003700162982568145,0.0015753949992358685,1.001112937927246,0.0,0.0,0.0,0.22208520770072937,-2.1634891033172607,4.3494873046875,-40.19786071777344,0
1348.1119999999992,-3.603492586989887e-05,1.366966898785904e-05,-0.00010048424155684188,0.0,0.0,0.0,0.0,0.0022081558126956224,0.005233181640505791,0.0015613039722666144,1.0002869367599487,0.0,0.0,0.0,0.22112232446670532,-2.1587753295898438,4.34468412399292,-40.02357864379883,0
1358.0300000000007,-9.174201113637537e-05,0.000123933597933501,-0.0001796347351046279,0.0,0.0,0.0,0.0,-0.0021755830384790897,0.0050796386785805225,-0.001466735266149044,1.0006235837936401,0.0,0.0,0.0,0.2210589498281479,-2.1569957733154297,4.322587013244629,-40.01211166381836,0
1367.932999999999,-2.1695985196856782e-05,6.871883670100942e-05,-0.0001788233930710703,0.0,0.0,0.0,0.0,-0.00038378985482268035,0.00191842473577708,-0.0021885386668145657,0.9991487264633179,0.0,0.0,0.0,0.2210589498281479,-2.1569957733154297,4.322587013244629,-40.01211166381836,0
1377.8549999999996,-0.00014822471712250262,0.00013135971676092595,-0.00020822169608436525,0.0,0.0,0.0,0.0,-0.0013940267963334918,-0.002291184850037098,-0.00037645697011612356,1.001135230064392,0.0,0.0,0.0,0.21935144066810608,-2.148540735244751,4.303557395935059,-39.70304489135742,0
1387.759,-2.6988725949195214e-05,8.663741027703509e-05,-0.00018006983736995608,0.0,0.0,0.0,0.0,8.457012154394761e-05,-0.0019962431397289038,-0.0015678341733291745,1.0009288787841797,0.0,0.0,0.0,0.21935144066810608,-2.148540735244751,4.303557395935059,-39.70304489135742,0
1397.6820000000007,-0.00017889303853735328,9.408361802343279e-05,-0.00021097902208566666,0.0,0.0,0.0,0.0,8.082068234216422e-05,-8.742662430449855e-06,0.00033195639844052494,1.0008515119552612,0.0,0.0,0.0,0.21827484667301178,-2.141369104385376,4.310765266418457,-39.508182525634766,0
1407.5900000000001,-9.384855366079137e-05,2.9451757654896937e-05,-0.00020710748503915966,0.0,0.0,0.0,0.0,-0.002764696953818202,-0.004240584094077349,0.002278422936797142,1.0005937814712524,0.0,0.0,0.0,0.21827484667301178,-2.141369104385376,4.310765266418457,-39.508182525634766,0
1417.5069999999996,-0.00016829707601573318,1.9767870981013402e-05,-0.0002457519294694066,0.0,0.0,0.0,0.0,-0.0019555012695491314,-0.002655521035194397,0.0022367958445101976,0.9995260834693909,0.0,0.0,0.0,0.21870724856853485,-2.12858247756958,4.309903621673584,-39.586448669433594,0
1427.4120000000003,-0.0001463096559746191,5.80221603740938e-05,-0.00021350345923565328,0.0,0.0,0.0,0.0,0.00017507934535387903,0.0005091599305160344,-0.0019199674716219306,1.0006117820739746,0.0,0.0,0.0,0.2245190590620041,-2.125871181488037,4.332279205322266,-40.638397216796875,0
1437.3340000000007,-0.00019368559878785163,9.457974374527112e-05,-0.00025969641865231097,0.0,0.0,0.0,0.0,0.001727801514789462,-0.00024463856243528426,-0.0015448330668732524,1.001353144645691,0.0,0.0,0.0,0.22390452027320862,-2.1193349361419678,4.336469650268555,-40.52716064453125,0
1447.2369999999992,-7.006013038335368e-05,3.666608972707763e-05,-0.0002278641186421737,0.0,0.0,0.0,0.0,0.0006059875013306737,0.002322564600035548,-0.0009749015443958342,1.00203275680542,0.0,0.0,0.0,0.22906240820884705,-2.1383697986602783,4.357120990753174,-41.460750579833984,0
1457.1589999999997,-0.0001460878411307931,1.867845821834635e-05,-0.00026255680131725967,0.0,0.0,0.0,0.0,3.6118643038207665e-05,0.0007529805297963321,-0.00023226252233143896,1.0031049251556396,0.0,0.0,0.0,0.2282773107290268,-2.134164810180664,4.357580661773682,-41.31864929199219,0
1467.0720000000001,-0.00012397518730722368,2.41500365518732e-05,-0.0002395069896010682,0.0,0.0,0.0,0.0,0.0011086087906733155,0.005589728243649006,0.0024374995846301317,1.0013772249221802,0.0,0.0,0.0,0.22710652649402618,-2.140397787094116,4.342967510223389,-41.10673522949219,0
1476.9809999999998,-0.0001579648960614577,8.982956205727533e-05,-0.00028509111143648624,0.0,0.0,0.0,0.0,-0.0017003832617774606,0.0001060336799127981,-0.0038847525138407946,0.9999497532844543,0.0,0.0,0.0,0.22067177295684814,-2.141359567642212,4.3460493087768555,-39.94203186035156,0
1486.8850000000002,-4.945926048094407e-05,5.408291326602921e-05,-0.00024372460029553622,0.0,0.0,0.0,0.0,0.002271288074553013,0.0010064061498269439,0.0022160010412335396,1.0010086297988892,0.0,0.0,0.0,0.22081701457500458,-2.1400139331817627,4.33599853515625,-39.968318939208984,0
1496.813,-0.00016766064800322056,4.203498519927962e-06,-0.00023425740073435009,0.0,0.0,0.0,0.0,-0.002489411039277911,0.0007747883209958673,0.0037409947253763676,1.0003503561019897,0.0,0.0,0.0,0.21988153457641602,-2.1389522552490234,4.325479507446289,-39.79899597167969,0
1506.7109999999993,-6.187722465256229e-05,-5.773580778623e-05,-0.0002016809448832646,0.0,0.0,0.0,0.0,-0.0038931819144636393,-0.003138466738164425,0.0012521962635219097,0.9987820982933044,0.0,0.0,0.0,0.22730447351932526,-2.1543314456939697,4.353277206420898,-41.14255905151367,0
1516.6290000000008,-0.00010290450154570863,-3.517208597259014e-06,-0.00023486897407565266,0.0,0.0,0.0,0.0,-6.5589279984124e-05,0.0009564445936121047,-0.0013661672128364444,0.9996454119682312,0.0,0.0,0.0,0.2274659425020218,-2.1508898735046387,4.350386619567871,-41.17178726196289,0
1526.5380000000005,-1.7273992853006348e-05,-4.286228067940101e-05,-0.00020081237016711384,0.0,0.0,0.0,0.0,-0.0005684830830432475,0.0002392414608038962,0.0009308421285822988,0.9993592500686646,0.0,0.0,0.0,0.2268257886171341,-2.1473379135131836,4.344527244567871,-41.0559196472168,0
1536.4590000000007,-6.937784200999886e-05,-2.6645500838640146e-05,-0.00023902264365460724,0.0,0.0,0.0,0.0,0.0017411953303962946,0.000762717507313937,-0.0034450837410986423,0.9994803667068481,0.0,0.0,0.0,0.2266819328069687,-2.138352394104004,4.334211826324463,-41.02988052368164,0
1546.3629999999994,-0.00010152214235858992,-8.019067536224611e-06,-0.0002334268210688606,0.0,0.0,0.0,0.0,0.0002833783801179379,0.004526899661868811,0.0002305161760887131,1.0008490085601807,0.0,0.0,0.0,0.22633574903011322,-2.138173818588257,4.330942153930664,-40.967220306396484,0
1556.2759999999998,-0.00020294816931709647,-2.5033168640220538e-05,-0.00023569371842313558,0.0,0.0,0.0,0.0,-0.0027465380262583494,-0.0014661834575235844,-0.0017331292619928718,1.0032199621200562,0.0,0.0,0.0,0.22567768394947052,-2.138929843902588,4.308383464813232,-40.848106384277344,0
1566.188,-8.1933758337982e-05,-5.83552973694168e-05,-0.0001864580699475482,0.0,0.0,0.0,0.0,0.001416002050973475,-0.0008010866004042327,0.002181422896683216,1.0005671977996826,0.0,0.0,0.0,0.22557218372821808,-2.1333258152008057,4.308920860290527,-40.829010009765625,0
1576.1049999999996,-0.00016035330190788954,-4.517305933404714e-05,-0.00019705227168742567,0.0,0.0,0.0,0.0,0.0006601121858693659,-0.0052848453633487225,-0.000249303673626855,0.9986433982849121,0.0,0.0,0.0,0.22669954597949982,-2.1287052631378174,4.310823917388916,-41.03307342529297,0
1586.0139999999992,-8.573257946409285e-05,-2.586094524303917e-05,-0.0001418991305399686,0.0,0.0,0.0,0.0,0.0019517214968800545,-0.001399518921971321,0.001293142675422132,0.9987437725067139,0.0,0.0,0.0,0.22644135355949402,-2.126643657684326,4.308165550231934,-40.98633575439453,0
1595.9259999999995,-0.00015347350563388318,-9.405608579982072e-06,-0.00016221808618865907,0.0,0.0,0.0,0.0,0.003032080363482237,0.003474768018350005,0.00022665616415906698,0.999644935131073,0.0,0.0,0.0,0.22584566473960876,-2.125579357147217,4.305418968200684,-40.878517150878906,0
1605.8439999999991,-0.000103945036244113,-2.0910450984956697e-05,-0.00013063639926258475,0.0,0.0,0.0,0.0,-0.0003003988822456449,-0.0036366854328662157,0.0013628449523821473,0.9986892938613892,0.0,0.0,0.0,0.22641323506832123,-2.127769947052002,4.305383205413818,-40.98124694824219,0
1615.75,-0.0001695522660156712,-2.340643732168246e-06,-0.00015572685515508056,0.0,0.0,0.0,0.0,0.0018063035095110536,0.004240020643919706,-0.00023543449060525745,0.9989957213401794,0.0,0.0,0.0,0.2267129123210907,-2.1225900650024414,4.29947566986084,-41.035491943359375,0
1625.6640000000007,-7.346562051679939e-05,-3.056438436033204e-05,-0.00011740608897525817,0.0,0.0,0.0,0.0,-0.00018701089720707387,-0.0018704233225435019,0.004621515516191721,0.9988343119621277,0.0,0.0,0.0,0.23568055033683777,-2.1415340900421143,4.319828510284424,-42.65864944458008,0
1635.5750000000007,-9.421945287613198e-05,4.8701265768613666e-05,-0.00016891145787667483,0.0,0.0,0.0,0.0,-0.0002413074835203588,-0.003200739389285445,0.0006659223581664264,1.000088095664978,0.0,0.0,0.0,0.23596903681755066,-2.1397228240966797,4.316003799438477,-42.71086502075195,0
1645.4920000000002,-3.811288843280636e-05,3.820313941105269e-05,-0.00014329746773000807,0.0,0.0,0.0,0.0,-0.0004209820763207972,0.0055933441035449505,-0.0017680353485047817,0.99896240234375,0.0,0.0,0.0,0.2361622303724289,-2.1279306411743164,4.3179450035095215,-42.74583435058594,0
1655.4009999999998,-0.00013217379455454648,2.0166286049061455e-05,-0.00015520135639235377,0.0,0.0,0.0,0.0,-0.0015365388244390488,-0.00040481280302628875,0.0003398976696189493,0.9980360865592957,0.0,0.0,0.0,0.22776974737644196,-2.138385534286499,4.307480812072754,-41.226776123046875,0
1665.3220000000001,-0.00012054597755195573,4.2348969145677984e-05,-0.0001319441362284124,0.0,0.0,0.0,0.0,0.0013058591866865754,0.0011043752310797572,-0.000700108241289854,0.9998547434806824,0.0,0.0,0.0,0.2275443822145462,-2.1341075897216797,4.3124189376831055,-41.18598175048828,0
1675.2260000000006,-0.0002269786491524428,0.0001632726489333436,-0.00020297929586376995,0.0,0.0,0.0,0.0,0.00032640440622344613,-0.003647872945293784,0.0037821021396666765,1.0016239881515503,0.0,0.0,0.0,0.2179446518421173,-2.1369357109069824,4.305391788482666,-39.44841384887695,0
1685.1479999999992,-7.81966227805242e-05,5.374945976654999e-05,-0.0001935354812303558,0.0,0.0,0.0,0.0,-0.001007453422062099,-0.003356389934197068,0.0022780541330575943,1.0003080368041992,0.0,0.0,0.0,0.2179446518421173,-2.1369357109069824,4.305391788482666,-39.44841384887695,0
1695.0509999999995,-0.00021159095922484994,0.00016602528921794146,-0.0002446742437314242,0.0,0.0,0.0,0.0,-0.002148981671780348,-0.0009582029306329787,0.002549139317125082,0.999027669429779,0.0,0.0,0.0,0.21741782128810883,-2.130768299102783,4.319562911987305,-39.35306167602539,0
1704.9740000000002,-6.21243380010128e-05,9.206045797327533e-05,-0.00021870998898521066,0.0,0.0,0.0,0.0,-0.0013686715392395854,-0.0046809581108391285,-0.0007791887037456036,0.998131513595581,0.0,0.0,0.0,0.21741782128810883,-2.130768299102783,4.319562911987305,-39.35306167602539,0
1714.8780000000006,-0.0002762527437880635,0.00010034850129159167,-0.00022830221860203892,0.0,0.0,0.0,0.0,0.0025087909307330847,-0.0038029903080314398,-0.0003383057483006269,0.9992020130157471,0.0,0.0,0.0,0.21824266016483307,-2.1178152561187744,4.335906028747559,-39.50235366821289,0
1724.8060000000005,-9.587448585079983e-05,7.79651145421667e-06,-0.00019749444618355483,0.0,0.0,0.0,0.0,-0.0015523997135460377,0.00398443965241313,0.0015383318532258272,0.9994173645973206,0.0,0.0,0.0,0.21824266016483307,-2.1178152561187744,4.335906028747559,-39.50235366821289,0
1734.7029999999995,-0.0002081145066767931,-7.517105586885009e-06,-0.00021832676429767162,0.0,0.0,0.0,0.0,-0.0015619510086253285,0.002166792983189225,-0.0019320257706567645,0.9992629289627075,0.0,0.0,0.0,0.2182864099740982,-2.1144635677337646,4.333717346191406,-39.51027297973633,0
1744.6260000000002,-9.93575231404975e-05,-2.9747367079835385e-05,-0.00017810656572692096,0.0,0.0,0.0,0.0,-0.003200366860255599,-0.0036942227743566036,0.001907369471155107,0.9997020363807678,0.0,0.0,0.0,0.22531658411026,-2.1213059425354004,4.36782693862915,-40.78274917602539,0
1754.5300000000007,-0.00018123011977877468,-6.654535809502704e-06,-0.00020360259804874659,0.0,0.0,0.0,0.0,0.0008715744479559362,-0.0003817389952018857,-0.000673936097882688,1.0014171600341797,0.0,0.0,0.0,0.22494041919708252,-2.1153271198272705,4.366013526916504,-40.714664459228516,0
1764.4529999999995,-8.663368498673663e-05,-3.3987744245678186e-06,-0.00015489997167605907,0.0,0.0,0.0,0.0,-0.0011498817475512624,-0.0008834953187033534,0.001222966006025672,1.0015345811843872,0.0,0.0,0.0,0.22411556541919708,-2.1127712726593018,4.367963790893555,-40.565364837646484,0
1774.3559999999998,-0.00018076598644256592,-1.6413341654697433e-05,-0.00017511443002149463,0.0,0.0,0.0,0.0,0.0016963216476142406,0.0026686652563512325,-0.0024455618113279343,1.0008206367492676,0.0,0.0,0.0,0.22411896288394928,-2.1141626834869385,4.358556747436523,-40.565982818603516,0
1784.2800000000007,-9.996349399443716e-05,-2.5033306883415207e-05,-0.0001340820308541879,0.0,0.0,0.0,0.0,-0.00011680254829116166,-0.0004637413949239999,0.0025175674818456173,0.9986250400543213,0.0,0.0,0.0,0.2299787998199463,-2.126931667327881,4.380360126495361,-41.62662124633789,0
1794.1769999999997,-0.00018842787540052086,-3.182778164045885e-05,-0.00015393979265354574,0.0,0.0,0.0,0.0,0.000761290080845356,0.0001786811917554587,-0.002795979380607605,0.9996488094329834,0.0,0.0,0.0,0.22977635264396667,-2.121513605117798,4.383515357971191,-41.58997344970703,0
1804.098,-0.00010112662857864052,-3.3362783142365515e-05,-0.00010862026101676747,0.0,0.0,0.0,0.0,0.00032905564876273274,0.0016435913275927305,-0.0005656658904626966,0.9993647336959839,0.0,0.0,0.0,0.23655854165554047,-2.1341798305511475,4.407186031341553,-42.81756591796875,0
1814.0030000000006,-0.00016678277461323887,-5.139188033354003e-06,-0.0001409030519425869,0.0,0.0,0.0,0.0,-0.00025785210891626775,0.0010077928891405463,0.00022085534874349833,1.0012547969818115,0.0,0.0,0.0,0.23526489734649658,-2.1374592781066895,4.390013217926025,-42.58341598510742,0
1823.9230000000007,-9.599576878827065e-05,-3.1914965802570805e-05,-0.00011251485557295382,0.0,0.0,0.0,0.0,0.0001149174859165214,-0.003529558191075921,-0.006962958257645369,1.0009288787841797,0.0,0.0,0.0,0.23582622408866882,-2.1349267959594727,4.383487701416016,-42.685020446777344,0
1833.8279999999995,-0.00011333131260471418,4.8255158617394045e-05,-0.00017629031208343804,0.0,0.0,0.0,0.0,-0.0010449927067384124,-0.003457860555499792,-0.002466786652803421,1.0000661611557007,0.0,0.0,0.0,0.22976578772068024,-2.122770309448242,4.406301975250244,-41.58806228637695,0
1843.7420000000002,-5.671021790476516e-05,3.081160321016796e-05,-0.00015364222053904086,0.0,0.0,0.0,0.0,0.0021556445863097906,0.001979593653231859,-0.003484526416286826,1.0009419918060303,0.0,0.0,0.0,0.23436498641967773,-2.1351256370544434,4.420766830444336,-42.420528411865234,0
1853.661,-0.00010153980110771954,7.866484520491213e-05,-0.00019811172387562692,0.0,0.0,0.0,0.0,-0.00042025663424283266,0.0021413248032331467,0.005092207808047533,0.9979478716850281,0.0,0.0,0.0,0.23362396657466888,-2.1310465335845947,4.4185051918029785,-42.28640365600586,0
1863.5679999999993,-1.6379137377953157e-05,1.8840682969312184e-05,-0.00018482340965420008,0.0,0.0,0.0,0.0,0.0004441872297320515,0.0005327749531716108,0.000574168749153614,0.997201681137085,0.0,0.0,0.0,0.23339219391345978,-2.127842426300049,4.413251876831055,-42.244449615478516,0
1873.4799999999996,-3.945097341784276e-05,7.470232230843976e-05,-0.00025249531609006226,0.0,0.0,0.0,0.0,0.0025294870138168335,0.0024026825558394194,-0.000680142140481621,0.9992665648460388,0.0,0.0,0.0,0.2325916439294815,-2.129887580871582,4.404013633728027,-42.09954833984375,0
1883.3919999999998,8.805088782537496e-07,7.160753011703491e-05,-0.00024296970514114946,0.0,0.0,0.0,0.0,-0.0049842181615531445,-0.004725850187242031,-0.001152351382188499,1.000702977180481,0.0,0.0,0.0,0.23998495936393738,-2.1455788612365723,4.417142391204834,-43.43775939941406,0
1893.304,-7.411995466100052e-05,9.402461000718176e-05,-0.00027226837119087577,0.0,0.0,0.0,0.0,-0.0022236087825149298,0.0016254154033958912,-0.0005886066355742514,1.001222848892212,0.0,0.0,0.0,0.23975899815559387,-2.1473519802093506,4.428450584411621,-43.396854400634766,0
1903.2180000000008,-1.5027546396595426e-05,8.594067912781611e-05,-0.00025227718288078904,0.0,0.0,0.0,0.0,-0.0002128039486706257,0.002625618828460574,-0.003176092868670821,0.9988923072814941,0.0,0.0,0.0,0.23860520124435425,-2.1404342651367188,4.428377628326416,-43.188018798828125,0
1913.1350000000002,-0.00014507630839943886,4.045637615490705e-05,-0.00024565617786720395,0.0,0.0,0.0,0.0,-0.0007541622035205364,0.0019226503791287541,0.0009466847986914217,0.9971582889556885,0.0,0.0,0.0,0.233083575963974,-2.1521921157836914,4.403043270111084,-42.18859100341797,0
1923.0499999999993,-6.361730629578233e-05,3.3835836802609265e-05,-0.0002107926702592522,0.0,0.0,0.0,0.0,-0.0005917471717111766,0.00045918370597064495,3.296370050520636e-05,0.9997909069061279,0.0,0.0,0.0,0.23216259479522705,-2.1507835388183594,4.398144721984863,-42.02189254760742,0
1932.9609999999993,-0.00015736761270090938,3.9762679080013186e-05,-0.00022551111760549247,0.0,0.0,0.0,0.0,0.001163356937468052,-0.0006079652812331915,0.001770294620655477,0.9991656541824341,0.0,0.0,0.0,0.2306499034166336,-2.146888017654419,4.390944480895996,-41.74809265136719,0
1942.8799999999992,-6.54620525892824e-05,3.985736475442536e-05,-0.0001836035371525213,0.0,0.0,0.0,0.0,-0.0026748802047222853,0.0027581611648201942,0.0007670577615499496,0.9999633431434631,0.0,0.0,0.0,0.22930963337421417,-2.142073392868042,4.387665748596191,-41.505496978759766,0
1952.7849999999999,-0.00015716436610091478,3.371130515006371e-05,-0.0002038221718976274,0.0,0.0,0.0,0.0,0.0026782164350152016,-0.004226526245474815,-0.0012599376495927572,1.0014050006866455,0.0,0.0,0.0,0.22243817150592804,-2.1438839435577393,4.378997802734375,-40.26175308227539,0
1962.7039999999997,-8.26805189717561e-05,2.2288129912340082e-05,-0.00017191799997817725,0.0,0.0,0.0,0.0,0.002661114325746894,0.0029790871776640415,-0.0009513054974377155,1.001062035560608,0.0,0.0,0.0,0.22081618010997772,-2.1474242210388184,4.3703460693359375,-39.96816635131836,0
1972.6039999999994,-0.0002061280538327992,-2.56681796599878e-05,-0.00016798742581158876,0.0,0.0,0.0,0.0,-0.0009376597590744495,-0.002579990541562438,-0.0011704977368935943,0.9995378255844116,0.0,0.0,0.0,0.2205566167831421,-2.149151563644409,4.3612751960754395,-39.92118835449219,0
1982.5300000000007,-0.0002913928183261305,1.9119544958812185e-05,-0.00016744004096835852,0.0,0.0,0.0,0.0,0.002941261511296034,0.0011269457172602415,0.0005207649082876742,0.9984577894210815,0.0,0.0,0.0,0.21974103152751923,-2.14626407623291,4.360178470611572,-39.773563385009766,0
1992.432999999999,-0.0003763690183404833,-1.042548865370918e-05,-0.00019796624837908894,0.0,0.0,0.0,0.0,0.0005097784451209009,0.00013696592941414565,0.0017767639365047216,1.0016162395477295,0.0,0.0,0.0,0.2193162590265274,-2.1436777114868164,4.351137161254883,-39.69668197631836,0
2002.3490000000002,-0.00046429820940829813,3.450368967605755e-05,-0.00020064278214704245,0.0,0.0,0.0,0.0,-0.0019828230142593384,-0.0007442081114277244,0.00404774397611618,1.0000838041305542,0.0,0.0,0.0,0.21774500608444214,-2.144334316253662,4.343268394470215,-39.41227722167969,0
2012.2569999999996,-0.0005670397076755762,0.00013385296915657818,-0.00030049169436097145,0.0,0.0,0.0,0.0,6.974027928663418e-05,-0.00189564423635602,-0.0004886550595983863,0.9983498454093933,0.0,0.0,0.0,0.21907322108745575,-2.137810230255127,4.337681293487549,-39.652687072753906,0
2022.179,-0.0005670397076755762,0.00013385296915657818,-0.00030049169436097145,0.0,0.0,0.0,0.0,4.155686383455759e-06,-0.0026593594811856747,0.0017739813774824142,0.9997670650482178,0.0,0.0,0.0,0.21907322108745575,-2.137810230255127,4.337681293487549,-39.652687072753906,0
2032.0820000000003,-0.0006693038158118725,0.00021872471552342176,-0.0004151722532697022,0.0,0.0,0.0,0.0,0.001978132873773575,0.0012662356020882726,0.0004890827694907784,1.0011011362075806,0.0,0.0,0.0,0.21841901540756226,-2.1362433433532715,4.333148002624512,-39.53427505493164,0
2042.0020000000004,-0.0006693038158118725,0.00021872471552342176,-0.0004151722532697022,0.0,0.0,0.0,0.0,-0.0014757767785340548,-0.006754379253834486,0.0011853048345074058,1.0025404691696167,0.0,0.0,0.0,0.21841901540756226,-2.1362433433532715,4.333148002624512,-39.53427505493164,0
2051.9069999999992,-0.0006582786445505917,0.0002716235176194459,-0.0005477559170685709,0.0,0.0,0.0,0.0,-0.0012915234547108412,0.0007245390443131328,-0.001679939217865467,1.0024144649505615,0.0,0.0,0.0,0.2134723663330078,-2.1363911628723145,4.392990589141846,-38.63892364501953,0
2061.8340000000007,-0.0007316305418498814,0.0003330555045977235,-0.0005723730428144336,0.0,0.0,0.0,0.0,0.0004143523401580751,0.001490088296122849,0.00020948289602529258,0.9996126890182495,0.0,0.0,0.0,0.21331225335597992,-2.126570701599121,4.4078850746154785,-38.60994338989258,0
2071.7350000000006,-0.0007321549928747118,0.0003556337615009397,-0.0006845545722171664,0.0,0.0,0.0,0.0,0.00048205337952822447,0.004063446074724197,-0.00015622292994521558,0.9999882578849792,0.0,0.0,0.0,0.20670250058174133,-2.137293577194214,4.448192119598389,-37.4135627746582,0
2081.6530000000002,-0.0008040701504796743,0.00041966844582930207,-0.0007147763972170651,0.0,0.0,0.0,0.0,-0.0006883504102006555,0.0032027391716837883,-0.0013556196354329586,1.000931978225708,0.0,0.0,0.0,0.2053547501564026,-2.1340909004211426,4.440463066101074,-37.16961669921875,0
2091.5640000000003,-0.0008202255703508854,0.00042510710773058236,-0.0008219401934184134,0.0,0.0,0.0,0.0,0.00043618574272841215,0.00426273699849844,-0.0004448320250958204,0.9995550513267517,0.0,0.0,0.0,0.2040857970714569,-2.1435635089874268,4.421855926513672,-36.93993377685547,0
2101.482,-0.0008920790860429406,0.0004877186147496104,-0.0008574601379223168,0.0,0.0,0.0,0.0,0.003066857112571597,-0.0003924729535356164,0.002186954952776432,1.000229835510254,0.0,0.0,0.0,0.2034652978181839,-2.139763832092285,4.419858455657959,-36.8276252746582,0
