timestamp,stateEstimate.x,stateEstimate.y,stateEstimate.z,controller.cmd_thrust,controller.cmd_roll,controller.cmd_pitch,controller.cmd_yaw,controller.r_roll,controller.r_pitch,controller.r_yaw,controller.accelz,controller.actuatorThrust,controller.roll,controller.pitch,controller.yaw,controller.rollRate,controller.pitchRate,controller.yawRate,controller.ctr_yaw
0.0,0.08005602657794952,0.13550467789173126,-0.2689115107059479,0.0,0.0,0.0,0.0,-0.0007009124965406954,-0.005147044081240892,0.002575324149802327,0.9979345798492432,0.0,0.0,0.0,4.074094772338867,-2.7271482944488525,7.324980735778809,-737.4192504882812,0
9.91400000000067,0.07850773632526398,0.1323963701725006,-0.26279541850090027,0.0,0.0,0.0,0.0,-0.0027110087685287,0.0013525411486625671,0.0012936105486005545,1.00030517578125,0.0,0.0,0.0,4.068533897399902,-2.8139617443084717,7.258796691894531,-736.4127197265625,0
19.82799999999952,0.07960174977779388,0.13463063538074493,-0.2671482563018799,0.0,0.0,0.0,0.0,-0.0001805967913242057,0.0018993724370375276,-0.005694042891263962,1.0025867223739624,0.0,0.0,0.0,4.0652546882629395,-2.803522825241089,7.2631707191467285,-735.8191528320312,0
29.737999999999374,0.07804400473833084,0.1314893662929535,-0.26099109649658203,0.0,0.0,0.0,0.0,-0.0013692856300622225,0.002585846930742264,0.001309444778598845,1.0005743503570557,0.0,0.0,0.0,4.059704780578613,-2.9014298915863037,7.193129539489746,-734.8146362304688,0
39.64799999999923,0.07911300659179688,0.1336764544248581,-0.2652484178543091,0.0,0.0,0.0,0.0,-0.0005291349370963871,-0.0009806439047679305,-0.0001823633210733533,0.9983046650886536,0.0,0.0,0.0,4.05549430847168,-2.8951380252838135,7.183273792266846,-734.0525512695312,0
49.560999999999694,0.0774967148900032,0.13046228885650635,-0.25897595286369324,0.0,0.0,0.0,0.0,0.0015402816934511065,0.0005531245842576027,-0.005206000525504351,0.9991019368171692,0.0,0.0,0.0,4.0534257888793945,-2.991748094558716,7.10223388671875,-733.6781616210938,0
59.475000000000364,0.07853884994983673,0.13260123133659363,-0.2631409466266632,0.0,0.0,0.0,0.0,-0.0015638256445527077,0.0003724156995303929,0.0057879104278981686,1.0003730058670044,0.0,0.0,0.0,4.049993991851807,-2.9935760498046875,7.096610069274902,-733.0570068359375,0
69.38299999999981,0.07694227248430252,0.12939521670341492,-0.25687655806541443,0.0,0.0,0.0,0.0,0.0019861815962940454,-0.0027170737739652395,0.0006733707268722355,1.0017380714416504,0.0,0.0,0.0,4.041898250579834,-3.095810651779175,7.0178608894348145,-731.5916137695312,0
79.29500000000007,0.07795776426792145,0.13148395717144012,-0.26095038652420044,0.0,0.0,0.0,0.0,0.0010744017781689763,-0.0018035988323390484,-0.0020408821292221546,1.0014748573303223,0.0,0.0,0.0,4.038331031799316,-3.096522569656372,7.022196292877197,-730.9459228515625,0
89.20800000000054,0.07735367119312286,0.1302763819694519,-0.2585490643978119,0.0,0.0,0.0,0.0,5.818630143039627e-06,-0.0007794326520524919,-0.0015332743059843779,1.0008653402328491,0.0,0.0,0.0,4.03058385848999,-3.1886684894561768,6.958682537078857,-729.543701171875,0
99.1190000000006,0.07735367119312286,0.1302763819694519,-0.2585490643978119,0.0,0.0,0.0,0.0,0.0004961623926647007,0.00013737118570134044,0.0014624758623540401,1.0006084442138672,0.0,0.0,0.0,4.03058385848999,-3.1886684894561768,6.958682537078857,-729.543701171875,0
109.04199999999946,0.0767509862780571,0.1289762705564499,-0.2560041546821594,0.0,0.0,0.0,0.0,-0.0038478237111121416,-0.0034908351954072714,1.1689564416883513e-05,0.9999008178710938,0.0,0.0,0.0,4.029010772705078,-3.2960705757141113,6.903928756713867,-729.2589721679688,0
118.9429999999993,0.0767509862780571,0.1289762705564499,-0.2560041546821594,0.0,0.0,0.0,0.0,0.00024154220591299236,-0.004561085719615221,-0.0002886640722863376,0.9972586631774902,0.0,0.0,0.0,4.029010772705078,-3.2960705757141113,6.903928756713867,-729.2589721679688,0
128.8729999999996,0.07612375915050507,0.12767638266086578,-0.25351664423942566,0.0,0.0,0.0,0.0,-0.0013752214144915342,0.004958332981914282,0.0024122579488903284,0.9989466071128845,0.0,0.0,0.0,4.02069616317749,-3.3903112411499023,6.853348731994629,-727.7540283203125,0
138.77000000000044,0.07612375915050507,0.12767638266086578,-0.25351664423942566,0.0,0.0,0.0,0.0,-0.0017461273819208145,0.0012664995156228542,0.0016047427197918296,0.9976524114608765,0.0,0.0,0.0,4.02069616317749,-3.3903112411499023,6.853348731994629,-727.7540283203125,0
148.6910000000007,0.07543019205331802,0.12626229226589203,-0.25078850984573364,0.0,0.0,0.0,0.0,-0.00049315404612571,-0.0012394620571285486,0.0019433910492807627,0.9976918697357178,0.0,0.0,0.0,4.011313438415527,-3.473360538482666,6.782114028930664,-726.0556640625,0
158.59200000000055,0.07543019205331802,0.12626229226589203,-0.25078850984573364,0.0,0.0,0.0,0.0,0.0011797691695392132,0.0007784705958329141,0.0007088365382514894,0.9971333742141724,0.0,0.0,0.0,4.011313438415527,-3.473360538482666,6.782114028930664,-726.0556640625,0
168.51599999999962,0.07389985769987106,0.12312038242816925,-0.24461433291435242,0.0,0.0,0.0,0.0,-0.002755985828116536,0.0002764593518804759,-0.0034631735179573298,0.9987765550613403,0.0,0.0,0.0,4.013065338134766,-3.557903289794922,6.734016418457031,-726.372802734375,0
178.42399999999907,0.07479514181613922,0.12495797872543335,-0.24823766946792603,0.0,0.0,0.0,0.0,-0.0015897394623607397,-0.0019759242422878742,-0.0017731362022459507,1.0002613067626953,0.0,0.0,0.0,4.009035587310791,-3.5581371784210205,6.727571487426758,-725.6433715820312,0
188.34499999999935,0.07319770008325577,0.12168984115123749,-0.24186061322689056,0.0,0.0,0.0,0.0,-0.0015778832603245974,-0.006967214401811361,0.00494883069768548,1.0004210472106934,0.0,0.0,0.0,4.004551887512207,-3.650479793548584,6.693508625030518,-724.8318481445312,0
198.2420000000002,0.07406935840845108,0.12348192185163498,-0.24539689719676971,0.0,0.0,0.0,0.0,-0.001400164095684886,-0.003523510415107012,-0.0008630871889181435,0.9974838495254517,0.0,0.0,0.0,4.000350475311279,-3.6435811519622803,6.6874613761901855,-724.0713500976562,0
208.16200000000026,0.07245605438947678,0.12017382681369781,-0.23886296153068542,0.0,0.0,0.0,0.0,1.7238829968846403e-05,-0.0008735720766708255,0.004623174201697111,0.9983945488929749,0.0,0.0,0.0,4.007633686065674,-3.721207618713379,6.67003870010376,-725.3896484375,0
218.0660000000007,0.07330376654863358,0.12192075699567795,-0.24231067299842834,0.0,0.0,0.0,0.0,-0.00035147651215083897,0.0019758581183850765,9.654946916271001e-05,0.999202311038971,0.0,0.0,0.0,4.0045270919799805,-3.7144522666931152,6.668374538421631,-724.8273315429688,0
227.98999999999978,0.07167883217334747,0.11867980659008026,-0.23591263592243195,0.0,0.0,0.0,0.0,-0.00301052862778306,-1.913223422889132e-05,-0.0005950583727099001,1.0001236200332642,0.0,0.0,0.0,4.0016913414001465,-3.7915823459625244,6.603965759277344,-724.3140869140625,0
237.89099999999962,0.07249918580055237,0.12038331478834152,-0.23927487432956696,0.0,0.0,0.0,0.0,-9.38663724809885e-05,-0.003619445487856865,0.00028760969871655107,0.9995514750480652,0.0,0.0,0.0,3.999088764190674,-3.783784866333008,6.58795690536499,-723.843017578125,0
247.8089999999993,0.07091701030731201,0.11716010421514511,-0.23279452323913574,0.0,0.0,0.0,0.0,0.00042853978811763227,-0.0006026747287251055,-9.767344454303384e-05,0.9995865225791931,0.0,0.0,0.0,3.9967191219329834,-3.8365237712860107,6.563422679901123,-723.4141235351562,0
257.71399999999994,0.07171601802110672,0.11882269382476807,-0.23606663942337036,0.0,0.0,0.0,0.0,0.0008718720055185258,0.0002439749805489555,0.002310866490006447,1.0016257762908936,0.0,0.0,0.0,3.9924588203430176,-3.832181692123413,6.566105842590332,-722.64306640625,0
267.63800000000083,0.07011246681213379,0.11551155149936676,-0.22951526939868927,0.0,0.0,0.0,0.0,0.0005093691870570183,0.0014753270661458373,0.00388339557684958,1.000317096710205,0.0,0.0,0.0,3.990821599960327,-3.915654420852661,6.528254985809326,-722.3466796875,0
277.54099999999926,0.07089103013277054,0.11712975800037384,-0.23269857466220856,0.0,0.0,0.0,0.0,0.003212070558220148,-0.0005077776149846613,0.0015537036815658212,0.998653769493103,0.0,0.0,0.0,3.9868431091308594,-3.913243293762207,6.521299362182617,-721.6265869140625,0
287.46500000000015,0.06931106746196747,0.1138845682144165,-0.22634077072143555,0.0,0.0,0.0,0.0,-0.0007328904466703534,-0.0008939384715631604,9.090669482247904e-05,0.9995474815368652,0.0,0.0,0.0,3.980267286300659,-3.994921922683716,6.473845958709717,-720.436279296875,0
297.3639999999996,0.07006753236055374,0.11545532941818237,-0.22944000363349915,0.0,0.0,0.0,0.0,-0.0019225268624722958,-0.0014112679054960608,-0.0012334882048889995,0.999437689781189,0.0,0.0,0.0,3.976175308227539,-3.994748115539551,6.4726457595825195,-719.6956176757812,0
307.27900000000045,0.06850671023130417,0.11228310316801071,-0.2231285125017166,0.0,0.0,0.0,0.0,-0.0022949075791984797,-0.003402712056413293,0.0012019845889881253,0.9989508986473083,0.0,0.0,0.0,3.970543384552002,-4.065733909606934,6.429989337921143,-718.6762084960938,0
317.1919999999991,0.06924166530370712,0.11381209641695023,-0.2261442393064499,0.0,0.0,0.0,0.0,-6.346948066493496e-05,-0.0001248144981218502,-0.0002484405995346606,0.9975324869155884,0.0,0.0,0.0,3.965702772140503,-4.053133010864258,6.432866096496582,-717.800048828125,0
327.10000000000036,0.0676707997918129,0.11063836514949799,-0.21988247334957123,0.0,0.0,0.0,0.0,0.0019893895369023085,-0.0014494305942207575,0.0005987651529721916,0.9989023804664612,0.0,0.0,0.0,3.9643876552581787,-4.12949275970459,6.39687442779541,-717.5620727539062,0
337.0159999999996,0.06838146597146988,0.11212430894374847,-0.22281864285469055,0.0,0.0,0.0,0.0,-0.0023578337859362364,-0.002730846405029297,0.0007073528249748051,1.0006011724472046,0.0,0.0,0.0,3.9606142044067383,-4.131775379180908,6.38271951675415,-716.8790283203125,0
346.9259999999995,0.06686233729124069,0.10900817066431046,-0.21664978563785553,0.0,0.0,0.0,0.0,-0.003092732047662139,0.0021617894526571035,0.0027160795871168375,0.9994192123413086,0.0,0.0,0.0,3.9573187828063965,-4.203621864318848,6.357128620147705,-716.2825927734375,0
356.83899999999994,0.012938356958329678,-0.00045693456195294857,0.0009984999196603894,0.0,0.0,0.0,0.0,0.0006360491388477385,-0.0038736816495656967,-6.2270846683532e-05,1.000561237335205,0.0,0.0,0.0,3.937758684158325,-5.677877902984619,5.402117729187012,-712.7421264648438,0
366.7469999999994,0.013214483857154846,-3.3558826544322073e-05,0.000235513158258982,0.0,0.0,0.0,0.0,-0.0019041263731196523,0.003761564614251256,-0.00035757175646722317,1.0021690130233765,0.0,0.0,0.0,3.933931350708008,-5.662961959838867,5.401372909545898,-712.0493774414062,0
376.66599999999926,0.013367990963160992,0.000353936105966568,-0.0006439712014980614,0.0,0.0,0.0,0.0,0.0007824621861800551,0.0033505039755254984,0.0006163360085338354,0.9985809326171875,0.0,0.0,0.0,3.930615186691284,-5.657123565673828,5.390294551849365,-711.4491577148438,0
386.5849999999991,0.013641541823744774,0.0007850642432458699,-0.0014372621662914753,0.0,0.0,0.0,0.0,0.00047950600855983794,-0.00041651856736280024,-0.005401850212365389,1.0000011920928955,0.0,0.0,0.0,3.927147150039673,-5.651694297790527,5.384546279907227,-710.8214721679688,0
396.4830000000002,0.01379307545721531,0.0011720926268026233,-0.002311495365574956,0.0,0.0,0.0,0.0,0.0015802276320755482,-0.001000041957013309,0.0023767082020640373,1.0005767345428467,0.0,0.0,0.0,3.923795223236084,-5.648728370666504,5.379219055175781,-710.2147827148438,0
406.40300000000025,0.014050816185772419,0.001600571908056736,-0.0031263025011867285,0.0,0.0,0.0,0.0,0.001092662219889462,-0.0021299098152667284,0.0013130620354786515,0.9987034797668457,0.0,0.0,0.0,3.920753240585327,-5.639880180358887,5.378897190093994,-709.6641235351562,0
416.3079999999991,0.014198420569300652,0.001987292431294918,-0.003997515887022018,0.0,0.0,0.0,0.0,-0.0007414366118609905,0.0022048363462090492,0.0028042637277394533,0.9985769391059875,0.0,0.0,0.0,3.9175777435302734,-5.6345014572143555,5.377341270446777,-709.08935546875,0
426.2360000000008,0.014592030085623264,0.0028381566517055035,-0.005662574432790279,0.0,0.0,0.0,0.0,0.0005765075329691172,-0.000539479311555624,-0.0008903671987354755,0.9986327290534973,0.0,0.0,0.0,3.908491373062134,-5.588955879211426,5.391972064971924,-707.4447021484375,0
436.1350000000002,0.014592030085623264,0.0028381566517055035,-0.005662574432790279,0.0,0.0,0.0,0.0,-0.0016504540108144283,-0.001693461206741631,-0.0005941797862760723,0.9998961091041565,0.0,0.0,0.0,3.908491373062134,-5.588955879211426,5.391972064971924,-707.4447021484375,0
446.0519999999997,0.015020481310784817,0.003676831955090165,-0.007326745893806219,0.0,0.0,0.0,0.0,0.0005070543847978115,-0.000924900989048183,-0.0027793648187071085,0.9987327456474304,0.0,0.0,0.0,3.906747579574585,-5.541066646575928,5.42380428314209,-707.1290893554688,0
455.95600000000013,0.015020481310784817,0.003676831955090165,-0.007326745893806219,0.0,0.0,0.0,0.0,0.001639684196561575,0.003223178908228874,0.0035731447860598564,0.9991427659988403,0.0,0.0,0.0,3.906747579574585,-5.541066646575928,5.42380428314209,-707.1290893554688,0
465.8770000000004,0.015426792204380035,0.004510683007538319,-0.00898754969239235,0.0,0.0,0.0,0.0,-0.0019148054998368025,0.0019111610017716885,-0.0035970034077763557,0.9987311363220215,0.0,0.0,0.0,3.906337022781372,-5.499399185180664,5.447917461395264,-707.0548095703125,0
475.78099999999904,0.015426792204380035,0.004510683007538319,-0.00898754969239235,0.0,0.0,0.0,0.0,-0.0006091371178627014,-0.003618097398430109,0.0005388165009208024,0.9995359778404236,0.0,0.0,0.0,3.906337022781372,-5.499399185180664,5.447917461395264,-707.0548095703125,0
485.7029999999995,0.015806088224053383,0.005312192253768444,-0.010661080479621887,0.0,0.0,0.0,0.0,-0.0030603939667344093,-2.4984277843032032e-05,0.0006057450664229691,0.9987389445304871,0.0,0.0,0.0,3.9010519981384277,-5.469600200653076,5.479715824127197,-706.09814453125,0
495.6100000000006,0.015806088224053383,0.005312192253768444,-0.010661080479621887,0.0,0.0,0.0,0.0,0.00032193222432397306,0.008448479697108269,-0.00024117511929944158,0.996688187122345,0.0,0.0,0.0,3.9010519981384277,-5.469600200653076,5.479715824127197,-706.09814453125,0
505.52900000000045,0.01605607569217682,0.005781312007457018,-0.011550811119377613,0.0,0.0,0.0,0.0,0.0037957578897476196,-0.0008220914751291275,0.003244976280257106,0.997522234916687,0.0,0.0,0.0,3.8976917266845703,-5.443938732147217,5.520630836486816,-705.489990234375,0
515.4310000000005,0.01620565727353096,0.006159370765089989,-0.012410448864102364,0.0,0.0,0.0,0.0,0.0017022498650476336,0.0005981643334962428,-0.00135675142519176,0.9997628331184387,0.0,0.0,0.0,3.895134687423706,-5.443528652191162,5.509910583496094,-705.0271606445312,0
525.3549999999996,0.016451548784971237,0.006591042038053274,-0.013210872188210487,0.0,0.0,0.0,0.0,0.0002820188528858125,0.0004926486872136593,0.0026165274903178215,0.999618411064148,0.0,0.0,0.0,3.8946006298065186,-5.422986030578613,5.554479122161865,-704.9304809570312,0
535.2579999999998,0.016603590920567513,0.00696689123287797,-0.014067537151277065,0.0,0.0,0.0,0.0,0.0016154905315488577,0.002433725632727146,0.0020212798845022917,0.9991304874420166,0.0,0.0,0.0,3.890915632247925,-5.424203395843506,5.54775333404541,-704.2634887695312,0
545.1749999999993,0.01686650887131691,0.007405232172459364,-0.014840945601463318,0.0,0.0,0.0,0.0,0.0009678119677118957,0.001393303507938981,-0.001236329204402864,1.0001293420791626,0.0,0.0,0.0,3.9024693965911865,-5.397171497344971,5.601082801818848,-706.354736328125,0
555.0849999999991,0.017021821811795235,0.007781457155942917,-0.0156908817589283,0.0,0.0,0.0,0.0,0.0009347540326416492,0.0027591672260314226,-0.0023528235033154488,1.0002903938293457,0.0,0.0,0.0,3.8988442420959473,-5.394510269165039,5.591845989227295,-705.6985473632812,0
565.0120000000006,0.017264632508158684,0.008188378997147083,-0.016469690948724747,0.0,0.0,0.0,0.0,-0.0012095430865883827,-0.001229720888659358,0.0005376421613618731,0.9973164796829224,0.0,0.0,0.0,3.9003164768218994,-5.378236293792725,5.63029670715332,-705.965087890625,0
574.902,0.01742217317223549,0.00856318324804306,-0.017313623800873756,0.0,0.0,0.0,0.0,-0.00023613647499587387,-0.0022567869164049625,0.0011720123002305627,0.9981669187545776,0.0,0.0,0.0,3.895911455154419,-5.369565963745117,5.62876558303833,-705.1677856445312,0
584.8230000000003,0.017662489786744118,0.008992567658424377,-0.018091289326548576,0.0,0.0,0.0,0.0,-0.0001743815082591027,-0.001079740934073925,-0.001312294858507812,0.99847012758255,0.0,0.0,0.0,3.8987345695495605,-5.342177867889404,5.669426918029785,-705.6787109375,0
594.732,0.01782088167965412,0.009367807768285275,-0.018932178616523743,0.0,0.0,0.0,0.0,-0.001972424564883113,-0.0015645802486687899,0.0027755657210946083,1.00186026096344,0.0,0.0,0.0,3.8950445652008057,-5.3366594314575195,5.6678242683410645,-705.0108032226562,0
604.6460000000006,0.01806916482746601,0.009793346747756004,-0.019693728536367416,0.0,0.0,0.0,0.0,0.0011441329261288047,0.004349392838776112,-0.0016816075658425689,1.00141179561615,0.0,0.0,0.0,3.9009785652160645,-5.316173076629639,5.7079386711120605,-706.0848999023438,0
614.5499999999993,0.018231578171253204,0.01016959547996521,-0.020527157932519913,0.0,0.0,0.0,0.0,-0.0006079875165596604,-0.0022917932365089655,-0.0012707047862932086,1.0013223886489868,0.0,0.0,0.0,3.8980464935302734,-5.30964469909668,5.69986629486084,-705.55419921875,0
624.4709999999995,0.018496723845601082,0.010606257244944572,-0.02127157151699066,0.0,0.0,0.0,0.0,-0.0026193358935415745,0.0012561148032546043,-0.0008908468880690634,0.9995553493499756,0.0,0.0,0.0,3.897327423095703,-5.289270877838135,5.738325119018555,-705.4240112304688,0
634.3790000000008,0.018661970272660255,0.010980927385389805,-0.022094162181019783,0.0,0.0,0.0,0.0,-0.0016166387358680367,-0.002651751972734928,0.0008067929884418845,0.9994606375694275,0.0,0.0,0.0,3.892861843109131,-5.2802815437316895,5.7299299240112305,-704.6157836914062,0
644.2999999999993,0.018882034346461296,0.011429456993937492,-0.022828150540590286,0.0,0.0,0.0,0.0,0.0028108349069952965,0.001263336860574782,-0.0017542665591463447,0.9998650550842285,0.0,0.0,0.0,3.890458106994629,-5.277088165283203,5.726020812988281,-704.1806640625,0
654.1990000000005,0.019047120586037636,0.01180640235543251,-0.023642415180802345,0.0,0.0,0.0,0.0,-0.0012139476602897048,0.00028390943771228194,0.0017610664945095778,0.9983734488487244,0.0,0.0,0.0,3.886519193649292,-5.272899627685547,5.717587471008301,-703.4676513671875,0
664.1190000000006,0.0192515067756176,0.012198035605251789,-0.02434423752129078,0.0,0.0,0.0,0.0,-0.00022192134929355234,0.0020403843373060226,0.0016415680292993784,0.9970049858093262,0.0,0.0,0.0,3.8829376697540283,-5.268301963806152,5.703238010406494,-702.8193969726562,0
674.0280000000002,0.019415905699133873,0.01257371436804533,-0.025153031572699547,0.0,0.0,0.0,0.0,-0.0014097947860136628,-0.0004890775308012962,0.0019197408109903336,0.9999909996986389,0.0,0.0,0.0,3.8792293071746826,-5.263654708862305,5.701149940490723,-702.148193359375,0
683.9429999999993,0.01962566189467907,0.01298346184194088,-0.025844695046544075,0.0,0.0,0.0,0.0,-6.150670378701761e-05,0.0039626420475542545,0.0017789595294743776,1.0009061098098755,0.0,0.0,0.0,3.8820738792419434,-5.235385894775391,5.724038124084473,-702.6630859375,0
693.848,0.01978997327387333,0.01335939485579729,-0.02664724737405777,0.0,0.0,0.0,0.0,-0.0008904734859243035,-0.0013216364895924926,0.0020923821721225977,1.0001673698425293,0.0,0.0,0.0,3.8784117698669434,-5.230385780334473,5.7100114822387695,-702.000244140625,0
703.7780000000002,0.01999562792479992,0.013711588457226753,-0.027263352647423744,0.0,0.0,0.0,0.0,-0.0023131761699914932,0.0007744733593426645,0.0029952721670269966,0.9993760585784912,0.0,0.0,0.0,3.889899253845215,-5.224436283111572,5.735387802124023,-704.0795288085938,0
713.6759999999995,0.020161008462309837,0.014084530994296074,-0.028054963797330856,0.0,0.0,0.0,0.0,-0.0010506134713068604,-7.44315329939127e-05,0.000709578744135797,0.9991987943649292,0.0,0.0,0.0,3.886988401412964,-5.215685844421387,5.736132621765137,-703.5526733398438,0
723.5910000000003,0.020352810621261597,0.01440738607198,-0.028669079765677452,0.0,0.0,0.0,0.0,-0.001131378929130733,0.0025206776335835457,-0.0019231525948271155,0.9991216063499451,0.0,0.0,0.0,3.883885145187378,-5.207338333129883,5.737893581390381,-702.9909057617188,0
733.4959999999992,0.020518023520708084,0.014776240102946758,-0.0294539425522089,0.0,0.0,0.0,0.0,-0.0019446881487965584,0.004221310839056969,-0.0006673740572296083,0.9999598264694214,0.0,0.0,0.0,3.8811874389648438,-5.203121662139893,5.728823661804199,-702.5026245117188,0
743.4169999999995,0.020696615800261497,0.015114468522369862,-0.030055813491344452,0.0,0.0,0.0,0.0,0.001698973122984171,-0.003542402759194374,-0.0013676411472260952,1.0005759000778198,0.0,0.0,0.0,3.883061408996582,-5.190352916717529,5.73847770690918,-702.841796875,0
753.3250000000007,0.02085687778890133,0.015481812879443169,-0.030832439661026,0.0,0.0,0.0,0.0,0.0004010623088106513,0.0012961237225681543,-0.0020054730121046305,1.001079797744751,0.0,0.0,0.0,3.87868332862854,-5.179194927215576,5.732449054718018,-702.0493774414062,0
763.2389999999996,0.02118455432355404,0.016195405274629593,-0.032158251851797104,0.0,0.0,0.0,0.0,-0.004045455250889063,-0.0012391582131385803,-0.0024214275181293488,0.9994465708732605,0.0,0.0,0.0,3.8775105476379395,-5.149444580078125,5.744958877563477,-701.8370971679688,0
773.1489999999994,0.02118455432355404,0.016195405274629593,-0.032158251851797104,0.0,0.0,0.0,0.0,0.00016806651547085494,-0.000621078594122082,-0.0025153085589408875,0.9997702836990356,0.0,0.0,0.0,3.8775105476379395,-5.149444580078125,5.744958877563477,-701.8370971679688,0
783.0689999999995,0.02148582600057125,0.016877545043826103,-0.033372215926647186,0.0,0.0,0.0,0.0,0.0029119071550667286,0.00041688914643600583,0.00045961292926222086,0.999495804309845,0.0,0.0,0.0,3.8768863677978516,-5.120417594909668,5.763882637023926,-701.72412109375,0
792.9699999999993,0.02148582600057125,0.016877545043826103,-0.033372215926647186,0.0,0.0,0.0,0.0,0.0025257752276957035,-0.0016278910916298628,0.003315999871119857,1.0018800497055054,0.0,0.0,0.0,3.8768863677978516,-5.120417594909668,5.763882637023926,-701.72412109375,0
802.8889999999992,0.021733440458774567,0.017496304586529732,-0.03449670970439911,0.0,0.0,0.0,0.0,-9.518535080133006e-06,9.303899423684925e-05,0.004054739605635405,1.0027446746826172,0.0,0.0,0.0,3.868727445602417,-5.116421222686768,5.749952793121338,-700.2473754882812,0
812.7929999999997,0.021733440458774567,0.017496304586529732,-0.03449670970439911,0.0,0.0,0.0,0.0,-0.001983221620321274,-0.00042334862519055605,0.005276287440210581,0.9984648823738098,0.0,0.0,0.0,3.868727445602417,-5.116421222686768,5.749952793121338,-700.2473754882812,0
822.7180000000008,0.02189471386373043,0.017754824832081795,-0.034900274127721786,0.0,0.0,0.0,0.0,-0.0013646394945681095,-0.002468087710440159,0.0017570031341165304,0.9998761415481567,0.0,0.0,0.0,3.87351393699646,-5.112295627593994,5.7912917137146,-701.1137084960938,0
832.6209999999992,0.022040847688913345,0.018108511343598366,-0.03562035411596298,0.0,0.0,0.0,0.0,-0.0006400772836059332,-0.0055701215751469135,-0.003102192422375083,0.9994854927062988,0.0,0.0,0.0,3.87046480178833,-5.109498977661133,5.781838893890381,-700.5618286132812,0
842.5450000000001,0.02215549908578396,0.018230190500617027,-0.0358719676733017,0.0,0.0,0.0,0.0,0.0032640264835208654,0.0023975695949047804,-0.0025575237814337015,0.9985222220420837,0.0,0.0,0.0,3.878720760345459,-5.1202311515808105,5.816595077514648,-702.05615234375,0
852.4549999999999,0.02229851670563221,0.018573077395558357,-0.03658013418316841,0.0,0.0,0.0,0.0,-0.0018820303957909346,0.0006560768815688789,-0.004759419709444046,1.000489592552185,0.0,0.0,0.0,3.8751981258392334,-5.114769458770752,5.822712421417236,-701.4185791015625,0
862.3639999999996,0.022449757903814316,0.018723882734775543,-0.0368436723947525,0.0,0.0,0.0,0.0,-0.0012855512322857976,-0.003477261168882251,0.005150998942553997,1.0009363889694214,0.0,0.0,0.0,3.885206460952759,-5.128551959991455,5.8576860427856445,-703.2300415039062,0
872.2710000000006,0.022593464702367783,0.01905938610434532,-0.037538792937994,0.0,0.0,0.0,0.0,0.0030186723452061415,0.00029266360797919333,0.0018618600443005562,1.0005455017089844,0.0,0.0,0.0,3.8804585933685303,-5.120231628417969,5.8557305335998535,-702.3707275390625,0
882.2000000000007,0.02265661209821701,0.019080178812146187,-0.03765151649713516,0.0,0.0,0.0,0.0,-0.001370878890156746,0.0021533272229135036,0.003954390995204449,1.0004003047943115,0.0,0.0,0.0,3.8922970294952393,-5.152566432952881,5.874166011810303,-704.5134887695312,0
892.0959999999995,0.022796403616666794,0.019402239471673965,-0.03833220154047012,0.0,0.0,0.0,0.0,0.0014527897583320737,0.0014909207820892334,-0.001742477179504931,1.0011875629425049,0.0,0.0,0.0,3.88920521736145,-5.155333995819092,5.862395286560059,-703.953857421875,0
902.0120000000006,0.022845372557640076,0.019435815513134003,-0.03845852613449097,0.0,0.0,0.0,0.0,-0.0034034952986985445,-0.0004607785085681826,3.811797432717867e-05,1.0007374286651611,0.0,0.0,0.0,3.8948042392730713,-5.167385578155518,5.872105121612549,-704.9673461914062,0
911.914999999999,0.022982757538557053,0.01974506862461567,-0.039124809205532074,0.0,0.0,0.0,0.0,0.0012331503676250577,0.0017415630863979459,-0.0011800818610936403,1.0000052452087402,0.0,0.0,0.0,3.891631603240967,-5.160682201385498,5.867682456970215,-704.39306640625,0
921.8410000000003,0.02303704060614109,0.019740736111998558,-0.039185088127851486,0.0,0.0,0.0,0.0,0.0013076652539893985,0.000567736744415015,0.002221537521108985,1.0010554790496826,0.0,0.0,0.0,3.8960254192352295,-5.182224273681641,5.888574123382568,-705.1883544921875,0
931.7440000000006,0.02317417971789837,0.02003777213394642,-0.03983638435602188,0.0,0.0,0.0,0.0,-0.004225744400173426,0.0031910822726786137,0.00027703045634552836,1.0022591352462769,0.0,0.0,0.0,3.8937032222747803,-5.184576511383057,5.879349708557129,-704.76806640625,0
941.6599999999999,0.023252055048942566,0.020082587376236916,-0.039878033101558685,0.0,0.0,0.0,0.0,0.0008483477868139744,-0.005993506405502558,0.00019016891019418836,1.0005944967269897,0.0,0.0,0.0,3.9013781547546387,-5.188706398010254,5.893469333648682,-706.1572265625,0
951.5720000000001,0.023388952016830444,0.020373696461319923,-0.04051041230559349,0.0,0.0,0.0,0.0,0.002470427891239524,-0.003239482408389449,-0.0012854859232902527,1.0002473592758179,0.0,0.0,0.0,3.8978824615478516,-5.184272289276123,5.896691799163818,-705.5244750976562,0
961.482,0.023433584719896317,0.020376862958073616,-0.04047035053372383,0.0,0.0,0.0,0.0,-0.0031398930586874485,0.001379107590764761,5.940360279055312e-05,0.9983185529708862,0.0,0.0,0.0,3.9119274616241455,-5.18670129776001,5.925486087799072,-708.066650390625,0
971.3870000000006,0.023566924035549164,0.02065916545689106,-0.04108512029051781,0.0,0.0,0.0,0.0,-8.596734551247209e-05,-0.0006862225127406418,-0.0012169977417215705,0.9984369277954102,0.0,0.0,0.0,3.9079527854919434,-5.183220863342285,5.927660942077637,-707.3472290039062,0
981.3150000000005,0.02353530377149582,0.020595377311110497,-0.04091167077422142,0.0,0.0,0.0,0.0,-0.0010186355793848634,0.0015967298531904817,-0.0014830934815108776,1.0000548362731934,0.0,0.0,0.0,3.917297601699829,-5.182654857635498,5.918049335479736,-709.0386352539062,0
991.2150000000001,0.023662477731704712,0.02086593583226204,-0.04151051491498947,0.0,0.0,0.0,0.0,-0.0008821364608593285,0.002051219344139099,-0.0011458781082183123,0.9993364214897156,0.0,0.0,0.0,3.9147934913635254,-5.1734490394592285,5.910012245178223,-708.5853881835938,0
1001.1360000000004,0.023601414635777473,0.020815232768654823,-0.04133231192827225,0.0,0.0,0.0,0.0,-0.005667012184858322,0.0025571275036782026,-0.0008000290836207569,1.0012269020080566,0.0,0.0,0.0,3.9163496494293213,-5.164308071136475,5.8840861320495605,-708.8670654296875,0
1011.0450000000001,0.02372121624648571,0.021079465746879578,-0.04191386327147484,0.0,0.0,0.0,0.0,0.0015028163325041533,8.077733946265653e-05,0.00380368297919631,1.000945806503296,0.0,0.0,0.0,3.9128217697143555,-5.159646511077881,5.8700361251831055,-708.228515625,0
1020.9609999999993,0.0236512403935194,0.020992927253246307,-0.041652511805295944,0.0,0.0,0.0,0.0,-0.0011544896988198161,-0.000287167466012761,0.0006956235156394541,0.9994532465934753,0.0,0.0,0.0,3.9089572429656982,-5.148071765899658,5.8566412925720215,-707.5289916992188,0
1030.8629999999994,0.023765306919813156,0.02125036157667637,-0.042213741689920425,0.0,0.0,0.0,0.0,-0.000953751034103334,0.0018002234864979982,0.0017601203871890903,0.999421238899231,0.0,0.0,0.0,3.9052376747131348,-5.147645950317383,5.843193054199219,-706.8558349609375,0
1040.7800000000007,0.023649850860238075,0.021094346418976784,-0.04185417294502258,0.0,0.0,0.0,0.0,-0.0031656085047870874,0.0013291726354509592,-0.0018327295547351241,0.9973124265670776,0.0,0.0,0.0,3.9023561477661133,-5.135585784912109,5.833921909332275,-706.334228515625,0
1050.6910000000007,0.023755230009555817,0.021342195570468903,-0.04239777848124504,0.0,0.0,0.0,0.0,0.001207448192872107,0.002593127777799964,0.001452155178412795,1.0008262395858765,0.0,0.0,0.0,3.898632526397705,-5.130771636962891,5.826066970825195,-705.6602172851562,0
1060.616,0.023668089881539345,0.021231435239315033,-0.042057011276483536,0.0,0.0,0.0,0.0,0.0009793542558327317,0.0005769461859017611,-0.002039315877482295,0.9989492893218994,0.0,0.0,0.0,3.8940320014953613,-5.122098922729492,5.815179347991943,-704.8275756835938,0
1070.5139999999992,0.023766811937093735,0.021472441032528877,-0.04258231818675995,0.0,0.0,0.0,0.0,0.0023982960265129805,0.001315405941568315,0.0007744992035441101,0.997677206993103,0.0,0.0,0.0,3.888526439666748,-5.119065761566162,5.802032470703125,-703.8310546875,0
1080.4390000000003,0.023764511570334435,0.021521667018532753,-0.04269301891326904,0.0,0.0,0.0,0.0,0.001647249679081142,0.0012803229037672281,-0.001600367366336286,1.0005114078521729,0.0,0.0,0.0,3.8897268772125244,-5.117823123931885,5.7910003662109375,-704.04833984375,0
1090.3330000000005,0.023764511570334435,0.021521667018532753,-0.04269301891326904,0.0,0.0,0.0,0.0,0.0005710779805667698,-0.0009911147644743323,-0.000652054266538471,0.999516487121582,0.0,0.0,0.0,3.8897268772125244,-5.117823123931885,5.7910003662109375,-704.04833984375,0
1100.2639999999992,0.023742612451314926,0.021505609154701233,-0.042698461562395096,0.0,0.0,0.0,0.0,-0.000543432601261884,0.002730626380071044,0.004329781513661146,1.0002028942108154,0.0,0.0,0.0,3.882049560546875,-5.108173370361328,5.78407096862793,-702.65869140625,0
1110.1569999999992,0.023742612451314926,0.021505609154701233,-0.042698461562395096,0.0,0.0,0.0,0.0,0.00032728194491937757,-0.0014023998519405723,-0.002577197505161166,0.9985930323600769,0.0,0.0,0.0,3.882049560546875,-5.108173370361328,5.78407096862793,-702.65869140625,0
1120.0879999999997,0.02374368906021118,0.021435167640447617,-0.042568501085042953,0.0,0.0,0.0,0.0,0.00015911890659481287,-0.00021817514789290726,0.0006261865491978824,1.0021553039550781,0.0,0.0,0.0,3.8822977542877197,-5.102719306945801,5.8203444480896,-702.70361328125,0
1129.9889999999996,0.02374368906021118,0.021435167640447617,-0.042568501085042953,0.0,0.0,0.0,0.0,-0.0005471157492138445,0.00170320610050112,-0.0012371441116556525,1.000413179397583,0.0,0.0,0.0,3.8822977542877197,-5.102719306945801,5.8203444480896,-702.70361328125,0
1139.9130000000005,0.023646878078579903,0.021164683625102043,-0.04203159734606743,0.0,0.0,0.0,0.0,0.0006979800527915359,0.0022034207358956337,0.00036194632411934435,0.9992801547050476,0.0,0.0,0.0,3.8840787410736084,-5.113751411437988,5.826382160186768,-703.0259399414062,0
1149.8179999999993,0.02373068779706955,0.02136133424937725,-0.04247939959168434,0.0,0.0,0.0,0.0,0.002391016809269786,0.0025574297178536654,-0.0028296648524701595,1.000632882118225,0.0,0.0,0.0,3.879610776901245,-5.10535192489624,5.821065425872803,-702.2172241210938,0
1159.7289999999994,0.02361607924103737,0.021051041781902313,-0.04185917228460312,0.0,0.0,0.0,0.0,0.0008377740741707385,-0.0045355092734098434,0.0019805016927421093,0.9995914101600647,0.0,0.0,0.0,3.875753402709961,-5.111272811889648,5.807394504547119,-701.51904296875,0
1169.6419999999998,0.02369665913283825,0.02123791165649891,-0.04228772595524788,0.0,0.0,0.0,0.0,-0.0012246186379343271,0.0035996895749121904,-0.0007799970917403698,0.998663604259491,0.0,0.0,0.0,3.870816469192505,-5.10655403137207,5.806658744812012,-700.6255493164062,0
1179.557999999999,0.02360694482922554,0.020929627120494843,-0.04165048152208328,0.0,0.0,0.0,0.0,-0.0008973907679319382,0.00456642173230648,-0.0024066094774752855,1.001592993736267,0.0,0.0,0.0,3.8805341720581055,-5.11801290512085,5.829751968383789,-702.3843994140625,0
1189.4689999999991,0.02368657849729061,0.021107275038957596,-0.042059749364852905,0.0,0.0,0.0,0.0,0.00011958204413531348,-0.0032564597204327583,-0.0007621721015311778,0.999586820602417,0.0,0.0,0.0,3.8754334449768066,-5.108520984649658,5.817956447601318,-701.461181640625,0
1199.3780000000006,0.02355467714369297,0.020761452615261078,-0.04133347421884537,0.0,0.0,0.0,0.0,-0.0005174628458917141,-0.0016665186267346144,-0.0005895207286812365,0.9998236298561096,0.0,0.0,0.0,3.882793664932251,-5.117024898529053,5.826008319854736,-702.7933349609375,0
1209.2870000000003,0.0236298106610775,0.020929118618369102,-0.041721418499946594,0.0,0.0,0.0,0.0,-0.002492614323273301,-0.00024066791229415685,-0.0041765789501369,0.9993272423744202,0.0,0.0,0.0,3.8799121379852295,-5.109523773193359,5.825052261352539,-702.2717895507812,0
1219.2119999999995,0.023456279188394547,0.020572742447257042,-0.04096239060163498,0.0,0.0,0.0,0.0,0.0009030833607539535,0.00438723573461175,0.002649579429998994,1.0008615255355835,0.0,0.0,0.0,3.883467435836792,-5.106142997741699,5.832592964172363,-702.915283203125,0
1229.1100000000006,0.0235239677131176,0.020731182768940926,-0.041330937296152115,0.0,0.0,0.0,0.0,-0.00048457374214194715,0.003343207761645317,0.0011257316218689084,1.0007760524749756,0.0,0.0,0.0,3.878944158554077,-5.0971527099609375,5.814298629760742,-702.0966186523438,0
1239.0249999999996,0.0233348086476326,0.020334264263510704,-0.04041910544037819,0.0,0.0,0.0,0.0,0.0036023673601448536,0.0027876016683876514,-0.0027788865845650434,1.0000832080841064,0.0,0.0,0.0,3.8860716819763184,-5.087923526763916,5.817534923553467,-703.3866577148438,0
1248.946,0.023396901786327362,0.02048354223370552,-0.040763117372989655,0.0,0.0,0.0,0.0,-0.0021665652748197317,-0.004808266647160053,0.0004591063770931214,0.9986788630485535,0.0,0.0,0.0,3.8811028003692627,-5.0862884521484375,5.797098636627197,-702.4873046875,0
1258.8510000000006,0.023175522685050964,0.020108111202716827,-0.03992881253361702,0.0,0.0,0.0,0.0,0.0024559362791478634,-0.0036527859047055244,0.003461271058768034,0.9975265264511108,0.0,0.0,0.0,3.8838651180267334,-5.078402996063232,5.771770477294922,-702.9873046875,0
1268.7579999999998,0.023228468373417854,0.020248260349035263,-0.04025433957576752,0.0,0.0,0.0,0.0,0.003267264226451516,-0.0017237984575331211,-0.000615313823800534,0.9994730949401855,0.0,0.0,0.0,3.8816978931427,-5.069400310516357,5.782693386077881,-702.5950317382812,0
1278.6759999999995,0.023020824417471886,0.019871454685926437,-0.0394187867641449,0.0,0.0,0.0,0.0,-0.0007779040024615824,-0.0016851976979523897,0.0054705324582755566,0.9994597434997559,0.0,0.0,0.0,3.885633707046509,-5.065155029296875,5.785122394561768,-703.307373046875,0
1288.5820000000003,0.02306857891380787,0.020004916936159134,-0.03972708433866501,0.0,0.0,0.0,0.0,0.0019039991311728954,-0.0007713486556895077,0.0017861759988591075,0.9997461438179016,0.0,0.0,0.0,3.8824057579040527,-5.0617451667785645,5.78168249130249,-702.72314453125,0
1298.5,0.02285432443022728,0.019634248688817024,-0.0388476587831974,0.0,0.0,0.0,0.0,-0.0008348315604962409,-0.0007075006724335253,-0.002400906989350915,0.9999486804008484,0.0,0.0,0.0,3.8845129013061523,-5.0407233238220215,5.781002044677734,-703.1045532226562,0
1308.4030000000002,0.022896844893693924,0.01976194605231285,-0.039135996252298355,0.0,0.0,0.0,0.0,-0.000336520082782954,-0.0012658205814659595,0.001479546306654811,1.0000603199005127,0.0,0.0,0.0,3.880502939224243,-5.032481670379639,5.76698112487793,-702.3787231445312,0
1318.3269999999993,0.022628555074334145,0.019215429201722145,-0.03793519735336304,0.0,0.0,0.0,0.0,-0.001063839765265584,0.0009759842650964856,-0.0005424966802820563,1.0001907348632812,0.0,0.0,0.0,3.8757858276367188,-5.02438497543335,5.764682769775391,-701.52490234375,0
1328.2420000000002,0.02266591787338257,0.019332164898514748,-0.03819936886429787,0.0,0.0,0.0,0.0,0.001916761975735426,-0.0024000315461307764,0.002369149588048458,0.9959483742713928,0.0,0.0,0.0,3.872206926345825,-5.0162811279296875,5.759157180786133,-700.8771362304688,0
1338.1540000000005,0.022455140948295593,0.018836529925465584,-0.03718199580907822,0.0,0.0,0.0,0.0,0.00138855108525604,-0.0011555070523172617,-5.050797335570678e-05,0.9980956315994263,0.0,0.0,0.0,3.8692712783813477,-5.009344100952148,5.753301620483398,-700.3458251953125,0
1348.0589999999993,0.022487912327051163,0.018941447138786316,-0.03742941841483116,0.0,0.0,0.0,0.0,-0.00012728219735436141,-0.004185948520898819,0.0029947846196591854,1.0013248920440674,0.0,0.0,0.0,3.866793632507324,-5.0053229331970215,5.757691860198975,-699.8973388671875,0
1357.9760000000006,0.022279037162661552,0.01840759813785553,-0.036337289959192276,0.0,0.0,0.0,0.0,0.0009382223943248391,-0.001084767049178481,0.00018670572899281979,1.0007622241973877,0.0,0.0,0.0,3.8739404678344727,-5.018723964691162,5.78636360168457,-701.19091796875,0
1367.8870000000006,0.022310739383101463,0.01849927194416523,-0.03656468540430069,0.0,0.0,0.0,0.0,0.00012616757885552943,0.0018393121426925063,-0.0015737259527668357,0.9975635409355164,0.0,0.0,0.0,3.871138334274292,-5.015423774719238,5.7861127853393555,-700.6837158203125,0
1377.7970000000005,0.022106334567070007,0.018000692129135132,-0.03560032695531845,0.0,0.0,0.0,0.0,0.0011052225017920136,-0.0010175717761740088,-0.0011734379222616553,0.9968535304069519,0.0,0.0,0.0,3.8739657402038574,-5.034907817840576,5.79733943939209,-701.1954956054688,0
1387.7090000000007,0.022136248648166656,0.01808003894984722,-0.035811662673950195,0.0,0.0,0.0,0.0,0.00017482371185906231,-0.0003648722486104816,-0.0036388388834893703,1.000823974609375,0.0,0.0,0.0,3.8698551654815674,-5.032388687133789,5.793223857879639,-700.4514770507812,0
1397.6170000000002,0.021912788972258568,0.017589516937732697,-0.034819286316633224,0.0,0.0,0.0,0.0,0.0035113694611936808,-6.57498458167538e-05,-0.0001150492753367871,0.9995468854904175,0.0,0.0,0.0,3.8654489517211914,-5.027131080627441,5.793922424316406,-699.6539306640625,0
1407.5300000000007,0.02193603664636612,0.017659831792116165,-0.035015128552913666,0.0,0.0,0.0,0.0,-0.0009309352608397603,-0.004612131975591183,0.0036855938378721476,1.0019943714141846,0.0,0.0,0.0,3.8614468574523926,-5.021149635314941,5.791069030761719,-698.9296264648438,0
1417.4470000000001,0.021722177043557167,0.01722889021039009,-0.0340566411614418,0.0,0.0,0.0,0.0,0.00023107780725695193,0.0004459125339053571,-0.0005838290089741349,0.9981606602668762,0.0,0.0,0.0,3.8608522415161133,-4.995536804199219,5.807080268859863,-698.8219604492188,0
1427.357,0.021722177043557167,0.01722889021039009,-0.0340566411614418,0.0,0.0,0.0,0.0,5.472478369483724e-05,-0.0034352855291217566,-0.001605415833182633,1.0000383853912354,0.0,0.0,0.0,3.8608522415161133,-4.995536804199219,5.807080268859863,-698.8219604492188,0
1437.271999999999,0.021486712619662285,0.016722187399864197,-0.03304887190461159,0.0,0.0,0.0,0.0,-0.0024672970175743103,-0.0026644461322575808,0.0009937784634530544,0.9997297525405884,0.0,0.0,0.0,3.8688907623291016,-4.995216369628906,5.8111252784729,-700.2769165039062,0
1447.182999999999,0.021486712619662285,0.016722187399864197,-0.03304887190461159,0.0,0.0,0.0,0.0,0.0012449566274881363,0.0012148157693445683,0.000374741037376225,1.0000957250595093,0.0,0.0,0.0,3.8688907623291016,-4.995216369628906,5.8111252784729,-700.2769165039062,0
1457.0930000000008,0.02120332606136799,0.01621967740356922,-0.03198729828000069,0.0,0.0,0.0,0.0,-0.0008749488624744117,-0.0008675791905261576,0.004558058455586433,1.0030202865600586,0.0,0.0,0.0,3.8736586570739746,-4.977494716644287,5.810919761657715,-701.139892578125,0
1467.0130000000008,0.02120332606136799,0.01621967740356922,-0.03198729828000069,0.0,0.0,0.0,0.0,0.0016175230266526341,-0.005499676335602999,-0.0006301063694991171,1.0008457899093628,0.0,0.0,0.0,3.8736586570739746,-4.977494716644287,5.810919761657715,-701.139892578125,0
1476.92,0.0209769569337368,0.0157337486743927,-0.030982332304120064,0.0,0.0,0.0,0.0,-0.0014752623392269015,9.277925710193813e-05,0.0021960665471851826,1.0011221170425415,0.0,0.0,0.0,3.8711836338043213,-4.972403049468994,5.812769412994385,-700.6919555664062,0
1486.825999999999,0.020978383719921112,0.015770327299833298,-0.031094899401068687,0.0,0.0,0.0,0.0,0.0003587739774957299,-0.0021612518467009068,-0.005844650790095329,1.0009443759918213,0.0,0.0,0.0,3.867337942123413,-4.968663215637207,5.8165130615234375,-699.995849609375,0
1496.7379999999994,0.020978251472115517,0.015805304050445557,-0.031206311658024788,0.0,0.0,0.0,0.0,0.0010134568437933922,0.001277319504879415,-5.18141569045838e-05,1.0006237030029297,0.0,0.0,0.0,3.862311363220215,-4.962761402130127,5.8126726150512695,-699.0861206054688,0
1506.6640000000007,0.02097584679722786,0.015839610248804092,-0.031316764652729034,0.0,0.0,0.0,0.0,-0.0003140447079204023,0.00023644132306799293,0.00047957742935977876,1.0002837181091309,0.0,0.0,0.0,3.8587262630462646,-4.9627509117126465,5.806661128997803,-698.4370727539062,0
1516.5570000000007,0.020971592515707016,0.015872931107878685,-0.03142642229795456,0.0,0.0,0.0,0.0,-0.0034731889609247446,-0.0051298257894814014,0.0021916397381573915,0.9989829063415527,0.0,0.0,0.0,3.85542893409729,-4.966429710388184,5.787239074707031,-697.8402709960938,0
1526.4779999999992,0.020966382697224617,0.015904352068901062,-0.03153561055660248,0.0,0.0,0.0,0.0,0.001511670765466988,0.002723614452406764,0.001730726333335042,1.0002052783966064,0.0,0.0,0.0,3.8523447513580322,-4.9593281745910645,5.790929794311523,-697.2820434570312,0
1536.3850000000002,0.020959390327334404,0.015934009104967117,-0.03164501488208771,0.0,0.0,0.0,0.0,0.004094122909009457,-0.000762001727707684,-0.003515872173011303,1.0004124641418457,0.0,0.0,0.0,3.8480584621429443,-4.955679416656494,5.790329933166504,-696.5062866210938,0
1546.2980000000007,0.020948562771081924,0.015961362048983574,-0.03175438195466995,0.0,0.0,0.0,0.0,-0.001069180085323751,-0.00043577482574619353,0.0027832009363919497,0.9991782903671265,0.0,0.0,0.0,3.844788074493408,-4.945495128631592,5.7918195724487305,-695.914306640625,0
1556.2070000000003,0.02093387581408024,0.015985794365406036,-0.031863536685705185,0.0,0.0,0.0,0.0,0.0018428610637784004,5.684220013790764e-06,-0.0003613317967392504,0.9994116425514221,0.0,0.0,0.0,3.8400161266326904,-4.9434003829956055,5.7778825759887695,-695.050537109375,0
1566.1180000000004,0.020915741100907326,0.01600765623152256,-0.03197303041815758,0.0,0.0,0.0,0.0,0.002066378714516759,0.001384439063258469,-0.0065600271336734295,0.9994645118713379,0.0,0.0,0.0,3.838632345199585,-4.940942764282227,5.778599739074707,-694.8001098632812,0
1576.0329999999994,0.020894302055239677,0.01602748967707157,-0.032083120197057724,0.0,0.0,0.0,0.0,0.00028914716676808894,-0.006848809774965048,0.0027206316590309143,0.9992151856422424,0.0,0.0,0.0,3.834650754928589,-4.940661907196045,5.7666778564453125,-694.0794677734375,0
1585.946,0.020870892331004143,0.0160454660654068,-0.0321933850646019,0.0,0.0,0.0,0.0,0.003172211581841111,-0.001962290145456791,0.0009624258382245898,0.9998258352279663,0.0,0.0,0.0,3.8308842182159424,-4.933479309082031,5.763818740844727,-693.397705078125,0
1595.8539999999994,0.020845914259552956,0.016061026602983475,-0.03230373188853264,0.0,0.0,0.0,0.0,0.0015104423509910703,0.0018731357995420694,4.774877743329853e-05,0.9994762539863586,0.0,0.0,0.0,3.827941656112671,-4.930741310119629,5.773767471313477,-692.864990234375,0
1605.7700000000004,0.020818276330828667,0.016074497252702713,-0.03241439536213875,0.0,0.0,0.0,0.0,3.7756026358692907e-06,-0.004948449321091175,-0.0013647060841321945,0.9991274476051331,0.0,0.0,0.0,3.824350357055664,-4.926092147827148,5.761852741241455,-692.2149658203125,0
1615.6800000000003,0.02078750543296337,0.0160866379737854,-0.0325251929461956,0.0,0.0,0.0,0.0,0.001025529345497489,0.0013656312366947532,0.0009505043854005635,0.9989334940910339,0.0,0.0,0.0,3.8216004371643066,-4.923614978790283,5.754409313201904,-691.71728515625,0
1625.5930000000008,0.02075430564582348,0.016097567975521088,-0.03263666853308678,0.0,0.0,0.0,0.0,-0.002202958334237337,-0.003085761098191142,-5.1310184062458575e-05,1.0024765729904175,0.0,0.0,0.0,3.817444086074829,-4.92048454284668,5.7539520263671875,-690.9649658203125,0
1635.5020000000004,0.020719345659017563,0.01610717736184597,-0.03274817764759064,0.0,0.0,0.0,0.0,0.002224877942353487,0.0009596726740710437,0.0009475910919718444,0.9977771043777466,0.0,0.0,0.0,3.8143372535705566,-4.920006275177002,5.74165678024292,-690.4026489257812,0
1645.4159999999993,0.02068263664841652,0.01611480861902237,-0.03285859152674675,0.0,0.0,0.0,0.0,0.004529205150902271,0.0006828683544881642,-0.0009050954831764102,0.9984518885612488,0.0,0.0,0.0,3.8111743927001953,-4.916408061981201,5.739863395690918,-689.8302001953125,0
1655.325999999999,0.020644113421440125,0.016121024265885353,-0.0329694040119648,0.0,0.0,0.0,0.0,-0.001948986086063087,0.0028973782900720835,0.0031007626093924046,0.9985694289207458,0.0,0.0,0.0,3.807126760482788,-4.911266803741455,5.730919361114502,-689.0975341796875,0
1665.2489999999998,0.02060372568666935,0.01612647995352745,-0.03308164328336716,0.0,0.0,0.0,0.0,-6.0643556935247034e-05,-0.002270119497552514,-0.0004984280094504356,0.9982765913009644,0.0,0.0,0.0,3.8031725883483887,-4.912293910980225,5.729711055755615,-688.3818359375,0
1675.1499999999996,0.020561853423714638,0.016130885109305382,-0.033194903284311295,0.0,0.0,0.0,0.0,0.0023672583047300577,0.004393665120005608,0.00219278153963387,0.9989808201789856,0.0,0.0,0.0,3.800360679626465,-4.909021377563477,5.709568023681641,-687.8729248046875,0
1685.066999999999,0.020519183948636055,0.01613491214811802,-0.03330904617905617,0.0,0.0,0.0,0.0,0.003302079625427723,-0.0016494827577844262,-0.0013859606115147471,0.999660849571228,0.0,0.0,0.0,3.797776222229004,-4.90731954574585,5.705845355987549,-687.4050903320312,0
1694.9789999999994,0.020475201308727264,0.016138602048158646,-0.033423956483602524,0.0,0.0,0.0,0.0,-0.0004906387766823173,0.001532239024527371,0.0004500185896176845,1.000314474105835,0.0,0.0,0.0,3.7941975593566895,-4.904047012329102,5.69610071182251,-686.7572631835938,0
1704.893,0.020429493859410286,0.016140446066856384,-0.03353901952505112,0.0,0.0,0.0,0.0,-0.005511986091732979,-0.0026922072283923626,0.00038901856169104576,0.9977112412452698,0.0,0.0,0.0,3.791016101837158,-4.900445461273193,5.699609756469727,-686.1814575195312,0
1714.8070000000007,0.020382169634103775,0.016140062361955643,-0.033653903752565384,0.0,0.0,0.0,0.0,-0.0018007387407124043,-0.0030727945268154144,-0.0003285421116743237,0.9977911710739136,0.0,0.0,0.0,3.7882113456726074,-4.892093181610107,5.692198276519775,-685.6737670898438,0
1724.7199999999993,0.020332152023911476,0.016138503327965736,-0.033769894391298294,0.0,0.0,0.0,0.0,0.001734944642521441,-0.0023055095225572586,-0.0028295868542045355,1.0016709566116333,0.0,0.0,0.0,3.784212350845337,-4.884170055389404,5.693739414215088,-684.949951171875,0
1734.6219999999994,0.021242890506982803,0.01612570695579052,-0.03218653425574303,0.0,0.0,0.0,0.0,-0.0009423957671970129,-0.006501392927020788,-0.0004383293562568724,1.0029534101486206,0.0,0.0,0.0,3.7980117797851562,-4.822630882263184,5.937363624572754,-687.4476928710938,0
1744.5409999999993,0.021238749846816063,0.016136841848492622,-0.03226334974169731,0.0,0.0,0.0,0.0,-0.0009307501022703946,-0.0035051326267421246,-1.1096924026787747e-05,0.999902606010437,0.0,0.0,0.0,3.793891191482544,-4.821713447570801,5.938152313232422,-686.7018432617188,0
1754.4470000000001,0.02089778147637844,0.015393704175949097,-0.030593035742640495,0.0,0.0,0.0,0.0,-0.003267807187512517,-0.005771210882812738,0.0012327907606959343,0.9986283779144287,0.0,0.0,0.0,3.803788423538208,-4.809177398681641,5.947978973388672,-688.4933471679688,0
1764.3680000000004,0.020889900624752045,0.015395311638712883,-0.03064681403338909,0.0,0.0,0.0,0.0,-0.00030913608497940004,-0.0012529657687991858,0.00041391904233023524,0.9993708729743958,0.0,0.0,0.0,3.7990944385528564,-4.80503511428833,5.942939758300781,-687.6436157226562,0
1774.2710000000006,0.020489100366830826,0.014570292085409164,-0.0289311483502388,0.0,0.0,0.0,0.0,-0.0006461814627982676,3.1222967663779855e-05,-0.002543396782130003,1.0005241632461548,0.0,0.0,0.0,3.8040874004364014,-4.802328586578369,5.936871528625488,-688.5474243164062,0
1784.1890000000003,0.02047399803996086,0.014562249183654785,-0.028966527432203293,0.0,0.0,0.0,0.0,-0.0013723908923566341,-0.0009576009470038116,-0.00020914287597406656,1.0022042989730835,0.0,0.0,0.0,3.799436330795288,-4.791419506072998,5.930446147918701,-687.7055053710938,0
1794.0949999999993,0.020056217908859253,0.01369704119861126,-0.02710275910794735,0.0,0.0,0.0,0.0,0.0017353504663333297,0.004732183180749416,0.0042986697517335415,1.0022286176681519,0.0,0.0,0.0,3.8088974952697754,-4.781984329223633,5.937556266784668,-689.4180297851562,0
1804.018,0.020036160945892334,0.013681706972420216,-0.02711302414536476,0.0,0.0,0.0,0.0,-0.001494195661507547,0.0017836944898590446,0.00508478656411171,0.9984325170516968,0.0,0.0,0.0,3.8049731254577637,-4.784290790557861,5.921525478363037,-688.7077026367188,0
1813.9220000000005,0.01962672546505928,0.012832848355174065,-0.02532263472676277,0.0,0.0,0.0,0.0,0.0024915430694818497,-0.0004915978061035275,0.0014739971375092864,0.9994012713432312,0.0,0.0,0.0,3.8146438598632812,-4.780335903167725,5.913520812988281,-690.4581909179688,0
1823.8420000000006,0.01959771104156971,0.012805026955902576,-0.025310518220067024,0.0,0.0,0.0,0.0,-0.00012776524818036705,-0.0007362347096204758,0.0013795533450320363,1.0002796649932861,0.0,0.0,0.0,3.811131715774536,-4.776498317718506,5.902690887451172,-689.8224487304688,0
1833.7479999999996,0.019568821415305138,0.012777334079146385,-0.025299930945038795,0.0,0.0,0.0,0.0,0.0004775299457833171,-0.00433648144826293,-0.00013861530169378966,1.0005875825881958,0.0,0.0,0.0,3.8068654537200928,-4.7728166580200195,5.888258934020996,-689.0502319335938,0
1843.6659999999993,0.019537827000021935,0.012748000212013721,-0.025288982316851616,0.0,0.0,0.0,0.0,-0.0012059235014021397,-0.005284030456095934,0.002049172529950738,1.0012540817260742,0.0,0.0,0.0,3.803694248199463,-4.772398948669434,5.887216567993164,-688.4762573242188,0
1853.5750000000007,0.01950492151081562,0.012718144804239273,-0.025276992470026016,0.0,0.0,0.0,0.0,0.0017157784895971417,0.00033552938839420676,-0.0029147269669920206,1.003012776374817,0.0,0.0,0.0,3.7994093894958496,-4.763064861297607,5.888100624084473,-687.7006225585938,0
1863.4860000000008,0.0194696132093668,0.012687948532402515,-0.025263071060180664,0.0,0.0,0.0,0.0,0.00025479120085947216,0.002035215962678194,-0.000421752076363191,1.000279426574707,0.0,0.0,0.0,3.795445442199707,-4.757988929748535,5.87837553024292,-686.983154296875,0
1873.3919999999998,0.01943170838057995,0.012656868435442448,-0.025247132405638695,0.0,0.0,0.0,0.0,-0.002328812610358,0.0019580384250730276,0.0010344902984797955,1.0013102293014526,0.0,0.0,0.0,3.791025400161743,-4.7505202293396,5.8631792068481445,-686.18310546875,0
1883.3199999999997,0.019392121583223343,0.012623990885913372,-0.025230027735233307,0.0,0.0,0.0,0.0,-0.0022303895093500614,-0.0006210338906385005,0.0016854718560352921,1.0025439262390137,0.0,0.0,0.0,3.787304639816284,-4.7389020919799805,5.851617336273193,-685.5096435546875,0
1893.2189999999991,0.019350996240973473,0.012589490041136742,-0.0252113975584507,0.0,0.0,0.0,0.0,-0.0014259661547839642,-0.0007401874172501266,0.002226918935775757,1.001186728477478,0.0,0.0,0.0,3.783871650695801,-4.731715202331543,5.850335597991943,-684.8883056640625,0
1903.1360000000004,0.019307557493448257,0.012554621323943138,-0.025190653279423714,0.0,0.0,0.0,0.0,0.0003198613412678242,0.003746778704226017,0.00039440899854525924,0.9999330043792725,0.0,0.0,0.0,3.7808330059051514,-4.728692054748535,5.8416829109191895,-684.3383178710938,0
1913.048999999999,0.019261639565229416,0.01252012886106968,-0.02516857162117958,0.0,0.0,0.0,0.0,-0.000539442349690944,-0.0020452369935810566,0.0001835234579630196,0.9998918175697327,0.0,0.0,0.0,3.7769663333892822,-4.722894191741943,5.830852031707764,-683.638427734375,0
1922.9689999999991,0.019213523715734482,0.012485946528613567,-0.025146057829260826,0.0,0.0,0.0,0.0,0.000390500616049394,-0.0007533234893344343,-0.0007977727218531072,0.9976961612701416,0.0,0.0,0.0,3.7733027935028076,-4.719727516174316,5.830022811889648,-682.975341796875,0
1932.8670000000002,0.019163141027092934,0.012451546266674995,-0.025124255567789078,0.0,0.0,0.0,0.0,0.0006739589152857661,0.0003811960923485458,0.002430305816233158,0.9997641444206238,0.0,0.0,0.0,3.7697970867156982,-4.723243713378906,5.832773208618164,-682.3407592773438,0
1942.7839999999997,0.019109927117824554,0.01241578534245491,-0.025103293359279633,0.0,0.0,0.0,0.0,-0.0018748976290225983,-0.0006150778499431908,0.0020388856064528227,1.0006338357925415,0.0,0.0,0.0,3.766151189804077,-4.7189435958862305,5.8190178871154785,-681.6808471679688,0
1952.6990000000005,0.019053911790251732,0.01237800344824791,-0.025082165375351906,0.0,0.0,0.0,0.0,0.003493380034342408,0.0001893367152661085,0.0018173822900280356,0.9998266100883484,0.0,0.0,0.0,3.7633841037750244,-4.707165241241455,5.815561294555664,-681.1800537109375,0
1962.6139999999996,0.018995484337210655,0.012339252978563309,-0.025060566142201424,0.0,0.0,0.0,0.0,-0.002039184095337987,-0.004109595436602831,0.002073057694360614,0.999905526638031,0.0,0.0,0.0,3.760744571685791,-4.7037787437438965,5.808322429656982,-680.7022094726562,0
1972.5139999999992,0.0189349502325058,0.01230071671307087,-0.02503889985382557,0.0,0.0,0.0,0.0,0.0004487811238504946,0.0048042358830571175,-0.0013384082121774554,1.000221848487854,0.0,0.0,0.0,3.7567174434661865,-4.692349910736084,5.806192398071289,-679.9733276367188,0
1982.4410000000007,0.01887202076613903,0.012261614203453064,-0.025017203763127327,0.0,0.0,0.0,0.0,-0.0002447154838591814,-0.0013621109537780285,-3.1420186132891104e-05,0.9992580413818359,0.0,0.0,0.0,3.7521214485168457,-4.685455322265625,5.800408840179443,-679.1414794921875,0
1992.3449999999993,0.01880619116127491,0.012220221571624279,-0.024995503947138786,0.0,0.0,0.0,0.0,-0.0014106533490121365,0.004900699481368065,9.543802298139781e-05,0.999521017074585,0.0,0.0,0.0,3.748008966445923,-4.6819257736206055,5.798652172088623,-678.3970947265625,0
2002.2600000000002,0.018738389015197754,0.012176387943327427,-0.024974096566438675,0.0,0.0,0.0,0.0,0.0021099713630974293,0.0014879311202093959,0.0004166893195360899,1.0001204013824463,0.0,0.0,0.0,3.7461156845092773,-4.677344799041748,5.792678356170654,-678.0543823242188,0
2012.1630000000005,0.01866905577480793,0.012131021358072758,-0.02495288848876953,0.0,0.0,0.0,0.0,-0.0004200059629511088,-0.0027368643786758184,0.004755876027047634,0.9999139904975891,0.0,0.0,0.0,3.7412004470825195,-4.675148010253906,5.779365062713623,-677.1647338867188,0
2022.0840000000007,0.018597396090626717,0.012085235677659512,-0.0249318927526474,0.0,0.0,0.0,0.0,-0.0011365633690729737,-0.0027456737589091063,0.0005896557704545557,1.0001633167266846,0.0,0.0,0.0,3.7380385398864746,-4.665568828582764,5.7775373458862305,-676.5923461914062,0
2031.9959999999992,0.018522948026657104,0.012039379216730595,-0.024910587817430496,0.0,0.0,0.0,0.0,-0.0014833094319328666,-0.0035463531967252493,-0.0028776973485946655,1.000174641609192,0.0,0.0,0.0,3.734231472015381,-4.662765979766846,5.784371852874756,-675.9033203125,0
2041.9099999999999,0.018445884808897972,0.011992553249001503,-0.02488861419260502,0.0,0.0,0.0,0.0,0.002688060747459531,-0.00028839620063081384,-0.004694253671914339,0.9995463490486145,0.0,0.0,0.0,3.7305073738098145,-4.662837028503418,5.786111831665039,-675.229248046875,0
2051.8150000000005,0.018366780132055283,0.011943693272769451,-0.02486647106707096,0.0,0.0,0.0,0.0,0.0008667391375638545,-0.000501624250318855,0.0004901972715742886,0.9993872046470642,0.0,0.0,0.0,3.72727370262146,-4.661433219909668,5.794458389282227,-674.6439208984375,0
2061.7340000000004,0.018285993486642838,0.01189363282173872,-0.024844452738761902,0.0,0.0,0.0,0.0,0.003899939591065049,0.004436230752617121,0.00011250233364989981,1.0005357265472412,0.0,0.0,0.0,3.724283456802368,-4.6620097160339355,5.791934490203857,-674.1027221679688,0
2071.635,0.018202826380729675,0.01184393186122179,-0.02482231892645359,0.0,0.0,0.0,0.0,0.0003975504660047591,-0.003908378072082996,0.004881387576460838,0.9998223781585693,0.0,0.0,0.0,3.7195026874542236,-4.6630988121032715,5.782474994659424,-673.2373657226562,0
2081.5570000000007,0.018116625025868416,0.011793525889515877,-0.024799935519695282,0.0,0.0,0.0,0.0,0.0011544286971911788,0.0002257917367387563,-0.0006583440699614584,1.0009831190109253,0.0,0.0,0.0,3.717341423034668,-4.658123016357422,5.7726826667785645,-672.8462524414062,0
2091.4609999999993,0.01802760548889637,0.011741450056433678,-0.024776911363005638,0.0,0.0,0.0,0.0,6.275594932958484e-05,-0.003594770096242428,-0.0019390085944905877,1.0007538795471191,0.0,0.0,0.0,3.7131497859954834,-4.655107021331787,5.773686408996582,-672.0875244140625,0
2101.3909999999996,0.017936203628778458,0.011688465252518654,-0.024752866476774216,0.0,0.0,0.0,0.0,0.001252272049896419,0.0010632408084347844,0.001868725405074656,1.000988245010376,0.0,0.0,0.0,3.709195852279663,-4.650572299957275,5.764771461486816,-671.371826171875,0
2111.2890000000007,0.017842311412096024,0.01163486111909151,-0.024727968499064445,0.0,0.0,0.0,0.0,-0.0025989331770688295,-0.00019403627084102482,0.001448290073312819,1.0000885725021362,0.0,0.0,0.0,3.706883430480957,-4.652590274810791,5.753284454345703,-670.9532470703125,0
2121.206,0.017745625227689743,0.011580395512282848,-0.02470228262245655,0.0,0.0,0.0,0.0,-0.0004837909946218133,0.002742214361205697,-0.0019917539320886135,0.9985731244087219,0.0,0.0,0.0,3.7033677101135254,-4.644151210784912,5.757404327392578,-670.31689453125,0
2131.1139999999996,0.017646286636590958,0.011525788344442844,-0.024676740169525146,0.0,0.0,0.0,0.0,0.002529223682358861,0.005890057887881994,-0.0012067384086549282,0.999183177947998,0.0,0.0,0.0,3.6994376182556152,-4.640372276306152,5.754354476928711,-669.6055297851562,0
2141.035,0.017543800175189972,0.011471396312117577,-0.024651868268847466,0.0,0.0,0.0,0.0,0.0013758981367573142,0.0022792774252593517,0.0023839068599045277,0.9988899827003479,0.0,0.0,0.0,3.6938881874084473,-4.634418964385986,5.7354912757873535,-668.60107421875,0
2150.9359999999997,0.01742720976471901,0.01141066662967205,-0.024625156074762344,0.0,0.0,0.0,0.0,0.0010653712088242173,-0.002305385423824191,0.0010579819791018963,1.0004901885986328,0.0,0.0,0.0,3.6900854110717773,-4.632997512817383,5.717012882232666,-667.9127807617188,0
2160.8559999999998,0.01731799729168415,0.011354279704391956,-0.024601010605692863,0.0,0.0,0.0,0.0,0.0007858860772103071,-0.0052497051656246185,0.0005738905165344477,0.9983952045440674,0.0,0.0,0.0,3.686143159866333,-4.633147716522217,5.717966556549072,-667.1992797851562,0
2170.76,0.01720654033124447,0.01129772886633873,-0.02457692287862301,0.0,0.0,0.0,0.0,-0.001759866252541542,0.0006346414447762072,-0.0016022002091631293,0.9994917511940002,0.0,0.0,0.0,3.682734966278076,-4.633113384246826,5.712003231048584,-666.5823974609375,0
2180.688,0.01709333248436451,0.011241927742958069,-0.024553507566452026,0.0,0.0,0.0,0.0,-0.0025446948129683733,-0.0008123586885631084,0.0015518348664045334,1.0009537935256958,0.0,0.0,0.0,3.6783554553985596,-4.624252796173096,5.705843448638916,-665.7896728515625,0
