timestamp,stateEstimate.x,stateEstimate.y,stateEstimate.z,controller.cmd_thrust,controller.cmd_roll,controller.cmd_pitch,controller.cmd_yaw,controller.r_roll,controller.r_pitch,controller.r_yaw,controller.accelz,controller.actuatorThrust,controller.roll,controller.pitch,controller.yaw,controller.rollRate,controller.pitchRate,controller.yawRate,controller.ctr_yaw
0.0,0.006301974877715111,-0.015069217421114445,0.00018180532788392156,0.0,0.0,0.0,0.0,0.000866569229401648,-0.0019192149629816413,0.00046805443707853556,0.9971477389335632,0.0,0.0,0.0,-0.9304192066192627,-3.5612292289733887,4.998470306396484,168.40773010253906,0
9.912000000000262,0.006297655403614044,-0.015097863040864468,0.00016815905109979212,0.0,0.0,0.0,0.0,-0.0009788654278963804,0.0014081299304962158,3.407840267755091e-05,0.9989920258522034,0.0,0.0,0.0,-0.9193701148033142,-3.5708346366882324,5.010069847106934,166.40782165527344,0
19.838999999999942,0.006275309715420008,-0.015057625249028206,0.0001447541144443676,0.0,0.0,0.0,0.0,0.003975245635956526,0.00464050704613328,0.001451220829039812,1.0002654790878296,0.0,0.0,0.0,-0.9266471266746521,-3.562936544418335,5.012410640716553,167.72496032714844,0
29.733000000000175,0.00633317930623889,-0.015063641592860222,0.00016442127525806427,0.0,0.0,0.0,0.0,-0.00033336144406348467,0.0016409652307629585,-0.0001130142918555066,1.0019128322601318,0.0,0.0,0.0,-0.9191592931747437,-3.573448419570923,5.01254940032959,166.36964416503906,0
39.64899999999943,0.006285918410867453,-0.015033741481602192,0.0001720635627862066,0.0,0.0,0.0,0.0,0.002055293880403042,-0.003557681804522872,-0.0030707039404660463,1.0012671947479248,0.0,0.0,0.0,-0.917489230632782,-3.569058895111084,5.011314868927002,166.06736755371094,0
49.552999999999884,0.006284165661782026,-0.015027707442641258,0.0001771433453541249,0.0,0.0,0.0,0.0,0.002199731767177582,-0.004433759022504091,0.003074188716709614,1.0025795698165894,0.0,0.0,0.0,-0.9110665321350098,-3.5746405124664307,5.0156474113464355,164.90484619140625,0
59.475000000000364,0.006215925328433514,-0.015022149309515953,0.00020555034279823303,0.0,0.0,0.0,0.0,-0.002454532776027918,0.001174476114101708,-0.0016190613387152553,1.0009621381759644,0.0,0.0,0.0,-0.9092462658882141,-3.5714731216430664,5.023397445678711,164.57537841796875,0
69.3760000000002,0.006251216866075993,-0.015047174878418446,0.00021853976068086922,0.0,0.0,0.0,0.0,6.378967373166233e-05,-0.003913309890776873,0.005456820130348206,1.000500202178955,0.0,0.0,0.0,-0.9024941921234131,-3.5809555053710938,5.0296807289123535,163.35324096679688,0
79.29399999999987,0.006193815730512142,-0.01502950955182314,0.00024345093697775155,0.0,0.0,0.0,0.0,-0.0033426203299313784,-0.0011475776555016637,0.0003452200908213854,0.9997537136077881,0.0,0.0,0.0,-0.9074305891990662,-3.5723021030426025,5.03175687789917,164.24673461914062,0
89.20499999999993,0.006274801678955555,-0.015137610957026482,0.00024302364909090102,0.0,0.0,0.0,0.0,0.0029988710302859545,-0.000589332077652216,-0.00019189849263057113,0.9990484118461609,0.0,0.0,0.0,-0.9183977246284485,-3.586662530899048,5.058442115783691,166.2318115234375,0
99.11999999999898,0.0062316060066223145,-0.015089666470885277,0.000267818191787228,0.0,0.0,0.0,0.0,-0.00017716818547341973,-0.007223842665553093,0.001071046106517315,1.0010597705841064,0.0,0.0,0.0,-0.9241167306900024,-3.5842037200927734,5.05661153793335,167.26695251464844,0
109.02299999999923,0.006252769846469164,-0.015183732844889164,0.00024450852652080357,0.0,0.0,0.0,0.0,-0.001696579740382731,-0.0016681483248248696,0.005482117645442486,1.0012085437774658,0.0,0.0,0.0,-0.9227326512336731,-3.5842502117156982,5.065589427947998,167.01644897460938,0
118.94700000000012,0.006224488839507103,-0.015116050839424133,0.0002551156794652343,0.0,0.0,0.0,0.0,-0.0012338680680841208,-0.0021758382208645344,0.002233155071735382,0.9998488426208496,0.0,0.0,0.0,-0.9260838627815247,-3.573517084121704,5.066946506500244,167.62301635742188,0
128.85499999999956,0.006249394733458757,-0.01514727808535099,0.00026331900153309107,0.0,0.0,0.0,0.0,-0.0006693433388136327,0.007633934263139963,-0.0022102599032223225,1.0012937784194946,0.0,0.0,0.0,-0.9184331893920898,-3.5787041187286377,5.078006267547607,166.2382354736328,0
138.77000000000044,0.00625950563699007,-0.015072419308125973,0.00022801803424954414,0.0,0.0,0.0,0.0,0.002841389738023281,-0.00021675872267223895,0.0012716940836980939,1.0008511543273926,0.0,0.0,0.0,-0.9270171523094177,-3.561086416244507,5.068624019622803,167.7919464111328,0
148.67599999999948,0.006351561285555363,-0.015154007822275162,0.00023724818311166018,0.0,0.0,0.0,0.0,0.0019384536426514387,-0.00461064837872982,0.001841757446527481,0.9993992447853088,0.0,0.0,0.0,-0.9183800220489502,-3.5857019424438477,5.0878472328186035,166.22860717773438,0
158.59499999999935,0.006396847311407328,-0.015032500959932804,0.00018592328706290573,0.0,0.0,0.0,0.0,0.0006455507245846093,0.002041126135736704,0.0013284976594150066,1.0002073049545288,0.0,0.0,0.0,-0.9243099093437195,-3.572183132171631,5.102866172790527,167.3019256591797,0
168.4979999999996,0.0064004999585449696,-0.015041958540678024,0.00018240460485685617,0.0,0.0,0.0,0.0,0.0017254339763894677,0.0012559194583445787,0.0009521110914647579,0.9986294507980347,0.0,0.0,0.0,-0.9148956537246704,-3.5768158435821533,5.100027561187744,165.5979461669922,0
178.41899999999987,0.006400934420526028,-0.014983794651925564,0.00015478685963898897,0.0,0.0,0.0,0.0,-0.0005709020188078284,0.0014213668182492256,0.0049810330383479595,1.0000407695770264,0.0,0.0,0.0,-0.9217318296432495,-3.5700182914733887,5.100668430328369,166.83531188964844,0
188.3189999999995,0.0064191073179244995,-0.015105106867849827,0.00010332687816116959,0.0,0.0,0.0,0.0,0.0032367671374231577,-0.0017648726934567094,0.0020211657974869013,0.9994576573371887,0.0,0.0,0.0,-0.925953209400177,-3.594125270843506,5.10170316696167,167.59938049316406,0
198.2430000000004,0.006363491527736187,-0.01509793195873499,0.0001154922938439995,0.0,0.0,0.0,0.0,-0.002876976737752557,-0.005599452182650566,0.0006598616600967944,0.9993245005607605,0.0,0.0,0.0,-0.9356916546821594,-3.596210241317749,5.096768379211426,169.362060546875,0
208.14199999999983,0.006395165342837572,-0.015175027772784233,9.174450678983703e-05,0.0,0.0,0.0,0.0,0.0026808760594576597,-0.002111762994900346,-0.0029090051539242268,1.0001447200775146,0.0,0.0,0.0,-0.9457495808601379,-3.6024773120880127,5.108061790466309,171.18255615234375,0
218.0609999999997,0.006348472088575363,-0.015139622613787651,0.00010266058961860836,0.0,0.0,0.0,0.0,-0.00038958355435170233,-0.0005610240623354912,-0.0002614233235362917,1.0015398263931274,0.0,0.0,0.0,-0.951983630657196,-3.596506118774414,5.104431629180908,172.31092834472656,0
227.96999999999935,0.006348737981170416,-0.015139992348849773,0.00010126428242074326,0.0,0.0,0.0,0.0,0.0007375699933618307,-0.00045715595479123294,0.0021527069620788097,0.9996647834777832,0.0,0.0,0.0,-0.9609830379486084,-3.594216823577881,5.108283996582031,173.93983459472656,0
237.8889999999992,0.006312571000307798,-0.015096706338226795,0.00010207940067630261,0.0,0.0,0.0,0.0,2.1950492737232707e-05,0.0011806173715740442,-0.0020910026505589485,0.9988123774528503,0.0,0.0,0.0,-0.9673036932945251,-3.587141275405884,5.104105472564697,175.08389282226562,0
247.78999999999905,0.006307367235422134,-0.015089530497789383,9.913893154589459e-05,0.0,0.0,0.0,0.0,-5.621915988740511e-05,-0.002173627959564328,0.002716982504352927,0.9987359046936035,0.0,0.0,0.0,-0.9579479694366455,-3.5838279724121094,5.102568626403809,173.39048767089844,0
257.71299999999974,0.006269976496696472,-0.015050678513944149,9.777882951311767e-05,0.0,0.0,0.0,0.0,-0.0014581017894670367,0.006545334123075008,-0.0038823531940579414,0.9981523156166077,0.0,0.0,0.0,-0.9564436078071594,-3.584214448928833,5.105195045471191,173.11819458007812,0
267.6149999999998,0.006344297900795937,-0.015104822814464569,0.0001001415730570443,0.0,0.0,0.0,0.0,0.002625947818160057,0.0010392531985417008,0.00014159684360492975,1.0006829500198364,0.0,0.0,0.0,-0.9642046093940735,-3.592693328857422,5.116296291351318,174.52294921875,0
277.53099999999904,0.00631403224542737,-0.015073942020535469,9.515966667095199e-05,0.0,0.0,0.0,0.0,0.00019962490478064865,0.00037611188599839807,-0.0060262070037424564,1.0008902549743652,0.0,0.0,0.0,-0.963702380657196,-3.5923852920532227,5.105526447296143,174.43203735351562,0
287.4380000000001,0.006273744627833366,-0.015033542178571224,9.120511822402477e-05,0.0,0.0,0.0,0.0,-0.0021532655227929354,-9.407723700860515e-05,0.002597004408016801,0.9995874762535095,0.0,0.0,0.0,-0.9537032246589661,-3.586716890335083,5.096072196960449,172.62217712402344,0
297.35199999999895,0.006236508954316378,-0.015013858675956726,8.02892172941938e-05,0.0,0.0,0.0,0.0,-0.001208730274811387,-0.002571087796241045,0.004834817256778479,0.9990982413291931,0.0,0.0,0.0,-0.9595395922660828,-3.5808682441711426,5.0879387855529785,173.67857360839844,0
307.2619999999988,0.006267976481467485,-0.015012595802545547,8.493853238178417e-05,0.0,0.0,0.0,0.0,0.0007444141083396971,-0.0022621825337409973,-0.000973994261585176,0.9995511174201965,0.0,0.0,0.0,-0.9464001655578613,-3.5860886573791504,5.095794200897217,171.30032348632812,0
317.17399999999907,0.006220661103725433,-0.015008480288088322,8.450546010863036e-05,0.0,0.0,0.0,0.0,0.0004872292629443109,0.0012623266084119678,0.0006271012243814766,0.9995242357254028,0.0,0.0,0.0,-0.9518612027168274,-3.5914063453674316,5.100196838378906,172.2887725830078,0
327.08699999999953,0.0062774247489869595,-0.015072587877511978,6.983038474572822e-05,0.0,0.0,0.0,0.0,0.0015067362692207098,-0.0012002665316686034,0.00599243538454175,1.0009434223175049,0.0,0.0,0.0,-0.9513370990753174,-3.5908918380737305,5.093852996826172,172.19390869140625,0
337.0059999999994,0.006248279474675655,-0.015044929459691048,6.0562808357644826e-05,0.0,0.0,0.0,0.0,0.0034738860558718443,0.0019820895977318287,0.0010185684077441692,0.9994760751724243,0.0,0.0,0.0,-0.957190752029419,-3.5882160663604736,5.095593452453613,173.25343322753906,0
346.91699999999946,0.0062812091782689095,-0.015110835433006287,3.656185435829684e-05,0.0,0.0,0.0,0.0,0.0023082466796040535,0.0012969892704859376,0.0014924145070835948,0.9988359808921814,0.0,0.0,0.0,-0.9558560848236084,-3.5864081382751465,5.095527648925781,173.0118408203125,0
356.8249999999989,0.006247653625905514,-0.015076982788741589,3.47531822626479e-05,0.0,0.0,0.0,0.0,-0.0007812127005308867,-0.0003636061155702919,0.0032367960084229708,0.9989940524101257,0.0,0.0,0.0,-0.9552436470985413,-3.5877044200897217,5.080064296722412,172.9010009765625,0
366.73599999999897,0.006283876020461321,-0.01507341954857111,3.957792796427384e-05,0.0,0.0,0.0,0.0,-0.0017717488808557391,0.0012553733540698886,-0.001541697303764522,0.9995635747909546,0.0,0.0,0.0,-0.9450907707214355,-3.5905137062072754,5.088385105133057,171.0633087158203,0
376.64899999999943,0.0062396228313446045,-0.015038993209600449,5.10912032041233e-05,0.0,0.0,0.0,0.0,-0.0014820108190178871,0.0035422088112682104,-0.00021904517780058086,0.9999335408210754,0.0,0.0,0.0,-0.9444639682769775,-3.5820047855377197,5.08087158203125,170.94985961914062,0
386.5659999999989,0.006349371746182442,-0.015097430907189846,6.265070260269567e-05,0.0,0.0,0.0,0.0,-0.002133054891601205,-0.0041875457391142845,0.0019740615971386433,1.0011504888534546,0.0,0.0,0.0,-0.9439173340797424,-3.5799360275268555,5.0659685134887695,170.85092163085938,0
396.46999999999935,0.006302278023213148,-0.015056096017360687,8.467854786431417e-05,0.0,0.0,0.0,0.0,0.0004387288063298911,-0.0014081281842663884,0.002147831954061985,1.0002399682998657,0.0,0.0,0.0,-0.9421923160552979,-3.5759594440460205,5.0613555908203125,170.53866577148438,0
406.3869999999988,0.00637382036074996,-0.015064662322402,0.00010832449333975092,0.0,0.0,0.0,0.0,0.001982179470360279,-0.001980791101232171,-0.00031575330649502575,0.999520480632782,0.0,0.0,0.0,-0.9331203103065491,-3.5805115699768066,5.084062576293945,168.89662170410156,0
416.2950000000001,0.006355770863592625,-0.015051111578941345,8.634560072096065e-05,0.0,0.0,0.0,0.0,0.0008150964276865125,-0.0012896558037027717,-0.00010748062777565792,0.9987457990646362,0.0,0.0,0.0,-0.9403585195541382,-3.583766460418701,5.089450359344482,170.20675659179688,0
426.2049999999999,0.0064040482975542545,-0.015042643994092941,0.00010678032413125038,0.0,0.0,0.0,0.0,0.0008088946924544871,0.004914207383990288,0.0014779396587982774,0.9967422485351562,0.0,0.0,0.0,-0.9310511946678162,-3.592590093612671,5.095387935638428,168.52210998535156,0
436.1180000000004,0.006337867118418217,-0.015037805773317814,0.00014063192065805197,0.0,0.0,0.0,0.0,-0.0008724526851437986,-0.002740932162851095,-0.002183673670515418,0.999420166015625,0.0,0.0,0.0,-0.9304139614105225,-3.595745801925659,5.084389686584473,168.4067840576172,0
446.03499999999985,0.0063217938877642155,-0.015055823139846325,0.00011940817057620734,0.0,0.0,0.0,0.0,0.0008490904583595693,-0.0003163483343087137,0.0003523751220200211,0.997667133808136,0.0,0.0,0.0,-0.9211602210998535,-3.602620840072632,5.08217716217041,166.73182678222656,0
455.9419999999991,0.006279901601374149,-0.015043317340314388,0.00012440397404134274,0.0,0.0,0.0,0.0,0.00028826226480305195,0.0009530313545837998,-0.0023464253172278404,0.99605792760849,0.0,0.0,0.0,-0.9273109436035156,-3.603302240371704,5.073474407196045,167.84512329101562,0
465.85399999999936,0.006347074639052153,-0.01506398431956768,0.00013476265303324908,0.0,0.0,0.0,0.0,-0.0048376633785665035,-0.004895229358226061,0.002243717899546027,0.9981555342674255,0.0,0.0,0.0,-0.9177843332290649,-3.60834002494812,5.083055019378662,166.12078857421875,0
475.7639999999992,0.0063069709576666355,-0.015062574297189713,0.00013616202340926975,0.0,0.0,0.0,0.0,-0.0006850773934274912,0.0010389183880761266,0.003144935006275773,0.9993443489074707,0.0,0.0,0.0,-0.9272776246070862,-3.596963882446289,5.088976860046387,167.83909606933594,0
485.6859999999997,0.0063018398359417915,-0.015083545818924904,0.00011227877257624641,0.0,0.0,0.0,0.0,0.00034174835309386253,-0.001746287103742361,-0.003184765810146928,0.9993637204170227,0.0,0.0,0.0,-0.917288601398468,-3.6027331352233887,5.083440780639648,166.03106689453125,0
495.58899999999994,0.006275045219808817,-0.015058175660669804,9.650295396568254e-05,0.0,0.0,0.0,0.0,-0.00046629729331471026,0.006212955340743065,-0.0031313286162912846,0.9990350008010864,0.0,0.0,0.0,-0.9281764626502991,-3.5972509384155273,5.089683532714844,168.0017852783203,0
505.5059999999994,0.006320459768176079,-0.015088596381247044,9.28250519791618e-05,0.0,0.0,0.0,0.0,-0.0027401698753237724,-0.005253145936876535,-0.0009601914789527655,0.9989666938781738,0.0,0.0,0.0,-0.9378814101219177,-3.5967226028442383,5.084446907043457,169.75839233398438,0
515.414999999999,0.006322725210338831,-0.015029224567115307,5.991468788124621e-05,0.0,0.0,0.0,0.0,-0.0013180116657167673,-0.0004459797637537122,0.002112766494974494,0.9990275502204895,0.0,0.0,0.0,-0.9372165203094482,-3.5883607864379883,5.095958232879639,169.6380615234375,0
525.3320000000003,0.006398969795554876,-0.015089082531630993,4.954519681632519e-05,0.0,0.0,0.0,0.0,-0.0014228663640096784,0.0015454654349014163,0.001977378036826849,0.9963489770889282,0.0,0.0,0.0,-0.9357119798660278,-3.5880470275878906,5.095273971557617,169.36573791503906,0
535.235999999999,0.006325962021946907,-0.015110556967556477,6.967000081203878e-05,0.0,0.0,0.0,0.0,-0.0012239920906722546,-0.00313423085026443,-0.000542093301191926,0.998477041721344,0.0,0.0,0.0,-0.9410790205001831,-3.585089683532715,5.077206134796143,170.337158203125,0
545.152,0.006341584958136082,-0.015071098692715168,7.85122683737427e-05,0.0,0.0,0.0,0.0,-0.0008095572702586651,-0.0003964304050896317,0.0005315296002663672,0.9992930889129639,0.0,0.0,0.0,-0.9305689334869385,-3.576826810836792,5.0926923751831055,168.43484497070312,0
555.0599999999995,0.006291757803410292,-0.015044406987726688,9.139155736193061e-05,0.0,0.0,0.0,0.0,0.0017214207910001278,0.002192513318732381,0.003889739280566573,1.0000741481781006,0.0,0.0,0.0,-0.9285719394683838,-3.5695884227752686,5.0932464599609375,168.0733642578125,0
564.973,0.006280375644564629,-0.01509759109467268,4.8109730414580554e-05,0.0,0.0,0.0,0.0,0.0006814078078605235,-0.0036130358930677176,-0.002331831492483616,1.0008522272109985,0.0,0.0,0.0,-0.9267370104789734,-3.5640783309936523,5.087162017822266,167.74122619628906,0
574.887999999999,0.006254270672798157,-0.015052649192512035,3.913251930498518e-05,0.0,0.0,0.0,0.0,-0.001162590691819787,0.0026868623681366444,0.0012624528026208282,0.9994299411773682,0.0,0.0,0.0,-0.92680424451828,-3.56113338470459,5.095033168792725,167.75340270996094,0
584.8009999999995,0.006235197186470032,-0.015008890070021152,3.928342994186096e-05,0.0,0.0,0.0,0.0,0.0015988065861165524,2.7972128009423614e-06,0.0032201348803937435,0.9976471662521362,0.0,0.0,0.0,-0.9260803461074829,-3.552501916885376,5.087368011474609,167.6223907470703,0
594.7080000000005,0.006148914340883493,-0.01501938421279192,7.998447836143896e-05,0.0,0.0,0.0,0.0,-0.0003091423714067787,-0.0022817046847194433,-0.0004178656963631511,0.9978840947151184,0.0,0.0,0.0,-0.9311355352401733,-3.555274724960327,5.07114315032959,168.53738403320312,0
604.6239999999998,0.006215213797986507,-0.01509105134755373,6.371502240654081e-05,0.0,0.0,0.0,0.0,0.00309776165522635,0.0007938963244669139,0.0008443773258477449,0.9995052218437195,0.0,0.0,0.0,-0.9302262663841248,-3.5553386211395264,5.075250148773193,168.372802734375,0
614.5380000000005,0.006174859590828419,-0.015090079046785831,5.6010656408034265e-05,0.0,0.0,0.0,0.0,0.0018333853222429752,0.0016470961272716522,-0.0027974836993962526,0.9984027743339539,0.0,0.0,0.0,-0.9289124011993408,-3.5610313415527344,5.067272186279297,168.13499450683594,0
624.4529999999995,0.0062333703972399235,-0.015140194445848465,4.574908234644681e-05,0.0,0.0,0.0,0.0,0.0031879504676908255,-0.0004558575456030667,0.0014689193340018392,1.0011398792266846,0.0,0.0,0.0,-0.9353508353233337,-3.575047492980957,5.073810577392578,169.3003692626953,0
634.357,0.006219953764230013,-0.015063971281051636,4.164613346802071e-05,0.0,0.0,0.0,0.0,0.002152660395950079,-0.0017835646867752075,-0.0011173925595358014,1.0011898279190063,0.0,0.0,0.0,-0.9336349368095398,-3.577733278274536,5.06724739074707,168.98977661132812,0
644.2739999999994,0.006271970458328724,-0.015072295442223549,4.968045323039405e-05,0.0,0.0,0.0,0.0,0.0002730695123318583,-0.0011109086917713284,-0.0006479990552179515,1.0021380186080933,0.0,0.0,0.0,-0.9246132373809814,-3.5891387462615967,5.076931476593018,167.35684204101562,0
654.1810000000005,0.006177342962473631,-0.015116605907678604,9.821674029808491e-05,0.0,0.0,0.0,0.0,0.0013580634258687496,-8.94250551937148e-05,-0.0039022271521389484,1.0009099245071411,0.0,0.0,0.0,-0.924211859703064,-3.5859932899475098,5.069786548614502,167.2841796875,0
664.1010000000006,0.006294789724051952,-0.015214572660624981,0.00010502392251510173,0.0,0.0,0.0,0.0,-0.0007495391182601452,-0.0029725427739322186,-0.002984230639412999,0.9993550777435303,0.0,0.0,0.0,-0.933168351650238,-3.6073601245880127,5.093603134155273,168.90533447265625,0
674.0079999999998,0.0062889885157346725,-0.015131550841033459,0.00011224830086575821,0.0,0.0,0.0,0.0,0.002887303475290537,-0.001014316570945084,-0.00010121890954906121,1.0019819736480713,0.0,0.0,0.0,-0.9329050779342651,-3.6049492359161377,5.093235015869141,168.857666015625,0
683.9290000000001,0.006326483096927404,-0.015143433585762978,0.0001236571406479925,0.0,0.0,0.0,0.0,0.0014470044989138842,0.0006554775172844529,-0.0007523265085183084,0.9993886947631836,0.0,0.0,0.0,-0.9393360018730164,-3.6087863445281982,5.095882892608643,170.0216827392578,0
693.8299999999999,0.0063292160630226135,-0.015052934177219868,0.0001281082513742149,0.0,0.0,0.0,0.0,-0.0011928958119824529,-0.0007684094598516822,0.0026040927041321993,0.9993521571159363,0.0,0.0,0.0,-0.9452921748161316,-3.5926430225372314,5.092554569244385,171.09976196289062,0
703.75,0.006362174637615681,-0.015051741153001785,0.00013641697296407074,0.0,0.0,0.0,0.0,0.0007310315268114209,-0.005324868019670248,0.0010624220594763756,0.999966561794281,0.0,0.0,0.0,-0.9311490654945374,-3.5960593223571777,5.094547271728516,168.5398406982422,0
713.6530000000002,0.006261324509978294,-0.01510179229080677,0.00020904038683511317,0.0,0.0,0.0,0.0,0.002444981364533305,-0.001066175871528685,0.0009410172933712602,1.0021244287490845,0.0,0.0,0.0,-0.9302581548690796,-3.595083713531494,5.102837085723877,168.37857055664062,0
723.5709999999999,0.006312235724180937,-0.015128444880247116,0.0002265990333398804,0.0,0.0,0.0,0.0,-0.0018827826716005802,-0.001493370975367725,0.00011521812120918185,1.0004305839538574,0.0,0.0,0.0,-0.9378071427345276,-3.604877233505249,5.109282970428467,169.74496459960938,0
733.4789999999994,0.0063128164038062096,-0.015077736228704453,0.00021949748042970896,0.0,0.0,0.0,0.0,0.004480298608541489,0.00042201930773444474,-3.568376996554434e-05,0.9995569586753845,0.0,0.0,0.0,-0.9449935555458069,-3.5950047969818115,5.108112335205078,171.0457305908203,0
743.4009999999998,0.0063334195874631405,-0.01512760017067194,0.00021273760648909956,0.0,0.0,0.0,0.0,-0.0004203596035949886,-0.0012667813571169972,-0.00024463399313390255,0.9985557794570923,0.0,0.0,0.0,-0.9493529200553894,-3.612971544265747,5.108137130737305,171.8347625732422,0
753.2979999999989,0.006366794928908348,-0.015042794868350029,0.00017408726853318512,0.0,0.0,0.0,0.0,0.001082776696421206,-0.0010325302137061954,0.003426478011533618,1.0007925033569336,0.0,0.0,0.0,-0.9481273293495178,-3.6064367294311523,5.100590229034424,171.61293029785156,0
763.226999999999,0.006391302682459354,-0.015045768581330776,0.0001832256093621254,0.0,0.0,0.0,0.0,0.002892172196879983,0.0011959836119785905,-0.002336042234674096,0.9998549222946167,0.0,0.0,0.0,-0.9397642016410828,-3.6136364936828613,5.0994768142700195,170.09918212890625,0
773.128999999999,0.006346886046230793,-0.015043653547763824,0.0002030306204687804,0.0,0.0,0.0,0.0,-0.001036247587762773,-0.0008207805221900344,-0.00276601267978549,0.998775064945221,0.0,0.0,0.0,-0.9471208453178406,-3.62040376663208,5.083564758300781,171.43075561523438,0
783.0560000000005,0.006348761729896069,-0.015076806768774986,0.00019228005839977413,0.0,0.0,0.0,0.0,-0.001371121732518077,0.0005251340335235,0.0026503156404942274,0.9985569715499878,0.0,0.0,0.0,-0.9586065411567688,-3.626354932785034,5.089300632476807,173.5096893310547,0
792.9580000000005,0.006376380566507578,-0.014988494105637074,0.00015644964878447354,0.0,0.0,0.0,0.0,0.001853402005508542,0.001972941681742668,-0.00011962130520259961,0.9994031190872192,0.0,0.0,0.0,-0.9632706046104431,-3.6118545532226562,5.088074207305908,174.3538818359375,0
802.8770000000004,0.006329007912427187,-0.014993858523666859,0.00012300198432058096,0.0,0.0,0.0,0.0,0.000123764417367056,0.00035127581213600934,-0.0048383609391748905,1.0010669231414795,0.0,0.0,0.0,-0.9554935693740845,-3.62349009513855,5.073414325714111,172.94622802734375,0
812.7819999999992,0.006311249453574419,-0.014967030845582485,0.00010894472507061437,0.0,0.0,0.0,0.0,0.0027072755619883537,-0.00010324026516173035,-0.0020902040414512157,0.9995408058166504,0.0,0.0,0.0,-0.9555916786193848,-3.6196224689483643,5.072533130645752,172.9639892578125,0
822.6999999999989,0.006294968072324991,-0.015027943067252636,6.516766006825492e-05,0.0,0.0,0.0,0.0,-0.0010142105165868998,0.00225069303996861,0.0015217360341921449,0.9995149970054626,0.0,0.0,0.0,-0.9623019695281982,-3.6372241973876953,5.067239284515381,174.17857360839844,0
832.6119999999992,0.00624502170830965,-0.015027114190161228,7.75902735767886e-05,0.0,0.0,0.0,0.0,0.0013233900535851717,-0.002006626222282648,0.0037450736854225397,0.9996981024742126,0.0,0.0,0.0,-0.9682442545890808,-3.638911008834839,5.054236888885498,175.25413513183594,0
842.5280000000002,0.006238654255867004,-0.015008961781859398,7.429208199027926e-05,0.0,0.0,0.0,0.0,-0.003365599550306797,-0.0008078375249169767,-0.0009571247501298785,1.0001113414764404,0.0,0.0,0.0,-0.9649661779403687,-3.636976480484009,5.051094055175781,174.66078186035156,0
852.4329999999991,0.006204375997185707,-0.014980880543589592,7.743382593616843e-05,0.0,0.0,0.0,0.0,-0.001012421795167029,0.00016305860481224954,0.001860951422713697,0.9986304044723511,0.0,0.0,0.0,-0.9646025896072388,-3.627222776412964,5.053907871246338,174.594970703125,0
862.3529999999992,0.006272799801081419,-0.015024401247501373,7.609031308675185e-05,0.0,0.0,0.0,0.0,-0.0013828148366883397,0.000647065753582865,-0.0003967823868151754,1.0015965700149536,0.0,0.0,0.0,-0.9545891880989075,-3.6361703872680664,5.064937114715576,172.7825469970703,0
872.2659999999996,0.006253006402403116,-0.01499579381197691,7.224805449368432e-05,0.0,0.0,0.0,0.0,0.00010443426435813308,-0.0015719750663265586,-0.0022478129249066114,0.9998069405555725,0.0,0.0,0.0,-0.953910768032074,-3.6304874420166016,5.063897132873535,172.6597442626953,0
882.1729999999989,0.0063365763053298,-0.014990484341979027,8.016586798476055e-05,0.0,0.0,0.0,0.0,0.0006334665813483298,-0.002461842494085431,-0.003214683150872588,0.9987708330154419,0.0,0.0,0.0,-0.9535428285598755,-3.6242923736572266,5.0681328773498535,172.5931396484375,0
892.0769999999993,0.006278343964368105,-0.014986993744969368,0.00011694885324686766,0.0,0.0,0.0,0.0,0.0007759442669339478,0.004325009882450104,-0.0007160095265135169,0.9979993104934692,0.0,0.0,0.0,-0.9537391662597656,-3.6223902702331543,5.072145462036133,172.62867736816406,0
901.9959999999992,0.006297708489000797,-0.015061816200613976,8.284578507300466e-05,0.0,0.0,0.0,0.0,0.001195927383378148,0.0033588167279958725,-0.0023284140042960644,0.9999315738677979,0.0,0.0,0.0,-0.9615495204925537,-3.63993501663208,5.06303596496582,174.04238891601562,0
911.9079999999994,0.0062622190453112125,-0.015051251277327538,8.515200897818431e-05,0.0,0.0,0.0,0.0,0.002583385445177555,0.0008148784982040524,-0.0011752089485526085,0.9976222515106201,0.0,0.0,0.0,-0.9721208214759827,-3.631150960922241,5.0580878257751465,175.95579528808594,0
921.8189999999995,0.006257547531276941,-0.015015872195363045,9.179827611660585e-05,0.0,0.0,0.0,0.0,0.00030188754317350686,0.00041078185313381255,0.0021641403436660767,0.9986018538475037,0.0,0.0,0.0,-0.9647290706634521,-3.633312702178955,5.0497822761535645,174.6178741455078,0
931.7219999999998,0.0062162927351891994,-0.015000865794718266,0.0001000755000859499,0.0,0.0,0.0,0.0,-0.0009388906764797866,-0.00011905113206012174,-0.001056694076396525,0.9988746047019958,0.0,0.0,0.0,-0.9636328220367432,-3.631599187850952,5.044346332550049,174.41944885253906,0
941.6350000000002,0.0063018458895385265,-0.015068736858665943,9.965194476535544e-05,0.0,0.0,0.0,0.0,-0.0022782827727496624,0.0018915014807134867,-0.0035609917249530554,0.9994259476661682,0.0,0.0,0.0,-0.9709601998329163,-3.6387314796447754,5.056202411651611,175.7457275390625,0
951.5479999999989,0.006288113072514534,-0.014994516037404537,0.00010255137021886185,0.0,0.0,0.0,0.0,-0.0010267725447192788,-0.0008653394179418683,0.000667931919451803,0.9988833665847778,0.0,0.0,0.0,-0.9782444834709167,-3.6252694129943848,5.049581050872803,177.06419372558594,0
961.4629999999997,0.006375000812113285,-0.015063658356666565,9.650258289184421e-05,0.0,0.0,0.0,0.0,0.0008180323056876659,-0.003715234575793147,-0.005099069327116013,0.9989096522331238,0.0,0.0,0.0,-0.9765419960021973,-3.6222639083862305,5.042628765106201,176.75604248046875,0
971.375,0.006351528689265251,-0.015037436969578266,8.714454452274367e-05,0.0,0.0,0.0,0.0,-0.0022367117926478386,0.0009858000557869673,0.0014011169550940394,0.9991695880889893,0.0,0.0,0.0,-0.9765740036964417,-3.6213483810424805,5.047468662261963,176.7618408203125,0
981.2819999999992,0.0064316559582948685,-0.015067076310515404,9.590151603333652e-05,0.0,0.0,0.0,0.0,0.0018136658472940326,-0.0010729760397225618,0.0008664020569995046,0.9997528791427612,0.0,0.0,0.0,-0.9747384786605835,-3.6145918369293213,5.042374610900879,176.4296112060547,0
991.1919999999991,0.006373612675815821,-0.015071009285748005,0.0001151125252363272,0.0,0.0,0.0,0.0,-0.00030235698795877397,0.002578869927674532,-0.0004874946898780763,0.9994916915893555,0.0,0.0,0.0,-0.9813736081123352,-3.619955062866211,5.027182102203369,177.63058471679688,0
1001.0990000000002,0.0063714394345879555,-0.01514310110360384,7.104263204382733e-05,0.0,0.0,0.0,0.0,0.00014862153329886496,0.000983932870440185,-0.002520411042496562,1.0010366439819336,0.0,0.0,0.0,-0.9801233410835266,-3.614973306655884,5.020625114440918,177.40426635742188,0
1011.0200000000004,0.006319594103842974,-0.015100827440619469,9.973470150725916e-05,0.0,0.0,0.0,0.0,-0.0011292650597169995,0.0006678259233012795,0.0038762232288718224,1.001432180404663,0.0,0.0,0.0,-0.979939877986908,-3.612238883972168,5.012298583984375,177.37106323242188,0
1020.9310000000005,0.006354138255119324,-0.015167026780545712,7.790202653268352e-05,0.0,0.0,0.0,0.0,0.0006618156912736595,-0.005671528168022633,0.004470473621040583,1.0010637044906616,0.0,0.0,0.0,-0.9779953360557556,-3.6066629886627197,5.004103660583496,177.0190887451172,0
1030.8410000000003,0.006275826599448919,-0.015133642591536045,0.00013942814257461578,0.0,0.0,0.0,0.0,0.0016943297814577818,-0.0008410988957621157,-0.0010083481902256608,1.000856637954712,0.0,0.0,0.0,-0.9750337600708008,-3.602442979812622,5.010853290557861,176.48304748535156,0
1040.7469999999994,0.006319500505924225,-0.015108548104763031,0.00016964822134468704,0.0,0.0,0.0,0.0,-0.002272695302963257,0.0005644118064083159,0.0017435875488445163,1.0007597208023071,0.0,0.0,0.0,-0.964065670967102,-3.6003732681274414,5.026268005371094,174.497802734375,0
1050.6569999999992,0.00624021515250206,-0.015122032724320889,0.0002170734660467133,0.0,0.0,0.0,0.0,-0.0014288221718743443,-0.004563086200505495,0.00399061618372798,1.0011565685272217,0.0,0.0,0.0,-0.9618914127349854,-3.5950255393981934,5.020648002624512,174.104248046875,0
1060.5740000000005,0.006240121088922024,-0.015124850906431675,0.0002216640132246539,0.0,0.0,0.0,0.0,0.0016859109746292233,-0.0035313586704432964,-0.001289533101953566,1.000232219696045,0.0,0.0,0.0,-0.9490236639976501,-3.5979795455932617,5.021105766296387,171.77516174316406,0
1070.4850000000006,0.006247641984373331,-0.01503852941095829,0.00020666066848207265,0.0,0.0,0.0,0.0,-0.002924231579527259,0.00027624345966614783,-0.0011068482417613268,0.998169481754303,0.0,0.0,0.0,-0.9485927224159241,-3.5971474647521973,5.015923023223877,171.69715881347656,0
1080.4030000000002,0.006239035632461309,-0.015080897137522697,0.00018962036119773984,0.0,0.0,0.0,0.0,-0.0011514583602547646,-0.005880395881831646,-0.0009385679732076824,0.9971653819084167,0.0,0.0,0.0,-0.9559721946716309,-3.6008450984954834,5.017905235290527,173.03286743164062,0
1090.321,0.006166970357298851,-0.015088950283825397,0.00022296524548437446,0.0,0.0,0.0,0.0,-0.0013059708289802074,-0.009726605378091335,-0.0008666660869494081,0.9992544651031494,0.0,0.0,0.0,-0.9546836614608765,-3.600797653198242,5.023830890655518,172.7996368408203,0
1100.2170000000006,0.00620524026453495,-0.015073874965310097,0.0002520230773370713,0.0,0.0,0.0,0.0,0.0003816327953245491,0.0014367843978106976,-0.0002789669088087976,0.9989343881607056,0.0,0.0,0.0,-0.9466220140457153,-3.595970630645752,5.046784400939941,171.34046936035156,0
1110.1389999999992,0.006204238161444664,-0.015023471787571907,0.00022479410108644515,0.0,0.0,0.0,0.0,0.0031910629477351904,0.00020388180564623326,0.003481157124042511,0.9988664984703064,0.0,0.0,0.0,-0.9509979486465454,-3.582482099533081,5.0488810539245605,172.13253784179688,0
1120.0439999999999,0.006235899869352579,-0.015035639517009258,0.00023138278629630804,0.0,0.0,0.0,0.0,0.0010634472128003836,-0.001158909173682332,0.0012252603191882372,0.9986407160758972,0.0,0.0,0.0,-0.9410884976387024,-3.5895450115203857,5.0458526611328125,170.33888244628906,0
1129.964,0.006203543394804001,-0.015043435618281364,0.0002141669247066602,0.0,0.0,0.0,0.0,0.0023228214122354984,-0.0002517426910344511,-0.003252808703109622,1.0000935792922974,0.0,0.0,0.0,-0.940306544303894,-3.5808911323547363,5.044629096984863,170.19735717773438,0
1139.8670000000002,0.006226732395589352,-0.015098347328603268,0.0001982401154236868,0.0,0.0,0.0,0.0,0.001715454156510532,0.0025967976544052362,-0.000945335952565074,0.9994674324989319,0.0,0.0,0.0,-0.9490012526512146,-3.589942216873169,5.04196834564209,171.77110290527344,0
1149.7829999999994,0.006279972847551107,-0.01497306302189827,0.00013336360279936343,0.0,0.0,0.0,0.0,-0.0019695227965712547,0.0009080916061066091,-0.0028894555289298296,1.0006059408187866,0.0,0.0,0.0,-0.9537914395332336,-3.5714666843414307,5.053389072418213,172.6381378173828,0
1159.687,0.006280671805143356,-0.014968098141252995,0.00012549810344353318,0.0,0.0,0.0,0.0,0.0010531218722462654,0.0012663542293012142,0.003940800204873085,1.0004053115844727,0.0,0.0,0.0,-0.9452171325683594,-3.5680630207061768,5.055864334106445,171.086181640625,0
1169.6239999999998,0.00623445026576519,-0.014951342716813087,0.00013052155554760247,0.0,0.0,0.0,0.0,-0.001942293019965291,-0.0046312701888382435,0.002913807751610875,0.9981459379196167,0.0,0.0,0.0,-0.9440950751304626,-3.561105728149414,5.054603099822998,170.88308715820312,0
1179.512999999999,0.006270894315093756,-0.015048409812152386,9.320822573499754e-05,0.0,0.0,0.0,0.0,-0.00016034395957831293,0.0006516976282000542,-0.0007554359617643058,0.9975352883338928,0.0,0.0,0.0,-0.9507743120193481,-3.5720436573028564,5.07206392288208,172.09205627441406,0
1189.4349999999995,0.006235838867723942,-0.01502853911370039,8.358568447874859e-05,0.0,0.0,0.0,0.0,-0.004630559124052525,-0.00010006272350437939,-0.0005794802564196289,0.9989612102508545,0.0,0.0,0.0,-0.9602062106132507,-3.568166732788086,5.06411075592041,173.79922485351562,0
1199.3379999999997,0.0062729595229029655,-0.015056532807648182,6.906378257554024e-05,0.0,0.0,0.0,0.0,-0.002395626623183489,-0.005666718352586031,0.0007422394119203091,0.9994236826896667,0.0,0.0,0.0,-0.948724627494812,-3.565988540649414,5.069406986236572,171.72105407714844,0
1209.2649999999994,0.006230571307241917,-0.015030835755169392,6.836545799160376e-05,0.0,0.0,0.0,0.0,0.0009909672662615776,0.0010690282797440886,-0.002016972517594695,0.9991893172264099,0.0,0.0,0.0,-0.947474479675293,-3.561638832092285,5.069855690002441,171.49476623535156,0
1219.1639999999989,0.006326210685074329,-0.015041624195873737,8.677680307300761e-05,0.0,0.0,0.0,0.0,0.0012282017851248384,-0.0013407034566625953,0.0008949816110543907,0.9978758096694946,0.0,0.0,0.0,-0.9393312931060791,-3.5650296211242676,5.084976673126221,170.0208282470703,0
1229.1000000000004,0.006241690833121538,-0.015042216517031193,0.00013223080895841122,0.0,0.0,0.0,0.0,0.0027411947958171368,-0.003868731204420328,0.0010617438238114119,0.9969984889030457,0.0,0.0,0.0,-0.9381102919578552,-3.566143274307251,5.084405899047852,169.79981994628906,0
1238.9930000000004,0.006314024794846773,-0.015057179145514965,0.00015741695824544877,0.0,0.0,0.0,0.0,0.0007880454650148749,-0.0028875269927084446,0.0023832167498767376,0.9972402453422546,0.0,0.0,0.0,-0.9285851716995239,-3.574460029602051,5.102108001708984,168.07577514648438,0
1248.9130000000005,0.006291993893682957,-0.015021823346614838,0.00014909614401403815,0.0,0.0,0.0,0.0,0.0006285961135290563,-0.0021550070960074663,-0.0027119042351841927,0.9993454813957214,0.0,0.0,0.0,-0.9276066422462463,-3.568493366241455,5.099355220794678,167.89866638183594,0
1258.815999999999,0.006272947881370783,-0.015116062015295029,0.00021917940466664732,0.0,0.0,0.0,0.0,0.0023004214745014906,0.002759267808869481,-0.0045797210186719894,1.001054286956787,0.0,0.0,0.0,-0.9201962351799011,-3.5713367462158203,5.117128849029541,166.55735778808594,0
1268.7369999999992,0.006250378675758839,-0.015085749328136444,0.00021557565196417272,0.0,0.0,0.0,0.0,0.0021830464247614145,0.002465997589752078,0.0021288166753947735,0.9991839528083801,0.0,0.0,0.0,-0.9205616116523743,-3.572658061981201,5.1039628982543945,166.62350463867188,0
1278.6599999999999,0.006258687004446983,-0.015039796009659767,0.0001800230093067512,0.0,0.0,0.0,0.0,-0.002562071429565549,-0.0038735687267035246,0.0050597903318703175,1.0002942085266113,0.0,0.0,0.0,-0.9281363487243652,-3.5677528381347656,5.101563930511475,167.99452209472656,0
1288.5529999999999,0.006237910129129887,-0.015005609020590782,0.00017300642502959818,0.0,0.0,0.0,0.0,-0.000316276476951316,0.0036320567596703768,-0.0008165717590600252,1.0004147291183472,0.0,0.0,0.0,-0.9256510138511658,-3.56126070022583,5.102639675140381,167.54466247558594,0
1298.4560000000001,0.0062105776742100716,-0.015031654387712479,0.0001520862861070782,0.0,0.0,0.0,0.0,0.00032258566352538764,0.001571294735185802,-0.0009325205464847386,0.999049961566925,0.0,0.0,0.0,-0.9256322979927063,-3.5580360889434814,5.089189529418945,167.54127502441406,0
1308.3829999999998,0.006187361665070057,-0.015001486986875534,0.00014432673924602568,0.0,0.0,0.0,0.0,0.0015185594093054533,-0.00012099767627660185,0.007021332625299692,0.9978465437889099,0.0,0.0,0.0,-0.9249220490455627,-3.5556633472442627,5.082210540771484,167.4127197265625,0
1318.286,0.00613764114677906,-0.014979952946305275,0.00016203528502956033,0.0,0.0,0.0,0.0,0.0019027484813705087,-0.00197986070998013,-0.0016005567740648985,0.9991024136543274,0.0,0.0,0.0,-0.9298280477523804,-3.5523483753204346,5.05539083480835,168.30072021484375,0
1328.1990000000005,0.0061060115694999695,-0.014946767129004002,0.00015338911907747388,0.0,0.0,0.0,0.0,9.30054229684174e-05,0.0017460478702560067,0.00263362773694098,1.0010844469070435,0.0,0.0,0.0,-0.9299765229225159,-3.5536653995513916,5.0532402992248535,168.32760620117188,0
1338.1039999999994,0.006106931250542402,-0.01492724847048521,0.00010404345812276006,0.0,0.0,0.0,0.0,0.0016599873779341578,-0.002318117069080472,0.0012327296426519752,0.9989843368530273,0.0,0.0,0.0,-0.9288778305053711,-3.5490386486053467,5.0417656898498535,168.12875366210938,0
1348.027,0.006078566424548626,-0.014896010048687458,9.239258361048996e-05,0.0,0.0,0.0,0.0,0.002976550254970789,0.0022627816069871187,0.00018146506045013666,0.9993923306465149,0.0,0.0,0.0,-0.9272059202194214,-3.5522303581237793,5.040092945098877,167.8261260986328,0
1357.9300000000003,0.006050244439393282,-0.014933799393475056,4.878858453594148e-05,0.0,0.0,0.0,0.0,6.22585866949521e-05,0.004343200009316206,0.0029015857726335526,1.001355767250061,0.0,0.0,0.0,-0.9262306094169617,-3.554572582244873,5.028717041015625,167.6495819091797,0
1367.8580000000002,0.006020238623023033,-0.014907549135386944,3.4586177207529545e-05,0.0,0.0,0.0,0.0,0.0009252045419998467,-0.0019985295366495848,0.002534683793783188,1.0009119510650635,0.0,0.0,0.0,-0.9248056411743164,-3.5469210147857666,5.025054931640625,167.3916473388672,0
1377.7610000000004,0.006008670665323734,-0.01488037034869194,8.095231009974668e-07,0.0,0.0,0.0,0.0,0.003479780163615942,0.0044769346714019775,-0.000438444665633142,0.999984085559845,0.0,0.0,0.0,-0.9229443073272705,-3.5458176136016846,5.022552013397217,167.05474853515625,0
1387.6769999999997,0.00597909651696682,-0.014852574095129967,-1.3168493751436472e-05,0.0,0.0,0.0,0.0,-4.911009455099702e-05,-0.0002838998334482312,-0.000806789961643517,0.9969127774238586,0.0,0.0,0.0,-0.922296941280365,-3.5436625480651855,5.007035732269287,166.9375762939453,0
1397.5849999999991,0.0059620970860123634,-0.014851672574877739,-5.3477418987313285e-05,0.0,0.0,0.0,0.0,0.0032952025067061186,-0.004127406980842352,-0.00043491122778505087,0.9965925216674805,0.0,0.0,0.0,-0.9297104477882385,-3.552952527999878,5.004003524780273,168.27943420410156,0
1407.5,0.005933364853262901,-0.014826121740043163,-7.2987109888345e-05,0.0,0.0,0.0,0.0,-0.001367454882711172,0.007049950305372477,-0.0005443335976451635,1.0005548000335693,0.0,0.0,0.0,-0.9282010793685913,-3.55639910697937,5.0045857429504395,168.00625610351562,0
1417.3979999999992,0.005911411251872778,-0.014832643792033195,-0.0001182636187877506,0.0,0.0,0.0,0.0,0.003094276413321495,0.0018467468908056617,-0.000860059168189764,0.9990726113319397,0.0,0.0,0.0,-0.9275856614112854,-3.551378011703491,4.9899067878723145,167.89486694335938,0
1427.325999999999,0.005879464093595743,-0.014811419881880283,-0.00014164720778353512,0.0,0.0,0.0,0.0,-0.001992386532947421,-0.002374913776293397,4.064828681293875e-05,0.9999287128448486,0.0,0.0,0.0,-0.9267712235450745,-3.555255174636841,4.980869770050049,167.74742126464844,0
1437.2309999999998,0.005890803877264261,-0.01483022142201662,-0.00021786850993521512,0.0,0.0,0.0,0.0,0.0023546197917312384,0.003923584707081318,-0.002207600511610508,0.9986086487770081,0.0,0.0,0.0,-0.9360492825508118,-3.5588173866271973,4.988040447235107,169.4268035888672,0
1447.1459999999988,0.005858723074197769,-0.014810931868851185,-0.0002463189302943647,0.0,0.0,0.0,0.0,-0.0013652723282575607,0.0017749094404280186,-0.004151802975684404,0.9989787340164185,0.0,0.0,0.0,-0.9360321164131165,-3.5600268840789795,4.976940631866455,169.42367553710938,0
1457.0470000000005,0.005813263356685638,-0.01478775404393673,-0.00027621089247986674,0.0,0.0,0.0,0.0,0.0005922889686189592,-0.0017879182705655694,-0.0019918293692171574,0.9999637007713318,0.0,0.0,0.0,-0.9361089468002319,-3.5575919151306152,4.967808723449707,169.4375762939453,0
1466.9689999999991,0.005775974132120609,-0.01476560439914465,-0.00030569444061256945,0.0,0.0,0.0,0.0,-0.0002134603273589164,-0.0013258772669360042,0.005423856899142265,0.999413788318634,0.0,0.0,0.0,-0.9363347887992859,-3.5543439388275146,4.96445894241333,169.47845458984375,0
1476.8719999999994,0.00573694845661521,-0.014741693623363972,-0.0003350861952640116,0.0,0.0,0.0,0.0,-0.0014333049766719341,-0.0011326298117637634,-0.0006820859271101654,0.9992508888244629,0.0,0.0,0.0,-0.9344640374183655,-3.552746295928955,4.954697608947754,169.13983154296875,0
1486.7909999999993,0.005696064792573452,-0.014715549536049366,-0.00036476965760812163,0.0,0.0,0.0,0.0,0.0024950671941041946,4.900677231489681e-05,-0.00181318330578506,0.9987195134162903,0.0,0.0,0.0,-0.9338130354881287,-3.5512311458587646,4.9580254554748535,169.02200317382812,0
1496.6970000000001,0.00565367704257369,-0.014687430113554,-0.0003952406987082213,0.0,0.0,0.0,0.0,-0.0034003178589046,-0.0039046050515025854,-0.002133570844307542,1.0007731914520264,0.0,0.0,0.0,-0.9325841665267944,-3.551384210586548,4.957859992980957,168.79957580566406,0
1506.6149999999998,0.005610007327049971,-0.014658164232969284,-0.0004258320841472596,0.0,0.0,0.0,0.0,-0.002404493745416403,-0.005450645927339792,-0.0005561524885706604,1.0012540817260742,0.0,0.0,0.0,-0.9323796033859253,-3.54118013381958,4.9553632736206055,168.7625732421875,0
1516.5190000000002,0.006351678632199764,-0.015019454061985016,0.00014963244029786438,0.0,0.0,0.0,0.0,0.001549348933622241,-0.005829255562275648,-0.00048727190005593,0.9998311996459961,0.0,0.0,0.0,-0.9211958050727844,-3.608851194381714,5.088601112365723,166.73828125,0
1526.4400000000005,0.00633859820663929,-0.015005865134298801,0.00014026339340489358,0.0,0.0,0.0,0.0,-0.0020766081288456917,-0.0015822105342522264,0.001998699037358165,0.9995026588439941,0.0,0.0,0.0,-0.9202303886413574,-3.60445237159729,5.090000152587891,166.56353759765625,0
1536.342999999999,0.006301139947026968,-0.01499647181481123,0.00010850396211026236,0.0,0.0,0.0,0.0,0.0011924395803362131,0.0016931998543441296,-0.0006398080731742084,0.9984132051467896,0.0,0.0,0.0,-0.9089434742927551,-3.599039316177368,5.080889701843262,164.52056884765625,0
1546.2600000000002,0.006284382659941912,-0.014982073567807674,9.725859126774594e-05,0.0,0.0,0.0,0.0,0.0002365555556025356,-0.0025093688163906336,-0.0023310501128435135,1.001113772392273,0.0,0.0,0.0,-0.9075400829315186,-3.5967719554901123,5.075535774230957,164.2665557861328,0
1556.1710000000003,0.00629419507458806,-0.014997171238064766,6.800764094805345e-05,0.0,0.0,0.0,0.0,0.0034973490983247757,0.0011319592595100403,0.0014835832407698035,0.9993456602096558,0.0,0.0,0.0,-0.9076324105262756,-3.593088388442993,5.072442531585693,164.2832794189453,0
1566.075999999999,0.006274164188653231,-0.014984067529439926,5.5944947234820575e-05,0.0,0.0,0.0,0.0,-0.0014625310432165861,-0.0012667306000366807,0.0028550804127007723,0.9986499547958374,0.0,0.0,0.0,-0.9064157605171204,-3.5927586555480957,5.062062740325928,164.06304931640625,0
1575.9889999999996,0.0062747253105044365,-0.014977586455643177,4.092044764547609e-05,0.0,0.0,0.0,0.0,0.001628622878342867,0.004468967206776142,0.0015258685452863574,1.0009286403656006,0.0,0.0,0.0,-0.8968706130981445,-3.5912539958953857,5.05913782119751,162.3353729248047,0
1585.9120000000003,0.0062534804455935955,-0.014964340254664421,2.810859223245643e-05,0.0,0.0,0.0,0.0,0.0002821585221681744,0.001148640876635909,0.0023178006522357464,1.0009881258010864,0.0,0.0,0.0,-0.8966450095176697,-3.589066743850708,5.043629169464111,162.29454040527344,0
1595.8199999999997,0.0062643736600875854,-0.014959588646888733,1.1197022104170173e-05,0.0,0.0,0.0,0.0,0.001779842423275113,-0.002430352848023176,0.002056789118796587,1.0001239776611328,0.0,0.0,0.0,-0.8844360709190369,-3.589639902114868,5.045743465423584,160.08468627929688,0
1605.723,0.006242180243134499,-0.01494423858821392,-1.973312464542687e-07,0.0,0.0,0.0,0.0,-0.0014109431067481637,-0.0015219179913401604,-0.001540869940072298,1.001116156578064,0.0,0.0,0.0,-0.8836519122123718,-3.5954933166503906,5.046117305755615,159.9427490234375,0
1615.6369999999988,0.006341231055557728,-0.014969604089856148,-3.8869024137966335e-05,0.0,0.0,0.0,0.0,0.0011285572545602918,0.0012602269416674972,0.003300132229924202,1.000083088874817,0.0,0.0,0.0,-0.8964155316352844,-3.6080069541931152,5.06635856628418,162.25299072265625,0
1625.557999999999,0.006319633685052395,-0.014956795610487461,-5.0336107960902154e-05,0.0,0.0,0.0,0.0,-0.0014215048868209124,0.0004129426379222423,0.0010468006366863847,0.9997019171714783,0.0,0.0,0.0,-0.8957745432853699,-3.603339433670044,5.057325839996338,162.136962890625,0
1635.458999999999,0.006360986735671759,-0.014976456761360168,-8.196875569410622e-05,0.0,0.0,0.0,0.0,0.00012487106141634285,0.0015941527672111988,-0.003578624688088894,0.9998173117637634,0.0,0.0,0.0,-0.90709388256073,-3.6181344985961914,5.066665172576904,164.185791015625,0
1645.375,0.006338691804558039,-0.01496828906238079,-9.479123400524259e-05,0.0,0.0,0.0,0.0,-0.0042130243964493275,-0.0019448287785053253,0.003137233667075634,1.0007580518722534,0.0,0.0,0.0,-0.9071128964424133,-3.6160473823547363,5.055153846740723,164.18923950195312,0
1655.2839999999997,0.00639262143522501,-0.014996007084846497,-0.00012726998829748482,0.0,0.0,0.0,0.0,0.0013353023678064346,0.0020288764499127865,0.0018845058511942625,0.9986236095428467,0.0,0.0,0.0,-0.9052196741104126,-3.603116035461426,5.0571417808532715,163.8465576171875,0
1665.1990000000005,0.006367168389260769,-0.014988070353865623,-0.0001422084023943171,0.0,0.0,0.0,0.0,-0.00013176852371543646,-0.002793160267174244,0.0023071272298693657,1.0005135536193848,0.0,0.0,0.0,-0.90416419506073,-3.6051852703094482,5.050046920776367,163.655517578125,0
1675.1129999999994,0.0063844178803265095,-0.014973905868828297,-0.00014028824807610363,0.0,0.0,0.0,0.0,0.00042094566742889583,-0.0021353154443204403,-1.5169614925980568e-05,1.0002272129058838,0.0,0.0,0.0,-0.8943833112716675,-3.599869966506958,5.058707237243652,161.88514709472656,0
1685.021999999999,0.006361327599734068,-0.014964649453759193,-0.00015245577378664166,0.0,0.0,0.0,0.0,0.0003613429144024849,0.0023932468611747026,-0.0011131291976198554,1.0003607273101807,0.0,0.0,0.0,-0.8937000036239624,-3.5996716022491455,5.052669525146484,161.761474609375,0
1694.938,0.006366511341184378,-0.014984814450144768,-0.00017412005399819463,0.0,0.0,0.0,0.0,0.001402749796397984,0.0003463702742010355,0.002626060275360942,0.9998384118080139,0.0,0.0,0.0,-0.9015588760375977,-3.613327980041504,5.059303283691406,163.18394470214844,0
1704.8449999999993,0.006381576415151358,-0.015022598206996918,-0.00019662721024360508,0.0,0.0,0.0,0.0,-0.0012636869214475155,0.001497054472565651,-0.0030512476805597544,0.998829185962677,0.0,0.0,0.0,-0.9122712016105652,-3.636939287185669,5.086056709289551,165.1229248046875,0
1714.7639999999992,0.006263023242354393,-0.015165012329816818,6.397526885848492e-05,0.0,0.0,0.0,0.0,0.0016106482362374663,-0.00010141622624360025,0.0012235596077516675,1.0003970861434937,0.0,0.0,0.0,-0.9184186458587646,-3.6544711589813232,5.067995071411133,166.235595703125,0
1724.6669999999995,0.006326138973236084,-0.015188034623861313,0.00010833398846443743,0.0,0.0,0.0,0.0,-0.0006667281850241125,-0.0003041866875719279,0.0011388972634449601,1.0002285242080688,0.0,0.0,0.0,-0.9274396300315857,-3.6558330059051514,5.080214500427246,167.86842346191406,0
1734.5859999999993,0.006360449828207493,-0.01508884783834219,4.139087104704231e-05,0.0,0.0,0.0,0.0,0.0033108408097177744,0.001734579331241548,-0.004749401472508907,1.0001736879348755,0.0,0.0,0.0,-0.9369698762893677,-3.6315431594848633,5.084578514099121,169.5934295654297,0
1744.4969999999994,0.006332200951874256,-0.015115815214812756,1.4025800737726968e-05,0.0,0.0,0.0,0.0,-0.003071743994951248,0.00015666887338738889,0.0011354128364473581,0.9976138472557068,0.0,0.0,0.0,-0.9439136385917664,-3.6367058753967285,5.074726104736328,170.85025024414062,0
1754.4169999999995,0.006351035553961992,-0.015034770593047142,-1.953787068487145e-05,0.0,0.0,0.0,0.0,-0.0025074677541851997,0.00021744510740973055,0.000768014055211097,0.9978035092353821,0.0,0.0,0.0,-0.9530045986175537,-3.622201681137085,5.080612659454346,172.49574279785156,0
1764.315999999999,0.006331343669444323,-0.015080795623362064,-5.10321551701054e-05,0.0,0.0,0.0,0.0,0.0004200083203613758,-0.0026264148764312267,-0.0017048442969098687,0.9998258948326111,0.0,0.0,0.0,-0.9609756469726562,-3.6258251667022705,5.073494911193848,173.93850708007812,0
1774.235999999999,0.00625182269141078,-0.01513276994228363,-1.770815288182348e-05,0.0,0.0,0.0,0.0,-0.0004469329724088311,-0.00340539519675076,0.0014682264300063252,0.998717188835144,0.0,0.0,0.0,-0.9596688747406006,-3.624983549118042,5.076143741607666,173.7019805908203,0
1784.1399999999994,0.006285167299211025,-0.015121246688067913,8.924449730329798e-07,0.0,0.0,0.0,0.0,-0.0011209878139197826,-0.0002215670538134873,0.001331896404735744,0.9987916350364685,0.0,0.0,0.0,-0.9491779804229736,-3.624126434326172,5.081232070922852,171.8031005859375,0
1794.065999999999,0.0062332781963050365,-0.01512928120791912,1.7412745364708826e-05,0.0,0.0,0.0,0.0,0.0028516033198684454,-0.0009502083412371576,0.0024343463592231274,0.9991706609725952,0.0,0.0,0.0,-0.9475075006484985,-3.6158676147460938,5.0834126472473145,171.500732421875,0
1803.964,0.006311421282589436,-0.01513129286468029,4.876277671428397e-05,0.0,0.0,0.0,0.0,0.001266629551537335,-0.00046249557635746896,-0.0024781872052699327,1.0008834600448608,0.0,0.0,0.0,-0.9395532011985779,-3.6235973834991455,5.091371536254883,170.0609893798828,0
1813.887999999999,0.006272885482758284,-0.015093070454895496,6.761771510355175e-05,0.0,0.0,0.0,0.0,-0.002038521459326148,-0.002286431612446904,0.00187167979311198,1.0002297163009644,0.0,0.0,0.0,-0.938618540763855,-3.619703531265259,5.091141700744629,169.89181518554688,0
1823.7889999999989,0.006335832178592682,-0.015095621347427368,0.00010024736548075452,0.0,0.0,0.0,0.0,0.0027530789375305176,0.0006153672584332526,0.0019012568518519402,0.9998467564582825,0.0,0.0,0.0,-0.9286506175994873,-3.612119436264038,5.105435371398926,168.08761596679688,0
1833.7109999999993,0.006356433033943176,-0.015022211708128452,7.760429434711114e-05,0.0,0.0,0.0,0.0,0.0007883361540734768,-0.0019565101247280836,-0.000977467861957848,1.00021231174469,0.0,0.0,0.0,-0.9343037605285645,-3.606001615524292,5.10361385345459,169.11082458496094,0
1843.6100000000006,0.006384888663887978,-0.015041263774037361,8.535527740605175e-05,0.0,0.0,0.0,0.0,0.0012898517306894064,0.000731059059035033,-0.00021843468130100518,0.9993354082107544,0.0,0.0,0.0,-0.9248160719871521,-3.609346628189087,5.110313415527344,167.39353942871094,0
1853.5339999999997,0.006358439102768898,-0.015042251907289028,8.579951827414334e-05,0.0,0.0,0.0,0.0,0.00118302833288908,-0.0023290524259209633,-0.0005144040333107114,1.001166820526123,0.0,0.0,0.0,-0.9243780970573425,-3.609408378601074,5.097108840942383,167.31427001953125,0
1863.4349999999995,0.006365656387060881,-0.015053234994411469,8.954221993917599e-05,0.0,0.0,0.0,0.0,0.0017231956589967012,0.0011606540065258741,-0.003234307514503598,1.0020997524261475,0.0,0.0,0.0,-0.9132609963417053,-3.6136181354522705,5.090044021606445,165.30206298828125,0
1873.3580000000002,0.0063164858147501945,-0.01505729928612709,0.00011803876259364188,0.0,0.0,0.0,0.0,-0.0002416075294604525,-0.0029954169876873493,0.00460420036688447,1.0005950927734375,0.0,0.0,0.0,-0.9139528870582581,-3.6097757816314697,5.078967571258545,165.4272918701172,0
1883.2579999999998,0.006288842298090458,-0.015074951574206352,0.00010760512668639421,0.0,0.0,0.0,0.0,-0.0003505464119371027,0.00044962792890146375,0.0018350596074014902,0.99858158826828,0.0,0.0,0.0,-0.9044408202171326,-3.606173276901245,5.084056854248047,163.70559692382812,0
1893.179,0.006305977702140808,-0.01500470470637083,8.301217167172581e-05,0.0,0.0,0.0,0.0,-0.0005736331804655492,0.001641897950321436,-0.0019628817681223154,0.999209463596344,0.0,0.0,0.0,-0.9134101271629333,-3.5931053161621094,5.0794901847839355,165.3290557861328,0
1903.0820000000003,0.0062883333303034306,-0.015081450343132019,4.5416378270601854e-05,0.0,0.0,0.0,0.0,0.00013645252329297364,-0.0001114446422434412,0.001468002563342452,0.9972856640815735,0.0,0.0,0.0,-0.9219214916229248,-3.5996649265289307,5.068615913391113,166.86962890625,0
1913.009,0.006245194002985954,-0.01507548987865448,5.4808951972518116e-05,0.0,0.0,0.0,0.0,0.0008943325956352055,-0.0021470217034220695,-0.0016572837485000491,0.9996281862258911,0.0,0.0,0.0,-0.9302250742912292,-3.595355272293091,5.067930698394775,168.37258911132812,0
1922.9069999999992,0.006323634646832943,-0.015085037797689438,9.1642199549824e-05,0.0,0.0,0.0,0.0,-8.815821638563648e-05,-0.0026033122558146715,0.00033158197766169906,0.9991476535797119,0.0,0.0,0.0,-0.9227542281150818,-3.598522186279297,5.083077907562256,167.02035522460938,0
1932.8359999999993,0.006283878814429045,-0.015050860121846199,0.00010972619202220812,0.0,0.0,0.0,0.0,-8.337527833646163e-05,0.003175088670104742,-0.00962235126644373,1.0005656480789185,0.0,0.0,0.0,-0.9211297035217285,-3.593231678009033,5.084809303283691,166.72630310058594,0
1942.732,0.006324397400021553,-0.015114662237465382,0.00010698394908104092,0.0,0.0,0.0,0.0,-0.0008812454179860651,0.0016319756396114826,0.002387981628999114,0.999029815196991,0.0,0.0,0.0,-0.9285382628440857,-3.5974879264831543,5.083714962005615,168.06727600097656,0
1952.6569999999992,0.006288356147706509,-0.01507708989083767,0.00012360844993963838,0.0,0.0,0.0,0.0,0.00028869573725387454,0.0015092011308297515,-0.00015495279512833804,0.9998311400413513,0.0,0.0,0.0,-0.926870584487915,-3.598313570022583,5.0763092041015625,167.76541137695312,0
1962.5550000000003,0.006327436771243811,-0.015170545317232609,0.00010622216359479353,0.0,0.0,0.0,0.0,0.0021001046989113092,0.003576380666345358,-0.0016920261550694704,1.000753402709961,0.0,0.0,0.0,-0.9342161417007446,-3.609636068344116,5.075441837310791,169.09498596191406,0
1972.4719999999998,0.006294408347457647,-0.015137783251702785,0.00011846375855384395,0.0,0.0,0.0,0.0,-0.002174154855310917,0.0038767079822719097,0.000700868375133723,0.9993781447410583,0.0,0.0,0.0,-0.9431285858154297,-3.605340003967285,5.066195487976074,170.70814514160156,0
1982.3780000000006,0.006268692668527365,-0.015123262070119381,0.00012332054029684514,0.0,0.0,0.0,0.0,-0.0007085394463501871,-0.001331200823187828,-0.00022571081353817135,0.9984402060508728,0.0,0.0,0.0,-0.9336288571357727,-3.5985770225524902,5.053339958190918,168.98867797851562,0
1992.3019999999997,0.006233548745512962,-0.015096095390617847,0.0001343189214821905,0.0,0.0,0.0,0.0,0.002444441895931959,-0.0006281114183366299,0.0001159479288617149,0.9988800287246704,0.0,0.0,0.0,-0.942559003829956,-3.587773084640503,5.0423407554626465,170.6050567626953,0
2002.2129999999997,0.006299356929957867,-0.015111285261809826,0.00016385225171688944,0.0,0.0,0.0,0.0,7.215942605398595e-05,0.0015734113985672593,0.0023455843329429626,1.0002758502960205,0.0,0.0,0.0,-0.9342983365058899,-3.591737747192383,5.051002025604248,169.10984802246094,0
2012.1229999999996,0.006278646178543568,-0.015086525119841099,0.00015522069588769227,0.0,0.0,0.0,0.0,0.004207996651530266,0.00623167771846056,-0.001832631416618824,1.0027447938919067,0.0,0.0,0.0,-0.944048285484314,-3.584794759750366,5.04327392578125,170.87461853027344,0
2022.0319999999992,0.0062547121196985245,-0.01506095752120018,0.00016719987615942955,0.0,0.0,0.0,0.0,-0.0011401537340134382,-0.00169935857411474,0.00017772607679944485,0.9980812668800354,0.0,0.0,0.0,-0.9339538216590881,-3.5876855850219727,5.027195930480957,169.04750061035156,0
2031.955,0.006249455269426107,-0.014992293901741505,0.00015664787497371435,0.0,0.0,0.0,0.0,0.0038609837647527456,0.00039807293796911836,0.002061007544398308,1.0009679794311523,0.0,0.0,0.0,-0.9434317946434021,-3.568249464035034,5.0301127433776855,170.76303100585938,0
2041.8500000000004,0.006262747570872307,-0.01505039632320404,0.00014129347982816398,0.0,0.0,0.0,0.0,-0.0004696820105891675,-0.0013623167760670185,0.0017067997250705957,1.0015869140625,0.0,0.0,0.0,-0.9362955093383789,-3.5804779529571533,5.028391361236572,169.47134399414062,0
2051.7729999999992,0.006204342003911734,-0.015081965364515781,0.00015041838923934847,0.0,0.0,0.0,0.0,0.0007516571786254644,0.0008635128615424037,0.0019572970923036337,0.9996687173843384,0.0,0.0,0.0,-0.9349259734153748,-3.573347330093384,5.0203142166137695,169.2234649658203,0
2061.6769999999997,0.006234895437955856,-0.015103399753570557,0.000162084776093252,0.0,0.0,0.0,0.0,0.0004810102691408247,-0.0007454616134054959,-0.0016960065113380551,0.9993674159049988,0.0,0.0,0.0,-0.9265229105949402,-3.5753378868103027,5.018877029418945,167.70249938964844,0
2071.593999999999,0.00616576848551631,-0.015129721723496914,0.00019037268066313118,0.0,0.0,0.0,0.0,0.002158873016014695,-0.004061171319335699,0.0029826255049556494,0.9997476935386658,0.0,0.0,0.0,-0.9266152381896973,-3.57163667678833,5.013577461242676,167.7191925048828,0
2081.5,0.006268385797739029,-0.01519795972853899,0.0002203456242568791,0.0,0.0,0.0,0.0,0.0010548100108280778,0.0006686713895760477,0.0003974759019911289,0.9999303817749023,0.0,0.0,0.0,-0.9335753917694092,-3.586491584777832,5.035566806793213,168.97898864746094,0
2091.419,0.006242828909307718,-0.015144925564527512,0.00024126296921167523,0.0,0.0,0.0,0.0,-0.0009532743715681136,0.0013796810526400805,-0.004185605328530073,0.9973832964897156,0.0,0.0,0.0,-0.9400500655174255,-3.5745553970336914,5.032913684844971,170.15093994140625,0
2101.3199999999997,0.006298264022916555,-0.015163044445216656,0.00027331383898854256,0.0,0.0,0.0,0.0,-0.0013743669260293245,-0.0026650475338101387,-0.00027119836886413395,0.9978834390640259,0.0,0.0,0.0,-0.9314425587654114,-3.57301926612854,5.043436050415039,168.59295654296875,0
2111.249,0.006260429043322802,-0.01514182798564434,0.00029771693516522646,0.0,0.0,0.0,0.0,0.0015068604843690991,-0.0029642179142683744,0.0011518900282680988,0.9976181387901306,0.0,0.0,0.0,-0.935967743396759,-3.5630075931549072,5.041438579559326,169.4120330810547,0
2121.151,0.006245733704417944,-0.01521180011332035,0.0002770322316791862,0.0,0.0,0.0,0.0,0.0017203227616846561,-0.0004950868315063417,-0.002045176923274994,0.9988770484924316,0.0,0.0,0.0,-0.9427779912948608,-3.572237491607666,5.042843341827393,170.6446990966797,0
2131.0689999999995,0.006239361595362425,-0.015148067846894264,0.0002776143082883209,0.0,0.0,0.0,0.0,0.0031838438007980585,-0.003630655352026224,0.0009677335619926453,1.0002557039260864,0.0,0.0,0.0,-0.9427952766418457,-3.569930076599121,5.037601470947266,170.6478271484375,0
2140.973,0.006284588016569614,-0.015167634934186935,0.00029930713935755193,0.0,0.0,0.0,0.0,0.003862379351630807,0.003480013459920883,-0.0006241921219043434,1.0006085634231567,0.0,0.0,0.0,-0.9331071972846985,-3.5759880542755127,5.05275821685791,168.89425659179688,0
