timestamp,stateEstimate.x,stateEstimate.y,stateEstimate.z,controller.cmd_thrust,controller.cmd_roll,controller.cmd_pitch,controller.cmd_yaw,controller.r_roll,controller.r_pitch,controller.r_yaw,controller.accelz,controller.actuatorThrust,controller.roll,controller.pitch,controller.yaw,controller.rollRate,controller.pitchRate,controller.yawRate,controller.ctr_yaw
0.0,0.004556750878691673,-0.0037409949582070112,0.0011286544613540173,0.0,0.0,0.0,0.0,0.002283036708831787,-0.0011386241530999541,-0.0006780395051464438,0.9998999238014221,0.0,0.0,0.0,17.977367401123047,7.369695663452148,2.111222982406616,-3253.939453125,0
9.88799999999901,0.004597293678671122,-0.003781634848564863,0.0011784695088863373,0.0,0.0,0.0,0.0,-0.0031439270824193954,-0.0008097655372694135,-0.0014656700659543276,1.0001283884048462,0.0,0.0,0.0,17.9597110748291,7.355984687805176,2.117380380630493,-3250.74365234375,0
19.76800000000003,0.004688782151788473,-0.0037499775644391775,0.0012103365734219551,0.0,0.0,0.0,0.0,-0.0003934861160814762,-0.0012632944853976369,-0.0011792017612606287,0.9985955357551575,0.0,0.0,0.0,17.981689453125,7.377892017364502,2.141345977783203,-3254.7216796875,0
29.670000000000073,0.004735636990517378,-0.003791472176089883,0.0012578517198562622,0.0,0.0,0.0,0.0,-0.0018247569678351283,-0.0019928363617509604,-0.001890914048999548,0.9995928406715393,0.0,0.0,0.0,17.963809967041016,7.371168613433838,2.148164749145508,-3251.4853515625,0
39.54399999999987,0.004785359371453524,-0.0038364636711776257,0.0013049740809947252,0.0,0.0,0.0,0.0,-0.0017296341247856617,-0.002861414337530732,0.002915835939347744,1.0002466440200806,0.0,0.0,0.0,17.945417404174805,7.367342472076416,2.153296947479248,-3248.15625,0
49.4380000000001,0.0048370868898928165,-0.0038831259589642286,0.001352275488898158,0.0,0.0,0.0,0.0,-0.0022099532652646303,-0.005164927337318659,0.0033678601030260324,1.000096321105957,0.0,0.0,0.0,17.92765998840332,7.365007400512695,2.1603424549102783,-3244.94189453125,0
59.3179999999993,0.00489008380100131,-0.003931321203708649,0.0013999184593558311,0.0,0.0,0.0,0.0,0.0003380333655513823,-0.0031276093795895576,0.002386476844549179,0.9992527961730957,0.0,0.0,0.0,17.91030502319336,7.361974716186523,2.1705753803253174,-3241.801025390625,0
69.20900000000074,0.003990312106907368,-0.0038943556137382984,0.0005280341720208526,0.0,0.0,0.0,0.0,0.002619468839839101,-0.008661392144858837,-0.00020299087918829173,0.9983783960342407,0.0,0.0,0.0,17.919967651367188,7.387020111083984,2.0451812744140625,-3243.5498046875,0
79.10200000000077,0.0040046703070402145,-0.0039498088881373405,0.0005361521034501493,0.0,0.0,0.0,0.0,0.0012025218456983566,-0.0035187839530408382,0.0021099743898957968,1.0007885694503784,0.0,0.0,0.0,17.901628494262695,7.374017238616943,2.0549540519714355,-3240.230224609375,0
88.99499999999898,0.003932475578039885,-0.004029456991702318,0.00046736281365156174,0.0,0.0,0.0,0.0,0.0031597765628248453,0.00398589251562953,-0.00439620902761817,1.0025155544281006,0.0,0.0,0.0,17.911256790161133,7.359612941741943,2.0470898151397705,-3241.97314453125,0
98.87700000000041,0.003942777868360281,-0.004089377820491791,0.000473583466373384,0.0,0.0,0.0,0.0,0.0014509418979287148,-0.00530977314338088,0.0006642057560384274,1.001225233078003,0.0,0.0,0.0,17.89237403869629,7.345293998718262,2.0343337059020996,-3238.555419921875,0
108.75799999999981,0.0038712413515895605,-0.004099567420780659,0.0005092825158499181,0.0,0.0,0.0,0.0,0.0007890677079558372,0.010380351915955544,0.0020943942945450544,0.9999921321868896,0.0,0.0,0.0,17.90484046936035,7.355560302734375,2.0358948707580566,-3240.811767578125,0
118.63899999999921,0.003880859352648258,-0.004160426557064056,0.0005198976723477244,0.0,0.0,0.0,0.0,-0.0015211530262604356,-0.0015718798385933042,0.0016682300483807921,1.0003318786621094,0.0,0.0,0.0,17.888229370117188,7.346006870269775,2.01802396774292,-3237.80517578125,0
128.53199999999924,0.0038570077158510685,-0.004199841525405645,0.0005477671511471272,0.0,0.0,0.0,0.0,0.00336112966760993,0.004545704461634159,3.343754724483006e-05,0.9988998770713806,0.0,0.0,0.0,17.897390365600586,7.351274013519287,2.0236823558807373,-3239.463134765625,0
138.41400000000067,0.0038641677238047123,-0.004261096939444542,0.0005594778922386467,0.0,0.0,0.0,0.0,-0.0013207735028117895,-0.0006963080959394574,-0.0009284222032874823,1.0003029108047485,0.0,0.0,0.0,17.87938117980957,7.337582111358643,2.0120668411254883,-3236.20361328125,0
148.3169999999991,0.0037687618751078844,-0.004282138776034117,0.0005974815576337278,0.0,0.0,0.0,0.0,0.001198810525238514,-0.008305469527840614,0.003964871633797884,1.001552700996399,0.0,0.0,0.0,17.877683639526367,7.352893352508545,1.998011827468872,-3235.896240234375,0
158.1849999999995,0.0037723372224718332,-0.004344384651631117,0.0006119234603829682,0.0,0.0,0.0,0.0,-0.005063503980636597,-0.0015040612779557705,-0.0014636985724791884,1.000526785850525,0.0,0.0,0.0,17.860580444335938,7.3428192138671875,2.0090599060058594,-3232.80078125,0
168.08599999999933,0.0037270712200552225,-0.004358434118330479,0.000669448752887547,0.0,0.0,0.0,0.0,-1.2247366612427868e-05,0.002907549263909459,-0.0006982273771427572,1.0005062818527222,0.0,0.0,0.0,17.862436294555664,7.369282245635986,2.0038108825683594,-3233.136474609375,0
177.96600000000035,0.003730603028088808,-0.004420438315719366,0.0006891083903610706,0.0,0.0,0.0,0.0,0.0011093189241364598,0.0017218808643519878,-0.0005432176985777915,0.9991321563720703,0.0,0.0,0.0,17.844457626342773,7.364428997039795,1.9962600469589233,-3229.88232421875,0
187.85100000000057,0.003735252656042576,-0.0044836499728262424,0.000708827399648726,0.0,0.0,0.0,0.0,-0.0006960696191526949,0.0056864796206355095,0.00042419967940077186,1.001097559928894,0.0,0.0,0.0,17.826839447021484,7.35346794128418,1.988682508468628,-3226.693115234375,0
197.73099999999977,0.0037396943662315607,-0.0045481049455702305,0.0007288853521458805,0.0,0.0,0.0,0.0,-0.001119084656238556,-0.004075336270034313,0.0005583747988566756,1.0013418197631836,0.0,0.0,0.0,17.80881690979004,7.348991870880127,1.975097894668579,-3223.43115234375,0
207.628999999999,0.0037426711060106754,-0.004613638389855623,0.0007500560022890568,0.0,0.0,0.0,0.0,-0.002136307768523693,0.007040515076369047,-0.000245110597461462,0.9989776015281677,0.0,0.0,0.0,17.792186737060547,7.344171524047852,1.9839152097702026,-3220.421142578125,0
217.503999999999,0.0037439775187522173,-0.004680462647229433,0.0007714884704910219,0.0,0.0,0.0,0.0,-7.540938531747088e-05,-0.0021958693396300077,-0.0008301522466354072,0.9980319738388062,0.0,0.0,0.0,17.77492904663086,7.343493938446045,1.9662472009658813,-3217.297607421875,0
227.40300000000025,0.0036585561465471983,-0.004606850910931826,0.0008715110016055405,0.0,0.0,0.0,0.0,0.000972784124314785,-0.005057396367192268,-0.0013200759422034025,0.9992486238479614,0.0,0.0,0.0,17.794105529785156,7.399639129638672,1.9482152462005615,-3220.768798828125,0
237.28000000000065,0.00365439779125154,-0.004664799198508263,0.0008970838971436024,0.0,0.0,0.0,0.0,-0.0013505304232239723,-0.0026303038466721773,0.003413653466850519,0.9996483325958252,0.0,0.0,0.0,17.775941848754883,7.388792991638184,1.9510273933410645,-3217.481201171875,0
247.17100000000028,0.0036434989888221025,-0.0046294080093503,0.0009949225932359695,0.0,0.0,0.0,0.0,0.0009049093350768089,-0.002611275529488921,-0.00042754682363010943,1.000054955482483,0.0,0.0,0.0,17.784225463867188,7.423064231872559,1.95516836643219,-3218.980224609375,0
257.0499999999993,0.004011515993624926,-0.0039374385960400105,-5.160688488103915e-06,0.0,0.0,0.0,0.0,0.0016229477478191257,0.001253355061635375,0.001539075281471014,1.0001047849655151,0.0,0.0,0.0,17.808984756469727,7.551055908203125,2.0636026859283447,-3223.4619140625,0
266.9500000000007,0.00396066764369607,-0.003916087094694376,-1.1395155524951406e-05,0.0,0.0,0.0,0.0,-0.0003344441356603056,-0.0030874735675752163,0.0006721899262629449,1.0008553266525269,0.0,0.0,0.0,17.82670021057129,7.548397064208984,2.0569093227386475,-3226.668212890625,0
276.8230000000003,0.003958802204579115,-0.003827195381745696,8.103915024548769e-05,0.0,0.0,0.0,0.0,-0.0018457167316228151,-0.010531500913202763,0.0021995080169290304,0.9996805191040039,0.0,0.0,0.0,17.84662628173828,7.562097072601318,2.0704517364501953,-3230.27490234375,0
286.71899999999914,0.003961597569286823,-0.0038592491764575243,6.494464469142258e-05,0.0,0.0,0.0,0.0,0.002785720396786928,-0.003974809776991606,0.002373824128881097,0.9998693466186523,0.0,0.0,0.0,17.859769821166992,7.5546979904174805,2.0998051166534424,-3232.654052734375,0
296.60100000000057,0.004000102169811726,-0.003738822415471077,8.582560258219019e-05,0.0,0.0,0.0,0.0,-0.0005088628968223929,0.0008458113297820091,0.0013460657792165875,1.0009020566940308,0.0,0.0,0.0,17.87471580505371,7.557025909423828,2.111551284790039,-3235.35888671875,0
306.4940000000006,0.004017248749732971,-0.003787245601415634,6.769649917259812e-05,0.0,0.0,0.0,0.0,0.00028551381547003984,0.00033183369669131935,0.0009033029200509191,1.0010006427764893,0.0,0.0,0.0,17.878618240356445,7.54693078994751,2.1035866737365723,-3236.0654296875,0
316.3719999999994,0.004082466475665569,-0.0036331743467599154,7.116767665138468e-05,0.0,0.0,0.0,0.0,0.001386622549034655,0.00099587079603225,0.001177032827399671,1.0004467964172363,0.0,0.0,0.0,17.890792846679688,7.552596092224121,2.1164278984069824,-3238.269287109375,0
326.26900000000023,0.004086119122803211,-0.0037076985463500023,2.8417845896910876e-05,0.0,0.0,0.0,0.0,0.0015287662390619516,-0.005373145919293165,0.003323963610455394,1.0001486539840698,0.0,0.0,0.0,17.900367736816406,7.541281223297119,2.1122403144836426,-3240.002197265625,0
336.14300000000003,0.0040974062867462635,-0.003612840548157692,9.53497365117073e-05,0.0,0.0,0.0,0.0,0.0011930096661671996,-3.845586979878135e-05,-0.004151285160332918,1.0005972385406494,0.0,0.0,0.0,17.91979217529297,7.540891170501709,2.131516218185425,-3243.51806640625,0
346.04099999999926,0.004116357304155827,-0.003631786908954382,0.00010239623952656984,0.0,0.0,0.0,0.0,-0.0007606899016536772,0.0011283692438155413,0.0018293873872607946,1.0006687641143799,0.0,0.0,0.0,17.900405883789062,7.532614231109619,2.1308255195617676,-3240.009033203125,0
355.91599999999926,0.0041068922728300095,-0.0036288942210376263,0.00016745764878578484,0.0,0.0,0.0,0.0,-0.001194612355902791,-0.006345334462821484,0.003175905905663967,0.9994603395462036,0.0,0.0,0.0,17.913877487182617,7.532223701477051,2.1267266273498535,-3242.447509765625,0
365.8099999999995,0.004051565192639828,-0.0037038782611489296,8.947691094363108e-05,0.0,0.0,0.0,0.0,-0.0013124847318977118,-0.0031084187794476748,-0.0005013456102460623,1.0021114349365234,0.0,0.0,0.0,17.92094612121582,7.523959636688232,2.127798318862915,-3243.726806640625,0
375.6890000000003,0.004061131272464991,-0.0036482117138803005,0.0001495977194281295,0.0,0.0,0.0,0.0,-0.0024158849846571684,-0.0032398556359112263,-0.0012681464431807399,1.0011953115463257,0.0,0.0,0.0,17.933462142944336,7.528029918670654,2.1367247104644775,-3245.992431640625,0
385.58699999999953,0.00403181929141283,-0.0037362303119152784,9.349049651063979e-05,0.0,0.0,0.0,0.0,0.00040000886656343937,4.6910128730814904e-05,0.001892589032649994,0.9978729486465454,0.0,0.0,0.0,17.934104919433594,7.517699241638184,2.1330385208129883,-3246.108642578125,0
395.46500000000015,0.0040475912392139435,-0.003669849829748273,0.00014368564006872475,0.0,0.0,0.0,0.0,0.0004330635129008442,-0.0032763578929007053,-0.000673270842526108,0.9999902248382568,0.0,0.0,0.0,17.947864532470703,7.527227401733398,2.1430153846740723,-3248.59912109375,0
405.3610000000008,0.004025315400213003,-0.00374586321413517,0.00010011106496676803,0.0,0.0,0.0,0.0,0.0012018956476822495,0.00015301397070288658,0.0008061873377300799,0.9983516931533813,0.0,0.0,0.0,17.949464797973633,7.513219356536865,2.140267848968506,-3248.888916015625,0
415.2360000000008,0.0040564280934631824,-0.003636321984231472,0.00014670524979010224,0.0,0.0,0.0,0.0,0.00298911239951849,0.004590882454067469,0.0002146029146388173,0.9990833401679993,0.0,0.0,0.0,17.956823348999023,7.521780490875244,2.144648551940918,-3250.220703125,0
425.1319999999996,0.004059850703924894,-0.0037225554697215557,0.00010663764987839386,0.0,0.0,0.0,0.0,2.6134941435884684e-05,-0.002747952239587903,-0.0030233736615628004,0.9991567134857178,0.0,0.0,0.0,17.958293914794922,7.498185634613037,2.1312551498413086,-3250.48681640625,0
435.0100000000002,0.004074023105204105,-0.0036605997011065483,0.00015897276171017438,0.0,0.0,0.0,0.0,-0.002678150776773691,-0.0052747055888175964,-0.0026690338272601366,0.998852014541626,0.0,0.0,0.0,17.971513748168945,7.500122547149658,2.135897159576416,-3252.8798828125,0
444.90599999999904,0.004016429651528597,-0.003750727279111743,9.290198795497417e-05,0.0,0.0,0.0,0.0,0.0017002804670482874,0.0010750280926004052,-0.0032340174075216055,1.0012998580932617,0.0,0.0,0.0,17.97271728515625,7.490922451019287,2.1321356296539307,-3253.097412109375,0
454.78700000000026,0.004087207373231649,-0.0036211377009749413,9.229521674569696e-05,0.0,0.0,0.0,0.0,-0.00022758533305022866,0.0021842410787940025,0.001461580628529191,1.0007168054580688,0.0,0.0,0.0,17.97559928894043,7.498749256134033,2.13673996925354,-3253.618896484375,0
464.6810000000005,0.004076226614415646,-0.0037289587780833244,3.091379039688036e-05,0.0,0.0,0.0,0.0,-0.00032256965641863644,-0.00791589729487896,-0.0009066077182069421,1.0013514757156372,0.0,0.0,0.0,17.97184181213379,7.480639457702637,2.1224212646484375,-3252.939208984375,0
474.5579999999991,0.004004519898444414,-0.0037749353796243668,7.324045145651326e-05,0.0,0.0,0.0,0.0,0.0029997851233929396,0.0001567919971421361,-0.0012284916592761874,1.001720666885376,0.0,0.0,0.0,17.989511489868164,7.476161479949951,2.1267640590667725,-3256.136962890625,0
484.4519999999993,0.004021244123578072,-0.0038061735685914755,7.781196472933516e-05,0.0,0.0,0.0,0.0,0.000556298007722944,-0.003734444035217166,-0.0033105139154940844,1.0001568794250488,0.0,0.0,0.0,17.97125816345215,7.468177318572998,2.121088743209839,-3252.83349609375,0
494.3299999999999,0.004003799520432949,-0.0037689635064452887,0.00016718899132683873,0.0,0.0,0.0,0.0,-0.0028368919156491756,0.0007466465467587113,0.0017803249647840858,0.9985217452049255,0.0,0.0,0.0,17.975156784057617,7.471135139465332,2.122887372970581,-3253.5390625,0
504.22299999999996,0.004019986372441053,-0.0038001262582838535,0.00017916638171300292,0.0,0.0,0.0,0.0,0.0011212379904463887,0.004473668523132801,0.0018714002799242735,0.9992546439170837,0.0,0.0,0.0,17.958097457885742,7.467518329620361,2.1214418411254883,-3250.451171875,0
514.1059999999998,0.003997810184955597,-0.0037245354615151882,0.00016397172294091433,0.0,0.0,0.0,0.0,0.0005731528508476913,0.002112395130097866,-0.002023848472163081,1.0011441707611084,0.0,0.0,0.0,17.9837703704834,7.480867862701416,2.1105828285217285,-3255.09814453125,0
523.994999999999,0.004014608915895224,-0.0037531377747654915,0.0001737952552502975,0.0,0.0,0.0,0.0,0.00039263127837330103,0.001066013821400702,0.0022720634005963802,1.001350998878479,0.0,0.0,0.0,17.964975357055664,7.468862533569336,2.099416971206665,-3251.6962890625,0
533.878999999999,0.004044943954795599,-0.0037049930542707443,0.00020499211677815765,0.0,0.0,0.0,0.0,0.0003179323102813214,0.0035226873587816954,0.0010423596249893308,0.9986924529075623,0.0,0.0,0.0,17.973628997802734,7.47170352935791,2.11079740524292,-3253.2626953125,0
543.768,0.004064333159476519,-0.003734481055289507,0.00021795397333335131,0.0,0.0,0.0,0.0,-0.0018507143249735236,0.004012598190456629,-8.505290315952152e-05,1.0004547834396362,0.0,0.0,0.0,17.956008911132812,7.467129230499268,2.1054749488830566,-3250.0732421875,0
553.652,0.004034968558698893,-0.0036894697695970535,0.0001309986982960254,0.0,0.0,0.0,0.0,0.001500034355558455,-0.005735571496188641,0.0038257851265370846,1.000548243522644,0.0,0.0,0.0,17.979610443115234,7.481139659881592,2.0896434783935547,-3254.34521484375,0
563.5419999999995,0.004056410863995552,-0.003719840431585908,0.00013708192273043096,0.0,0.0,0.0,0.0,0.0012643288355320692,-0.0017183817690238357,-0.0008360831416212022,1.0011723041534424,0.0,0.0,0.0,17.962459564208984,7.474412441253662,2.0963363647460938,-3251.24072265625,0
573.4259999999995,0.004103825427591801,-0.0036521079018712044,8.84163673617877e-05,0.0,0.0,0.0,0.0,0.0002668063680175692,0.0023343460634350777,5.430194869404659e-05,1.0024782419204712,0.0,0.0,0.0,17.981082916259766,7.477684020996094,2.102069139480591,-3254.611572265625,0
583.3150000000005,0.004124793224036694,-0.0036820208188146353,9.345057333121076e-05,0.0,0.0,0.0,0.0,0.0016160586383193731,0.0036800287198275328,-0.002651980146765709,1.0004113912582397,0.0,0.0,0.0,17.96334457397461,7.471946716308594,2.098721981048584,-3251.401123046875,0
593.2060000000001,0.004093655850738287,-0.003661126596853137,4.8467172746313736e-05,0.0,0.0,0.0,0.0,-0.0007671702769584954,0.0027590892277657986,0.0009287200518883765,1.0003325939178467,0.0,0.0,0.0,17.979938507080078,7.471052169799805,2.0892982482910156,-3254.404541015625,0
603.0859999999993,0.00411435030400753,-0.003692029509693384,5.175817568670027e-05,0.0,0.0,0.0,0.0,0.0019989418797194958,0.0026688426733016968,-0.000487578654428944,0.9999253153800964,0.0,0.0,0.0,17.961956024169922,7.463869571685791,2.082611083984375,-3251.149658203125,0
612.9750000000004,0.0040922765620052814,-0.0036772675812244415,2.280626358697191e-05,0.0,0.0,0.0,0.0,-1.7735546364860966e-08,0.0020974278450012207,-0.00298867910169065,0.999386191368103,0.0,0.0,0.0,17.973825454711914,7.460186004638672,2.0699732303619385,-3253.298095703125,0
622.8580000000002,0.004115420393645763,-0.003703899448737502,2.3071050236467272e-05,0.0,0.0,0.0,0.0,-0.0004953982424922287,0.0009623192599974573,0.0005402270471677184,1.0005508661270142,0.0,0.0,0.0,17.955698013305664,7.456082820892334,2.0643858909606934,-3250.01708984375,0
632.744999999999,0.0040588718838989735,-0.0036540233995765448,-9.020678589877207e-06,0.0,0.0,0.0,0.0,-0.001151373377069831,0.0012865974567830563,0.0009490413940511644,1.00053870677948,0.0,0.0,0.0,17.97767448425293,7.460930347442627,2.0464847087860107,-3253.99462890625,0
642.634,0.004080141894519329,-0.0036790287122130394,-1.0419117643323261e-05,0.0,0.0,0.0,0.0,0.000994506641291082,-0.008219202980399132,0.0014719992177560925,0.9990698099136353,0.0,0.0,0.0,17.95992660522461,7.454186916351318,2.0421998500823975,-3250.782470703125,0
652.530999999999,0.00400502560660243,-0.003694635583087802,2.0496527213254012e-05,0.0,0.0,0.0,0.0,-0.000419079908169806,0.0012412782525643706,0.001698797568678856,0.998871922492981,0.0,0.0,0.0,17.97159767150879,7.4511027336120605,2.039201021194458,-3252.89501953125,0
662.4079999999994,0.004021528176963329,-0.003720017848536372,2.064641194010619e-05,0.0,0.0,0.0,0.0,7.214477136585629e-06,-0.005263729486614466,0.0011178720742464066,0.9998971819877625,0.0,0.0,0.0,17.95424461364746,7.449899673461914,2.0330376625061035,-3249.754150390625,0
672.2970000000005,0.0039768829010427,-0.0037693833000957966,7.235567318275571e-05,0.0,0.0,0.0,0.0,-0.0002429779269732535,0.0011626898776739836,0.0003290975873824209,1.0010170936584473,0.0,0.0,0.0,17.98570442199707,7.442548751831055,2.036869764328003,-3255.4482421875,0
682.1779999999999,0.003995194565504789,-0.003798919729888439,7.717887638136744e-05,0.0,0.0,0.0,0.0,-0.0003018880670424551,0.004082013387233019,-0.00255075772292912,1.0017082691192627,0.0,0.0,0.0,17.968265533447266,7.437405586242676,2.036102294921875,-3252.2919921875,0
692.0669999999991,0.003999209497123957,-0.0037189365830272436,0.00015950739907566458,0.0,0.0,0.0,0.0,0.0016917153261601925,-0.0032419911585748196,0.002177254995331168,1.0012938976287842,0.0,0.0,0.0,17.97975730895996,7.447027683258057,2.0289883613586426,-3254.371826171875,0
701.9560000000001,0.00402137590572238,-0.003749431809410453,0.00017362165090162307,0.0,0.0,0.0,0.0,2.8505837690318003e-05,-0.0012139910832047462,0.0031790477223694324,1.0003101825714111,0.0,0.0,0.0,17.96197509765625,7.438388824462891,2.0352330207824707,-3251.153076171875,0
711.8389999999999,0.004080834798514843,-0.003733506426215172,0.00018536642892286181,0.0,0.0,0.0,0.0,0.00032128466409631073,0.0007330211228691041,-0.0028692902997136116,0.9996727705001831,0.0,0.0,0.0,17.98230743408203,7.439914226531982,2.0551912784576416,-3254.833251953125,0
721.7260000000006,0.00410308875143528,-0.0037693106569349766,0.00020030775340273976,0.0,0.0,0.0,0.0,-0.0030721083749085665,-0.0008990036440081894,-0.0005294635193422437,1.0008350610733032,0.0,0.0,0.0,17.963672637939453,7.431159496307373,2.0517091751098633,-3251.46044921875,0
731.616,0.004039945546537638,-0.003734012134373188,0.0001890030544018373,0.0,0.0,0.0,0.0,0.0017955153016373515,-0.0002506231830921024,-0.0003146143280901015,0.9988850355148315,0.0,0.0,0.0,17.983768463134766,7.444920063018799,2.0367395877838135,-3255.09765625,0
741.4989999999998,0.004060182720422745,-0.003770590526983142,0.00020243517064955086,0.0,0.0,0.0,0.0,-0.0010209158062934875,-0.0007138721994124353,-0.0013700231211259961,1.000083327293396,0.0,0.0,0.0,17.96552848815918,7.4361138343811035,2.0408356189727783,-3251.79638671875,0
751.3860000000004,0.004048547241836786,-0.003729466814547777,0.00018868416373152286,0.0,0.0,0.0,0.0,0.0010889648692682385,-0.004502126015722752,0.002040633000433445,1.0019478797912598,0.0,0.0,0.0,17.983591079711914,7.441202640533447,2.0278069972991943,-3255.065673828125,0
761.2790000000005,0.004068464040756226,-0.003766424488276243,0.00020124520233366638,0.0,0.0,0.0,0.0,-0.0018637506291270256,-0.000252727884799242,-0.005947093944996595,0.9998534917831421,0.0,0.0,0.0,17.966245651245117,7.431640148162842,2.0339393615722656,-3251.926025390625,0
771.1589999999997,0.004003103822469711,-0.003733512246981263,0.0002535352250561118,0.0,0.0,0.0,0.0,-0.0010177530348300934,0.0018667727708816528,-0.0036482401192188263,1.0002483129501343,0.0,0.0,0.0,17.982807159423828,7.439719200134277,2.0190789699554443,-3254.923828125,0
781.0570000000007,0.00402325764298439,-0.003770302515476942,0.00027014268562197685,0.0,0.0,0.0,0.0,0.002163758734241128,0.003765217727050185,-0.0008782915538176894,0.9989616274833679,0.0,0.0,0.0,17.96519660949707,7.432103633880615,2.006180763244629,-3251.736328125,0
790.9329999999991,0.004005113150924444,-0.003768595866858959,0.00023032989702187479,0.0,0.0,0.0,0.0,-9.616460010875016e-05,-0.00540336174890399,-0.002108901971951127,1.0013797283172607,0.0,0.0,0.0,17.984909057617188,7.425131797790527,1.9911513328552246,-3255.30419921875,0
800.8230000000003,0.0040268306620419025,-0.003807206405326724,0.00024271171423606575,0.0,0.0,0.0,0.0,0.0009762857807800174,-0.005218561738729477,-0.004948066547513008,0.9997206330299377,0.0,0.0,0.0,17.96726417541504,7.417103290557861,2.0067312717437744,-3252.110595703125,0
810.7099999999991,0.004026244394481182,-0.0037842311430722475,0.00021492550149559975,0.0,0.0,0.0,0.0,0.002239648951217532,0.002227231627330184,-0.001901760115288198,0.9976829886436462,0.0,0.0,0.0,17.985876083374023,7.419092655181885,2.011652708053589,-3255.479248046875,0
820.5949999999993,0.004047594498842955,-0.003823068691417575,0.00022358831483870745,0.0,0.0,0.0,0.0,-0.0006757948431186378,-0.00450487993657589,-0.0028019503224641085,1.0012154579162598,0.0,0.0,0.0,17.967777252197266,7.406052589416504,2.0032243728637695,-3252.20361328125,0
830.4879999999994,0.004022674635052681,-0.0038136898074299097,0.00023125791631173342,0.0,0.0,0.0,0.0,-0.002108247485011816,0.003747631562873721,-0.0005200350424274802,1.0026781558990479,0.0,0.0,0.0,17.99378776550293,7.411377429962158,1.9995898008346558,-3256.9111328125,0
840.3709999999992,0.004022674635052681,-0.0038136898074299097,0.00023125791631173342,0.0,0.0,0.0,0.0,-0.0004000860790256411,-0.0014768545515835285,0.0037903611082583666,0.9999463558197021,0.0,0.0,0.0,17.99378776550293,7.411377429962158,1.9995898008346558,-3256.9111328125,0
850.2579999999998,0.004014086909592152,-0.003805384738370776,0.0002528640616219491,0.0,0.0,0.0,0.0,0.003303023288026452,0.005887805949896574,0.002419312484562397,0.9999106526374817,0.0,0.0,0.0,17.99744415283203,7.430657386779785,1.9917479753494263,-3257.572998046875,0
860.1389999999992,0.004014086909592152,-0.003805384738370776,0.0002528640616219491,0.0,0.0,0.0,0.0,0.00022149650612846017,0.007793927099555731,-0.00078863266389817,1.0010496377944946,0.0,0.0,0.0,17.99744415283203,7.430657386779785,1.9917479753494263,-3257.572998046875,0
870.0319999999992,0.004027101211249828,-0.003778972430154681,0.0002204374031862244,0.0,0.0,0.0,0.0,0.0027643393259495497,-0.001855384442023933,0.002954927971586585,1.0021660327911377,0.0,0.0,0.0,18.00383186340332,7.435287952423096,1.9702035188674927,-3258.72900390625,0
879.9130000000005,0.004027101211249828,-0.003778972430154681,0.0002204374031862244,0.0,0.0,0.0,0.0,-0.0019359944853931665,-0.0011692281113937497,-0.0022732443176209927,1.0008082389831543,0.0,0.0,0.0,18.00383186340332,7.435287952423096,1.9702035188674927,-3258.72900390625,0
889.8019999999997,0.004030175507068634,-0.0037455155979841948,0.00019494006119202822,0.0,0.0,0.0,0.0,0.0009674206958152354,0.003231392940506339,0.0017036519711837173,1.002363681793213,0.0,0.0,0.0,18.007787704467773,7.442246437072754,1.9688557386398315,-3259.445556640625,0
899.6880000000001,0.004030175507068634,-0.0037455155979841948,0.00019494006119202822,0.0,0.0,0.0,0.0,-0.0025709932669997215,-1.137686467700405e-05,0.0017949043540284038,0.9990895390510559,0.0,0.0,0.0,18.007787704467773,7.442246437072754,1.9688557386398315,-3259.445556640625,0
909.5799999999999,0.004060119856148958,-0.0037588090635836124,0.00019747063925024122,0.0,0.0,0.0,0.0,-0.003605846781283617,0.0007028754334896803,-0.0025132498703897,0.9986385703086853,0.0,0.0,0.0,18.012441635131836,7.43808650970459,1.9816564321517944,-3260.2880859375,0
919.4619999999995,0.004060119856148958,-0.0037588090635836124,0.00019747063925024122,0.0,0.0,0.0,0.0,0.0015130960382521152,-0.0014287405647337437,0.0023790416307747364,1.0028398036956787,0.0,0.0,0.0,18.012441635131836,7.43808650970459,1.9816564321517944,-3260.2880859375,0
929.3469999999998,0.004090203903615475,-0.0037147938273847103,0.00014177737466525286,0.0,0.0,0.0,0.0,0.00041627875179983675,-0.00020758030586875975,0.0025561079382896423,1.000866413116455,0.0,0.0,0.0,18.01535987854004,7.4460768699646,1.9836982488632202,-3260.81591796875,0
939.2330000000002,0.004090203903615475,-0.0037147938273847103,0.00014177737466525286,0.0,0.0,0.0,0.0,2.0479860722844023e-06,0.0013358664000406861,-0.0007930930005386472,0.9997135400772095,0.0,0.0,0.0,18.01535987854004,7.4460768699646,1.9836982488632202,-3260.81591796875,0
949.125,0.004066621419042349,-0.0037263284903019667,0.00015155176515690982,0.0,0.0,0.0,0.0,0.0012202885700389743,-0.004264567978680134,-0.0024606334045529366,0.998833954334259,0.0,0.0,0.0,18.01816749572754,7.441500186920166,1.9640735387802124,-3261.32421875,0
959.0059999999994,0.004066621419042349,-0.0037263284903019667,0.00015155176515690982,0.0,0.0,0.0,0.0,0.00033754450851120055,0.0013553424505516887,-0.0007854412542656064,0.9983258843421936,0.0,0.0,0.0,18.01816749572754,7.441500186920166,1.9640735387802124,-3261.32421875,0
968.8960000000006,0.004057920537889004,-0.0037583305966109037,0.0001575520436745137,0.0,0.0,0.0,0.0,0.00150712497998029,-0.0005432870821096003,7.368026854237542e-05,0.998189389705658,0.0,0.0,0.0,18.01495933532715,7.429891586303711,1.95760977268219,-3260.74365234375,0
978.7819999999992,0.004043811000883579,-0.0037402415182441473,0.0002374736504862085,0.0,0.0,0.0,0.0,0.0010252417996525764,-0.0019333712989464402,-0.000850020325742662,0.999923825263977,0.0,0.0,0.0,18.015533447265625,7.427781105041504,1.9679908752441406,-3260.84765625,0
988.6669999999995,0.004035252146422863,-0.003822670318186283,0.00020157128165010363,0.0,0.0,0.0,0.0,0.001792996539734304,0.0009288055589422584,-2.4832983399392106e-05,1.0011088848114014,0.0,0.0,0.0,18.012191772460938,7.409562587738037,1.950768232345581,-3260.242919921875,0
998.5550000000003,0.004035807680338621,-0.003781278384849429,0.0002736897731665522,0.0,0.0,0.0,0.0,0.0003420441353227943,-0.0003658578498288989,0.0009597390308044851,1.0030879974365234,0.0,0.0,0.0,18.02004623413086,7.4151153564453125,1.9541635513305664,-3261.664306640625,0
1008.4410000000007,0.004022806882858276,-0.003913611639291048,0.00021687005937565118,0.0,0.0,0.0,0.0,-0.00255963415838778,0.0007910301210358739,0.0010553040774539113,0.9995682239532471,0.0,0.0,0.0,18.016427993774414,7.387866020202637,1.9517858028411865,-3261.009521484375,0
1018.3299999999999,0.004091251641511917,-0.003798968158662319,0.0002301429194631055,0.0,0.0,0.0,0.0,0.005009011831134558,0.0016432937700301409,0.0010348311625421047,1.0010672807693481,0.0,0.0,0.0,18.01653289794922,7.40368127822876,1.971673846244812,-3261.028076171875,0
1028.214,0.004100272431969643,-0.003906431142240763,0.00019425706705078483,0.0,0.0,0.0,0.0,-0.0032051694579422474,-0.0010839614551514387,0.004050969146192074,1.0018326044082642,0.0,0.0,0.0,18.012441635131836,7.374877452850342,1.9584323167800903,-3260.2880859375,0
1038.1039999999994,0.004169902764260769,-0.003726705675944686,0.00023793484433554113,0.0,0.0,0.0,0.0,0.0036574744153767824,0.0016383881447836757,-0.0010067019611597061,1.0004799365997314,0.0,0.0,0.0,18.021577835083008,7.408302307128906,1.971901297569275,-3261.94140625,0
1047.9879999999994,0.004063026048243046,-0.0038011805154383183,0.000174355081981048,0.0,0.0,0.0,0.0,-0.00020693861006293446,-0.002643154701218009,0.002357768127694726,0.9994297623634338,0.0,0.0,0.0,18.01622772216797,7.3933186531066895,1.9446971416473389,-3260.97314453125,0
1057.8870000000006,0.004095250740647316,-0.0037262076511979103,0.00021394650684669614,0.0,0.0,0.0,0.0,0.0007597666117362678,0.00401919474825263,0.001656780601479113,0.998340368270874,0.0,0.0,0.0,18.02662467956543,7.399630069732666,1.946770191192627,-3262.854736328125,0
1067.7620000000006,0.00402295496314764,-0.00380443362519145,0.00015823476132936776,0.0,0.0,0.0,0.0,0.002304233843460679,0.0023953993804752827,0.002540983958169818,0.9995279908180237,0.0,0.0,0.0,18.024303436279297,7.392679214477539,1.9304715394973755,-3262.434814453125,0
1077.6499999999996,0.004078106489032507,-0.003655017353594303,0.00019703646830748767,0.0,0.0,0.0,0.0,0.0015128393424674869,0.004431353881955147,-0.00011692522093653679,1.001695156097412,0.0,0.0,0.0,18.02916145324707,7.415006637573242,1.9484761953353882,-3263.314208984375,0
1087.5349999999999,0.004047904629260302,-0.0037065118085592985,0.0001714427926344797,0.0,0.0,0.0,0.0,0.0007848662207834423,0.0009707992430776358,-0.0009079269366338849,0.9999620318412781,0.0,0.0,0.0,18.02384376525879,7.398799896240234,1.9262125492095947,-3262.351806640625,0
1097.4230000000007,0.004077605437487364,-0.003628529142588377,0.00021461995493154973,0.0,0.0,0.0,0.0,0.00039968901546671987,-0.00023613360826857388,-0.0014714505523443222,0.9996106028556824,0.0,0.0,0.0,18.0283145904541,7.407019138336182,1.9295107126235962,-3263.1611328125,0
1107.307999999999,0.004054842051118612,-0.00374076166190207,0.0001598903036210686,0.0,0.0,0.0,0.0,-0.0008282017661258578,-0.006460836157202721,0.00798794999718666,1.0013235807418823,0.0,0.0,0.0,18.023706436157227,7.392006874084473,1.9249132871627808,-3262.326904296875,0
1117.2019999999993,0.004080457147210836,-0.003680613823235035,0.00019571372831705958,0.0,0.0,0.0,0.0,-0.0019477905007079244,-0.004253746941685677,0.0016660140827298164,0.9999452233314514,0.0,0.0,0.0,18.029706954956055,7.3958420753479,1.94287109375,-3263.4130859375,0
1127.0849999999991,0.0040066963993012905,-0.0037720552645623684,0.00013182128896005452,0.0,0.0,0.0,0.0,0.0003906303027179092,0.0013664213474839926,-0.0029207123443484306,1.0024205446243286,0.0,0.0,0.0,18.023963928222656,7.38875675201416,1.9337959289550781,-3262.373291015625,0
1136.9689999999991,0.004003830719739199,-0.003696848638355732,0.0002123887970810756,0.0,0.0,0.0,0.0,-5.2423973102122545e-05,0.0030238921754062176,0.0038691575173288584,1.0015313625335693,0.0,0.0,0.0,18.027692794799805,7.398875713348389,1.929190754890442,-3263.04833984375,0
1146.8549999999996,0.0039819455705583096,-0.003740842454135418,0.00020111200865358114,0.0,0.0,0.0,0.0,0.0008659807499498129,-0.0019995425827801228,0.0013653058558702469,1.0003819465637207,0.0,0.0,0.0,18.024919509887695,7.394996166229248,1.9182206392288208,-3262.546142578125,0
1156.7430000000004,0.00397697277367115,-0.0037037699948996305,0.0002702357596717775,0.0,0.0,0.0,0.0,0.0009442487498745322,0.0029662034939974546,-0.0003251591988373548,1.0007795095443726,0.0,0.0,0.0,18.034000396728516,7.395798683166504,1.9168874025344849,-3264.190185546875,0
1166.6329999999998,0.003959647845476866,-0.00378587213344872,0.00024289968132507056,0.0,0.0,0.0,0.0,-0.0010860598413273692,-0.0007348142098635435,0.0024440279230475426,0.9987703561782837,0.0,0.0,0.0,18.02529525756836,7.37870979309082,1.914349913597107,-3262.614501953125,0
1176.5159999999996,0.004025672096759081,-0.0036370030138641596,0.00025873415870592,0.0,0.0,0.0,0.0,0.00047347290092147887,-0.002691975561901927,-0.0040745423175394535,0.9998957514762878,0.0,0.0,0.0,18.024768829345703,7.400784969329834,1.9206057786941528,-3262.51904296875,0
1186.405999999999,0.0040105306543409824,-0.003762678010389209,0.00020210855291225016,0.0,0.0,0.0,0.0,-0.0001822022022679448,0.0027508833445608616,-0.00025485895457677543,1.002781629562378,0.0,0.0,0.0,18.0196533203125,7.37690544128418,1.9180127382278442,-3261.59326171875,0
1196.2890000000007,0.00404859334230423,-0.0036788268480449915,0.00022676314983982593,0.0,0.0,0.0,0.0,0.0008605568436905742,0.0006872867234051228,-0.00499997241422534,1.00031578540802,0.0,0.0,0.0,18.02303123474121,7.388573169708252,1.9203115701675415,-3262.204833984375,0
1206.1820000000007,0.004019466694444418,-0.0037754729855805635,0.00018229174020234495,0.0,0.0,0.0,0.0,0.0025956155732274055,0.0026467947755008936,-0.005081096198409796,1.0001860857009888,0.0,0.0,0.0,18.017581939697266,7.371634483337402,1.8982148170471191,-3261.218505859375,0
1216.066999999999,0.004017451778054237,-0.003711872501298785,0.00025365102919749916,0.0,0.0,0.0,0.0,-0.0006693360628560185,-0.002915129065513611,0.0010812011314556003,1.0005879402160645,0.0,0.0,0.0,18.025178909301758,7.37494421005249,1.893297553062439,-3262.59326171875,0
1225.9490000000005,0.004028350114822388,-0.003738605650141835,0.00026786510716192424,0.0,0.0,0.0,0.0,0.0013254567747935653,-0.005898416507989168,0.0007998032378964126,0.9990460872650146,0.0,0.0,0.0,18.006792068481445,7.36961555480957,1.9069377183914185,-3259.265380859375,0
1235.8359999999993,0.00401394534856081,-0.003675877582281828,0.0003506041248328984,0.0,0.0,0.0,0.0,0.0016550711588934064,0.0009063666220754385,-0.0014793646987527609,1.000563621520996,0.0,0.0,0.0,18.019996643066406,7.3808674812316895,1.906978964805603,-3261.6552734375,0
1245.723,0.0040303925052285194,-0.0038637774996459484,0.00026275357231497765,0.0,0.0,0.0,0.0,0.000611217285040766,0.00014333937724586576,-0.004461986944079399,0.9996178150177002,0.0,0.0,0.0,18.011930465698242,7.337105751037598,1.8825006484985352,-3260.1953125,0
1255.6090000000004,0.0040516722947359085,-0.003753179684281349,0.00032785191433504224,0.0,0.0,0.0,0.0,-0.0015629351837560534,-0.0037489193491637707,-0.004234345629811287,0.9996818900108337,0.0,0.0,0.0,18.018695831298828,7.346871376037598,1.8957555294036865,-3261.419921875,0
1265.4969999999994,0.004050429444760084,-0.003905700985342264,0.00026525254361331463,0.0,0.0,0.0,0.0,0.00045886740554124117,0.004817687440663576,-0.0009297674405388534,1.0010406970977783,0.0,0.0,0.0,18.007408142089844,7.3237433433532715,1.8890653848648071,-3259.376953125,0
1275.3829999999998,0.004106184933334589,-0.0037789014168083668,0.0002853992336895317,0.0,0.0,0.0,0.0,0.0034952075220644474,-0.003007936757057905,-0.0030410168692469597,1.002261996269226,0.0,0.0,0.0,18.010089874267578,7.335094928741455,1.9061167240142822,-3259.8623046875,0
1285.2690000000002,0.004038817249238491,-0.003834805451333523,0.0002502576680853963,0.0,0.0,0.0,0.0,-0.00033766814158298075,-3.876562914228998e-05,-0.0017973259091377258,0.9995862245559692,0.0,0.0,0.0,18.007421493530273,7.329040050506592,1.894939661026001,-3259.37890625,0
1295.1599999999999,0.004127020947635174,-0.003677139990031719,0.00023279573360923678,0.0,0.0,0.0,0.0,-0.0010934548918157816,-0.0017599797574803233,-0.0001712842204142362,0.9987674951553345,0.0,0.0,0.0,18.009849548339844,7.346000671386719,1.9055248498916626,-3259.81884765625,0
1305.0460000000003,0.004069420509040356,-0.0037740778643637896,0.00017279120220337063,0.0,0.0,0.0,0.0,-0.002319174585863948,-0.005059293936938047,0.0035839530173689127,0.9981647729873657,0.0,0.0,0.0,18.000770568847656,7.337398052215576,1.9001094102859497,-3258.175048828125,0
1314.9320000000007,0.004138321150094271,-0.0036407471634447575,0.0001659153786022216,0.0,0.0,0.0,0.0,0.0013991192681714892,0.0027885090094059706,-0.0026723702903836966,0.9995872974395752,0.0,0.0,0.0,18.003416061401367,7.358384132385254,1.9179552793502808,-3258.654052734375,0
1324.8179999999993,0.004081756807863712,-0.0037387737538665533,0.00010072363511426374,0.0,0.0,0.0,0.0,0.00311452429741621,-0.0020693119149655104,-0.0015890321228653193,1.000011682510376,0.0,0.0,0.0,17.993022918701172,7.341946601867676,1.8980753421783447,-3256.77294921875,0
1334.7090000000007,0.004122989717870951,-0.0036834252532571554,9.164704533759505e-05,0.0,0.0,0.0,0.0,-0.00048117435653693974,0.0024726404808461666,0.0018643046496436,0.9983749389648438,0.0,0.0,0.0,17.996187210083008,7.339332580566406,1.9111323356628418,-3257.345458984375,0
1344.5900000000001,0.004072658251971006,-0.0037550446577370167,3.5990789911011234e-05,0.0,0.0,0.0,0.0,-0.000623856671154499,0.0002662839542608708,0.0048521291464567184,0.998544454574585,0.0,0.0,0.0,17.99424934387207,7.327465534210205,1.8940163850784302,-3256.994873046875,0
1354.4830000000002,0.004121778532862663,-0.00361821916885674,4.870602424489334e-05,0.0,0.0,0.0,0.0,-0.0030772557947784662,-0.002677041804417968,-0.0009194162557832897,1.001011848449707,0.0,0.0,0.0,18.001895904541016,7.3483099937438965,1.907625436782837,-3258.37890625,0
1364.3629999999994,0.004038238897919655,-0.0036656486336141825,-6.948664122319315e-06,0.0,0.0,0.0,0.0,-0.0019553701858967543,-0.002971010748296976,-0.002313177799805999,1.0007506608963013,0.0,0.0,0.0,17.99775505065918,7.341527938842773,1.8955976963043213,-3257.62939453125,0
1374.2569999999996,0.004017084836959839,-0.0036353899631649256,5.291029083309695e-05,0.0,0.0,0.0,0.0,-0.0013751171063631773,-0.007838952355086803,-0.0003443690948188305,1.0013089179992676,0.0,0.0,0.0,18.00333595275879,7.350130558013916,1.9031143188476562,-3258.6396484375,0
1384.143,0.003985946998000145,-0.0036984437610954046,1.5671292203478515e-05,0.0,0.0,0.0,0.0,0.0031649551820009947,0.010581973008811474,0.0003241754020564258,1.0006550550460815,0.0,0.0,0.0,17.99856948852539,7.3407769203186035,1.8980712890625,-3257.77685546875,0
1394.0259999999998,0.004019534680992365,-0.0036097296979278326,2.4191082047764212e-05,0.0,0.0,0.0,0.0,0.0008049106691032648,-0.00018482209998182952,0.003694879822432995,0.9990016222000122,0.0,0.0,0.0,18.000755310058594,7.34027099609375,1.8933912515640259,-3258.17236328125,0
1403.9099999999999,0.003983676433563232,-0.0036791954189538956,-1.9922928913729265e-05,0.0,0.0,0.0,0.0,-0.0019468067912384868,-2.3941329345689155e-05,-0.003992465790361166,1.0004874467849731,0.0,0.0,0.0,17.99643325805664,7.328474998474121,1.8811973333358765,-3257.389892578125,0
1413.7970000000005,0.003977199550718069,-0.0036134449765086174,3.580819247872569e-05,0.0,0.0,0.0,0.0,0.0022606942802667618,0.0017958731623366475,0.0032667573541402817,1.0007364749908447,0.0,0.0,0.0,17.998489379882812,7.340269088745117,1.8843597173690796,-3257.76220703125,0
1423.6839999999993,0.0040106400847435,-0.003739700186997652,-6.639416824327782e-06,0.0,0.0,0.0,0.0,-0.0007132406462915242,0.0040001277811825275,0.0031642799731343985,1.0008665323257446,0.0,0.0,0.0,17.994098663330078,7.316826820373535,1.876941204071045,-3256.967529296875,0
1433.571,0.003967429976910353,-0.003709346055984497,9.464720642426983e-05,0.0,0.0,0.0,0.0,-0.0011977929389104247,-0.0006418564589694142,0.00047744883340783417,0.9995989203453064,0.0,0.0,0.0,18.003015518188477,7.320668697357178,1.867756724357605,-3258.58154296875,0
1443.464,0.004007994197309017,-0.0038027367554605007,8.26194736873731e-05,0.0,0.0,0.0,0.0,0.0012354528298601508,-0.004090889822691679,0.0015526034403592348,1.0004383325576782,0.0,0.0,0.0,18.002059936523438,7.306792259216309,1.8874315023422241,-3258.408447265625,0
1453.348,0.0039934441447257996,-0.003739473642781377,0.0001652821956668049,0.0,0.0,0.0,0.0,-0.00015832632197998464,0.00148975127376616,-0.002960631623864174,1.0016000270843506,0.0,0.0,0.0,18.010101318359375,7.318180084228516,1.8854469060897827,-3259.864013671875,0
1463.2330000000002,0.004032717552036047,-0.003898811526596546,0.00012500720913521945,0.0,0.0,0.0,0.0,0.000631945498753339,-0.0011547062313184142,0.00211832276545465,1.0019181966781616,0.0,0.0,0.0,18.002161026000977,7.294538497924805,1.886404275894165,-3258.4267578125,0
1473.1170000000002,0.004028884693980217,-0.0038392292335629463,0.00019762157171498984,0.0,0.0,0.0,0.0,-0.0020090986508876085,-0.00679083913564682,2.1535142877837643e-05,1.0025776624679565,0.0,0.0,0.0,18.004980087280273,7.305354595184326,1.8910101652145386,-3258.936767578125,0
1483.003999999999,0.004017852246761322,-0.00396584440022707,0.00016182124090846628,0.0,0.0,0.0,0.0,-0.0018080830341205,0.004198499955236912,9.143312490778044e-05,1.0021984577178955,0.0,0.0,0.0,18.000402450561523,7.286068439483643,1.8828448057174683,-3258.108642578125,0
1492.8919999999998,0.004029258619993925,-0.0038726474158465862,0.00022829050431028008,0.0,0.0,0.0,0.0,0.00032418168848380446,-0.000931896734982729,0.0009387145983055234,0.9999018907546997,0.0,0.0,0.0,18.008220672607422,7.302050590515137,1.881540298461914,-3259.52392578125,0
1502.7800000000007,0.004025440197438002,-0.003970845602452755,0.0002145027683582157,0.0,0.0,0.0,0.0,0.0005895814974792302,-0.00173977913800627,-0.0023640193976461887,1.0028355121612549,0.0,0.0,0.0,17.99909019470215,7.286303520202637,1.8767012357711792,-3257.87109375,0
1512.67,0.004094717092812061,-0.003766566514968872,0.0002541260910220444,0.0,0.0,0.0,0.0,-0.0014913182239979506,0.0013434812426567078,0.002311764983460307,1.0007721185684204,0.0,0.0,0.0,18.007673263549805,7.310473442077637,1.8967198133468628,-3259.4248046875,0
1522.5509999999995,0.004009030293673277,-0.003869227599352598,0.00020321195188444108,0.0,0.0,0.0,0.0,-0.003399714594706893,0.0022922824136912823,0.003578369040042162,0.9991512894630432,0.0,0.0,0.0,17.997909545898438,7.303312301635742,1.879968523979187,-3257.6572265625,0
1532.438,0.004050396382808685,-0.0037623841781169176,0.00023340560437645763,0.0,0.0,0.0,0.0,-0.0007282571750693023,-0.004963023588061333,0.0020044753327965736,0.9998575448989868,0.0,0.0,0.0,18.005645751953125,7.317198753356934,1.891549825668335,-3259.057861328125,0
1542.3240000000005,0.003968901466578245,-0.003802273888140917,0.00021553052647504956,0.0,0.0,0.0,0.0,-0.003844047198072076,-0.0016303978627547622,0.00037166348192840815,1.0002212524414062,0.0,0.0,0.0,18.000064849853516,7.3176774978637695,1.8726364374160767,-3258.047607421875,0
1552.223,0.004017721861600876,-0.0036760831717401743,0.00024267406843136996,0.0,0.0,0.0,0.0,-4.7518242354271933e-05,0.004968124907463789,0.00043731462210416794,0.9984248280525208,0.0,0.0,0.0,18.005640029907227,7.3353681564331055,1.8798723220825195,-3259.056884765625,0
1562.1000000000004,0.003986049443483353,-0.00379367358982563,0.0001951709418790415,0.0,0.0,0.0,0.0,0.001782584236934781,-0.004018671344965696,0.0014273951528593898,0.9991248846054077,0.0,0.0,0.0,18.004261016845703,7.319299697875977,1.8595975637435913,-3258.806884765625,0
1571.9920000000002,0.004030231386423111,-0.00366717460565269,0.00022554695897269994,0.0,0.0,0.0,0.0,-0.0010830539977177978,0.0029931790195405483,0.0014687145594507456,1.0020781755447388,0.0,0.0,0.0,18.009662628173828,7.333139896392822,1.8762553930282593,-3259.784912109375,0
1581.8799999999992,0.0039995345287024975,-0.0037956933956593275,0.00017344194930046797,0.0,0.0,0.0,0.0,0.0020202493760734797,0.004225604701787233,0.001576486974954605,1.0022960901260376,0.0,0.0,0.0,18.007518768310547,7.316540718078613,1.868708610534668,-3259.396728515625,0
1591.7620000000006,0.0040342300198972225,-0.0036956339608877897,0.00020425721595529467,0.0,0.0,0.0,0.0,-0.002447978127747774,0.0017361434875056148,-0.0024853653740137815,0.9993431568145752,0.0,0.0,0.0,18.011301040649414,7.330264568328857,1.8763110637664795,-3260.08154296875,0
1601.6460000000006,0.003963699098676443,-0.00377015327103436,0.00016646782751195133,0.0,0.0,0.0,0.0,-0.004091559909284115,-0.0006844221497885883,0.0004488253907766193,0.9976190328598022,0.0,0.0,0.0,18.000329971313477,7.327675819396973,1.8517265319824219,-3258.095458984375,0
1611.5319999999992,0.004006928764283657,-0.003632412990555167,0.00019699172116816044,0.0,0.0,0.0,0.0,-0.00035919781657867134,-0.0023952205665409565,0.001712308032438159,1.0001657009124756,0.0,0.0,0.0,18.005355834960938,7.349704265594482,1.857776165008545,-3259.00537109375,0
1621.4189999999999,0.003970468416810036,-0.003710272954776883,0.00016838985902722925,0.0,0.0,0.0,0.0,0.0011939130490645766,0.005661570932716131,0.0015708161517977715,0.9996232390403748,0.0,0.0,0.0,18.00092315673828,7.3387556076049805,1.8494776487350464,-3258.202880859375,0
1631.3060000000005,0.0039567966014146805,-0.0036723529919981956,0.0002332216245122254,0.0,0.0,0.0,0.0,-0.0006657260237261653,-0.003933190368115902,-0.0004946382250636816,1.0011999607086182,0.0,0.0,0.0,18.011674880981445,7.345078468322754,1.8443480730056763,-3260.149169921875,0
1641.191999999999,0.0039418465457856655,-0.003806655528023839,0.00018556450959295034,0.0,0.0,0.0,0.0,-6.516947178170085e-05,-0.0027833699714392424,0.0024648206308484077,0.99882972240448,0.0,0.0,0.0,18.006818771362305,7.324075698852539,1.8457814455032349,-3259.270263671875,0
1651.0779999999995,0.003942976240068674,-0.0038591143675148487,0.00019379635341465473,0.0,0.0,0.0,0.0,-0.002639314392581582,-0.007502483204007149,0.00018624894437380135,0.9986729621887207,0.0,0.0,0.0,17.98946762084961,7.319096565246582,1.852993130683899,-3256.12939453125,0
1660.9689999999991,0.003945964388549328,-0.003930147271603346,0.00019315752433612943,0.0,0.0,0.0,0.0,0.0015574212884530425,0.001400208449922502,-0.002202916657552123,0.9992250800132751,0.0,0.0,0.0,17.986080169677734,7.306660175323486,1.8544433116912842,-3255.516357421875,0
1670.8590000000004,0.0040262737311422825,-0.003766246372833848,0.00017583723820280284,0.0,0.0,0.0,0.0,0.00018496763368602842,-0.000426948448875919,-0.0019218620145693421,0.9976221919059753,0.0,0.0,0.0,17.99106788635254,7.344324588775635,1.8756953477859497,-3256.418701171875,0
1680.7399999999998,0.00400913180783391,-0.0038503240793943405,0.0001462730870116502,0.0,0.0,0.0,0.0,0.0008827696437947452,0.0034176483750343323,-0.001273949514143169,0.9983109831809998,0.0,0.0,0.0,17.988943099975586,7.327516555786133,1.8617823123931885,-3256.0341796875,0
1690.625,0.004090346861630678,-0.0036885107401758432,0.00012612265709321946,0.0,0.0,0.0,0.0,0.0030056771356612444,0.0008400726364925504,0.0015421549323946238,0.9992970824241638,0.0,0.0,0.0,17.99921226501465,7.350709438323975,1.8737430572509766,-3257.89306640625,0
1700.5120000000006,0.004033999051898718,-0.003790253307670355,6.048269278835505e-05,0.0,0.0,0.0,0.0,-0.0005670514074154198,-0.002437183167785406,-0.0014172595692798495,1.002492070198059,0.0,0.0,0.0,17.99837875366211,7.336432456970215,1.869812250137329,-3257.741943359375,0
1710.3989999999994,0.004038458690047264,-0.0037599096540361643,9.275818592868745e-05,0.0,0.0,0.0,0.0,-0.00226183095946908,-0.006153061054646969,0.0038020836655050516,0.9999891519546509,0.0,0.0,0.0,18.012062072753906,7.343675136566162,1.873641014099121,-3260.218994140625,0
1720.2980000000007,0.0039986250922083855,-0.00383571395650506,5.414514089352451e-05,0.0,0.0,0.0,0.0,0.0008478595991618931,0.003665140364319086,-0.00047864014049991965,1.0003422498703003,0.0,0.0,0.0,18.010303497314453,7.334990978240967,1.8713159561157227,-3259.90087890625,0
1730.1749999999993,0.004005664028227329,-0.003785989247262478,9.015269461087883e-05,0.0,0.0,0.0,0.0,0.0026820646598935127,0.0037829019129276276,-0.00039506572647951543,0.9978924989700317,0.0,0.0,0.0,18.011232376098633,7.343261241912842,1.8717225790023804,-3260.069091796875,0
1740.062,0.003979403991252184,-0.0038677367847412825,5.568654523813166e-05,0.0,0.0,0.0,0.0,-0.0007081322255544364,0.001385670737363398,0.003577971365302801,0.9997761249542236,0.0,0.0,0.0,18.010404586791992,7.332240581512451,1.8739492893218994,-3259.91943359375,0
1749.9470000000001,0.004008984658867121,-0.0037632451858371496,7.861360063543543e-05,0.0,0.0,0.0,0.0,-0.0005984553135931492,-0.0023326657246798277,-0.0006536705186590552,1.0001755952835083,0.0,0.0,0.0,18.0197811126709,7.3506951332092285,1.886368751525879,-3261.6162109375,0
1759.8340000000007,0.004007319919764996,-0.0038118157535791397,7.69628313719295e-05,0.0,0.0,0.0,0.0,0.0013243312714621425,-0.0016169353621080518,-0.0001007746031973511,0.9994578957557678,0.0,0.0,0.0,18.002033233642578,7.342930793762207,1.8853518962860107,-3258.40380859375,0
1769.7240000000002,0.004005638882517815,-0.003722147783264518,0.00012753994087688625,0.0,0.0,0.0,0.0,0.0022273967042565346,-0.00185940763913095,0.002075829077512026,1.0000059604644775,0.0,0.0,0.0,18.007963180541992,7.366909980773926,1.8978359699249268,-3259.4775390625,0
1779.6059999999998,0.003980645444244146,-0.0038132444024086,7.649286271771416e-05,0.0,0.0,0.0,0.0,-0.0008121259743347764,0.001930802478455007,0.0015261922962963581,1.000672459602356,0.0,0.0,0.0,18.008705139160156,7.350067615509033,1.8794407844543457,-3259.61181640625,0
1789.4930000000004,0.003959580324590206,-0.0037741558626294136,0.00015313885523937643,0.0,0.0,0.0,0.0,0.0031109051778912544,0.005240933038294315,0.0019610438030213118,1.000051736831665,0.0,0.0,0.0,18.01343536376953,7.358009338378906,1.8844667673110962,-3260.467529296875,0
1799.3850000000002,0.003963958937674761,-0.003851908026263118,0.0001355089043499902,0.0,0.0,0.0,0.0,0.0012434845557436347,0.0010418219026178122,0.0012381894048303366,1.0003291368484497,0.0,0.0,0.0,18.011363983154297,7.333096981048584,1.8713910579681396,-3260.0927734375,0
1809.2659999999996,0.004009616561233997,-0.003717525163665414,0.00015705353871453553,0.0,0.0,0.0,0.0,-0.00106053298804909,0.003737211227416992,-0.0003976141451857984,0.9984472393989563,0.0,0.0,0.0,18.018434524536133,7.351531982421875,1.8854600191116333,-3261.37255859375,0
1819.1530000000002,0.003972403239458799,-0.003752429038286209,0.00014586126781068742,0.0,0.0,0.0,0.0,-0.00011068920139223337,0.0011437847279012203,0.001834602328017354,0.99964439868927,0.0,0.0,0.0,18.014638900756836,7.344350337982178,1.8737094402313232,-3260.685791015625,0
1829.0460000000003,0.003950492013245821,-0.003708965377882123,0.00022055208683013916,0.0,0.0,0.0,0.0,-0.00027185966609977186,-0.0017514490755274892,0.004227920435369015,0.9987074136734009,0.0,0.0,0.0,18.023317337036133,7.350482940673828,1.8786208629608154,-3262.25634765625,0
1838.9269999999997,0.003983515780419111,-0.0038281786255538464,0.0001913711748784408,0.0,0.0,0.0,0.0,7.630060281371698e-05,-0.0030486229807138443,-0.003251323476433754,0.9996134638786316,0.0,0.0,0.0,18.015039443969727,7.3299126625061035,1.8828017711639404,-3260.75830078125,0
1848.8220000000001,0.004024782683700323,-0.003709495300427079,0.0002123036829289049,0.0,0.0,0.0,0.0,-0.00047462157090194523,0.00029338677995838225,0.000796950829681009,1.0025334358215332,0.0,0.0,0.0,18.02348518371582,7.349503517150879,1.8973755836486816,-3262.28662109375,0
1858.7000000000007,0.003980036359280348,-0.0037784951273351908,0.00015161681221798062,0.0,0.0,0.0,0.0,-0.001254400354810059,-0.0031499098986387253,-0.00010685590677894652,1.0005943775177002,0.0,0.0,0.0,18.033700942993164,7.340569972991943,1.8869069814682007,-3264.135498046875,0
1868.5879999999997,0.004017559811472893,-0.0037006912752985954,0.0001785715139703825,0.0,0.0,0.0,0.0,-0.000650573696475476,0.00042077849502675235,0.001957448199391365,1.001268982887268,0.0,0.0,0.0,18.028249740600586,7.35170841217041,1.921435832977295,-3263.14892578125,0
1878.4740000000002,0.004000244662165642,-0.003777430159971118,0.0001239032280864194,0.0,0.0,0.0,0.0,0.0008779215859249234,-0.0054351263679564,0.0010851426050066948,1.0028090476989746,0.0,0.0,0.0,18.036212921142578,7.340949058532715,1.913747787475586,-3264.590576171875,0
1888.3680000000004,0.004030806478112936,-0.0037279713433235884,0.000152483960846439,0.0,0.0,0.0,0.0,0.00017766283417586237,0.0005378759815357625,0.0027498954441398382,1.0040831565856934,0.0,0.0,0.0,18.027835845947266,7.3496413230896,1.9362690448760986,-3263.074462890625,0
1898.2469999999994,0.004030806478112936,-0.0037279713433235884,0.000152483960846439,0.0,0.0,0.0,0.0,-2.1311936961865285e-06,0.0025194964837282896,0.0010682187275961041,1.0014193058013916,0.0,0.0,0.0,18.027835845947266,7.3496413230896,1.9362690448760986,-3263.074462890625,0
1908.134,0.004035037476569414,-0.003692806465551257,0.00021742744138464332,0.0,0.0,0.0,0.0,0.00198166910558939,-0.0033771609887480736,0.003484530607238412,1.0009710788726807,0.0,0.0,0.0,18.020381927490234,7.359197616577148,1.9489284753799438,-3261.72509765625,0
1918.021999999999,0.004035037476569414,-0.003692806465551257,0.00021742744138464332,0.0,0.0,0.0,0.0,-0.0009403793374076486,0.0010553947649896145,-0.0009390260674990714,1.0010277032852173,0.0,0.0,0.0,18.020381927490234,7.359197616577148,1.9489284753799438,-3261.72509765625,0
1927.9069999999992,0.004035689868032932,-0.0036653545685112476,0.00029766783700324595,0.0,0.0,0.0,0.0,0.00011665624333545566,0.003118744120001793,0.0026075313799083233,1.00275456905365,0.0,0.0,0.0,18.013734817504883,7.3677897453308105,1.945798397064209,-3260.522216796875,0
1937.7960000000003,0.004035689868032932,-0.0036653545685112476,0.00029766783700324595,0.0,0.0,0.0,0.0,-0.0003896676062140614,-0.0003009622450917959,0.0020603970624506474,0.9990683794021606,0.0,0.0,0.0,18.013734817504883,7.3677897453308105,1.945798397064209,-3260.522216796875,0
1947.6859999999997,0.0040704249404370785,-0.003598793875426054,0.00035201205173507333,0.0,0.0,0.0,0.0,-0.0003664825635496527,0.0023215333931148052,0.0035801019985228777,0.9992009997367859,0.0,0.0,0.0,18.007585525512695,7.384361743927002,1.968238115310669,-3259.40869140625,0
1957.5789999999997,0.004045459441840649,-0.0037601860240101814,0.0001922098163049668,0.0,0.0,0.0,0.0,0.0038290133234113455,-0.005713875871151686,0.0008924460271373391,1.0016335248947144,0.0,0.0,0.0,18.024433135986328,7.34627103805542,1.9494374990463257,-3262.4580078125,0
1967.4539999999997,0.004125440027564764,-0.00364013877697289,0.00021612444834318012,0.0,0.0,0.0,0.0,0.0019570905715227127,-0.0033572025131434202,0.0032506522256881,1.0006003379821777,0.0,0.0,0.0,18.020357131958008,7.358330726623535,1.9826751947402954,-3261.720458984375,0
1977.3420000000006,0.004053156357258558,-0.0037061518523842096,0.000128866100567393,0.0,0.0,0.0,0.0,0.0018591933185234666,0.007669033017009497,-0.0021332590840756893,1.0011192560195923,0.0,0.0,0.0,18.038782119750977,7.3497114181518555,1.968475580215454,-3265.055419921875,0
1987.2279999999992,0.004071889910846949,-0.0036802445538342,0.0001961069501703605,0.0,0.0,0.0,0.0,-0.002388233318924904,-0.009275706484913826,0.0029479481745511293,1.0002182722091675,0.0,0.0,0.0,18.023765563964844,7.345788955688477,1.959492564201355,-3262.337646484375,0
1997.1149999999998,0.00398679357022047,-0.003715687897056341,0.00013238980318419635,0.0,0.0,0.0,0.0,-9.256913472199813e-05,-0.003999886102974415,0.0017292688135057688,0.9998658895492554,0.0,0.0,0.0,18.03186798095703,7.344071388244629,1.9472309350967407,-3263.803955078125,0
2007.0069999999996,0.004021459259092808,-0.003618967719376087,0.0001895237510325387,0.0,0.0,0.0,0.0,-0.0024417114909738302,-0.002500068163499236,0.0009186735842376947,1.0003498792648315,0.0,0.0,0.0,18.024700164794922,7.353933811187744,1.97174072265625,-3262.506591796875,0
2016.893,0.00403416296467185,-0.0037204488180577755,0.00013156530621927232,0.0,0.0,0.0,0.0,0.0003307787701487541,0.001097991014830768,0.0011258611921221018,1.0004096031188965,0.0,0.0,0.0,18.033143997192383,7.339268207550049,1.96782648563385,-3264.034912109375,0
2026.786,0.00400461396202445,-0.0037264442071318626,0.00023358261387329549,0.0,0.0,0.0,0.0,0.0016270893393084407,-0.001603518147021532,1.2518082257884089e-05,0.998917281627655,0.0,0.0,0.0,18.031335830688477,7.338078498840332,1.9607430696487427,-3263.707763671875,0
2036.6620000000003,0.003957396373152733,-0.0037517291493713856,0.0001955125917447731,0.0,0.0,0.0,0.0,0.0034112054854631424,-0.005439336411654949,0.003326260717585683,0.9990113973617554,0.0,0.0,0.0,18.038400650024414,7.336643695831299,1.9534012079238892,-3264.986572265625,0
2046.5550000000003,0.0039563593454658985,-0.003725166665390134,0.0002718144387472421,0.0,0.0,0.0,0.0,0.00010785672930069268,0.0011175594991073012,-0.002919770311564207,0.9982805252075195,0.0,0.0,0.0,18.03492546081543,7.333438873291016,1.9658604860305786,-3264.357177734375,0
2056.4410000000007,0.003947091288864613,-0.003796517848968506,0.00022492989955935627,0.0,0.0,0.0,0.0,-0.0006216274341568351,0.00039872541674412787,-0.0016029425896704197,1.000179648399353,0.0,0.0,0.0,18.047286987304688,7.322819709777832,1.961748719215393,-3266.5947265625,0
2066.3330000000005,0.003969298209995031,-0.0037268176674842834,0.0002864468260668218,0.0,0.0,0.0,0.0,-0.0008071129559539258,-0.00024454976664856076,0.0011158889392390847,1.0010844469070435,0.0,0.0,0.0,18.038373947143555,7.326401233673096,1.9667651653289795,-3264.981689453125,0
2076.2080000000005,0.0039612590335309505,-0.0038065752014517784,0.00023510484606958926,0.0,0.0,0.0,0.0,0.0024578117299824953,-0.0035401093773543835,-0.00010761344310594723,1.0013471841812134,0.0,0.0,0.0,18.05563735961914,7.31371545791626,1.9629077911376953,-3268.106201171875,0
2086.107,0.004021917469799519,-0.003682725830003619,0.00026093318592756987,0.0,0.0,0.0,0.0,0.0015053844545036554,0.001745574758388102,0.0038666597101837397,0.9993826150894165,0.0,0.0,0.0,18.047664642333984,7.321732521057129,1.9817795753479004,-3266.6630859375,0
2095.982,0.003992738202214241,-0.003765767440199852,0.00019929568225052208,0.0,0.0,0.0,0.0,-0.0029722617473453283,-0.0003378128167241812,-0.003826087573543191,1.0013736486434937,0.0,0.0,0.0,18.063560485839844,7.309467315673828,1.9745938777923584,-3269.54052734375,0
2105.884,0.0040592411532998085,-0.0036989024374634027,0.0001826513180276379,0.0,0.0,0.0,0.0,0.0003190436400473118,-0.0018987033981829882,0.0014489552704617381,0.999247670173645,0.0,0.0,0.0,18.055112838745117,7.32092809677124,1.9974563121795654,-3268.01123046875,0
2115.7559999999994,0.0040040938183665276,-0.0037568698171526194,0.00012407398025970906,0.0,0.0,0.0,0.0,-0.002393196104094386,-0.0011299187317490578,-0.001790404669009149,1.000454306602478,0.0,0.0,0.0,18.072153091430664,7.313325881958008,1.9880555868148804,-3271.095703125,0
2125.6540000000005,0.004031648393720388,-0.0037108054384589195,0.00014804702368564904,0.0,0.0,0.0,0.0,0.0009954487904906273,-0.002812049351632595,-0.0006785947480238974,0.9999980330467224,0.0,0.0,0.0,18.06155776977539,7.3196306228637695,1.9906384944915771,-3269.177978515625,0
2135.5290000000005,0.003993538208305836,-0.003760114312171936,0.00010054985614260659,0.0,0.0,0.0,0.0,0.0018009549239650369,-0.0007542213425040245,-0.0008175666444003582,0.998289942741394,0.0,0.0,0.0,18.07534408569336,7.3130316734313965,1.9830166101455688,-3271.67333984375,0
2145.4349999999995,0.004015091806650162,-0.0037236111238598824,0.00012033736857119948,0.0,0.0,0.0,0.0,-0.00015754398191347718,-0.006111460737884045,0.003107858821749687,1.0005462169647217,0.0,0.0,0.0,18.06562614440918,7.315006732940674,2.0100834369659424,-3269.914306640625,0
2155.3089999999993,0.003981613088399172,-0.0037627234123647213,7.985921547515318e-05,0.0,0.0,0.0,0.0,0.0005149929784238338,-0.004138313699513674,0.0012488861102610826,1.0004445314407349,0.0,0.0,0.0,18.07866096496582,7.309872150421143,2.003188133239746,-3272.2734375,0
