timestamp,stateEstimate.x,stateEstimate.y,stateEstimate.z,controller.cmd_thrust,controller.cmd_roll,controller.cmd_pitch,controller.cmd_yaw,controller.r_roll,controller.r_pitch,controller.r_yaw,controller.accelz,controller.actuatorThrust,controller.roll,controller.pitch,controller.yaw,controller.rollRate,controller.pitchRate,controller.yawRate,controller.ctr_yaw
0.0,-0.00011798921332228929,-0.0001877288450486958,3.130770710413344e-05,0.0,0.0,0.0,0.0,0.0007112411549314857,0.001998751889914274,-0.0004243585281074047,0.999385416507721,0.0,0.0,0.0,0.3300250768661499,7.90065860748291,2.6639766693115234,-59.73519515991211,0
9.881999999999607,-9.909108484862372e-05,-0.00012070444790879264,1.657293614698574e-05,0.0,0.0,0.0,0.0,-0.0005131764919497073,-0.0017088995082303882,0.0011105939047411084,0.9979397654533386,0.0,0.0,0.0,0.32880842685699463,7.889429569244385,2.6564407348632812,-59.514976501464844,0
19.782999999999447,-0.00013683087308891118,-0.00020038275397382677,-2.036545629380271e-05,0.0,0.0,0.0,0.0,0.0002682455233298242,-0.0024189711548388004,0.00039422177360393107,0.9990532994270325,0.0,0.0,0.0,0.3219125270843506,7.879045009613037,2.653526782989502,-58.266807556152344,0
29.671000000000276,-0.00015558034647256136,-0.00015343897393904626,4.023318979307078e-06,0.0,0.0,0.0,0.0,0.0013227453455328941,-0.0004223358118906617,-0.0012706795241683722,0.9970296621322632,0.0,0.0,0.0,0.33101198077201843,7.882096767425537,2.64652943611145,-59.9138298034668,0
39.55799999999908,-0.00016425910871475935,-0.00023808469995856285,-2.3646149202249944e-05,0.0,0.0,0.0,0.0,-0.0012927952921018004,-0.00013632052286993712,0.00018804980209097266,0.9996370673179626,0.0,0.0,0.0,0.33068230748176575,7.873599052429199,2.6440353393554688,-59.85415267944336,0
49.435999999999694,-0.00014143345470074564,-0.00014017420471645892,-4.0906139474827796e-05,0.0,0.0,0.0,0.0,-0.0008558033732697368,0.00045067566679790616,-0.0017985906451940536,0.9988155364990234,0.0,0.0,0.0,0.3382672369480133,7.891152858734131,2.652956485748291,-61.2270393371582,0
59.32799999999952,-0.00010253961954731494,-0.0002315457968506962,-5.621829041047022e-05,0.0,0.0,0.0,0.0,-0.0005703865899704397,0.0034737628884613514,-0.001243416452780366,0.9973254203796387,0.0,0.0,0.0,0.32742923498153687,7.877316951751709,2.6559107303619385,-59.26534652709961,0
69.21299999999974,-8.887011790648103e-05,-0.00015553223784081638,-7.48352031223476e-05,0.0,0.0,0.0,0.0,0.0006898693973198533,0.0033212353009730577,-0.0009691117447800934,0.9977872967720032,0.0,0.0,0.0,0.3266703486442566,7.871984958648682,2.6500473022460938,-59.12797927856445,0
79.11299999999937,-8.362117659999058e-05,-0.00023374157899525017,-9.940831660060212e-05,0.0,0.0,0.0,0.0,-0.003952842205762863,0.0029399541672319174,0.0009096535504795611,0.9986721277236938,0.0,0.0,0.0,0.31609585881233215,7.858039379119873,2.6465892791748047,-57.21398162841797,0
88.99699999999939,-8.120673737721518e-05,-0.00016310243518091738,-0.0001088858480216004,0.0,0.0,0.0,0.0,-0.001439124345779419,0.0005150475190021098,-0.001188258291222155,0.999866247177124,0.0,0.0,0.0,0.315329372882843,7.858011722564697,2.6342217922210693,-57.07524108886719,0
98.878999999999,-0.00011793417070293799,-0.0002496751258149743,-0.00015484800678677857,0.0,0.0,0.0,0.0,-0.00032734795240685344,0.0009230859577655792,-0.00033912292565219104,1.0001559257507324,0.0,0.0,0.0,0.30458396673202515,7.850800514221191,2.6314456462860107,-55.130306243896484,0
108.76800000000003,-0.0001227802858920768,-0.00017529028991702944,-0.00015205718227662146,0.0,0.0,0.0,0.0,-0.0015128515660762787,-0.0007916463655419648,-0.0002740413765423,0.9988374710083008,0.0,0.0,0.0,0.31211572885513306,7.862069606781006,2.6346092224121094,-56.49357223510742,0
118.66100000000006,-0.00015274883480742574,-0.0002176886482629925,-0.00016936540487222373,0.0,0.0,0.0,0.0,0.0008389779250137508,8.265866927104071e-05,-0.00046606443356722593,0.9977625012397766,0.0,0.0,0.0,0.3125220239162445,7.855818748474121,2.6269781589508057,-56.567108154296875,0
128.54500000000007,-0.0002059639955405146,-0.00016587003483437002,-0.00011821356019936502,0.0,0.0,0.0,0.0,-0.0005849631270393729,-0.00025892150006257,0.004480465780943632,0.9989715814590454,0.0,0.0,0.0,0.31170687079429626,7.8462300300598145,2.620191812515259,-56.419559478759766,0
138.42799999999988,-0.00023988800239749253,-0.00020900674280710518,-0.00013243418652564287,0.0,0.0,0.0,0.0,0.003853587666526437,0.006561171729117632,-0.0018868385814130306,0.9997754096984863,0.0,0.0,0.0,0.31290924549102783,7.840467929840088,2.6188509464263916,-56.63719940185547,0
148.3159999999989,-0.0002894445788115263,-0.00015513623657170683,-8.997743134386837e-05,0.0,0.0,0.0,0.0,-0.0011287372326478362,0.004894345533102751,-0.0028224042616784573,0.9993304014205933,0.0,0.0,0.0,0.3180766999721527,7.852965354919434,2.5970780849456787,-57.57251739501953,0
158.21199999999953,-0.00016867263184394687,-0.00023341905034612864,-1.8078666471410543e-05,0.0,0.0,0.0,0.0,-0.0009964205091819167,-0.0009457296691834927,-0.000877631944604218,0.9985386729240417,0.0,0.0,0.0,0.30786165595054626,7.838947296142578,2.6242170333862305,-55.723567962646484,0
168.09499999999935,-0.00014082934649195522,-0.00011454999912530184,-1.397201504005352e-05,0.0,0.0,0.0,0.0,0.0009985693031921983,-0.0018964387709274888,0.004061998333781958,0.997499406337738,0.0,0.0,0.0,0.3158007860183716,7.86448335647583,2.6369435787200928,-57.16057586669922,0
177.98300000000017,-0.00012999887985643,-0.000247350602876395,-6.590217526536435e-05,0.0,0.0,0.0,0.0,-0.0005429797456599772,0.0032245577313005924,0.0020292073022574186,0.9958138465881348,0.0,0.0,0.0,0.3079909086227417,7.841292858123779,2.64311146736145,-55.74696731567383,0
187.86499999999978,-0.00012798589887097478,-0.00015157717280089855,-3.3281736250501126e-05,0.0,0.0,0.0,0.0,-0.001279159216210246,-0.0004449956468306482,0.0014381372602656484,0.9982213377952576,0.0,0.0,0.0,0.3141951262950897,7.8604583740234375,2.63571834564209,-56.86994171142578,0
197.753999999999,-0.00014463964907918125,-0.00019580250955186784,-4.509279824560508e-05,0.0,0.0,0.0,0.0,-0.0009435050887987018,0.006245041266083717,0.0005383713869377971,1.0001851320266724,0.0,0.0,0.0,0.31437376141548157,7.859079837799072,2.6308975219726562,-56.90227508544922,0
207.64400000000023,-0.00016794349357951432,-0.00015289279690477997,-7.089981409080792e-06,0.0,0.0,0.0,0.0,0.001789355301298201,0.0008172700763680041,-0.002455146284773946,0.9987643361091614,0.0,0.0,0.0,0.3199339807033539,7.870087623596191,2.616065502166748,-57.908687591552734,0
217.53800000000047,-0.00012590822007041425,-0.00021721416851505637,7.419695066346321e-06,0.0,0.0,0.0,0.0,0.0014340587658807635,0.0032133222557604313,0.0024893213994801044,0.9988990426063538,0.0,0.0,0.0,0.311175137758255,7.862568378448486,2.619765520095825,-56.32331466674805,0
227.42000000000007,-0.00013479948393069208,-0.0001778783625923097,3.628884951467626e-05,0.0,0.0,0.0,0.0,0.0016941833309829235,-0.0023830451536923647,-0.002197257010266185,0.9997056722640991,0.0,0.0,0.0,0.32108640670776367,7.870293140411377,2.6111013889312744,-58.11727523803711,0
237.30799999999908,-0.00012577541929204017,-0.00022508238907903433,4.2145682527916506e-05,0.0,0.0,0.0,0.0,-0.0016943069640547037,-0.0013525289250537753,-0.0012975248973816633,0.9998309016227722,0.0,0.0,0.0,0.3115955889225006,7.861907005310059,2.6149065494537354,-56.399417877197266,0
247.1929999999993,-0.00012702480307780206,-0.0001752842217683792,6.129864777904004e-05,0.0,0.0,0.0,0.0,0.0007175288046710193,0.0018459645798429847,0.0009609338594600558,1.0000801086425781,0.0,0.0,0.0,0.3173045217990875,7.87243127822876,2.617616653442383,-57.43274688720703,0
257.0799999999999,-0.00011113382061012089,-0.00023339412291534245,6.696925265714526e-05,0.0,0.0,0.0,0.0,-0.0032387312967330217,-0.0033807780127972364,0.001370309037156403,0.9990056753158569,0.0,0.0,0.0,0.3095000386238098,7.864229679107666,2.6157634258270264,-56.02012252807617,0
266.96999999999935,-0.00014674486010335386,-0.00019997346680611372,0.00013037081225775182,0.0,0.0,0.0,0.0,-0.000255653983913362,-0.0027409251779317856,0.005299517419189215,0.9990037083625793,0.0,0.0,0.0,0.3167001008987427,7.87757682800293,2.6242380142211914,-57.32334518432617,0
276.8649999999998,-0.00015319212980102748,-0.0002628960646688938,0.00012859459093306214,0.0,0.0,0.0,0.0,-0.0018994526471942663,0.0022679802495986223,-0.002202040748670697,0.9981317520141602,0.0,0.0,0.0,0.31207144260406494,7.864339828491211,2.6358606815338135,-56.485557556152344,0
286.75,-0.00013047204993199557,-0.00015255081234499812,0.00013836209836881608,0.0,0.0,0.0,0.0,0.004795297514647245,-0.00029638412524946034,0.001177603960968554,0.9995129704475403,0.0,0.0,0.0,0.3209192752838135,7.884374618530273,2.633652925491333,-58.0870246887207,0
296.6299999999992,-0.00010917927284026518,-0.0002779521746560931,0.00010921930515905842,0.0,0.0,0.0,0.0,1.761973908287473e-05,0.0010511018335819244,1.772790892573539e-05,0.9990946650505066,0.0,0.0,0.0,0.32050561904907227,7.865602970123291,2.6326234340667725,-58.01215744018555,0
306.51800000000003,-6.869679054943845e-05,-0.00018186293891631067,7.684231968596578e-05,0.0,0.0,0.0,0.0,0.003390753408893943,-0.002181472023949027,0.0013315576361492276,1.0001074075698853,0.0,0.0,0.0,0.3292687237262726,7.884568691253662,2.6406073570251465,-59.598297119140625,0
316.41300000000047,-8.048374729696661e-05,-0.0002707315143197775,5.519413753063418e-05,0.0,0.0,0.0,0.0,-0.0024368450976908207,0.005287481006234884,0.0017961848061531782,1.0005391836166382,0.0,0.0,0.0,0.3194582760334015,7.86455774307251,2.6387689113616943,-57.82257843017578,0
326.29799999999886,-4.7356137656606734e-05,-0.000152046384755522,3.932641266146675e-05,0.0,0.0,0.0,0.0,0.0009370761108584702,0.003935032058507204,0.00019956220057792962,0.9998996257781982,0.0,0.0,0.0,0.32824501395225525,7.887941360473633,2.6316869258880615,-59.413002014160156,0
336.1829999999991,-4.363369953352958e-05,-0.0003130045661237091,-1.820508623495698e-05,0.0,0.0,0.0,0.0,-0.002482887590304017,0.002794300438836217,-0.00017841279623098671,0.9996805191040039,0.0,0.0,0.0,0.3207636773586273,7.857097148895264,2.6179282665252686,-58.05886459350586,0
346.0699999999997,-5.8130146499024704e-05,-0.0002501119452062994,8.639055522507988e-06,0.0,0.0,0.0,0.0,-0.0018258506897836924,-0.0018694907194003463,0.0025549198035150766,1.0000008344650269,0.0,0.0,0.0,0.31995710730552673,7.85227632522583,2.608550548553467,-57.912872314453125,0
355.96299999999974,-8.515958325006068e-05,-0.000296072568744421,2.8354315873002633e-06,0.0,0.0,0.0,0.0,0.0024427727330476046,-0.0017262817127630115,0.0008885504212230444,0.9972854852676392,0.0,0.0,0.0,0.32071608304977417,7.848895072937012,2.607588529586792,-58.05024719238281,0
365.85100000000057,-0.00011156152322655544,-0.00021348152949940413,4.6104472858132794e-05,0.0,0.0,0.0,0.0,-0.0017637399723753333,-0.0009281358798034489,0.0007070357096381485,1.0006318092346191,0.0,0.0,0.0,0.3273875415325165,7.863109588623047,2.6029937267303467,-59.25779342651367,0
375.7389999999996,-0.00010434779687784612,-0.0003044122422579676,3.0037175747565925e-05,0.0,0.0,0.0,0.0,-0.0017637141281738877,0.0016604909906163812,-0.000889456074219197,1.0010014772415161,0.0,0.0,0.0,0.3175068795681,7.846333980560303,2.6063578128814697,-57.46937561035156,0
385.6280000000006,-0.00015209791308734566,-0.0003028835926670581,9.177455649478361e-05,0.0,0.0,0.0,0.0,0.0006247752462513745,0.0034223950933665037,0.001969238743185997,0.9996242523193359,0.0,0.0,0.0,0.3255923390388489,7.85408353805542,2.5937511920928955,-58.932857513427734,0
395.509,-0.000148345046909526,-0.00037353677907958627,9.343925194116309e-05,0.0,0.0,0.0,0.0,-0.0011703084455803037,0.009926431812345982,-0.003217085264623165,0.9990193843841553,0.0,0.0,0.0,0.3183749318122864,7.838824272155762,2.588824987411499,-57.62649154663086,0
405.40099999999984,-0.00018649559933692217,-0.00039024982834234834,0.00013339491852093488,0.0,0.0,0.0,0.0,-0.0022539629135280848,-0.004483626689761877,0.001560697448439896,0.999406099319458,0.0,0.0,0.0,0.31795334815979004,7.834047317504883,2.566255569458008,-57.55018997192383,0
415.29199999999946,-0.0002025540015893057,-0.0003959622699767351,0.00016886612866073847,0.0,0.0,0.0,0.0,-0.0029279470909386873,0.006262704264372587,0.0014161632861942053,1.0020478963851929,0.0,0.0,0.0,0.311686635017395,7.83608865737915,2.5787136554718018,-56.41590118408203,0
425.1869999999999,-0.00015440784045495093,-0.00025458348682150245,0.0001564391131978482,0.0,0.0,0.0,0.0,0.0017073217313736677,-0.0021978269796818495,-0.0019036420853808522,0.9982137084007263,0.0,0.0,0.0,0.321147620677948,7.867252349853516,2.5795509815216064,-58.128360748291016,0
435.0720000000001,-0.00016936304746195674,-0.0002978384436573833,0.00017030187882483006,0.0,0.0,0.0,0.0,0.0007680980488657951,-0.001636337605305016,0.001927749253809452,0.9999681711196899,0.0,0.0,0.0,0.3122325539588928,7.851430416107178,2.576317310333252,-56.514713287353516,0
444.9499999999989,-0.00010153337643714622,-0.00017130287596955895,0.000119813259516377,0.0,0.0,0.0,0.0,-0.002457213355228305,-0.005310619715601206,-0.0016187644796445966,0.999807596206665,0.0,0.0,0.0,0.3129368722438812,7.83966588973999,2.5753233432769775,-56.64219665527344,0
454.8349999999991,-0.00011695916327880695,-0.00025399340665899217,0.00010599409142741933,0.0,0.0,0.0,0.0,3.458074206719175e-05,-0.00036757197813130915,0.0009892109083011746,0.9968964457511902,0.0,0.0,0.0,0.31178921461105347,7.837854862213135,2.5835258960723877,-56.43446350097656,0
464.7389999999996,-6.703215331071988e-05,-0.0001271619985345751,8.21145877125673e-05,0.0,0.0,0.0,0.0,0.003787969471886754,9.689405123936012e-05,-0.0024813294876366854,0.9999738931655884,0.0,0.0,0.0,0.3179204761981964,7.860483169555664,2.596137046813965,-57.54424285888672,0
474.6170000000002,-9.299540397478268e-05,-0.00019915105076506734,6.608244439121336e-05,0.0,0.0,0.0,0.0,-0.0012806943850591779,0.00011334857117617503,0.0018309534061700106,1.00108802318573,0.0,0.0,0.0,0.3081536591053009,7.847462177276611,2.5990543365478516,-55.77642822265625,0
484.503999999999,-7.702547736698762e-05,-0.00014458484656643122,5.434456033981405e-05,0.0,0.0,0.0,0.0,0.0008482492412440479,-0.006612172815948725,-0.0008806092664599419,1.0009636878967285,0.0,0.0,0.0,0.3157177269458771,7.863401412963867,2.6106784343719482,-57.145538330078125,0
494.3889999999992,-0.00017834061873145401,-0.00016918513574637473,3.601738717406988e-05,0.0,0.0,0.0,0.0,-0.00029970434843562543,0.00445022014901042,0.00528978556394577,0.9995387196540833,0.0,0.0,0.0,0.314890593290329,7.855788230895996,2.619713068008423,-56.995819091796875,0
504.27299999999923,-0.00010571401799097657,-5.132477963343263e-05,-3.6241544876247644e-05,0.0,0.0,0.0,0.0,-0.0007934134919196367,-0.003616417059674859,0.0004562328103929758,1.000359058380127,0.0,0.0,0.0,0.3158709704875946,7.848066329956055,2.6065244674682617,-57.17327117919922,0
514.1599999999999,-9.22656909096986e-05,-0.00012946594506502151,-4.422523488756269e-05,0.0,0.0,0.0,0.0,0.00017454865155741572,0.0025733010843396187,0.00293360254727304,1.0006020069122314,0.0,0.0,0.0,0.3063267171382904,7.837563991546631,2.6122305393218994,-55.445743560791016,0
524.0540000000001,-9.581863560015336e-05,-9.62656777119264e-05,-4.091554365004413e-05,0.0,0.0,0.0,0.0,-0.0016504165250808,0.000941974634770304,0.00024836527882143855,0.9997299313545227,0.0,0.0,0.0,0.3147396743297577,7.847106456756592,2.6117305755615234,-56.968505859375,0
533.9349999999995,-9.831831266637892e-05,-0.00015531425015069544,-3.964224015362561e-05,0.0,0.0,0.0,0.0,0.0005622895550914109,0.0011119937989860773,-0.0013705298770219088,0.9983030557632446,0.0,0.0,0.0,0.3060643672943115,7.842530727386475,2.609917163848877,-55.39826202392578,0
543.8299999999999,-0.00010064381058327854,-0.00012796655937563628,-4.413130591274239e-05,0.0,0.0,0.0,0.0,0.0012218212941661477,0.0018229950219392776,-0.0026359851472079754,0.9991095066070557,0.0,0.0,0.0,0.31168290972709656,7.85029935836792,2.620816946029663,-56.415225982666016,0
553.7170000000006,-0.00011864017869811505,-0.0002626369532663375,-9.100769239012152e-05,0.0,0.0,0.0,0.0,-0.0002466100559104234,0.003746216418221593,0.0020147620234638453,0.9984375834465027,0.0,0.0,0.0,0.301829069852829,7.828965187072754,2.622384786605835,-54.631656646728516,0
563.6010000000006,-0.0001581986143719405,-0.0002508676261641085,-5.379822323448025e-05,0.0,0.0,0.0,0.0,0.0006402872386388481,0.0004934416501782835,0.0021092810202389956,1.0000498294830322,0.0,0.0,0.0,0.3098118007183075,7.83521032333374,2.610807418823242,-56.07655334472656,0
573.4899999999998,-0.00013402753393165767,-0.00033268812694586813,-4.774609988089651e-05,0.0,0.0,0.0,0.0,0.00015645025996491313,0.0007562519167549908,-0.0007945824763737619,1.001695156097412,0.0,0.0,0.0,0.3015827238559723,7.823302268981934,2.615170478820801,-54.587074279785156,0
583.387999999999,-0.00014810441643930972,-0.00027042487636208534,-2.0412440790096298e-05,0.0,0.0,0.0,0.0,-0.000788660894613713,-0.00033163136686198413,-0.00470060296356678,0.9997711181640625,0.0,0.0,0.0,0.3011477589607239,7.812642574310303,2.6093406677246094,-54.508338928222656,0
593.2620000000006,-0.00013735239917878062,-0.0003473595716059208,-1.1321633792249486e-05,0.0,0.0,0.0,0.0,-0.003452823031693697,-0.0021413671784102917,-0.0010103961685672402,1.000220537185669,0.0,0.0,0.0,0.2926616966724396,7.804590702056885,2.6072757244110107,-52.972347259521484,0
603.1509999999998,-0.00017545527953188866,-0.00031437812140211463,4.433998401509598e-05,0.0,0.0,0.0,0.0,-0.00042311905417591333,-0.003041791031137109,0.0015043962048366666,0.9987075924873352,0.0,0.0,0.0,0.29293960332870483,7.807919979095459,2.6103007793426514,-53.022647857666016,0
613.0409999999993,-0.00019324519962538034,-0.00034656873322091997,7.186419679783285e-05,0.0,0.0,0.0,0.0,-0.002401001052930951,-0.0008752685389481485,0.0012752581387758255,0.9978984594345093,0.0,0.0,0.0,0.2932533323764801,7.798648357391357,2.6048102378845215,-53.07944107055664,0
622.9290000000001,-0.00023049916489981115,-0.000331712857587263,0.0001203297870233655,0.0,0.0,0.0,0.0,0.0028912322595715523,0.005815466400235891,0.003414150094613433,0.9960897564888,0.0,0.0,0.0,0.29922324419021606,7.809108734130859,2.5924575328826904,-54.160003662109375,0
632.8140000000003,-0.00018615511362440884,-0.00043615029426291585,0.00013258005492389202,0.0,0.0,0.0,0.0,-0.0008036838844418526,-0.002931510331109166,0.00041300844168290496,0.9986203908920288,0.0,0.0,0.0,0.2893994450569153,7.78460168838501,2.5877602100372314,-52.38187789916992,0
642.7060000000001,-0.00017211791418958455,-0.0003152777499053627,0.00015642953803762794,0.0,0.0,0.0,0.0,0.0012704163091257215,-0.0027582277543842793,-0.000873809156473726,1.0009132623672485,0.0,0.0,0.0,0.3004676103591919,7.810597896575928,2.6009016036987305,-54.38523864746094,0
652.5879999999997,-0.0001905378740048036,-0.0003561066696420312,0.00017900133389048278,0.0,0.0,0.0,0.0,-8.106833411147818e-05,0.00875252764672041,-0.003506443928927183,0.9993494749069214,0.0,0.0,0.0,0.30087682604789734,7.8005757331848145,2.599152088165283,-54.45930099487305,0
662.482,-0.00019203379633836448,-0.0002719043113756925,0.00020537911041174084,0.0,0.0,0.0,0.0,0.000763104239013046,0.0033106787595897913,0.00014258328883443028,1.0010970830917358,0.0,0.0,0.0,0.3086024224758148,7.818660259246826,2.582632303237915,-55.8576545715332,0
672.3680000000004,-0.00020665270858444273,-0.00033475953387096524,0.00022062759671825916,0.0,0.0,0.0,0.0,-0.005921483505517244,-0.007083881180733442,0.0016154161421582103,1.0007268190383911,0.0,0.0,0.0,0.3014754056930542,7.805717468261719,2.5738630294799805,-54.567649841308594,0
682.2559999999994,-0.00016989118012133986,-0.00021879031555727124,0.000207434844924137,0.0,0.0,0.0,0.0,-0.0009423376177437603,-0.0007826163782738149,-0.000642487546429038,0.9993550181388855,0.0,0.0,0.0,0.31267932057380676,7.837874889373779,2.603328227996826,-56.595577239990234,0
692.1409999999996,-0.00014571522478945553,-0.0003582286590244621,0.00019298476399853826,0.0,0.0,0.0,0.0,-0.0029720887541770935,-0.001399482716806233,-0.001977652544155717,0.9990782737731934,0.0,0.0,0.0,0.30584973096847534,7.817695140838623,2.6198654174804688,-55.35940933227539,0
702.0339999999997,-0.00011569818889256567,-0.0002551577927079052,0.00018447544425725937,0.0,0.0,0.0,0.0,-0.0002392572205280885,-0.001826656050980091,-0.0005365511169657111,0.9981422424316406,0.0,0.0,0.0,0.3048742413520813,7.814143180847168,2.6160266399383545,-55.18284606933594,0
711.9169999999995,-0.00015940520097501576,-0.0003103755589108914,0.00018475762044545263,0.0,0.0,0.0,0.0,-7.257778634084389e-05,0.0016171227907761931,0.003062044968828559,0.9996840357780457,0.0,0.0,0.0,0.29732394218444824,7.800958156585693,2.612544059753418,-53.81622314453125,0
721.8019999999997,-0.00013218086678534746,-0.00020411107107065618,0.0001815722498577088,0.0,0.0,0.0,0.0,-0.003493251744657755,0.0011106604943051934,-0.002430883701890707,1.0001598596572876,0.0,0.0,0.0,0.30426958203315735,7.821230888366699,2.617323160171509,-55.073402404785156,0
731.6900000000005,-0.00016282196156680584,-0.0002563747693784535,0.00018650319543667138,0.0,0.0,0.0,0.0,-0.000278556632110849,-0.0016238157404586673,-0.0019991963636130095,1.0010818243026733,0.0,0.0,0.0,0.3037397861480713,7.8149027824401855,2.6021668910980225,-54.97750473022461,0
741.5820000000003,-0.00016448457608930767,-0.00017925360589288175,0.0001960449735634029,0.0,0.0,0.0,0.0,0.0006571266567334533,0.001926776603795588,-0.0035114469937980175,1.000539779663086,0.0,0.0,0.0,0.3091047406196594,7.843752384185791,2.615257740020752,-55.94857406616211,0
751.4719999999998,-0.00023807316028978676,-0.00021640880731865764,0.00018720091611612588,0.0,0.0,0.0,0.0,-0.0021146489307284355,0.0014704812783747911,-0.0011107285972684622,1.000014305114746,0.0,0.0,0.0,0.3020300269126892,7.840540885925293,2.5999069213867188,-54.66802978515625,0
761.3559999999998,-0.00019115599570795894,-0.00012837545364163816,0.00013326277257874608,0.0,0.0,0.0,0.0,0.0010053054429590702,-0.003939283546060324,0.0010191411711275578,1.00029718875885,0.0,0.0,0.0,0.30237361788749695,7.841475963592529,2.597346067428589,-54.730228424072266,0
771.2469999999994,-0.00021899762214161456,-0.00023019453510642052,0.00010775098053272814,0.0,0.0,0.0,0.0,0.0036578713916242123,0.0018313295440748334,-0.00346581544727087,0.9981703162193298,0.0,0.0,0.0,0.29431450366973877,7.826338291168213,2.597916603088379,-53.27151107788086,0
781.134,-0.00018060750153381377,-0.00014360033674165606,6.258055509533733e-05,0.0,0.0,0.0,0.0,-0.0024052157532423735,0.0031809683423489332,-0.0007431330741383135,0.9973151087760925,0.0,0.0,0.0,0.29336225986480713,7.808186054229736,2.594783067703247,-53.099151611328125,0
791.0229999999992,-0.00015102964243851602,-0.000223995913984254,6.808453326812014e-05,0.0,0.0,0.0,0.0,-0.0017270200187340379,-0.005626649130135775,0.00016804890765342861,0.9971984028816223,0.0,0.0,0.0,0.28572118282318115,7.800979137420654,2.5940518379211426,-51.716102600097656,0
800.9049999999988,-0.0001329287188127637,-0.00017174778622575104,3.5396635212237015e-05,0.0,0.0,0.0,0.0,0.0005281671765260398,0.004607082810252905,-0.0016350527293980122,0.9982959628105164,0.0,0.0,0.0,0.28498002886772156,7.799206733703613,2.6015045642852783,-51.58195114135742,0
810.7960000000003,-0.0001249817432835698,-0.00028058578027412295,1.2623993825400248e-05,0.0,0.0,0.0,0.0,0.0003238111676182598,0.009580820798873901,-0.0010911416029557586,0.9991407990455627,0.0,0.0,0.0,0.2753744423389435,7.781423568725586,2.5925331115722656,-49.843318939208984,0
820.6819999999989,-0.00010386503709014505,-0.00019564612011890858,-1.590101601323113e-05,0.0,0.0,0.0,0.0,-0.0008427263819612563,0.002498512389138341,0.0012092486722394824,0.9971223473548889,0.0,0.0,0.0,0.2832346558570862,7.790579319000244,2.5743815898895264,-51.26603698730469,0
830.5699999999997,-0.00010336016566725448,-0.00028509198455139995,-3.338672104291618e-05,0.0,0.0,0.0,0.0,0.0008949011098593473,0.001804634928703308,-5.252756818663329e-05,0.9964293241500854,0.0,0.0,0.0,0.27503854036331177,7.780354976654053,2.569434404373169,-49.78252029418945,0
840.4570000000003,-9.29550442378968e-05,-0.0002093735383823514,-5.741935456171632e-05,0.0,0.0,0.0,0.0,0.0024898655246943235,-0.0024136642459779978,0.0040137856267392635,0.9960535168647766,0.0,0.0,0.0,0.2826167941093445,7.793844699859619,2.567732810974121,-51.154205322265625,0
850.3500000000004,-0.0001449552655685693,-0.00032114985515363514,-0.00011575291864573956,0.0,0.0,0.0,0.0,5.948269972577691e-05,-0.0029694437980651855,0.001125536160543561,0.9965692162513733,0.0,0.0,0.0,0.2759324014186859,7.770247936248779,2.568140983581543,-49.94431686401367,0
860.2369999999992,-0.00013054769078735262,-0.0002340089704375714,-0.0001475542230764404,0.0,0.0,0.0,0.0,0.0013266453752294183,0.0015846297610551119,-0.00043232657480984926,0.9969465732574463,0.0,0.0,0.0,0.283717542886734,7.786459445953369,2.5712852478027344,-51.35343933105469,0
870.1260000000002,-0.00016630553000140935,-0.0002966384345199913,-0.00017778600158635527,0.0,0.0,0.0,0.0,0.0016506919637322426,0.003385200398042798,0.002670592162758112,0.9977243542671204,0.0,0.0,0.0,0.28227517008781433,7.77770471572876,2.565633535385132,-51.09236526489258,0
880.0069999999996,-0.00018538779113441706,-0.00023164997401181608,-0.00018598357564769685,0.0,0.0,0.0,0.0,-0.0008392909658141434,-0.00018737830396275967,0.001268607098609209,0.9978021383285522,0.0,0.0,0.0,0.28921055793762207,7.794889450073242,2.5744035243988037,-52.347686767578125,0
889.893,-0.00022134292521513999,-0.00029348948737606406,-0.00021842922433279455,0.0,0.0,0.0,0.0,-0.0007927817641757429,0.004653533920645714,-0.0017607435584068298,0.9981096982955933,0.0,0.0,0.0,0.2891943156719208,7.788064479827881,2.573566436767578,-52.34474563598633,0
899.7829999999994,-0.00025125499814748764,-0.00020023519755341113,-0.0002135233662556857,0.0,0.0,0.0,0.0,-0.0012133449781686068,-0.004121087491512299,0.0023017197381705046,0.9995501041412354,0.0,0.0,0.0,0.29694390296936035,7.822507381439209,2.571166753768921,-53.7474365234375,0
909.6810000000005,-0.00028917621239088476,-0.000256934086792171,-0.000245350762270391,0.0,0.0,0.0,0.0,0.002112878020852804,0.004149391315877438,0.0013459936017170548,0.998989462852478,0.0,0.0,0.0,0.29746338725090027,7.822210311889648,2.572631597518921,-53.84146499633789,0
919.5589999999993,-0.0003174510784447193,-0.0001798153098206967,-0.0002528250333853066,0.0,0.0,0.0,0.0,0.00021904629829805344,0.002162747085094452,0.00023022896493785083,0.9984380006790161,0.0,0.0,0.0,0.3043259382247925,7.857187747955322,2.574026346206665,-55.08360290527344,0
929.4490000000005,-0.00035627608303911984,-0.00023130372574087232,-0.00028460207977332175,0.0,0.0,0.0,0.0,-0.0010089376010000706,-0.0008983807056210935,-0.0004655707743950188,0.9971227049827576,0.0,0.0,0.0,0.30404558777809143,7.850592136383057,2.5687928199768066,-55.03285217285156,0
939.3379999999997,-0.00039557734271511436,-0.00028624242986552417,-0.0003183035005349666,0.0,0.0,0.0,0.0,-0.0012200996279716492,0.0008198138675652444,0.0009637345792725682,0.9969428777694702,0.0,0.0,0.0,0.3031706213951111,7.848177909851074,2.5639500617980957,-54.874481201171875,0
949.226999999999,-0.00043572287540882826,-0.0003437387349549681,-0.00035446349647827446,0.0,0.0,0.0,0.0,0.0011208783835172653,0.004332966636866331,-0.0015158469323068857,0.9970554709434509,0.0,0.0,0.0,0.30312469601631165,7.846664905548096,2.56252121925354,-54.86617660522461,0
959.107,-0.00047866717795841396,-0.0004028830153401941,-0.0003928870428353548,0.0,0.0,0.0,0.0,-0.001086088945157826,0.0033287040423601866,0.0013620847603306174,0.999384880065918,0.0,0.0,0.0,0.3030197024345398,7.836381912231445,2.550164222717285,-54.84716796875,0
969.0,-0.000524151255376637,-0.0004633624048437923,-0.0004326356283854693,0.0,0.0,0.0,0.0,-0.0009155093575827777,0.00034008361399173737,-0.004842433147132397,0.9986327290534973,0.0,0.0,0.0,0.3029423952102661,7.831988334655762,2.5443036556243896,-54.83317565917969,0
978.8899999999994,-0.0005100920097902417,-0.00010566802666289732,-0.00039954710518941283,0.0,0.0,0.0,0.0,0.000675956136547029,-0.003391469595953822,-0.0005337625043466687,0.9983336925506592,0.0,0.0,0.0,0.30984899401664734,7.952844619750977,2.5623488426208496,-56.08327865600586,0
988.771999999999,-0.0005503401625901461,-0.0001374342682538554,-0.0004372515541035682,0.0,0.0,0.0,0.0,0.0019153178436681628,0.0037258490920066833,0.002192823449149728,0.9999646544456482,0.0,0.0,0.0,0.3097672164440155,7.943421840667725,2.5562047958374023,-56.068485260009766,0
998.6620000000003,-0.000625444226898253,-2.730531559791416e-05,-0.00038984668208286166,0.0,0.0,0.0,0.0,-0.00172608089633286,-0.0013502726797014475,-0.003824845189228654,0.9982964992523193,0.0,0.0,0.0,0.31857261061668396,7.972977638244629,2.5333597660064697,-57.66227722167969,0
1008.5479999999989,-0.000668169988784939,-5.2398969273781404e-05,-0.0004237116954755038,0.0,0.0,0.0,0.0,0.0002475659130141139,0.0020958557724952698,-0.002260018140077591,0.9967296123504639,0.0,0.0,0.0,0.3167828619480133,7.969683647155762,2.536742925643921,-57.33832550048828,0
1018.4459999999999,-0.0007108005229383707,-7.992050086613744e-05,-0.00045979104470461607,0.0,0.0,0.0,0.0,-0.004089344292879105,0.0026157123502343893,-0.00010058082989417017,0.996821403503418,0.0,0.0,0.0,0.3164522647857666,7.961034297943115,2.5286526679992676,-57.27848815917969,0
1028.3199999999997,-0.0007544937543570995,-0.00010994376498274505,-0.0004985161358490586,0.0,0.0,0.0,0.0,0.0022684759460389614,-0.0028780328575521708,0.001697385567240417,0.9990683197975159,0.0,0.0,0.0,0.31615135073661804,7.9615278244018555,2.5223307609558105,-57.22402572631836,0
1038.2109999999993,-0.0008204361656680703,7.32788466848433e-05,-0.0004414790601003915,0.0,0.0,0.0,0.0,-0.002972729504108429,-0.0001664016308495775,0.000321221596095711,0.9988875985145569,0.0,0.0,0.0,0.32387107610702515,8.010812759399414,2.5200841426849365,-58.62131118774414,0
1048.0939999999991,-0.0008660156163387001,5.379607682698406e-05,-0.00047669681953266263,0.0,0.0,0.0,0.0,-0.00018413631187286228,0.002036899793893099,0.00035176423261873424,0.9980042576789856,0.0,0.0,0.0,0.32404831051826477,8.011220932006836,2.520411729812622,-58.65339279174805,0
1057.9889999999996,-0.0009199805208481848,0.00012046749179717153,-0.00047743244795128703,0.0,0.0,0.0,0.0,-0.0010767905041575432,-0.0017449096776545048,-0.0014002604875713587,0.9964017271995544,0.0,0.0,0.0,0.33198750019073486,8.027325630187988,2.510990619659424,-60.090396881103516,0
1067.869999999999,-0.0009670733707025647,0.00010427512461319566,-0.0005145217292010784,0.0,0.0,0.0,0.0,0.00047540495870634913,-0.0019160264637321234,0.0012557920999825,0.9981241226196289,0.0,0.0,0.0,0.3309783637523651,8.022695541381836,2.513840913772583,-59.907745361328125,0
1077.7639999999992,-0.0010148371802642941,8.626726776128635e-05,-0.0005538732511922717,0.0,0.0,0.0,0.0,-0.001261710305698216,-0.0018783890409395099,0.00046386904432438314,0.9989358186721802,0.0,0.0,0.0,0.3303699493408203,8.016396522521973,2.522850751876831,-59.7976188659668,0
1087.643,-0.0010619813110679388,6.623227818636224e-05,-0.0005942171555943787,0.0,0.0,0.0,0.0,-0.0009034416289068758,0.002664075465872884,0.00043279561214149,0.9988430738449097,0.0,0.0,0.0,0.3294679820537567,8.010781288146973,2.527636766433716,-59.63435745239258,0
1097.5509999999995,-0.0011093632783740759,4.454978625290096e-05,-0.0006353373173624277,0.0,0.0,0.0,0.0,-0.001197759062051773,-0.0041879829950630665,-0.000640961283352226,0.998924970626831,0.0,0.0,0.0,0.32968512177467346,8.004855155944824,2.523824453353882,-59.673667907714844,0
1107.4159999999993,-0.0011587277986109257,2.146629776689224e-05,-0.0006772957276552916,0.0,0.0,0.0,0.0,0.00035053209285251796,-0.010762405581772327,-0.0021958614233881235,0.9991392493247986,0.0,0.0,0.0,0.3285823464393616,8.001049041748047,2.5237512588500977,-59.474056243896484,0
1117.3189999999995,-0.001209629699587822,-3.61898128176108e-06,-0.0007199376123026013,0.0,0.0,0.0,0.0,0.0004638874379452318,-0.00045390971354208887,-7.94426814536564e-05,0.9990668296813965,0.0,0.0,0.0,0.3277170956134796,7.9947309494018555,2.534421443939209,-59.31744384765625,0
1127.191999999999,-0.00019709888147190213,-0.0002999318821821362,3.091500184382312e-05,0.0,0.0,0.0,0.0,-0.002608529757708311,-0.003785336622968316,-0.0012831310741603374,1.0004796981811523,0.0,0.0,0.0,0.3154410421848297,7.952829360961914,2.6810286045074463,-57.095458984375,0
1137.0879999999997,-0.00020707414660137147,-0.0003407378972042352,1.595088906469755e-05,0.0,0.0,0.0,0.0,-0.00043136815656907856,0.0018503438914194703,0.0010689140763133764,1.0004603862762451,0.0,0.0,0.0,0.31461966037750244,7.952990531921387,2.6826329231262207,-56.9467887878418,0
1146.9660000000003,-0.00020771301933564246,-0.0003712467441800982,2.0370778656797484e-05,0.0,0.0,0.0,0.0,-2.286343260493595e-05,-0.0025199849624186754,-0.00010914064478129148,0.9992008805274963,0.0,0.0,0.0,0.3152271807193756,7.945219039916992,2.6802902221679688,-57.05674362182617,0
1156.860999999999,-0.00022056013403926045,-0.00041645969031378627,6.92233516019769e-06,0.0,0.0,0.0,0.0,0.0005487307207658887,-7.476146129192784e-05,-0.0006809877813793719,0.999256432056427,0.0,0.0,0.0,0.314978688955307,7.94078254699707,2.6827192306518555,-57.01176834106445,0
1166.741,-0.00019301153952255845,-0.00040009841904975474,7.782025932101533e-05,0.0,0.0,0.0,0.0,-0.0009153460850939155,0.0007586901192553341,3.8980393583187833e-05,0.9998413920402527,0.0,0.0,0.0,0.30120301246643066,7.948116302490234,2.672996997833252,-54.51834487915039,0
1176.6479999999992,-0.00020701919856946915,-0.00044535595225170255,6.861614383524284e-05,0.0,0.0,0.0,0.0,0.0014428612776100636,-0.0047029126435518265,0.00313846068456769,0.9988747835159302,0.0,0.0,0.0,0.30107489228248596,7.941674709320068,2.6625659465789795,-54.49515914916992,0
1186.5229999999992,-0.0002083068247884512,-0.0004397550073917955,0.00012044090544804931,0.0,0.0,0.0,0.0,0.003145746886730194,-0.0030890831258147955,0.00204873806796968,0.9981436729431152,0.0,0.0,0.0,0.2909489572048187,7.951531887054443,2.672966718673706,-52.6623420715332,0
1196.414999999999,-0.00022384748444892466,-0.00048624028568156064,0.00011321454076096416,0.0,0.0,0.0,0.0,-0.0011976941023021936,0.002753455424681306,-0.0014252959517762065,0.9983453750610352,0.0,0.0,0.0,0.2913176715373993,7.938907623291016,2.672374963760376,-52.72908020019531,0
1206.2919999999995,-0.00022490520495921373,-0.00047869159607216716,0.00016519086784683168,0.0,0.0,0.0,0.0,0.00042552026570774615,-0.004422387573868036,-0.0005894971545785666,0.9996211528778076,0.0,0.0,0.0,0.27945733070373535,7.955381870269775,2.6614439487457275,-50.582332611083984,0
1216.200999999999,-0.00024205927911680192,-0.0005254519055597484,0.0001604738354217261,0.0,0.0,0.0,0.0,0.002826828509569168,0.002010979223996401,-0.0007352615939453244,0.9997908473014832,0.0,0.0,0.0,0.2782670557498932,7.9544677734375,2.6677427291870117,-50.366886138916016,0
1226.0679999999993,-0.00024297836353071034,-0.0005263006314635277,0.0002052100608125329,0.0,0.0,0.0,0.0,0.0003145273949485272,0.005433222744613886,0.0015493124956265092,1.0010833740234375,0.0,0.0,0.0,0.27802079916000366,7.940495014190674,2.6650664806365967,-50.32231903076172,0
1235.9629999999997,-0.00026281841564923525,-0.0005742417997680604,0.0002056988887488842,0.0,0.0,0.0,0.0,-0.0017067895969375968,-0.0015469363424926996,-0.001718565821647644,1.0013216733932495,0.0,0.0,0.0,0.2783845365047455,7.933389663696289,2.659698009490967,-50.388153076171875,0
1245.842999999999,-0.00026050160522572696,-0.0005969557096250355,0.00023993130889721215,0.0,0.0,0.0,0.0,0.0009555983124300838,0.007877567782998085,-0.0032859398052096367,1.0008533000946045,0.0,0.0,0.0,0.2700773775577545,7.940033435821533,2.668245315551758,-48.884544372558594,0
1255.7440000000006,-0.00028093918808735907,-0.0006469950312748551,0.0002459953830111772,0.0,0.0,0.0,0.0,0.0005981069407425821,0.0026456911582499743,-0.0012435591779649258,0.999120831489563,0.0,0.0,0.0,0.2692719101905823,7.932765483856201,2.641674518585205,-48.73875427246094,0
1265.6190000000006,-0.00030207872623577714,-0.0007006666855886579,0.0002521807618904859,0.0,0.0,0.0,0.0,-0.000995964976027608,0.001979770604521036,-0.000511219899635762,1.0007109642028809,0.0,0.0,0.0,0.26834022998809814,7.923296928405762,2.628809690475464,-48.57011795043945,0
1275.518,-0.00032444079988636076,-0.0007588178850710392,0.0002586894843261689,0.0,0.0,0.0,0.0,-0.004019646439701319,-0.0017936399672180414,-0.0022694850340485573,0.9985966086387634,0.0,0.0,0.0,0.26772746443748474,7.920748233795166,2.625769853591919,-48.45920181274414,0
1285.3940000000002,-0.00033201996120624244,-0.0007124205585569143,0.0003539914032444358,0.0,0.0,0.0,0.0,0.001200958387926221,0.008601237088441849,-0.002951360074803233,0.998263955116272,0.0,0.0,0.0,0.263710081577301,7.9643683433532715,2.628196954727173,-47.732051849365234,0
1295.2939999999999,-0.00035765301436185837,-0.0007673220243304968,0.00036700867349281907,0.0,0.0,0.0,0.0,0.0006271446472965181,0.0011367927072569728,-0.002052335999906063,0.9993711709976196,0.0,0.0,0.0,0.263273149728775,7.955359935760498,2.6065173149108887,-47.65296173095703,0
1305.1689999999999,-0.0003549655666574836,-0.0007700183195993304,0.0004384971980471164,0.0,0.0,0.0,0.0,-0.0006501120515167713,-0.003619951894506812,0.00046796369133517146,1.0001143217086792,0.0,0.0,0.0,0.25238141417503357,7.962884902954102,2.6072137355804443,-45.68153762817383,0
1315.0650000000005,-0.00018149433890357614,-0.00040900392923504114,-0.00011052694026147947,0.0,0.0,0.0,0.0,0.00020870912703685462,-0.003073774976655841,0.00010150200250791386,0.998504638671875,0.0,0.0,0.0,0.2691696882247925,8.041423797607422,2.65671706199646,-48.72024917602539,0
1324.9449999999997,-0.00020040551316924393,-0.0004465433594305068,-0.00011149417696287856,0.0,0.0,0.0,0.0,-0.001505209831520915,-0.0017372762085869908,0.0036668675020337105,0.9991711378097534,0.0,0.0,0.0,0.2688259184360504,8.027044296264648,2.6606285572052,-48.65802764892578,0
1334.8500000000004,-0.00019766378682106733,-0.0003501455648802221,-0.00010608680167933926,0.0,0.0,0.0,0.0,0.0023575425148010254,0.002965172752737999,-0.0028764160815626383,0.9986178278923035,0.0,0.0,0.0,0.2780033051967621,8.052839279174805,2.667503595352173,-50.31915283203125,0
1344.7299999999996,-0.0002172471722587943,-0.0003865222097374499,-0.00010587870929157361,0.0,0.0,0.0,0.0,0.0014850508887320757,0.0030690848361700773,0.0020946350414305925,0.9987183809280396,0.0,0.0,0.0,0.277339905500412,8.045780181884766,2.6546146869659424,-50.199073791503906,0
1354.6149999999998,-0.00021265159011818469,-0.00024357147049158812,-0.00010591465252218768,0.0,0.0,0.0,0.0,0.0009535954450257123,-0.0003756962832994759,-0.00258821458555758,1.0005791187286377,0.0,0.0,0.0,0.2861490845680237,8.071057319641113,2.6672205924987793,-51.793556213378906,0
1364.4959999999992,-0.00011435386841185391,-0.00032842811197042465,-5.135059473104775e-05,0.0,0.0,0.0,0.0,0.0013319093268364668,0.002034225035458803,0.002777431160211563,1.0010912418365479,0.0,0.0,0.0,0.2743983864784241,8.055901527404785,2.6882338523864746,-49.66665267944336,0
1374.3960000000006,-7.59071481297724e-05,-0.00018200080376118422,-3.565310180420056e-05,0.0,0.0,0.0,0.0,-0.0016272407956421375,-0.00145327253267169,0.0011156635591760278,0.9995288252830505,0.0,0.0,0.0,0.28497016429901123,8.064400672912598,2.6884005069732666,-51.58016586303711,0
1384.2780000000002,-0.00010424161155242473,-0.00027898288681171834,-8.481361874146387e-05,0.0,0.0,0.0,0.0,-0.0004859474138356745,-0.0022622523829340935,-0.0013418343150988221,0.9991129040718079,0.0,0.0,0.0,0.284893661737442,8.058982849121094,2.6896791458129883,-51.56631851196289,0
1394.1669999999995,-0.00011889426968991756,-0.00021598086459562182,-2.319479244761169e-05,0.0,0.0,0.0,0.0,0.0017952423077076674,0.0031744667794555426,0.0012373020872473717,0.9998618364334106,0.0,0.0,0.0,0.29522469639778137,8.06221866607666,2.692121982574463,-53.436256408691406,0
1404.057999999999,-0.00017530022887513041,-0.00024343373661395162,-2.9447823180817068e-05,0.0,0.0,0.0,0.0,-0.004093771800398827,0.0022461572661995888,-0.0016161940293386579,0.9989209771156311,0.0,0.0,0.0,0.28534725308418274,8.057001113891602,2.6830570697784424,-51.64841842651367,0
1413.941999999999,-0.0002611646195873618,-0.0002765138342510909,9.353372297482565e-05,0.0,0.0,0.0,0.0,-0.0012638535117730498,-0.0022293617948889732,6.324443529592827e-05,1.0013012886047363,0.0,0.0,0.0,0.2839231491088867,8.053841590881348,2.6812503337860107,-51.39065170288086,0
1423.833999999999,-0.0002816773485392332,-0.0003132814890705049,0.00010859204485313967,0.0,0.0,0.0,0.0,-0.0014124950394034386,-0.006126751191914082,-9.144929936155677e-05,1.0000139474868774,0.0,0.0,0.0,0.28389450907707214,8.046906471252441,2.6843719482421875,-51.38547134399414,0
1433.717999999999,-0.00029189937049522996,-0.0001948416029335931,0.00017737010784912854,0.0,0.0,0.0,0.0,0.00243609631434083,0.0011098900577053428,0.0018096902640536427,1.0006840229034424,0.0,0.0,0.0,0.30089205503463745,8.065884590148926,2.699981451034546,-54.462059020996094,0
1443.5990000000002,-0.00022248986351769418,-0.00034173420863226056,0.00017256042337976396,0.0,0.0,0.0,0.0,0.002131757792085409,0.0006971381953917444,-0.00017900357488542795,1.0020843744277954,0.0,0.0,0.0,0.2895669937133789,8.043664932250977,2.706105947494507,-52.412200927734375,0
1453.4940000000006,-0.00021139366435818374,-0.0002565876056905836,0.0002136140246875584,0.0,0.0,0.0,0.0,0.0005634174449369311,0.0011035761563107371,-0.0021245237439870834,1.0020396709442139,0.0,0.0,0.0,0.3012813627719879,8.050802230834961,2.699564218521118,-54.532527923583984,0
1463.3799999999992,-0.00018355644715484232,-0.0003022578894160688,0.0002548430929891765,0.0,0.0,0.0,0.0,-0.001134705264121294,0.0015663019148632884,0.005516059696674347,0.9992327690124512,0.0,0.0,0.0,0.28874263167381287,8.041536331176758,2.694852113723755,-52.26298904418945,0
1473.2729999999992,-0.0001362559269182384,-0.00018229495617561042,0.000252581259701401,0.0,0.0,0.0,0.0,0.0021509970538318157,0.001790476031601429,-0.0016174349002540112,1.0009444952011108,0.0,0.0,0.0,0.2976561188697815,8.0508451461792,2.6912167072296143,-53.87635040283203,0
1483.155999999999,-0.00015533385158050805,-0.00021369472960941494,0.000276700418908149,0.0,0.0,0.0,0.0,0.0005657695000991225,0.0049123154021799564,-0.005370985250920057,1.0013723373413086,0.0,0.0,0.0,0.2972257137298584,8.038066864013672,2.682337522506714,-53.7984504699707,0
1493.0509999999995,-0.00014554861991200596,-0.00014650876983068883,0.0002945249143522233,0.0,0.0,0.0,0.0,0.0008501731208525598,-7.810879469616339e-05,-0.002831851365044713,0.9981979131698608,0.0,0.0,0.0,0.30327314138412476,8.045581817626953,2.6798079013824463,-54.89303970336914,0
1502.923999999999,-0.00016701105050742626,-0.0002616361016407609,0.0002534619125071913,0.0,0.0,0.0,0.0,-0.0015778375091031194,-0.004508933983743191,0.00032707181526347995,0.9982033967971802,0.0,0.0,0.0,0.2965124547481537,8.028202056884766,2.6720800399780273,-53.66934585571289,0
1512.83,-9.604423394193873e-05,-0.0001326698111370206,0.0002025402500294149,0.0,0.0,0.0,0.0,-0.0025439183227717876,-0.0061845541931688786,-0.002800504444167018,0.9999497532844543,0.0,0.0,0.0,0.30659645795822144,8.047309875488281,2.692927598953247,-55.494571685791016,0
1522.6990000000005,-0.0001831150584621355,-0.00016640208195894957,0.00018251921574119478,0.0,0.0,0.0,0.0,0.0007812945987097919,-0.0026331550907343626,0.0018399732653051615,0.9996054768562317,0.0,0.0,0.0,0.29712677001953125,8.047883987426758,2.6866703033447266,-53.780540466308594,0
1532.5969999999998,-0.0001349920785287395,-5.38425229024142e-05,0.00015065408661030233,0.0,0.0,0.0,0.0,0.0018279780633747578,0.003171228338032961,0.00026645002071745694,0.9987413883209229,0.0,0.0,0.0,0.3085081875324249,8.058879852294922,2.6956746578216553,-55.84059524536133,0
1542.4760000000006,-0.0001583562552696094,-8.356627949979156e-05,0.00015727613936178386,0.0,0.0,0.0,0.0,-0.0004055800091009587,0.003992761019617319,0.0025903426576405764,0.9978737235069275,0.0,0.0,0.0,0.30774474143981934,8.048479080200195,2.6853177547454834,-55.70240783691406,0
1552.3729999999996,-0.00014711152471136302,-3.525497959344648e-05,0.00013588301953859627,0.0,0.0,0.0,0.0,-0.0008266101940535009,-0.0028968737460672855,0.0017093579517677426,0.9978556632995605,0.0,0.0,0.0,0.3187907636165619,8.05345630645752,2.6832730770111084,-57.70176315307617,0
1562.25,-8.443152182735503e-05,-0.0001901033683679998,9.537049481878057e-05,0.0,0.0,0.0,0.0,-0.002376614836975932,-0.003591362154111266,0.0013161771930754185,0.9975284337997437,0.0,0.0,0.0,0.3076038658618927,8.026724815368652,2.699506998062134,-55.676910400390625,0
1572.1489999999994,-5.315633461577818e-05,-0.00012290236190892756,6.441195000661537e-05,0.0,0.0,0.0,0.0,-3.495472628856078e-05,-0.0021386740263551474,0.0005620948504656553,0.9980319738388062,0.0,0.0,0.0,0.31662723422050476,8.043181419372559,2.7136309146881104,-57.31016159057617,0
1582.0280000000002,-3.512867260724306e-05,-0.00027876661624759436,-6.282446065597469e-06,0.0,0.0,0.0,0.0,-0.0021672279108315706,-0.004760315641760826,0.002275855280458927,0.998907744884491,0.0,0.0,0.0,0.3044998347759247,8.019298553466797,2.7144320011138916,-55.11507797241211,0
1591.923999999999,-1.0965091860271059e-05,-0.00017358901095576584,-1.3821819266013335e-05,0.0,0.0,0.0,0.0,-0.0007666244055144489,0.002190721919760108,0.0012989352690055966,0.9989518523216248,0.0,0.0,0.0,0.31467264890670776,8.033823013305664,2.72169828414917,-56.95637512207031,0
1601.8029999999999,-9.801477426663041e-05,-0.0002564920287113637,-8.836339111439884e-05,0.0,0.0,0.0,0.0,-0.001561108510941267,4.696919859270565e-06,-0.0009076196001842618,0.9991308450698853,0.0,0.0,0.0,0.3019862174987793,8.018287658691406,2.699375867843628,-54.66010284423828,0
1611.6980000000003,-0.00012106024223612621,-0.0002039733954006806,-5.9743433666881174e-05,0.0,0.0,0.0,0.0,0.00024669631966389716,0.004577508196234703,0.0013266009045764804,1.0001906156539917,0.0,0.0,0.0,0.30777058005332947,8.026222229003906,2.6944992542266846,-55.70708465576172,0
1621.5789999999997,-9.212766599375755e-05,-0.00026601902209222317,-7.263680163305253e-05,0.0,0.0,0.0,0.0,0.005172032862901688,0.0020935486536473036,0.001997089246287942,0.9992687702178955,0.0,0.0,0.0,0.29771149158477783,8.017643928527832,2.690974473953247,-53.886375427246094,0
1631.4740000000002,-0.00016509750275872648,-0.00028041042969562113,-9.035711627802812e-07,0.0,0.0,0.0,0.0,0.004563156049698591,0.0022380950395017862,0.0033111036755144596,0.9991611242294312,0.0,0.0,0.0,0.2977443337440491,8.00136947631836,2.681265115737915,-53.89231491088867,0
1641.3559999999998,-0.00017690318054519594,-0.00029107846785336733,1.2088301446055993e-05,0.0,0.0,0.0,0.0,-1.6425401554442942e-05,-0.004420117475092411,4.333107062848285e-05,0.9993115067481995,0.0,0.0,0.0,0.29235291481018066,7.991203308105469,2.680414915084839,-52.91645812988281,0
1651.2600000000002,-0.0002264031645609066,-0.00027999476878903806,6.26272230874747e-05,0.0,0.0,0.0,0.0,0.0038451903965324163,0.001742450869642198,-0.0010020355693995953,1.0009711980819702,0.0,0.0,0.0,0.2924199402332306,7.988661289215088,2.6921634674072266,-52.9285888671875,0
1661.1329999999998,-0.0001985503768082708,-0.00037258482188917696,4.917029582429677e-05,0.0,0.0,0.0,0.0,-0.0005789342685602605,-0.0008431519963778555,-0.002557659987360239,1.0000594854354858,0.0,0.0,0.0,0.28298771381378174,7.9720659255981445,2.6896889209747314,-51.221336364746094,0
1671.0370000000003,-0.00017218045832123607,-0.0002506424207240343,3.851326255244203e-05,0.0,0.0,0.0,0.0,-0.0032332849223166704,0.00022671083570457995,-0.002597886836156249,0.9992501139640808,0.0,0.0,0.0,0.2904224395751953,7.992942810058594,2.7099318504333496,-52.567039489746094,0
1680.9130000000005,-0.00016566865087952465,-0.0002655400021467358,6.008375930832699e-05,0.0,0.0,0.0,0.0,-0.004174273461103439,-0.0028158838395029306,0.004733256995677948,0.9989959001541138,0.0,0.0,0.0,0.2816842794418335,7.987138748168945,2.7149832248687744,-50.985416412353516,0
1690.8109999999997,-0.00012686679838225245,-0.0001675482781138271,2.039097853412386e-05,0.0,0.0,0.0,0.0,-0.00048768174019642174,0.006194846238940954,-3.657616616692394e-05,0.9985250234603882,0.0,0.0,0.0,0.2882274091243744,8.00616455078125,2.7265493869781494,-52.169734954833984,0
1700.6980000000003,-0.0001512486342107877,-0.0001914005697472021,1.5077317584655248e-05,0.0,0.0,0.0,0.0,-0.00037427240749821067,-0.0021262518130242825,-0.000555329374037683,0.9987532496452332,0.0,0.0,0.0,0.28737637400627136,7.99312162399292,2.7010915279388428,-52.01569747924805,0
1710.5810000000001,-0.00011994493252132088,-4.217177047394216e-05,2.5109162379521877e-05,0.0,0.0,0.0,0.0,0.0006779131363146007,-0.0016707709291949868,-0.0004729359643533826,0.9970992207527161,0.0,0.0,0.0,0.2961753010749817,8.028533935546875,2.71052885055542,-53.60831832885742,0
1720.464,-0.00016404384223278612,-0.00011873287439811975,-1.66462741617579e-05,0.0,0.0,0.0,0.0,-0.0007133078179322183,0.0024725105613470078,-0.0008031881297938526,0.9994943141937256,0.0,0.0,0.0,0.28474873304367065,8.008310317993164,2.7116308212280273,-51.54008483886719,0
1730.3510000000006,-8.216914284275845e-05,6.0364905948517844e-05,-5.1248851377749816e-05,0.0,0.0,0.0,0.0,0.00047906659892760217,-0.0018637563334777951,4.4734912080457434e-05,0.9996837973594666,0.0,0.0,0.0,0.29272782802581787,8.043600082397461,2.7279369831085205,-52.984317779541016,0
1740.2389999999996,-0.0001179680839413777,-2.018035411310848e-05,-0.00010873769497266039,0.0,0.0,0.0,0.0,-0.0008147287298925221,0.002187456702813506,-0.0009146188385784626,1.0002427101135254,0.0,0.0,0.0,0.2799994647502899,8.020536422729492,2.71572208404541,-50.68046188354492,0
1750.1299999999992,-0.0001433645811630413,-1.5349607565440238e-05,-0.00010504705278435722,0.0,0.0,0.0,0.0,-0.0009726483258418739,-0.0019777121488004923,0.0006384403677657247,0.9994147419929504,0.0,0.0,0.0,0.28970831632614136,8.018774032592773,2.7077620029449463,-52.43778610229492,0
1760.0139999999992,-0.00016489377594552934,-3.329770697746426e-05,-0.00011803181405412033,0.0,0.0,0.0,0.0,0.00020266714273020625,0.006025462411344051,-0.0011790210846811533,1.001110315322876,0.0,0.0,0.0,0.2893984615802765,8.011032104492188,2.6992440223693848,-52.38169479370117,0
1769.8989999999994,-0.0002200786693720147,-3.0015480660949834e-05,-5.9313348174327984e-05,0.0,0.0,0.0,0.0,0.001617020578123629,0.0012459391728043556,0.0026528509333729744,0.9992541670799255,0.0,0.0,0.0,0.2956796884536743,8.01291275024414,2.6830530166625977,-53.51861572265625,0
1779.7929999999997,-0.00024386963923461735,-5.2966352086514235e-05,-6.584593211300671e-05,0.0,0.0,0.0,0.0,-0.00029175166855566204,0.0018942614551633596,0.000924434163607657,0.9981647729873657,0.0,0.0,0.0,0.29532310366630554,8.000947952270508,2.683194637298584,-53.454071044921875,0
1789.6749999999993,-0.00028945214580744505,-2.9490624910977203e-06,3.728148294612765e-05,0.0,0.0,0.0,0.0,0.0005599868600256741,1.0851581464521587e-05,0.0028978099580854177,0.9991690516471863,0.0,0.0,0.0,0.3084888458251953,8.013400077819824,2.6654794216156006,-55.83709716796875,0
1799.566999999999,-0.00014948220632504672,-0.00015513940888922662,0.00010011024278355762,0.0,0.0,0.0,0.0,-0.0005065075238235295,0.0074342298321425915,-0.004264349117875099,1.0015398263931274,0.0,0.0,0.0,0.30027052760124207,7.976261615753174,2.717294216156006,-54.34955978393555,0
1809.4629999999997,-0.0001659742119954899,-9.526400390313938e-05,0.00017062053666450083,0.0,0.0,0.0,0.0,0.003125357674434781,0.0020667221397161484,0.002783681033179164,1.0017801523208618,0.0,0.0,0.0,0.3095953166484833,7.988519191741943,2.7136456966400146,-56.0373649597168,0
1819.339,-0.00012465642066672444,-0.00025829163496382535,0.00016534497262910008,0.0,0.0,0.0,0.0,-0.002712986897677183,-0.005926556419581175,-0.00034684958518482745,0.9994370341300964,0.0,0.0,0.0,0.30260026454925537,7.950720310211182,2.707564115524292,-54.7712516784668,0
1829.2299999999996,-0.00013607865548692644,-0.00022062179050408304,0.00021268820273689926,0.0,0.0,0.0,0.0,-0.0016045512165874243,0.0020692532416433096,-0.002836779924109578,0.9981999397277832,0.0,0.0,0.0,0.31215542554855347,7.961435317993164,2.701429605484009,-56.50075149536133,0
1839.119999999999,-0.00015224266098812222,-0.0002590066578704864,0.00022538131452165544,0.0,0.0,0.0,0.0,0.0008114375523291528,0.0006534080603159964,0.0030915336683392525,0.9988940954208374,0.0,0.0,0.0,0.31109118461608887,7.955752372741699,2.698021650314331,-56.30812072753906,0
1849.0030000000006,-0.00012054143007844687,-0.0001368144730804488,0.00022403713956009597,0.0,0.0,0.0,0.0,-0.004814467392861843,-0.010136323049664497,0.0008815933833830059,0.99813312292099,0.0,0.0,0.0,0.32001709938049316,7.983624458312988,2.7074010372161865,-57.92373275756836,0
1858.8899999999994,-0.00010961048246826977,-0.00031148295965977013,0.0001969994482351467,0.0,0.0,0.0,0.0,-0.0005296528106555343,0.0018681675428524613,0.00023293039703276008,0.9993094801902771,0.0,0.0,0.0,0.31971031427383423,7.967096328735352,2.723736047744751,-57.86820602416992,0
1868.7749999999996,-6.397421384463087e-05,-0.0001723579625831917,0.00020053955086041242,0.0,0.0,0.0,0.0,-0.00047035349416546524,-0.0007808720110915601,-0.0016958644846454263,0.99989253282547,0.0,0.0,0.0,0.33005285263061523,7.99314022064209,2.732286214828491,-59.74021911621094,0
1878.6749999999993,-8.078834798652679e-05,-0.00030388706363737583,0.00018446562171448022,0.0,0.0,0.0,0.0,-0.001546979765407741,-0.0025510829873383045,0.00013918333570472896,0.9988111257553101,0.0,0.0,0.0,0.32297176122665405,7.970595836639404,2.7345049381256104,-58.45853042602539,0
1888.5519999999997,-1.5728219295851886e-05,-0.0001951993181137368,0.00014187149645294994,0.0,0.0,0.0,0.0,-0.0010344409383833408,0.009044582955539227,0.0004725296748802066,0.9967136383056641,0.0,0.0,0.0,0.33143943548202515,7.987292289733887,2.742715358734131,-59.9911994934082,0
1898.440999999999,-2.8765669412678108e-05,-0.00023756817972753197,0.00014059436216484755,0.0,0.0,0.0,0.0,0.0007038558251224458,-0.00017025468696374446,-0.0024173310957849026,0.9988183379173279,0.0,0.0,0.0,0.33021360635757446,7.9792890548706055,2.7262189388275146,-59.769317626953125,0
1908.33,-3.2316555007128045e-05,-0.00013689826300833374,0.0001803961640689522,0.0,0.0,0.0,0.0,-0.0022294737864285707,-0.0023207839112728834,-0.004508130718022585,0.9981891512870789,0.0,0.0,0.0,0.33450478315353394,8.002751350402832,2.7293038368225098,-60.5460319519043,0
1918.217999999999,-4.62173338746652e-05,-0.00017710340034682304,0.00017932333867065609,0.0,0.0,0.0,0.0,-0.001056997338309884,-0.005007463041692972,0.0027117449790239334,0.999052882194519,0.0,0.0,0.0,0.33406758308410645,7.996884346008301,2.7373340129852295,-60.466896057128906,0
1928.0969999999998,-2.5183551770169288e-05,-4.1851308196783066e-05,0.00018747663125395775,0.0,0.0,0.0,0.0,0.0008929799660108984,0.0038547557778656483,0.0007326158811338246,0.9978272318840027,0.0,0.0,0.0,0.3451979458332062,8.033543586730957,2.748206377029419,-62.48151397705078,0
1938.0,-6.432291411329061e-05,-0.00016003099153749645,0.0001343333424301818,0.0,0.0,0.0,0.0,0.002202973933890462,0.00022256819647736847,0.0005402662209235132,0.9992460012435913,0.0,0.0,0.0,0.33410564064979553,8.000487327575684,2.7380974292755127,-60.473785400390625,0
1947.875,-6.136031879577786e-05,-0.00011853590694954619,0.00015597660967614502,0.0,0.0,0.0,0.0,-0.001970804762095213,0.002350257011130452,0.0003369820478837937,0.9997367262840271,0.0,0.0,0.0,0.34527334570884705,8.00932502746582,2.7397565841674805,-62.49515914916992,0
1957.7749999999996,-0.00011537647515069693,-0.0002424951089778915,9.680808580014855e-05,0.0,0.0,0.0,0.0,-9.448183118365705e-05,-0.0046916501596570015,-0.004236025735735893,0.9983857870101929,0.0,0.0,0.0,0.33942556381225586,7.98997688293457,2.7254340648651123,-61.43669891357422,0
1967.6540000000005,-0.00015365710714831948,-0.0002597368147689849,0.0001465751847717911,0.0,0.0,0.0,0.0,-0.0009960969910025597,0.0034446152858436108,0.0016942631918936968,0.9990118145942688,0.0,0.0,0.0,0.3400326669216156,7.981746196746826,2.7197494506835938,-61.54658889770508,0
1977.5499999999993,-0.00016530163702555,-0.0002983544545713812,0.00014089173055253923,0.0,0.0,0.0,0.0,-0.0005142656154930592,-0.0017148846527561545,0.0011880275560542941,0.996748149394989,0.0,0.0,0.0,0.33925068378448486,7.979791641235352,2.7231974601745605,-61.40504837036133,0
1987.4220000000005,-0.00015276171325240284,-0.0002469480677973479,0.00013045594096183777,0.0,0.0,0.0,0.0,0.0018334959167987108,0.0001711606018943712,0.0012132321717217565,0.999126136302948,0.0,0.0,0.0,0.34006091952323914,7.969912528991699,2.717566728591919,-61.55170440673828,0
1997.325999999999,-0.00016583289834670722,-0.0002816594787873328,0.00012170252739451826,0.0,0.0,0.0,0.0,0.003602520329877734,0.004911366384476423,0.00036433327477425337,0.9995120763778687,0.0,0.0,0.0,0.3395369350910187,7.958883285522461,2.7209441661834717,-61.45685958862305,0
2007.205,-0.00015695238835178316,-0.0001632473577046767,0.00014623359311372042,0.0,0.0,0.0,0.0,0.00016923084331210703,0.007905860431492329,0.0028315631207078695,1.0000884532928467,0.0,0.0,0.0,0.3395369350910187,7.958883285522461,2.7209441661834717,-61.45685958862305,0
2017.098,-0.00015352062473539263,-0.00031541817588731647,8.24657836346887e-05,0.0,0.0,0.0,0.0,-0.004349669441580772,-0.00041802850319072604,-0.0013236216036602855,1.0013370513916016,0.0,0.0,0.0,0.3265741169452667,7.927525997161865,2.6843419075012207,-59.110565185546875,0
2026.973,-0.00013001251500099897,-0.00023092617630027235,9.282512473873794e-05,0.0,0.0,0.0,0.0,-0.00015409191837534308,-0.002564282389357686,-7.623775309184566e-05,1.0020520687103271,0.0,0.0,0.0,0.33688753843307495,7.944088935852051,2.6900217533111572,-60.97731399536133,0
2036.8709999999992,-0.00015896419063210487,-0.0003412062069401145,4.7190267650876194e-05,0.0,0.0,0.0,0.0,0.0018977806903421879,0.0016444039065390825,7.695478416280821e-05,0.9992644190788269,0.0,0.0,0.0,0.3274631202220917,7.920044422149658,2.6812961101531982,-59.27147674560547,0
2046.7520000000004,-0.00012187266838736832,-0.00021059733990114182,5.9260859416099265e-05,0.0,0.0,0.0,0.0,5.741690983995795e-05,0.004012919031083584,-0.002562104258686304,0.9980072975158691,0.0,0.0,0.0,0.3341439366340637,7.942486763000488,2.6867947578430176,-60.480716705322266,0
2056.646999999999,-0.00011615859693847597,-0.00032111446489579976,3.665226904558949e-05,0.0,0.0,0.0,0.0,0.0009224619134329259,0.00032704780460335314,0.0045729754492640495,0.9982322454452515,0.0,0.0,0.0,0.3233407437801361,7.920688629150391,2.661825656890869,-58.52531814575195,0
2066.529999999999,-5.474408681038767e-05,-0.00018045651086140424,1.4187759006745182e-05,0.0,0.0,0.0,0.0,-0.0011089523322880268,-0.0037953194696456194,-0.0027566703502088785,0.998144268989563,0.0,0.0,0.0,0.3233407437801361,7.920688629150391,2.661825656890869,-58.52531814575195,0
2076.4259999999995,-6.568220123881474e-05,-0.0002534212835598737,-1.6050718841142952e-05,0.0,0.0,0.0,0.0,-0.0004686246975325048,-0.0016199310775846243,0.0021431308705359697,0.9993258714675903,0.0,0.0,0.0,0.31522196531295776,7.909937858581543,2.6753807067871094,-57.05580139160156,0
2086.3060000000005,-4.576658102450892e-05,-0.00016760353173594922,-3.3069070923374966e-05,0.0,0.0,0.0,0.0,-0.0058077676221728325,0.004768961574882269,-0.0008268920937553048,1.0005700588226318,0.0,0.0,0.0,0.3151375949382782,7.90480375289917,2.686699390411377,-57.040531158447266,0
2096.1949999999997,-9.802575368667021e-05,-0.00025115927564911544,-8.688764501130208e-05,0.0,0.0,0.0,0.0,-0.0007616590592078865,-0.004625250119715929,-0.002261505229398608,1.0016567707061768,0.0,0.0,0.0,0.3061273992061615,7.887503147125244,2.6831488609313965,-55.40966796875,0
2106.0869999999995,-7.621254917467013e-05,-0.00011823213571915403,-9.221979416906834e-05,0.0,0.0,0.0,0.0,0.0008744759834371507,0.0021622604690492153,0.0016245434526354074,1.0006523132324219,0.0,0.0,0.0,0.3153212368488312,7.916121959686279,2.680466890335083,-57.073768615722656,0
