timestamp,stateEstimate.x,stateEstimate.y,stateEstimate.z,controller.cmd_thrust,controller.cmd_roll,controller.cmd_pitch,controller.cmd_yaw,controller.r_roll,controller.r_pitch,controller.r_yaw,controller.accelz,controller.actuatorThrust,controller.roll,controller.pitch,controller.yaw,controller.rollRate,controller.pitchRate,controller.yawRate,controller.ctr_yaw
0.0,-0.004897380713373423,-0.014218387193977833,0.0003547995293047279,0.0,0.0,0.0,0.0,-0.0017837189370766282,0.00158759078476578,-0.0015478014247491956,0.9976621270179749,0.0,0.0,0.0,-4.119912624359131,9.119222640991211,0.03697691857814789,745.71240234375,0
9.891999999999825,-0.004872651305049658,-0.014258288778364658,0.0003688973665703088,0.0,0.0,0.0,0.0,-0.0028992618899792433,0.005207846872508526,0.0012726294808089733,0.9968665838241577,0.0,0.0,0.0,-4.116007328033447,9.112736701965332,0.03629184514284134,745.0055541992188,0
19.779999999998836,-0.0048370808362960815,-0.014235598966479301,0.00038307945942506194,0.0,0.0,0.0,0.0,-0.00264453305862844,-0.00012711776071228087,-0.0028143031522631645,0.9970527291297913,0.0,0.0,0.0,-4.111733436584473,9.103792190551758,0.02820795401930809,744.2319946289062,0
29.662999999998647,-0.004806963726878166,-0.014277365058660507,0.0003922967007383704,0.0,0.0,0.0,0.0,-0.0006515909917652607,-0.00011799257481470704,-0.0016143935499712825,0.9996883273124695,0.0,0.0,0.0,-4.108588218688965,9.100967407226562,0.03222964331507683,743.6626586914062,0
39.547999999998865,-0.0047653233632445335,-0.014257004484534264,0.00040472528780810535,0.0,0.0,0.0,0.0,-0.0014768514083698392,-0.003136655781418085,-0.0005516003002412617,1.0010985136032104,0.0,0.0,0.0,-4.104523181915283,9.096526145935059,0.03076310269534588,742.9268188476562,0
49.435999999999694,-0.0047319489531219006,-0.014300018548965454,0.0004126574785914272,0.0,0.0,0.0,0.0,0.0008751449058763683,-0.007380641531199217,-0.0004487271944526583,0.9989572167396545,0.0,0.0,0.0,-4.100142002105713,9.091160774230957,0.044262662529945374,742.1337890625,0
59.3229999999985,-0.0046836272813379765,-0.014259004034101963,0.00042518661939539015,0.0,0.0,0.0,0.0,-0.002015614416450262,0.0016356776468455791,9.224076347891241e-05,1.000540018081665,0.0,0.0,0.0,-4.1109795570373535,9.113180160522461,0.05944112688302994,744.0955200195312,0
69.20699999999852,-0.004651134368032217,-0.01430211029946804,0.0004336554848123342,0.0,0.0,0.0,0.0,-0.002335243858397007,-0.00023670501832384616,-0.0012570461258292198,0.9999566674232483,0.0,0.0,0.0,-4.107850551605225,9.104665756225586,0.06604436039924622,743.5291748046875,0
79.09799999999996,-0.00463962834328413,-0.014303850941359997,0.0005064150900579989,0.0,0.0,0.0,0.0,0.001941400347277522,-0.0002715518930926919,-0.0006694194162264466,1.0011602640151978,0.0,0.0,0.0,-4.103419780731201,9.100051879882812,0.06722105294466019,742.7271118164062,0
88.98099999999977,-0.00461109634488821,-0.014350679703056812,0.0005212563555687666,0.0,0.0,0.0,0.0,0.0004605957365129143,-0.0037536241579800844,0.0025932001881301403,1.0002191066741943,0.0,0.0,0.0,-4.099373817443848,9.090521812438965,0.07195138186216354,741.9948120117188,0
98.86599999999999,-0.004596100654453039,-0.014352474361658096,0.0005842417012900114,0.0,0.0,0.0,0.0,0.0014370860299095511,0.0014417886268347502,0.001061025308445096,0.9986460208892822,0.0,0.0,0.0,-4.10090446472168,9.097809791564941,0.06443153321743011,742.2718505859375,0
108.75199999999859,-0.004570249933749437,-0.014402824454009533,0.0006042619934305549,0.0,0.0,0.0,0.0,0.0011968350736424327,0.0011044275015592575,0.001517966273240745,0.999103844165802,0.0,0.0,0.0,-4.097265243530273,9.086237907409668,0.062423061579465866,741.6131591796875,0
118.63999999999942,-0.004557421430945396,-0.01440055575221777,0.0006677143392153084,0.0,0.0,0.0,0.0,0.0018055387772619724,0.0034301350824534893,0.0044935173355042934,1.000465750694275,0.0,0.0,0.0,-4.106311798095703,9.095025062561035,0.05271013453602791,743.2506103515625,0
128.52599999999984,-0.004534444306045771,-0.01445182878524065,0.0006900077569298446,0.0,0.0,0.0,0.0,-0.002597637241706252,-0.0023022342938929796,0.00038136247894726694,1.0003982782363892,0.0,0.0,0.0,-4.10123872756958,9.080842971801758,0.05075845122337341,742.3323974609375,0
138.42399999999907,-0.004496056120842695,-0.014433230273425579,0.0007173733902163804,0.0,0.0,0.0,0.0,0.003947889897972345,0.00016860793402884156,-0.0014286061050370336,1.000368356704712,0.0,0.0,0.0,-4.11001443862915,9.107006072998047,0.06410953402519226,743.9207763671875,0
148.30499999999847,-0.0044711739756166935,-0.01448375079780817,0.0007408610545098782,0.0,0.0,0.0,0.0,0.0009780387626960874,-0.00017166072211693972,-0.001449052942916751,1.0002446174621582,0.0,0.0,0.0,-4.105537414550781,9.091581344604492,0.0643685981631279,743.1104736328125,0
158.18799999999828,-0.0044398377649486065,-0.0144517095759511,0.0007981493836268783,0.0,0.0,0.0,0.0,-0.0014041776303201914,0.0013731379294767976,0.0031409775838255882,1.00123131275177,0.0,0.0,0.0,-4.102056503295898,9.077839851379395,0.06511902064085007,742.4803466796875,0
168.0709999999999,-0.0044102114625275135,-0.014500902965664864,0.0008256204309873283,0.0,0.0,0.0,0.0,0.0017290952382609248,0.00012547679943963885,-0.002539520850405097,1.000614881515503,0.0,0.0,0.0,-4.097982883453369,9.067058563232422,0.06150650978088379,741.7430419921875,0
177.95799999999872,-0.004343915265053511,-0.014444869942963123,0.0008544384618289769,0.0,0.0,0.0,0.0,-0.0011768440017476678,0.0008892383775673807,-0.0007651165942661464,0.9982724785804749,0.0,0.0,0.0,-4.0986223220825195,9.097959518432617,0.06244232878088951,741.8587646484375,0
187.84199999999873,-0.0043115271255373955,-0.014487420208752155,0.0008821178344078362,0.0,0.0,0.0,0.0,0.0010970262810587883,-0.00037818282726220787,-0.003723224624991417,0.9980477094650269,0.0,0.0,0.0,-4.095423698425293,9.094101905822754,0.061915136873722076,741.2798461914062,0
197.73099999999977,-0.004262879956513643,-0.014480342157185078,0.0008951940690167248,0.0,0.0,0.0,0.0,-0.0019245775183662772,-0.0019347099587321281,-0.0017730322433635592,0.9980902671813965,0.0,0.0,0.0,-4.108132362365723,9.107316017150879,0.06789024919271469,743.5802001953125,0
207.61599999999999,-0.004229670390486717,-0.01452126819640398,0.0009189920383505523,0.0,0.0,0.0,0.0,0.0006958322483114898,-0.0016071078134700656,-0.0009501869790256023,0.9998629093170166,0.0,0.0,0.0,-4.104328155517578,9.098893165588379,0.0735858753323555,742.8915405273438,0
217.5049999999992,-0.004184796940535307,-0.014470402151346207,0.0009581281337887049,0.0,0.0,0.0,0.0,0.0014267486985772848,0.0015773612540215254,-0.00012793725181836635,0.9998891353607178,0.0,0.0,0.0,-4.11858606338501,9.130209922790527,0.07841301709413528,745.4722290039062,0
227.39199999999983,-0.004147893283516169,-0.014509310014545918,0.0009814964141696692,0.0,0.0,0.0,0.0,-0.003431081073358655,0.007079772185534239,0.0002042945270659402,1.0008354187011719,0.0,0.0,0.0,-4.114703178405762,9.117055892944336,0.07550802826881409,744.76953125,0
237.28499999999985,-0.004106602165848017,-0.01450960710644722,0.0010001951595768332,0.0,0.0,0.0,0.0,0.0014756423188373446,0.0026267010252922773,0.0027086366899311543,0.9988964200019836,0.0,0.0,0.0,-4.120546340942383,9.126282691955566,0.06557074189186096,745.8270874023438,0
247.16599999999926,-0.004068669397383928,-0.014550409279763699,0.001024121418595314,0.0,0.0,0.0,0.0,0.0017859978834167123,0.00301134935580194,0.0032317282166332006,0.998284101486206,0.0,0.0,0.0,-4.115386962890625,9.112208366394043,0.06190960854291916,744.8932495117188,0
257.0529999999999,-0.004030538257211447,-0.014533751644194126,0.0010507669067010283,0.0,0.0,0.0,0.0,-0.0018442630534991622,-0.005625945050269365,0.002552987542003393,1.0017038583755493,0.0,0.0,0.0,-4.12355375289917,9.124409675598145,0.0612838938832283,746.3714599609375,0
266.9389999999985,-0.003990250639617443,-0.01457391120493412,0.0010738088749349117,0.0,0.0,0.0,0.0,0.0030391791369765997,-0.0017277575097978115,0.004020653665065765,1.0003823041915894,0.0,0.0,0.0,-4.118931293487549,9.118573188781738,0.06674828380346298,745.5347290039062,0
276.8289999999997,-0.003970935475081205,-0.014530057087540627,0.0011316676391288638,0.0,0.0,0.0,0.0,-0.0011472245678305626,0.005360989831387997,0.0005331413703970611,0.9974237680435181,0.0,0.0,0.0,-4.113480091094971,9.102017402648926,0.06203218549489975,744.5481567382812,0
286.7079999999987,-0.003928986843675375,-0.014568216167390347,0.0011584449093788862,0.0,0.0,0.0,0.0,0.004416969604790211,-0.0014720727922394872,0.0007233678479678929,0.9988111257553101,0.0,0.0,0.0,-4.108659744262695,9.096270561218262,0.056020043790340424,743.6756591796875,0
296.59499999999935,-0.0038791713304817677,-0.014521850273013115,0.0011936814989894629,0.0,0.0,0.0,0.0,0.0025850171223282814,0.0035471906885504723,-0.003601107047870755,1.0010203123092651,0.0,0.0,0.0,-4.1016316413879395,9.11611270904541,0.057267822325229645,742.4034423828125,0
306.47999999999956,-0.003834405681118369,-0.01455697137862444,0.0012186653912067413,0.0,0.0,0.0,0.0,-0.0005269097746349871,0.0038510062731802464,-0.0008302403148263693,1.0013846158981323,0.0,0.0,0.0,-4.098294734954834,9.098051071166992,0.0462578721344471,741.7994995117188,0
316.36699999999837,-0.00380881829187274,-0.014524808153510094,0.001257029245607555,0.0,0.0,0.0,0.0,0.0017978382529690862,-0.001421052496880293,0.0019338178681209683,1.0013920068740845,0.0,0.0,0.0,-4.1065568923950195,9.114103317260742,0.030241481959819794,743.2949829101562,0
326.2509999999984,-0.003765161382034421,-0.014559662900865078,0.0012861150316894054,0.0,0.0,0.0,0.0,0.0037700519897043705,0.002904745750129223,-0.0007883254438638687,0.9992294311523438,0.0,0.0,0.0,-4.102322578430176,9.102436065673828,0.026707392185926437,742.5285034179688,0
336.1409999999996,-0.0037429709918797016,-0.014518211595714092,0.0013267332687973976,0.0,0.0,0.0,0.0,-0.00015638409240636975,-0.001747136702761054,-0.002583882072940469,1.0003234148025513,0.0,0.0,0.0,-4.111077785491943,9.119710922241211,0.019254693761467934,744.11328125,0
346.02399999999943,-0.003699062392115593,-0.014551171101629734,0.0013581099919974804,0.0,0.0,0.0,0.0,0.0020603835582733154,0.004808920435607433,0.0014874428743496537,1.0031840801239014,0.0,0.0,0.0,-4.107563495635986,9.114947319030762,0.02683275379240513,743.4772338867188,0
355.91199999999844,-0.0037065420765429735,-0.014563451521098614,0.0013898054603487253,0.0,0.0,0.0,0.0,0.0011182595044374466,-0.002364096697419882,-0.001793613308109343,0.9995079636573792,0.0,0.0,0.0,-4.117882251739502,9.102888107299805,0.004577037412673235,745.3448486328125,0
365.8009999999995,-0.0036646274384111166,-0.014597221277654171,0.0014263932825997472,0.0,0.0,0.0,0.0,-0.001180504565127194,0.005012790206819773,0.0017539195250719786,0.9986409544944763,0.0,0.0,0.0,-4.113448143005371,9.090062141418457,0.010124191641807556,744.542236328125,0
375.6829999999991,-0.0036537570413202047,-0.014572805725038052,0.0014643081231042743,0.0,0.0,0.0,0.0,0.0019630338065326214,-0.002865036716684699,0.0021462806034833193,1.00055730342865,0.0,0.0,0.0,-4.109220504760742,9.08617115020752,0.007174690719693899,743.777099609375,0
385.5709999999999,-0.003613005392253399,-0.01460636593401432,0.001501627266407013,0.0,0.0,0.0,0.0,0.00022684221039526165,-0.0030262041836977005,-0.002735224785283208,0.9990910291671753,0.0,0.0,0.0,-4.104719161987305,9.075770378112793,0.0159435011446476,742.9622802734375,0
395.4559999999983,-0.0036120766308158636,-0.014600533060729504,0.0015294374898076057,0.0,0.0,0.0,0.0,0.0025342025328427553,-0.001984810456633568,0.0021872492507100105,0.9979046583175659,0.0,0.0,0.0,-4.118656158447266,9.083700180053711,0.015368062071502209,745.4849243164062,0
405.34499999999935,-0.0035724923945963383,-0.01463462132960558,0.0015667530242353678,0.0,0.0,0.0,0.0,-0.005815017037093639,-0.0037615292239934206,-0.0001011688873404637,0.9986752867698669,0.0,0.0,0.0,-4.114370346069336,9.07049560546875,0.024449272081255913,744.709228515625,0
415.23599999999897,-0.003546796040609479,-0.01467282883822918,0.0015754984924569726,0.0,0.0,0.0,0.0,-0.0027814845088869333,-0.004544368479400873,0.00017093340284191072,0.9992578625679016,0.0,0.0,0.0,-4.1104583740234375,9.071507453918457,0.0336420051753521,744.0011596679688,0
425.116,-0.0035060341469943523,-0.014711299911141396,0.0016093295998871326,0.0,0.0,0.0,0.0,0.0009162435308098793,0.00546465627849102,0.0003398223198018968,0.9999547004699707,0.0,0.0,0.0,-4.106366157531738,9.065418243408203,0.05380687490105629,743.2604370117188,0
435.0019999999986,-0.0034480791073292494,-0.014708807691931725,0.0016140469815582037,0.0,0.0,0.0,0.0,0.001183129963465035,0.001881800009869039,0.002385659608989954,1.0006502866744995,0.0,0.0,0.0,-4.119563579559326,9.07645034790039,0.05805230885744095,745.6492309570312,0
444.896999999999,-0.0034030284732580185,-0.01474947202950716,0.0016456367447972298,0.0,0.0,0.0,0.0,0.004172009415924549,-0.0004101423255633563,0.0020197262056171894,0.9997485876083374,0.0,0.0,0.0,-4.115382194519043,9.066235542297363,0.05068804696202278,744.8923950195312,0
454.78399999999965,-0.0033645108342170715,-0.014722633175551891,0.0016608164878562093,0.0,0.0,0.0,0.0,0.0009582088096067309,-0.0005274820723570883,0.0008671853574924171,0.9976495504379272,0.0,0.0,0.0,-4.1261372566223145,9.079137802124023,0.055302415043115616,746.8390502929688,0
464.66199999999844,-0.0033186571672558784,-0.01476371567696333,0.001691683428362012,0.0,0.0,0.0,0.0,0.0011948728933930397,0.0062307268381118774,-0.001410371740348637,0.9985717535018921,0.0,0.0,0.0,-4.122055530548096,9.069663047790527,0.05654102563858032,746.1002197265625,0
474.54899999999907,-0.003249708330258727,-0.014713975600898266,0.0016958953347057104,0.0,0.0,0.0,0.0,0.0006203315570019186,-0.002500739647075534,-0.0024869958870112896,0.9998580813407898,0.0,0.0,0.0,-4.127644062042236,9.105428695678711,0.05938556417822838,747.11181640625,0
484.4339999999993,-0.003202651860192418,-0.014753413386642933,0.0017221173038706183,0.0,0.0,0.0,0.0,0.004303917288780212,0.005142095033079386,0.0005676321452483535,1.0006712675094604,0.0,0.0,0.0,-4.123356342315674,9.095501899719238,0.06278779357671738,746.3356323242188,0
494.3209999999999,-0.0031828756909817457,-0.014704389497637749,0.0017339980695396662,0.0,0.0,0.0,0.0,-0.001421594643034041,0.0005166717455722392,0.004474190063774586,1.002249836921692,0.0,0.0,0.0,-4.118713855743408,9.118741035461426,0.061921220272779465,745.4954223632812,0
504.2069999999985,-0.00313460361212492,-0.014742772094905376,0.0017616527620702982,0.0,0.0,0.0,0.0,-0.00047731836093589664,-0.004714581184089184,0.004510979168117046,1.0016529560089111,0.0,0.0,0.0,-4.113448143005371,9.112275123596191,0.058987103402614594,744.542236328125,0
514.0939999999991,-0.0030785093549638987,-0.014672541990876198,0.0017685345374047756,0.0,0.0,0.0,0.0,-0.003510295646265149,0.005228221882134676,-0.000618418212980032,1.001314401626587,0.0,0.0,0.0,-4.111445903778076,9.148645401000977,0.08050943911075592,744.179931640625,0
523.9799999999996,-0.003029405139386654,-0.014706620946526527,0.0017986109014600515,0.0,0.0,0.0,0.0,-0.0014224402839317918,0.0012688522692769766,0.001272760215215385,1.0006632804870605,0.0,0.0,0.0,-4.107860565185547,9.145492553710938,0.07083591818809509,743.5309448242188,0
533.878999999999,-0.0030145549681037664,-0.014673732221126556,0.0017978143878281116,0.0,0.0,0.0,0.0,0.001229077810421586,0.00032143344287760556,-0.002082337625324726,0.9977744817733765,0.0,0.0,0.0,-4.118273735046387,9.15843677520752,0.07118558138608932,745.4157104492188,0
543.7599999999984,-0.002965274266898632,-0.014707738533616066,0.0018286353442817926,0.0,0.0,0.0,0.0,0.0009479501168243587,0.0035423554945737123,-0.0010559818474575877,0.9972957968711853,0.0,0.0,0.0,-4.113618850708008,9.147668838500977,0.06822378188371658,744.5731811523438,0
553.6389999999992,-0.003031895263120532,-0.014668067917227745,0.001821971032768488,0.0,0.0,0.0,0.0,-0.0017487287987023592,-0.0032251232769340277,0.005488616414368153,0.9988641142845154,0.0,0.0,0.0,-4.124253749847412,9.155932426452637,0.044563911855220795,746.4981079101562,0
563.5259999999998,-0.002984763355925679,-0.014702310785651207,0.0018519697478041053,0.0,0.0,0.0,0.0,-0.002183994511142373,-0.0004373930278234184,0.0015290213050320745,0.9988975524902344,0.0,0.0,0.0,-4.118544578552246,9.147923469543457,0.05110006779432297,745.4647216796875,0
573.4119999999984,-0.0030927557963877916,-0.014691084623336792,0.0018337240908294916,0.0,0.0,0.0,0.0,-0.00020650410442613065,-0.00032257105340249836,-0.00046523017226718366,0.9991438984870911,0.0,0.0,0.0,-4.130566596984863,9.148205757141113,0.04159815236926079,747.6407470703125,0
583.2999999999993,-0.005176133010536432,-0.014308111742138863,-2.6658057322492823e-05,0.0,0.0,0.0,0.0,0.0031283083371818066,0.0014999867416918278,-0.005262311547994614,1.0008347034454346,0.0,0.0,0.0,-4.137333869934082,9.128244400024414,-0.08647420257329941,748.8656005859375,0
593.1849999999995,-0.005176250357180834,-0.014295757748186588,1.8245313185616396e-05,0.0,0.0,0.0,0.0,-0.0008610337972640991,-0.0017542651621624827,-0.003336304100230336,1.0009474754333496,0.0,0.0,0.0,-4.148904323577881,9.122543334960938,-0.09093046188354492,750.9599609375,0
603.0709999999999,-0.00517674908041954,-0.014332599937915802,1.3332703019841574e-05,0.0,0.0,0.0,0.0,-0.0015067466301843524,-0.004957376513630152,0.0005232251132838428,1.0012799501419067,0.0,0.0,0.0,-4.14536190032959,9.111742973327637,-0.09038326889276505,750.3187866210938,0
612.9579999999987,-0.005174041260033846,-0.014284291304647923,5.925076038693078e-05,0.0,0.0,0.0,0.0,0.0009281198726966977,0.005713605787605047,-0.002400023629888892,1.0012561082839966,0.0,0.0,0.0,-4.1414055824279785,9.100726127624512,-0.07999083399772644,749.6026611328125,0
622.8459999999995,-0.005175470840185881,-0.014324232004582882,6.050781303201802e-05,0.0,0.0,0.0,0.0,-0.0022241186816245317,0.004120378289371729,0.0005005034618079662,1.000557780265808,0.0,0.0,0.0,-4.137959957122803,9.088892936706543,-0.09271220117807388,748.9790649414062,0
632.7329999999984,-0.005165222566574812,-0.014279699884355068,7.07865328877233e-05,0.0,0.0,0.0,0.0,0.001153131714090705,-0.006127078086137772,-0.0032119632232934237,1.0014718770980835,0.0,0.0,0.0,-4.146523475646973,9.097967147827148,-0.0933026373386383,750.529052734375,0
642.619999999999,-0.005167142953723669,-0.014323888346552849,7.444593211403117e-05,0.0,0.0,0.0,0.0,0.0006787931779399514,-0.0029747476801276207,0.0016430224059149623,1.0013151168823242,0.0,0.0,0.0,-4.142852306365967,9.089683532714844,-0.07523138076066971,749.864501953125,0
652.503999999999,-0.005158253014087677,-0.014228004030883312,0.00010523535456741229,0.0,0.0,0.0,0.0,-0.0007961341179907322,-0.0031448081135749817,-0.0006999702891334891,1.0005382299423218,0.0,0.0,0.0,-4.14605188369751,9.107664108276367,-0.06185225769877434,750.443603515625,0
662.3929999999982,-0.0051605007611215115,-0.014275236055254936,0.00011345398525008932,0.0,0.0,0.0,0.0,0.0023230351507663727,0.0003164154477417469,-0.0005284997751004994,1.0015525817871094,0.0,0.0,0.0,-4.142597675323486,9.099268913269043,-0.05602779611945152,749.8184814453125,0
672.2769999999982,-0.005165502894669771,-0.014251437038183212,0.00015861686551943421,0.0,0.0,0.0,0.0,0.0046678283251821995,0.0027967728674411774,0.0010728409979492426,0.9994023442268372,0.0,0.0,0.0,-4.151286602020264,9.10413646697998,-0.061767347157001495,751.3911743164062,0
682.1669999999995,-0.005168885458260775,-0.014300656504929066,0.00017134699737653136,0.0,0.0,0.0,0.0,0.0037514998111873865,-0.001254560542292893,0.002138730138540268,0.9994454979896545,0.0,0.0,0.0,-4.146673679351807,9.083219528198242,-0.0701630562543869,750.5562133789062,0
692.0489999999991,-0.005172172095626593,-0.014351701363921165,0.0001840516342781484,0.0,0.0,0.0,0.0,-0.00034238924854435027,-0.003875511232763529,0.00033464000443927944,0.9994282722473145,0.0,0.0,0.0,-4.141815185546875,9.068849563598633,-0.05741764232516289,749.6768188476562,0
701.9359999999997,-0.005153086967766285,-0.01429337915033102,0.00017813903104979545,0.0,0.0,0.0,0.0,-0.0011925470316782594,0.0016437075100839138,0.0030691546853631735,0.9985582828521729,0.0,0.0,0.0,-4.148484706878662,9.09306812286377,-0.02520378679037094,750.8839721679688,0
711.8269999999993,-0.005154044833034277,-0.01434488594532013,0.00018848742183763534,0.0,0.0,0.0,0.0,-0.002144399331882596,-0.006915726698935032,0.006741602439433336,0.9989919066429138,0.0,0.0,0.0,-4.144217491149902,9.08902359008789,-0.030617816373705864,750.1116333007812,0
721.7089999999989,-0.005133049096912146,-0.014283476397395134,0.0001921735383803025,0.0,0.0,0.0,0.0,-0.001904964679852128,-0.005278259050101042,-0.0007635101792402565,0.9971469044685364,0.0,0.0,0.0,-4.14703893661499,9.118424415588379,-0.007984246127307415,750.622314453125,0
731.6009999999987,-0.005129848141223192,-0.01433059573173523,0.00019925007654819638,0.0,0.0,0.0,0.0,-0.002058182144537568,-0.005531600210815668,-0.0004199796530883759,0.9991494417190552,0.0,0.0,0.0,-4.14345645904541,9.112183570861816,-0.00028730445774272084,749.9738159179688,0
741.482,-0.00510444538667798,-0.014250552281737328,0.00021364513668231666,0.0,0.0,0.0,0.0,-5.09601850353647e-05,-0.0009521213942207396,0.0055515700951218605,0.9989326000213623,0.0,0.0,0.0,-4.152040004730225,9.147621154785156,0.018560869619250298,751.5275268554688,0
751.3669999999984,-0.005096960812807083,-0.01429372001439333,0.00021845832816325128,0.0,0.0,0.0,0.0,0.002642265288159251,-0.0023648955393582582,-0.0007771586533635855,1.0006235837936401,0.0,0.0,0.0,-4.146914005279541,9.136293411254883,0.015060213394463062,750.599609375,0
761.2579999999998,-0.005071496125310659,-0.014277293346822262,0.00021257776825223118,0.0,0.0,0.0,0.0,-0.0010821237228810787,0.006642969790846109,-0.00021574023412540555,1.0007907152175903,0.0,0.0,0.0,-4.1545867919921875,9.15130615234375,0.02562541887164116,751.9884033203125,0
771.1409999999996,-0.005060688126832247,-0.014323802664875984,0.00021714578906539828,0.0,0.0,0.0,0.0,0.0013068423140794039,0.0057494863867759705,0.0015303217805922031,0.9987420439720154,0.0,0.0,0.0,-4.150076866149902,9.139315605163574,0.009968901053071022,751.1721801757812,0
781.0339999999997,-0.005033991765230894,-0.014296440407633781,0.00022713704674970359,0.0,0.0,0.0,0.0,-0.001102779759094119,0.0009506164933554828,-0.0017560061533004045,1.000261902809143,0.0,0.0,0.0,-4.158951282501221,9.157109260559082,-0.0037334284279495478,752.7785034179688,0
790.9249999999993,-0.005021755583584309,-0.014342501759529114,0.00023179267009254545,0.0,0.0,0.0,0.0,0.0009791445918381214,-0.004771070554852486,0.0015968135558068752,0.9995559453964233,0.0,0.0,0.0,-4.155435085296631,9.145055770874023,-0.00431938748806715,752.1420288085938,0
800.8009999999995,-0.004992025438696146,-0.014314340427517891,0.00024548315559513867,0.0,0.0,0.0,0.0,0.00044668937334790826,0.0027103382162749767,-0.0010892607970163226,0.9969731569290161,0.0,0.0,0.0,-4.159855842590332,9.171764373779297,0.01447508204728365,752.9420776367188,0
810.6859999999997,-0.004980269819498062,-0.014361784793436527,0.0002499656693544239,0.0,0.0,0.0,0.0,0.0030637974850833416,-0.0001171277035609819,-0.0005267851520329714,1.0002655982971191,0.0,0.0,0.0,-4.1558837890625,9.161818504333496,0.0009305542916990817,752.2232666015625,0
820.5829999999987,-0.0049415472894907,-0.014302588999271393,0.00027381122345104814,0.0,0.0,0.0,0.0,0.0018324039410799742,-0.00568006606772542,0.0003155207959935069,1.0015324354171753,0.0,0.0,0.0,-4.150650978088379,9.19055461883545,0.0027146360371261835,751.276123046875,0
830.4619999999995,-0.004927915055304766,-0.014345812611281872,0.00027844234136864543,0.0,0.0,0.0,0.0,0.0012203202350065112,0.0061055137775838375,-0.0014992227079346776,0.9991464614868164,0.0,0.0,0.0,-4.146707534790039,9.175190925598145,0.011815287172794342,750.5623779296875,0
840.3489999999983,-0.004894027020782232,-0.01429116353392601,0.00030861125560477376,0.0,0.0,0.0,0.0,0.0012620527995750308,0.000621947692707181,-0.00011270908726146445,0.9999495148658752,0.0,0.0,0.0,-4.1450629234313965,9.213406562805176,0.011526675894856453,750.2645874023438,0
850.2369999999992,-0.004880117252469063,-0.014331981539726257,0.00031496986048296094,0.0,0.0,0.0,0.0,-5.7928689784603193e-05,-0.0023718958254903555,0.0010070946300402284,0.9997501373291016,0.0,0.0,0.0,-4.140407085418701,9.207188606262207,0.014078945852816105,749.4219360351562,0
860.1189999999988,-0.004850149154663086,-0.014290206134319305,0.0003412908408790827,0.0,0.0,0.0,0.0,0.002792918123304844,0.0010861752089112997,-0.003002726938575506,0.999880313873291,0.0,0.0,0.0,-4.136141300201416,9.2330322265625,0.012081165798008442,748.6498413085938,0
870.0059999999994,-0.004836140666157007,-0.014329666271805763,0.0003491096431389451,0.0,0.0,0.0,0.0,0.002611745148897171,0.0023564572911709547,0.0002582092129159719,1.0010309219360352,0.0,0.0,0.0,-4.132767200469971,9.219223976135254,0.016076138243079185,748.0391235351562,0
879.8979999999992,-0.004822331480681896,-0.014372406527400017,0.0003577296738512814,0.0,0.0,0.0,0.0,-0.001377719920128584,-0.0032065333798527718,0.0006011465447954834,0.9992371201515198,0.0,0.0,0.0,-4.129281044006348,9.208490371704102,0.013374480418860912,747.4080810546875,0
889.7779999999984,-0.004808629397302866,-0.014417897909879684,0.00036700733471661806,0.0,0.0,0.0,0.0,0.0010174530325457454,-0.00021374110656324774,0.00037673607585020363,0.9991806149482727,0.0,0.0,0.0,-4.125028133392334,9.196382522583008,0.008101171813905239,746.6383056640625,0
899.6799999999985,-0.0047952099703252316,-0.014465393498539925,0.0003756997757591307,0.0,0.0,0.0,0.0,-0.0018426047172397375,0.0044302199967205524,-0.002143687568604946,0.9989808201789856,0.0,0.0,0.0,-4.121333122253418,9.185291290283203,0.012154639698565006,745.9695434570312,0
909.5619999999999,-0.004782545380294323,-0.014514059759676456,0.0003837033873423934,0.0,0.0,0.0,0.0,-0.0013025066582486033,0.002790132537484169,0.0012778451200574636,1.000199317932129,0.0,0.0,0.0,-4.1178083419799805,9.177473068237305,0.003596040653064847,745.3314819335938,0
919.4449999999997,-0.004770268686115742,-0.014563131146132946,0.0003914325498044491,0.0,0.0,0.0,0.0,0.0005946686724200845,0.0019291106145828962,-0.0042798565700650215,1.0009742975234985,0.0,0.0,0.0,-4.112977981567383,9.16840648651123,-0.010774805210530758,744.4572143554688,0
929.3309999999983,-0.004757546819746494,-0.014612888917326927,0.00039950216887518764,0.0,0.0,0.0,0.0,-7.582253601867706e-05,0.0008324915543198586,0.0028325156308710575,0.9977602958679199,0.0,0.0,0.0,-4.109738349914551,9.157039642333984,-0.020122652873396873,743.870849609375,0
939.2109999999993,-0.004744399804621935,-0.014664473943412304,0.0004076457116752863,0.0,0.0,0.0,0.0,0.0005933231441304088,0.00154598499648273,0.0020269425585865974,0.9972833395004272,0.0,0.0,0.0,-4.105138778686523,9.144503593444824,-0.028581824153661728,743.038330078125,0
949.0969999999998,-0.004731391556560993,-0.01471816748380661,0.0004142590914852917,0.0,0.0,0.0,0.0,-0.0006063712062314153,0.001294374349527061,0.0018920055590569973,0.9991300702095032,0.0,0.0,0.0,-4.101014137268066,9.131796836853027,-0.032874539494514465,742.291748046875,0
958.9879999999994,-0.004718644078820944,-0.014774040319025517,0.0004192169290035963,0.0,0.0,0.0,0.0,0.001909157377667725,-0.00026274879928678274,-0.0005389419966377318,1.0006452798843384,0.0,0.0,0.0,-4.096668720245361,9.124926567077637,-0.03844834119081497,741.5051879882812,0
968.8729999999996,-0.0047052898444235325,-0.014832241460680962,0.00042409717570990324,0.0,0.0,0.0,0.0,-0.001529329689219594,0.0001549943845020607,-0.0011343234218657017,1.0009644031524658,0.0,0.0,0.0,-4.092231750488281,9.113396644592285,-0.0420730896294117,740.7020874023438,0
978.7619999999988,-0.004691178910434246,-0.014892867766320705,0.0004302131710574031,0.0,0.0,0.0,0.0,-0.0027549262158572674,0.002700560726225376,-0.002277168445289135,1.001863718032837,0.0,0.0,0.0,-4.088037014007568,9.10274887084961,-0.05306841805577278,739.9428100585938,0
988.6429999999982,-0.004676683805882931,-0.014956701546907425,0.00043795339297503233,0.0,0.0,0.0,0.0,0.00021083957108203322,-0.002013217890635133,-0.000426098529715091,1.0000054836273193,0.0,0.0,0.0,-4.084807872772217,9.096795082092285,-0.04872116819024086,739.3583374023438,0
998.5319999999992,-0.00466239033266902,-0.015023637562990189,0.00044697365956380963,0.0,0.0,0.0,0.0,-0.00022675101354252547,-0.0038348750676959753,0.0031034182757139206,0.9980688095092773,0.0,0.0,0.0,-4.081503868103027,9.087929725646973,-0.049956608563661575,738.7603149414062,0
1008.4239999999991,-0.004648010712116957,-0.015093564987182617,0.00045592529932036996,0.0,0.0,0.0,0.0,-0.0003336732042953372,0.0028508782852441072,-0.0008419965743087232,0.9988062977790833,0.0,0.0,0.0,-4.0768561363220215,9.077436447143555,-0.04094384238123894,737.9190673828125,0
1018.3129999999983,-0.004633444827049971,-0.015166502445936203,0.0004641159321181476,0.0,0.0,0.0,0.0,0.0005262813065201044,0.004447439685463905,-0.00033439049730077386,1.0008704662322998,0.0,0.0,0.0,-4.072759628295898,9.065616607666016,-0.04376071318984032,737.1776123046875,0
1028.1889999999985,-0.004619535990059376,-0.01524148229509592,0.0004721952136605978,0.0,0.0,0.0,0.0,0.0021142836194485426,-0.00013265202869661152,-0.0016172403702512383,1.0000712871551514,0.0,0.0,0.0,-4.068890571594238,9.060824394226074,-0.04412446171045303,736.4772338867188,0
1038.075999999999,-0.004606529138982296,-0.015318692661821842,0.000480894697830081,0.0,0.0,0.0,0.0,-0.00013491016579791903,0.0003639410715550184,-0.0009702728711999953,0.9987881183624268,0.0,0.0,0.0,-4.064741134643555,9.052425384521484,-0.033127009868621826,735.7261962890625,0
1047.9669999999987,-0.00459452997893095,-0.015399418771266937,0.0004896455793641508,0.0,0.0,0.0,0.0,0.0010761665180325508,-0.006529037840664387,0.00048213943955488503,0.9983856081962585,0.0,0.0,0.0,-4.06123161315918,9.043136596679688,-0.02753596380352974,735.0910034179688,0
1057.848,-0.004582623019814491,-0.015484687872231007,0.0004976316122338176,0.0,0.0,0.0,0.0,0.002628458198159933,0.003528658300638199,1.8092365280608647e-05,0.9986988306045532,0.0,0.0,0.0,-4.056766033172607,9.035246849060059,-0.01349601149559021,734.28271484375,0
1067.7339999999986,-0.0045701018534600735,-0.015574152581393719,0.000504764320794493,0.0,0.0,0.0,0.0,0.0022093739826232195,-0.0030020989943295717,-0.0022976542823016644,0.999308168888092,0.0,0.0,0.0,-4.052701950073242,9.022991180419922,-0.017785685136914253,733.547119140625,0
1077.6219999999994,-0.004556562285870314,-0.01566646248102188,0.0005110074998810887,0.0,0.0,0.0,0.0,-0.0006792425992898643,-0.00011495027138153091,3.575347363948822e-06,0.999767541885376,0.0,0.0,0.0,-4.04923677444458,9.010313987731934,-0.011336926370859146,732.919921875,0
1087.512999999999,-0.00454226927831769,-0.015761319547891617,0.0005169573123566806,0.0,0.0,0.0,0.0,0.0012660857755690813,0.001997776795178652,-0.0015840844716876745,1.0012630224227905,0.0,0.0,0.0,-4.045047283172607,9.00234317779541,-0.012628858909010887,732.16162109375,0
1097.3939999999984,-0.00452856021001935,-0.015858707949519157,0.0005236453143879771,0.0,0.0,0.0,0.0,0.003198852762579918,-0.0011790632270276546,0.0005227949586696923,0.9990129470825195,0.0,0.0,0.0,-4.042270660400391,8.990517616271973,-0.012867012992501259,731.6589965820312,0
1107.280999999999,-0.004515388049185276,-0.015958696603775024,0.0005308701074682176,0.0,0.0,0.0,0.0,0.0018544202903285623,-0.00043181952787563205,0.0006365359877236187,0.9977636933326721,0.0,0.0,0.0,-4.03744649887085,8.978816986083984,-0.0018990372773259878,730.7858276367188,0
1117.1659999999993,-0.004501235671341419,-0.016061794012784958,0.0005373356980271637,0.0,0.0,0.0,0.0,0.0003756703808903694,0.0022616307251155376,-0.0035532021429389715,1.000272274017334,0.0,0.0,0.0,-4.032534599304199,8.961772918701172,-0.0031093398574739695,729.8967895507812,0
1127.0519999999997,-0.00448602344840765,-0.016167793422937393,0.0005431115860119462,0.0,0.0,0.0,0.0,0.0005294525763019919,-0.0034263860434293747,0.0023442048113793135,0.9985396862030029,0.0,0.0,0.0,-4.0299224853515625,8.95005989074707,-0.006303194910287857,729.4239501953125,0
1136.9389999999985,-0.004471009597182274,-0.016275878995656967,0.0005485730362124741,0.0,0.0,0.0,0.0,0.001363991410471499,0.002037525177001953,-0.0017453383188694715,0.9987978935241699,0.0,0.0,0.0,-4.025679111480713,8.933084487915039,-0.009659389965236187,728.6559448242188,0
1146.8269999999993,-0.00445529306307435,-0.01638556458055973,0.0005532793002203107,0.0,0.0,0.0,0.0,-0.0021047962363809347,-0.0010454417206346989,-0.000555970415007323,1.0003459453582764,0.0,0.0,0.0,-4.022225856781006,8.922833442687988,-0.01719740405678749,728.0308837890625,0
1156.7159999999985,-0.004438024014234543,-0.016497403383255005,0.0005577196134254336,0.0,0.0,0.0,0.0,0.001535792020149529,-8.107351459329948e-05,-0.0008719278266653419,1.0001338720321655,0.0,0.0,0.0,-4.017488956451416,8.910045623779297,-0.015638068318367004,727.1735229492188,0
1166.5999999999985,-0.004420632030814886,-0.016612449660897255,0.000562726694624871,0.0,0.0,0.0,0.0,0.0014775899471715093,0.003909089136868715,0.002159549156203866,0.9996988773345947,0.0,0.0,0.0,-4.014153480529785,8.900582313537598,-0.016550030559301376,726.5697631835938,0
1176.4869999999992,-0.004403132479637861,-0.01673126220703125,0.0005680787726305425,0.0,0.0,0.0,0.0,-0.0010235620429739356,0.0004335162229835987,-0.0024432253558188677,0.9988189339637756,0.0,0.0,0.0,-4.008983135223389,8.887523651123047,-0.01737905666232109,725.6339111328125,0
1186.3779999999988,-0.00438415864482522,-0.016853725537657738,0.0005732444697059691,0.0,0.0,0.0,0.0,-0.0014993192162364721,0.00025692154304124415,0.0011382667580619454,0.9973559379577637,0.0,0.0,0.0,-4.005543231964111,8.875861167907715,-0.026561757549643517,725.0112915039062,0
1196.2569999999996,-0.004363595973700285,-0.01697905734181404,0.0005773032316938043,0.0,0.0,0.0,0.0,0.00288328411988914,-0.0021611035335808992,0.0008352682925760746,0.9987912774085999,0.0,0.0,0.0,-4.001960277557373,8.864847183227539,-0.033464714884757996,724.36279296875,0
1206.1439999999984,-0.004342534113675356,-0.01710701361298561,0.000579770072363317,0.0,0.0,0.0,0.0,0.005085041746497154,0.0014480776153504848,-0.0008576943073421717,1.0000767707824707,0.0,0.0,0.0,-3.996603012084961,8.858332633972168,-0.01735132932662964,723.39306640625,0
1216.0409999999993,-0.004321346525102854,-0.01723809540271759,0.0005817940691486001,0.0,0.0,0.0,0.0,0.0012725344859063625,-0.001858198898844421,-0.0041366866789758205,0.9993702173233032,0.0,0.0,0.0,-3.992985486984253,8.840468406677246,-0.02926371991634369,722.73828125,0
1225.9179999999997,-0.004299327731132507,-0.017372146248817444,0.000583915738388896,0.0,0.0,0.0,0.0,0.0006836916436441243,0.0006707460852339864,-6.47340202704072e-05,0.9995991587638855,0.0,0.0,0.0,-3.9900712966918945,8.829981803894043,-0.023118434473872185,722.2108764648438,0
1235.8069999999989,-0.004276840016245842,-0.017508411779999733,0.0005861804238520563,0.0,0.0,0.0,0.0,0.0010531869484111667,0.00017459227819927037,-0.0021523330360651016,0.9974767565727234,0.0,0.0,0.0,-3.9853644371032715,8.816963195800781,-0.019699158146977425,721.35888671875,0
1245.696,-0.004254565108567476,-0.017647206783294678,0.000587996153626591,0.0,0.0,0.0,0.0,0.0026525927241891623,0.002233922015875578,-0.0008702556369826198,0.9987151622772217,0.0,0.0,0.0,-3.981550455093384,8.804068565368652,-0.013138797134160995,720.6685180664062,0
1255.575999999999,-0.004233557265251875,-0.017789477482438087,0.000588452210649848,0.0,0.0,0.0,0.0,-0.0036009089089930058,-0.004571870900690556,-0.004501405172049999,0.999704897403717,0.0,0.0,0.0,-3.977114677429199,8.792603492736816,-0.019737258553504944,719.8656616210938,0
1265.4709999999995,-0.004214458633214235,-0.01793528161942959,0.0005881940596736968,0.0,0.0,0.0,0.0,0.002560204127803445,0.0017285625217482448,1.956676169356797e-05,0.9981845021247864,0.0,0.0,0.0,-3.973461389541626,8.788545608520508,-0.007186706177890301,719.2044067382812,0
1275.3549999999996,-0.0041969288140535355,-0.018085086718201637,0.0005875341594219208,0.0,0.0,0.0,0.0,-0.0022667094599455595,-8.537655958207324e-05,0.0023718939628452063,0.9998936057090759,0.0,0.0,0.0,-3.9689137935638428,8.778217315673828,-0.00030275669996626675,718.3812866210938,0
1285.2379999999994,-0.0041814460419118404,-0.01823890581727028,0.0005863676778972149,0.0,0.0,0.0,0.0,-0.0017066156724467874,0.004257314372807741,-0.0003637994814198464,0.9984337687492371,0.0,0.0,0.0,-3.9639244079589844,8.776573181152344,-0.001881742151454091,717.478271484375,0
1295.128999999999,-0.004166971892118454,-0.018395589664578438,0.0005848559667356312,0.0,0.0,0.0,0.0,-0.0007352911052294075,-0.0034043521154671907,-0.0002289967524120584,0.9989495873451233,0.0,0.0,0.0,-3.9596896171569824,8.763887405395508,-0.013479574583470821,716.711669921875,0
1305.0109999999986,-0.004151189234107733,-0.018553949892520905,0.0005825588596053421,0.0,0.0,0.0,0.0,-0.002230194164440036,-0.0028131038416177034,-0.004025275819003582,0.9981046319007874,0.0,0.0,0.0,-3.955447196960449,8.753122329711914,-0.002015349455177784,715.94384765625,0
1314.9159999999993,-0.004133444279432297,-0.018714211881160736,0.0005789577262476087,0.0,0.0,0.0,0.0,-0.00010557417408563197,-0.0021433853544294834,-0.0018666505347937346,0.9970754981040955,0.0,0.0,0.0,-3.9522194862365723,8.7431001663208,0.006058668252080679,715.359619140625,0
1324.7879999999986,-0.004115090239793062,-0.018877241760492325,0.0005734394071623683,0.0,0.0,0.0,0.0,0.00036293448647484183,-9.012314876599703e-06,0.000764606345910579,0.9984092116355896,0.0,0.0,0.0,-3.9487392902374268,8.735581398010254,0.009438222274184227,714.7296142578125,0
1334.6759999999995,-0.004096752963960171,-0.019042864441871643,0.0005659686867147684,0.0,0.0,0.0,0.0,0.00023298007727134973,0.002017872640863061,-0.0021903503220528364,0.9977685809135437,0.0,0.0,0.0,-3.9439916610717773,8.727181434631348,0.006429519969969988,713.8703002929688,0
1344.5589999999993,-0.004077295772731304,-0.019211726263165474,0.0005570952198468149,0.0,0.0,0.0,0.0,0.0024100858718156815,-0.000652595772407949,-0.0022327094338834286,0.999708890914917,0.0,0.0,0.0,-3.940732479095459,8.719801902770996,0.010255750268697739,713.2803955078125,0
1354.450999999999,-0.0040577775798738,-0.019384359940886497,0.000547425530385226,0.0,0.0,0.0,0.0,0.001086174394004047,-0.001739436760544777,-0.001561956014484167,1.0001853704452515,0.0,0.0,0.0,-3.937156915664673,8.708499908447266,0.008755968883633614,712.6332397460938,0
1364.3379999999997,-0.004039327148348093,-0.019559994339942932,0.0005378287751227617,0.0,0.0,0.0,0.0,-0.0004598101368173957,0.0027499671559780836,-0.000742996227927506,1.0009280443191528,0.0,0.0,0.0,-3.9336884021759033,8.698567390441895,0.010889978148043156,712.0054321289062,0
1374.2219999999998,-0.003703561145812273,-0.014552268199622631,0.001409711316227913,0.0,0.0,0.0,0.0,0.001119400141760707,0.0023653735406696796,0.0017703092889860272,0.9997429251670837,0.0,0.0,0.0,-3.9528770446777344,9.180161476135254,0.03116518259048462,715.4786987304688,0
1384.0999999999985,-0.003673396771773696,-0.014593894593417645,0.0014203456230461597,0.0,0.0,0.0,0.0,-0.004968801513314247,-0.0002822627720888704,0.0029354130383580923,0.999451220035553,0.0,0.0,0.0,-3.9494175910949707,9.167986869812012,0.028612125664949417,714.8524780273438,0
1394.0049999999992,-0.0038627765607088804,-0.014484629966318607,0.00142555998172611,0.0,0.0,0.0,0.0,0.000769833626691252,2.4727562049520202e-05,0.0008416553027927876,0.9992102980613708,0.0,0.0,0.0,-3.9645233154296875,9.186837196350098,0.02004648745059967,717.586669921875,0
1403.8759999999984,-0.0038364019710570574,-0.014524193480610847,0.0014376768376678228,0.0,0.0,0.0,0.0,0.0016538056079298258,0.0015774627681821585,-0.0012095097918063402,0.9998294711112976,0.0,0.0,0.0,-3.9604861736297607,9.172162055969238,0.02133931778371334,716.85595703125,0
1413.7739999999994,-0.003977289889007807,-0.014519371092319489,0.0013719548005610704,0.0,0.0,0.0,0.0,-0.0017650743247941136,-0.005652327090501785,-0.00023897021310403943,0.9986448287963867,0.0,0.0,0.0,-3.976809501647949,9.162631034851074,-0.0016102353110909462,719.8104248046875,0
1423.6489999999994,-0.003951993305236101,-0.014561344869434834,0.0013839455787092447,0.0,0.0,0.0,0.0,3.172775177517906e-05,-0.0011394810862839222,0.0030932368244975805,0.9969529509544373,0.0,0.0,0.0,-3.972602128982544,9.150910377502441,-0.0006275348132476211,719.0488891601562,0
1433.5529999999999,-0.003998031374067068,-0.014524630270898342,0.001324153970927,0.0,0.0,0.0,0.0,5.2478211728157476e-05,0.005827183835208416,-0.0028830391820520163,0.9973981976509094,0.0,0.0,0.0,-3.9810497760772705,9.157235145568848,0.0011932001216337085,720.577880859375,0
1443.4219999999987,-0.003974283114075661,-0.01456468366086483,0.0013302400475367904,0.0,0.0,0.0,0.0,-0.00016999751096591353,0.003856541123241186,0.0012827259488403797,0.9990946650505066,0.0,0.0,0.0,-3.977783203125,9.146011352539062,0.005525296088308096,719.9866333007812,0
1453.3109999999997,-0.0040359036065638065,-0.014502821490168571,0.0012621338246390224,0.0,0.0,0.0,0.0,0.0018779697129502892,-0.0001418574684066698,-0.0010479309130460024,0.9996375441551208,0.0,0.0,0.0,-3.9879069328308105,9.166358947753906,0.001137948245741427,721.819091796875,0
1463.190999999999,-0.004014605190604925,-0.014538263902068138,0.0012643266236409545,0.0,0.0,0.0,0.0,-0.0013563191751018167,-0.007676512002944946,-0.000192443942069076,0.9991000294685364,0.0,0.0,0.0,-3.9836654663085938,9.153055191040039,0.00029595624073408544,721.0513916015625,0
1473.083999999999,-0.003947436809539795,-0.014482255093753338,0.0012240627547726035,0.0,0.0,0.0,0.0,0.004118202719837427,-0.0036603095941245556,0.0029632961377501488,1.0000442266464233,0.0,0.0,0.0,-4.005976676940918,9.193212509155273,0.04125652462244034,725.0897827148438,0
1482.9709999999995,-0.005155988037586212,-0.014346334151923656,6.289753218879923e-05,0.0,0.0,0.0,0.0,0.002684019273146987,0.005659451708197594,-0.0035641316790133715,0.9994828104972839,0.0,0.0,0.0,-4.02913236618042,9.164632797241211,0.0024749613367021084,729.2809448242188,0
1492.8629999999994,-0.005105030722916126,-0.014269189909100533,2.4844197469064966e-05,0.0,0.0,0.0,0.0,8.757898467592895e-05,0.003483763663098216,0.0005583349266089499,0.9997441172599792,0.0,0.0,0.0,-4.031345844268799,9.171622276306152,-0.004684088286012411,729.6815795898438,0
1502.735999999999,-0.005110918544232845,-0.014430844224989414,-9.492768003838137e-05,0.0,0.0,0.0,0.0,0.001948741846717894,-0.0016159742372110486,-8.23544614831917e-05,0.9983967542648315,0.0,0.0,0.0,-4.051868438720703,9.146625518798828,-0.009557575918734074,733.396240234375,0
1512.6499999999996,-0.005026024300605059,-0.014229855500161648,-0.00012239058560226113,0.0,0.0,0.0,0.0,0.0013783300528302789,0.005463368725031614,-0.00039745026151649654,0.9979655742645264,0.0,0.0,0.0,-4.06381368637085,9.163543701171875,-0.0038950624875724316,735.558349609375,0
1522.5089999999982,-0.005019736010581255,-0.014264339581131935,-0.00015647725376766175,0.0,0.0,0.0,0.0,-0.004044358152896166,3.252757096561254e-06,0.004002589266747236,0.9991826415061951,0.0,0.0,0.0,-4.05984354019165,9.146748542785645,-0.016112998127937317,734.8397216796875,0
1532.405999999999,-0.0050104595720767975,-0.014207924716174603,-0.00014898860536050051,0.0,0.0,0.0,0.0,0.0009970464743673801,0.0016518770717084408,-0.0023830668069422245,0.9993001222610474,0.0,0.0,0.0,-4.072134017944336,9.161087989807129,-0.020530935376882553,737.0643310546875,0
1542.2839999999997,-0.0050940606743097305,-0.014353910461068153,-0.0003174037265125662,0.0,0.0,0.0,0.0,0.001410794910043478,0.0033996657002717257,-0.0030515086837112904,1.0008833408355713,0.0,0.0,0.0,-4.094271659851074,9.136433601379395,-0.04364122077822685,741.0712890625,0
1552.1769999999997,-0.0050636534579098225,-0.01427734550088644,-0.00033566728234291077,0.0,0.0,0.0,0.0,0.001422917121089995,-0.0013662746641784906,-0.001965341391041875,0.9996568560600281,0.0,0.0,0.0,-4.098353862762451,9.142647743225098,-0.045273926109075546,741.8101806640625,0
1562.0609999999997,-0.005095525644719601,-0.014377834275364876,-0.0004261551657691598,0.0,0.0,0.0,0.0,0.007347557228058577,0.0021909698843955994,-0.0024843185674399137,0.9988809823989868,0.0,0.0,0.0,-4.1138410568237305,9.12407112121582,-0.05071400851011276,744.6134033203125,0
1571.9519999999993,-0.005152949597686529,-0.01439374964684248,-0.00034548304392956197,0.0,0.0,0.0,0.0,-0.0015065578045323491,-0.007861098274588585,-0.0005241397302597761,1.000569224357605,0.0,0.0,0.0,-4.110328674316406,9.099597930908203,-0.061410464346408844,743.9777221679688,0
1581.8279999999995,-0.005153717007488012,-0.014439203776419163,-0.0003799134283326566,0.0,0.0,0.0,0.0,0.0016722350846976042,0.0035208831541240215,0.0006740707322023809,0.9998705983161926,0.0,0.0,0.0,-4.106507301330566,9.094594955444336,-0.050082653760910034,743.2860717773438,0
1591.7289999999994,-0.005168701056391001,-0.014386982657015324,-0.0003354157379362732,0.0,0.0,0.0,0.0,0.000927266723010689,-0.0020414816681295633,0.0014307732926681638,0.998932421207428,0.0,0.0,0.0,-4.117005348205566,9.10068416595459,-0.058674406260252,745.1862182617188,0
1601.607,-0.005200530868023634,-0.014449591748416424,-0.0003895082918461412,0.0,0.0,0.0,0.0,0.0007744827307760715,0.002838536398485303,-0.0023681586608290672,0.9995531439781189,0.0,0.0,0.0,-4.1236653327941895,9.089714050292969,-0.06514623761177063,746.3916015625,0
1611.5029999999988,-0.005218144506216049,-0.014388258568942547,-0.00031442358158528805,0.0,0.0,0.0,0.0,-0.0006798176909796894,-0.0044214604422450066,0.0006338228704407811,0.9992976784706116,0.0,0.0,0.0,-4.12060022354126,9.075133323669434,-0.07655973732471466,745.8368530273438,0
1621.3759999999984,-0.0052215103060007095,-0.014437992125749588,-0.00033670608536340296,0.0,0.0,0.0,0.0,0.005898027215152979,0.0012969134841114283,0.0019048029789701104,0.9976913928985596,0.0,0.0,0.0,-4.116386890411377,9.067816734313965,-0.06555688381195068,745.07421875,0
1631.2749999999996,-0.005246496293693781,-0.014374637976288795,-0.0002556105609983206,0.0,0.0,0.0,0.0,0.0012226356193423271,-0.006277097854763269,-0.0015934347175061703,0.9988592267036438,0.0,0.0,0.0,-4.111359119415283,9.049039840698242,-0.06621056795120239,744.1641845703125,0
1641.1599999999999,-0.0052524106577038765,-0.01442588772624731,-0.0002717350726015866,0.0,0.0,0.0,0.0,0.0004241354181431234,0.003164685796946287,-0.0025993750896304846,0.9986447691917419,0.0,0.0,0.0,-4.10684871673584,9.036002159118652,-0.04975035414099693,743.3478393554688,0
1651.0569999999989,-0.005281565245240927,-0.014375491067767143,-0.00019069545669481158,0.0,0.0,0.0,0.0,-0.0017913648625835776,-0.005594046786427498,-0.003162976121529937,0.9978647828102112,0.0,0.0,0.0,-4.118704319000244,9.046751022338867,-0.07034216821193695,745.49365234375,0
1660.9249999999993,-0.005288463551551104,-0.014429435133934021,-0.0002015204227063805,0.0,0.0,0.0,0.0,-0.0036839183885604143,-0.004598380997776985,0.0013225132133811712,0.9975166320800781,0.0,0.0,0.0,-4.11489725112915,9.040499687194824,-0.06197282671928406,744.8045654296875,0
1670.8229999999985,-0.0053027416579425335,-0.014349063858389854,-0.00013983405369799584,0.0,0.0,0.0,0.0,0.0018953384133055806,0.0027761058881878853,0.00021814342471770942,0.9990705251693726,0.0,0.0,0.0,-4.110510349273682,9.039995193481445,-0.05957448109984398,744.0106201171875,0
1680.699999999999,-0.005307290703058243,-0.014401625841856003,-0.00014800949429627508,0.0,0.0,0.0,0.0,0.0009912927635014057,0.0006430373177863657,0.001211598515510559,0.9988957047462463,0.0,0.0,0.0,-4.1071295738220215,9.026540756225586,-0.06647840142250061,743.3986206054688,0
1690.592999999999,-0.005325914826244116,-0.014326503500342369,-7.965377881191671e-05,0.0,0.0,0.0,0.0,-0.0005119119887240231,-0.0007220635889098048,0.0036194995045661926,1.0007513761520386,0.0,0.0,0.0,-4.115960597991943,9.04880428314209,-0.0746651291847229,744.9970703125,0
1700.4669999999987,-0.005331848282366991,-0.014376216568052769,-8.293447899632156e-05,0.0,0.0,0.0,0.0,-0.002269268035888672,-0.002897863509133458,-0.0003458077844697982,0.9996756911277771,0.0,0.0,0.0,-4.110595226287842,9.038044929504395,-0.077044278383255,744.0259399414062,0
1710.3599999999988,-0.005341690499335527,-0.01431356556713581,-3.861215736833401e-05,0.0,0.0,0.0,0.0,0.0020008545834571123,-0.0008557561668567359,-5.855604285898153e-06,0.9999428987503052,0.0,0.0,0.0,-4.1196489334106445,9.060646057128906,-0.07600605487823486,745.6646728515625,0
1720.2379999999994,-0.005347432568669319,-0.014361330308020115,-3.8149231841089204e-05,0.0,0.0,0.0,0.0,0.0017173478845506907,-0.0022251936607062817,-0.0018243524245917797,1.0001965761184692,0.0,0.0,0.0,-4.115407466888428,9.046608924865723,-0.07339846342802048,744.8969116210938,0
1730.1449999999986,-0.00533287925645709,-0.014286309480667114,-2.6756470106192864e-05,0.0,0.0,0.0,0.0,0.0008548562182113528,-0.0005201222375035286,0.002417963929474354,1.0020067691802979,0.0,0.0,0.0,-4.120581150054932,9.070353507995605,-0.06516555696725845,745.8334350585938,0
1740.0109999999986,-0.005238453857600689,-0.014463232830166817,-4.947009074385278e-05,0.0,0.0,0.0,0.0,-0.0002364286920055747,0.0004207467718515545,0.0006796647212468088,1.0010044574737549,0.0,0.0,0.0,-4.128708362579346,9.028681755065918,-0.041612740606069565,747.3043823242188,0
1749.9049999999988,-0.005147122777998447,-0.014304831624031067,-7.940586510812864e-05,0.0,0.0,0.0,0.0,0.0014227221254259348,-0.003449999028816819,0.003803237108513713,0.9994659423828125,0.0,0.0,0.0,-4.1378350257873535,9.056201934814453,-0.03369588032364845,748.9564208984375,0
1759.7889999999989,-0.005176373291760683,-0.014439073391258717,-0.00015908897330518812,0.0,0.0,0.0,0.0,-0.0012171597918495536,0.002758119720965624,0.0007470354903489351,1.0002630949020386,0.0,0.0,0.0,-4.145528793334961,9.028909683227539,-0.03374367952346802,750.3489990234375,0
1769.6949999999997,-0.005088659934699535,-0.014289016835391521,-0.00017594163364265114,0.0,0.0,0.0,0.0,0.0016489392146468163,0.002747876802459359,-0.001947515644133091,0.9976974725723267,0.0,0.0,0.0,-4.149109363555908,9.050127029418945,-0.029579194262623787,750.9970703125,0
1779.5599999999995,-0.005073102656751871,-0.014338292181491852,-0.000182237898116,0.0,0.0,0.0,0.0,0.005041580181568861,0.006495978217571974,0.0008400647202506661,0.999437153339386,0.0,0.0,0.0,-4.144808769226074,9.038021087646484,-0.03589941933751106,750.2186279296875,0
1789.4559999999983,-0.005045140627771616,-0.014260919764637947,-0.00014910813479218632,0.0,0.0,0.0,0.0,0.0005860134260728955,-9.626779501559213e-05,0.0012725407723337412,1.0019619464874268,0.0,0.0,0.0,-4.149022102355957,9.040706634521484,-0.04606267437338829,750.9812622070312,0
1799.3309999999983,-0.00510468939319253,-0.014414181932806969,-0.00027151062386110425,0.0,0.0,0.0,0.0,0.002723920391872525,0.0015214037848636508,0.0017063621198758483,1.0021512508392334,0.0,0.0,0.0,-4.157469272613525,9.01640796661377,-0.04619520157575607,752.51025390625,0
1809.2289999999994,-0.0051024300046265125,-0.01439424604177475,-0.00021074258256703615,0.0,0.0,0.0,0.0,-0.000787105702329427,0.0013275375822559,-0.0003102828632108867,0.99958336353302,0.0,0.0,0.0,-4.163609981536865,9.013996124267578,-0.04650454968214035,753.6217041015625,0
1819.1029999999992,-0.005087570752948523,-0.01444953866302967,-0.00021360590471886098,0.0,0.0,0.0,0.0,-0.0010124254040420055,-0.0010471534915268421,8.75203259056434e-05,0.9980947375297546,0.0,0.0,0.0,-4.159859657287598,9.00318431854248,-0.04663613811135292,752.94287109375,0
1828.9989999999998,-0.005096007604151964,-0.014408431015908718,-0.00012146556400693953,0.0,0.0,0.0,0.0,-0.002414083108305931,5.93830191064626e-05,0.0045441254042088985,1.0005213022232056,0.0,0.0,0.0,-4.156370162963867,8.993557929992676,-0.04140128195285797,752.311279296875,0
1838.8769999999986,-0.0050814407877624035,-0.01446542702615261,-0.00011851658928208053,0.0,0.0,0.0,0.0,0.00015202906797640026,0.006839838810265064,0.0021550506353378296,1.0000778436660767,0.0,0.0,0.0,-4.151715278625488,8.984224319458008,-0.038526348769664764,751.4686889648438,0
1848.7759999999998,-0.00508530717343092,-0.01442489679902792,-2.9219678253866732e-05,0.0,0.0,0.0,0.0,0.002142480108886957,0.0038620985578745604,0.0007325028418563306,0.9996165633201599,0.0,0.0,0.0,-4.155404567718506,8.992311477661133,-0.06630177795886993,752.136474609375,0
1858.6549999999988,-0.0050702267326414585,-0.014483388513326645,-1.8943814211525023e-05,0.0,0.0,0.0,0.0,0.0009192966972477734,-0.0020004932302981615,-0.0016720762941986322,1.0000261068344116,0.0,0.0,0.0,-4.151007175445557,8.97721004486084,-0.07785077393054962,751.340576171875,0
1868.548999999999,-0.005069564562290907,-0.01443488895893097,6.653615855611861e-05,0.0,0.0,0.0,0.0,-0.0011541505809873343,-0.0008822082309052348,0.002191141014918685,0.99884033203125,0.0,0.0,0.0,-4.160063743591309,8.990667343139648,-0.08100295066833496,752.9797973632812,0
1878.432999999999,-0.005054423585534096,-0.014492521993815899,8.251451072283089e-05,0.0,0.0,0.0,0.0,-0.00021506001939997077,0.004134056624025106,0.0006280964007601142,0.999116837978363,0.0,0.0,0.0,-4.155311107635498,8.983587265014648,-0.07519157975912094,752.11962890625,0
1888.3189999999995,-0.005047259386628866,-0.014420663006603718,0.0001644808507990092,0.0,0.0,0.0,0.0,-0.0009045756887644529,0.0022013457491993904,0.00032108553568832576,1.0010530948638916,0.0,0.0,0.0,-4.161147594451904,9.005520820617676,-0.09056028723716736,753.1759643554688,0
1898.1939999999995,-0.005199027247726917,-0.014498261734843254,1.2721558960038237e-05,0.0,0.0,0.0,0.0,0.0016938212793320417,0.004920116625726223,0.0018129266100004315,1.001905918121338,0.0,0.0,0.0,-4.171243667602539,8.991050720214844,-0.1343154013156891,755.0034790039062,0
1908.0969999999998,-0.005131870973855257,-0.014397728256881237,1.9661063561215997e-05,0.0,0.0,0.0,0.0,-0.001520073157735169,0.004544174298644066,0.0004793659318238497,0.9965819120407104,0.0,0.0,0.0,-4.179141998291016,9.008660316467285,-0.13560400903224945,756.4329833984375,0
1917.9669999999987,-0.005118240602314472,-0.014454305171966553,3.0433962820097804e-05,0.0,0.0,0.0,0.0,0.0010933326557278633,-0.0024974874686449766,0.004388838075101376,0.9960805177688599,0.0,0.0,0.0,-4.175309181213379,9.002528190612793,-0.14528420567512512,755.7393188476562,0
1927.8639999999996,-0.005033534020185471,-0.014260821975767612,1.9378196157049388e-05,0.0,0.0,0.0,0.0,-0.0007072327425703406,0.0014767860993742943,-0.0011548708425834775,0.9995244741439819,0.0,0.0,0.0,-4.169907093048096,9.037984848022461,-0.12636536359786987,754.761474609375,0
1937.741,-0.005014901515096426,-0.01431294996291399,2.375040639890358e-05,0.0,0.0,0.0,0.0,0.0016648920718580484,0.0012523699551820755,0.000340392958605662,0.9990164637565613,0.0,0.0,0.0,-4.166592121124268,9.030397415161133,-0.1221790760755539,754.1614990234375,0
1947.6369999999988,-0.004972924944013357,-0.014251804910600185,2.3170463464339264e-05,0.0,0.0,0.0,0.0,0.0018705653492361307,0.0019938235636800528,-0.0016988144489005208,0.9998593926429749,0.0,0.0,0.0,-4.161824703216553,9.01959228515625,-0.1195492148399353,753.298583984375,0
1957.5159999999996,-0.004952357616275549,-0.014305329881608486,2.666210821189452e-05,0.0,0.0,0.0,0.0,-0.0018974983831867576,0.00019166556012351066,-2.1104864572407678e-05,0.9984757304191589,0.0,0.0,0.0,-4.158996105194092,9.004633903503418,-0.12936542928218842,752.7865600585938,0
1967.4259999999995,-0.004938824102282524,-0.01426788978278637,9.073494584299624e-05,0.0,0.0,0.0,0.0,0.0033137546852231026,-0.002755241934210062,-0.0032018469646573067,0.9972435235977173,0.0,0.0,0.0,-4.154703140258789,8.998862266540527,-0.13642895221710205,752.0095825195312,0
1977.2929999999997,-0.004917812068015337,-0.014322303235530853,9.64192149695009e-05,0.0,0.0,0.0,0.0,-0.0003485598135739565,0.0027068182826042175,0.0023688869550824165,1.0000451803207397,0.0,0.0,0.0,-4.151735305786133,8.984106063842773,-0.13506977260112762,751.4723510742188,0
1987.1939999999995,-0.004900947213172913,-0.014267660677433014,0.0001561774406582117,0.0,0.0,0.0,0.0,0.0008469358435831964,0.004214972723275423,-0.0004907907568849623,1.000284194946289,0.0,0.0,0.0,-4.147955894470215,8.97265911102295,-0.14444199204444885,750.7882690429688,0
1997.0589999999993,-0.0051231239922344685,-0.014366422779858112,-0.00010743179154815152,0.0,0.0,0.0,0.0,-0.0010372227989137173,-0.0004815813445020467,-0.0016098186606541276,1.000728964805603,0.0,0.0,0.0,-4.154974937438965,8.945732116699219,-0.20699818432331085,752.0587158203125,0
2006.958999999999,-0.005097301211208105,-0.014304157346487045,-5.945754674030468e-05,0.0,0.0,0.0,0.0,-0.0007668723119422793,-0.0015753355110064149,-0.0010539983632043004,0.9999231696128845,0.0,0.0,0.0,-4.16303825378418,8.9590425491333,-0.20226219296455383,753.5181884765625,0
2016.8329999999987,-0.005090100225061178,-0.01435816939920187,-6.059067527530715e-05,0.0,0.0,0.0,0.0,0.0005163732566870749,0.0011648220242932439,0.0005006846622563899,0.998489499092102,0.0,0.0,0.0,-4.159555435180664,8.951294898986816,-0.1977396011352539,752.8877563476562,0
2026.7259999999987,-0.005095720291137695,-0.014330949634313583,2.139279604307376e-05,0.0,0.0,0.0,0.0,-0.0018750145100057125,0.006020341534167528,-0.0024154074490070343,0.9975386261940002,0.0,0.0,0.0,-4.165923595428467,8.954577445983887,-0.21286092698574066,754.0404663085938,0
2036.610999999999,-0.005090612452477217,-0.014387670904397964,2.4358010705327615e-05,0.0,0.0,0.0,0.0,-0.00032509880838915706,0.006112424656748772,-0.0016496016178280115,0.9990034699440002,0.0,0.0,0.0,-4.162461280822754,8.948789596557617,-0.23208647966384888,753.4137573242188,0
2046.5049999999992,-0.0050927880220115185,-0.014366031624376774,8.777227776590735e-05,0.0,0.0,0.0,0.0,-0.0012618247419595718,0.003182495478540659,-0.0018939974252134562,1.0001213550567627,0.0,0.0,0.0,-4.158914566040039,8.939992904663086,-0.24582161009311676,752.7718505859375,0
2056.383999999998,-0.005087416619062424,-0.014421611092984676,9.395620145369321e-05,0.0,0.0,0.0,0.0,0.0008304397342726588,-0.001358802430331707,0.0033028307370841503,0.9990074038505554,0.0,0.0,0.0,-4.155511379241943,8.93297004699707,-0.25536108016967773,752.1558227539062,0
2066.2659999999996,-0.0050821551121771336,-0.014340677298605442,0.00016349746147170663,0.0,0.0,0.0,0.0,-0.0005464954883791506,-0.006501629948616028,0.0033588989172130823,0.999646782875061,0.0,0.0,0.0,-4.150479316711426,8.922944068908691,-0.25769343972206116,751.2449951171875,0
2076.151,-0.005076739937067032,-0.014396009966731071,0.0001738435821607709,0.0,0.0,0.0,0.0,0.001919782953336835,-0.001155866775661707,-0.0016094328602775931,1.0012671947479248,0.0,0.0,0.0,-4.145236968994141,8.921005249023438,-0.24379128217697144,750.296142578125,0
2086.044,-0.0050598871894180775,-0.014294430613517761,0.0002103393489960581,0.0,0.0,0.0,0.0,-0.0006266306154429913,0.0005193469696678221,0.0018637172179296613,1.0009911060333252,0.0,0.0,0.0,-4.154629230499268,8.949972152709961,-0.23930366337299347,751.9961547851562,0
2095.922999999999,-0.00505520636215806,-0.014345741830766201,0.0002243633207399398,0.0,0.0,0.0,0.0,-0.001509991241618991,-0.0018654132727533579,0.0008883466362021863,1.0019242763519287,0.0,0.0,0.0,-4.15013313293457,8.941021919250488,-0.2367304116487503,751.182373046875,0
2105.8129999999983,-0.005019978620111942,-0.01425158604979515,0.00020482325635384768,0.0,0.0,0.0,0.0,-0.0012959883315488696,-0.0032068989239633083,-0.0020137501414865255,1.0019892454147339,0.0,0.0,0.0,-4.157299518585205,8.97726821899414,-0.2227787971496582,752.4794311523438,0
2115.6949999999997,-0.005012305453419685,-0.014301011338829994,0.0002197242429247126,0.0,0.0,0.0,0.0,0.0015900657745078206,-0.00019844902271870524,0.0018911417573690414,1.0013446807861328,0.0,0.0,0.0,-4.152904987335205,8.973282814025879,-0.21333155035972595,751.6840209960938,0
2125.5869999999995,-0.004994349554181099,-0.014252860099077225,0.0002500224800314754,0.0,0.0,0.0,0.0,0.00031492894049733877,-0.0004640765255317092,-0.0027062695007771254,1.0006790161132812,0.0,0.0,0.0,-4.14775276184082,8.96442985534668,-0.20928962528705597,750.7515258789062,0
