timestamp,stateEstimate.x,stateEstimate.y,stateEstimate.z,controller.cmd_thrust,controller.cmd_roll,controller.cmd_pitch,controller.cmd_yaw,controller.r_roll,controller.r_pitch,controller.r_yaw,controller.accelz,controller.actuatorThrust,controller.roll,controller.pitch,controller.yaw,controller.rollRate,controller.pitchRate,controller.yawRate,controller.ctr_yaw
0.0,0.005961201619356871,0.0018294344190508127,0.0007792688556946814,0.0,0.0,0.0,0.0,0.003531371708959341,-0.0036055543459951878,0.0033199733588844538,0.9986158013343811,0.0,0.0,0.0,-14.070873260498047,1.9819799661636353,5.587129592895508,2546.856201171875,0
9.912000000000262,0.005947885103523731,0.001832448411732912,0.0007705960888415575,0.0,0.0,0.0,0.0,0.0017134774243459105,-4.628015813068487e-05,-0.0004570137243717909,0.9991905689239502,0.0,0.0,0.0,-14.057280540466309,1.9724411964416504,5.584826469421387,2544.395751953125,0
19.81999999999971,0.005968424025923014,0.0018489022040739655,0.0007325780461542308,0.0,0.0,0.0,0.0,-0.0007672339561395347,-0.0006782096461392939,-0.0018714461475610733,0.9995913505554199,0.0,0.0,0.0,-14.11760425567627,1.9772127866744995,5.585024833679199,2555.314453125,0
29.717000000000553,0.005955932661890984,0.0018505410989746451,0.0007221086998470128,0.0,0.0,0.0,0.0,-0.0007565126288682222,-0.0026108843740075827,-0.000994621543213725,0.9994893074035645,0.0,0.0,0.0,-14.103466033935547,1.9762133359909058,5.581127166748047,2552.755615234375,0
39.637000000000626,0.006012703292071819,0.001911217113956809,0.0006729396991431713,0.0,0.0,0.0,0.0,-0.0020758803002536297,-0.00027757129282690585,0.0009995526634156704,1.001670002937317,0.0,0.0,0.0,-14.159073829650879,1.9942001104354858,5.600673198699951,2562.820556640625,0
49.538000000000466,0.006003362126648426,0.0019151847809553146,0.000663400162011385,0.0,0.0,0.0,0.0,2.4841216145432554e-05,-0.0005973340012133121,-0.0026795014273375273,0.9997029304504395,0.0,0.0,0.0,-14.14401912689209,1.9885915517807007,5.5879435539245605,2560.095458984375,0
59.451999999999316,0.006011943332850933,0.0019102466758340597,0.0006377422832883894,0.0,0.0,0.0,0.0,-0.001705592731013894,0.00016485746891703457,0.00142320292070508,0.9992772340774536,0.0,0.0,0.0,-14.179936408996582,1.9844799041748047,5.5955610275268555,2566.5966796875,0
69.36599999999999,0.006003467366099358,0.0019140337826684117,0.0006277612410485744,0.0,0.0,0.0,0.0,-0.0011962398421019316,-0.0002741127973422408,-0.0005035296780988574,0.9968861937522888,0.0,0.0,0.0,-14.165497779846191,1.9851030111312866,5.5917181968688965,2563.983154296875,0
79.27399999999943,0.0058892094530165195,0.001806227141059935,0.0008081229752860963,0.0,0.0,0.0,0.0,-0.0017637728014960885,-0.002105368534103036,0.0004217952082399279,0.9993767738342285,0.0,0.0,0.0,-14.235297203063965,1.984154462814331,5.584708213806152,2576.617431640625,0
89.18000000000029,0.005878102965652943,0.0018068129429593682,0.0007984589319676161,0.0,0.0,0.0,0.0,-0.0002473912900313735,0.008406232111155987,0.0016506020911037922,1.0000216960906982,0.0,0.0,0.0,-14.220684051513672,1.982612133026123,5.589163780212402,2573.97216796875,0
99.09799999999996,0.005943121388554573,0.0017904830165207386,0.0007973206811584532,0.0,0.0,0.0,0.0,-0.004087765235453844,-0.0011228043586015701,-0.002376929158344865,1.000720739364624,0.0,0.0,0.0,-14.248930931091309,1.9813311100006104,5.583512306213379,2579.0849609375,0
108.99799999999959,0.00593332014977932,0.0017892069881781936,0.0007877107709646225,0.0,0.0,0.0,0.0,0.0023449575528502464,-0.002366109052672982,0.0018753628246486187,1.001211166381836,0.0,0.0,0.0,-14.23570728302002,1.9821947813034058,5.582547187805176,2576.691650390625,0
118.91899999999987,0.005972652230411768,0.0017826579278334975,0.0007804366177879274,0.0,0.0,0.0,0.0,-9.470344230066985e-05,-0.001988440752029419,-0.00016359233995899558,0.9991028308868408,0.0,0.0,0.0,-14.259074211120605,1.9779391288757324,5.58987283706665,2580.9208984375,0
128.82500000000073,0.005962234456092119,0.0017805245006456971,0.0007722809677943587,0.0,0.0,0.0,0.0,0.0005788042908534408,0.00216230982914567,-0.0009219201747328043,0.9983288049697876,0.0,0.0,0.0,-14.24407958984375,1.9778887033462524,5.590330123901367,2578.206787109375,0
138.74099999999999,0.006012021563947201,0.0017899544909596443,0.0007800778257660568,0.0,0.0,0.0,0.0,0.000695504539180547,0.003550638211891055,0.0003528424131218344,1.0013744831085205,0.0,0.0,0.0,-14.283711433410645,1.9866113662719727,5.586014747619629,2585.380126953125,0
148.64400000000023,0.006001878995448351,0.0017879997612908483,0.0007727313204668462,0.0,0.0,0.0,0.0,0.00017577609105501324,0.001712505822069943,-0.004292353056371212,0.99989253282547,0.0,0.0,0.0,-14.268834114074707,1.9793157577514648,5.569155693054199,2582.687255859375,0
158.5560000000005,0.006009205710142851,0.001789073459804058,0.0007710130885243416,0.0,0.0,0.0,0.0,-0.0019476786255836487,-0.003987108822911978,-0.001991904340684414,0.998651921749115,0.0,0.0,0.0,-14.291457176208496,1.9733327627182007,5.570764064788818,2586.7822265625,0
168.46399999999994,0.005990984849631786,0.0018019856652244925,0.0007766984053887427,0.0,0.0,0.0,0.0,0.0003218826313968748,0.0010632730554789305,0.002635285956785083,0.999759316444397,0.0,0.0,0.0,-14.308056831359863,1.989512324333191,5.565556526184082,2589.78662109375,0
178.39300000000003,0.0060647716745734215,0.0017897472716867924,0.0008384059765376151,0.0,0.0,0.0,0.0,-0.0014148944756016135,-0.00038678623968735337,-0.0021978337317705154,0.9988427758216858,0.0,0.0,0.0,-14.320035934448242,1.9893099069595337,5.567683696746826,2591.954833984375,0
188.28900000000067,0.006065405905246735,0.0017887844005599618,0.0007996476488187909,0.0,0.0,0.0,0.0,0.0002685175568331033,-0.006092011462897062,0.0021323871333152056,1.0010985136032104,0.0,0.0,0.0,-14.332416534423828,1.9911853075027466,5.567568778991699,2594.19580078125,0
198.21199999999953,0.00597010925412178,0.00180779246147722,0.0007963411044329405,0.0,0.0,0.0,0.0,-0.004087778739631176,0.002764423843473196,-0.0032963112462311983,0.9993851184844971,0.0,0.0,0.0,-14.352277755737305,1.998711109161377,5.570946216583252,2597.791015625,0
208.10299999999916,0.005955165717750788,0.001805288135074079,0.0007933767046779394,0.0,0.0,0.0,0.0,-0.004232508596032858,-0.0008088522008620203,-0.0008785293321125209,0.9992954730987549,0.0,0.0,0.0,-14.338229179382324,2.003901958465576,5.5594868659973145,2595.247802734375,0
218.01599999999962,0.005969624500721693,0.0017802939983084798,0.0007878255564719439,0.0,0.0,0.0,0.0,0.0012665241956710815,-0.0005654680426232517,-0.004087123088538647,1.0005899667739868,0.0,0.0,0.0,-14.35108757019043,2.0007383823394775,5.558536529541016,2597.575439453125,0
227.92200000000048,0.0059982906095683575,0.0018485033651813865,0.000713419693056494,0.0,0.0,0.0,0.0,-0.0012513097608461976,-0.0033196001313626766,0.002832218073308468,0.9976992607116699,0.0,0.0,0.0,-14.365635871887207,2.0063750743865967,5.555217742919922,2600.208740234375,0
237.84799999999996,0.006006588693708181,0.001822735881432891,0.0007158361840993166,0.0,0.0,0.0,0.0,0.0029849123675376177,-0.001914448686875403,0.0037493386771529913,0.9984821677207947,0.0,0.0,0.0,-14.375266075134277,2.0038528442382812,5.564809322357178,2601.951904296875,0
247.7450000000008,0.005992625840008259,0.0018212494906038046,0.0007065933896228671,0.0,0.0,0.0,0.0,0.0027933563105762005,0.005098490975797176,-0.0026841387152671814,1.000761866569519,0.0,0.0,0.0,-14.36035442352295,1.999563455581665,5.5645647048950195,2599.252685546875,0
257.66200000000026,0.006024954374879599,0.0018515969859436154,0.0007293187081813812,0.0,0.0,0.0,0.0,-0.0008776012691669166,0.001577726798132062,0.00035161327105015516,0.9998989701271057,0.0,0.0,0.0,-14.378134727478027,2.005368709564209,5.552701473236084,2602.470947265625,0
267.5630000000001,0.006010501645505428,0.001851700828410685,0.0007230291375890374,0.0,0.0,0.0,0.0,0.0009481404558755457,0.0004129835870116949,-0.0008293383871205151,0.9979211688041687,0.0,0.0,0.0,-14.362942695617676,2.0007665157318115,5.547091960906982,2599.721435546875,0
277.47999999999956,0.006007811054587364,0.0018541692988947034,0.0007201835978776217,0.0,0.0,0.0,0.0,-0.001285580568946898,0.0013760114088654518,0.004253889434039593,0.9987646341323853,0.0,0.0,0.0,-14.3749361038208,1.9943293333053589,5.548271656036377,2601.89208984375,0
287.3860000000004,0.005990184377878904,0.001854489790275693,0.0007119323126971722,0.0,0.0,0.0,0.0,-0.0021499693393707275,0.0002582899178378284,-0.004868470598012209,1.000349521636963,0.0,0.0,0.0,-14.359801292419434,1.9949305057525635,5.544454097747803,2599.152587890625,0
297.3089999999993,0.005969704128801823,0.0018557040020823479,0.0007035630405880511,0.0,0.0,0.0,0.0,-0.0008992403163574636,0.001124427537433803,0.003445381997153163,0.996509313583374,0.0,0.0,0.0,-14.37840461730957,1.9972889423370361,5.541807174682617,2602.52001953125,0
307.20800000000054,0.005949853919446468,0.0018565623322501779,0.0006939437589608133,0.0,0.0,0.0,0.0,0.0002445891732349992,-0.0014103082939982414,0.0009007977205328643,0.9969390630722046,0.0,0.0,0.0,-14.363289833068848,1.9957526922225952,5.53709077835083,2599.783935546875,0
317.1260000000002,0.006049568299204111,0.00186922587454319,0.000694948947057128,0.0,0.0,0.0,0.0,0.00046086503425613046,-0.002807841170579195,0.00041733618127182126,1.000019907951355,0.0,0.0,0.0,-14.372537612915039,1.9994009733200073,5.55694580078125,2601.4580078125,0
327.03000000000065,0.006031868048012257,0.0018721400992944837,0.0006818658439442515,0.0,0.0,0.0,0.0,0.0008503763820044696,0.0005068052560091019,-0.004629666917026043,1.0024439096450806,0.0,0.0,0.0,-14.357380867004395,1.9932138919830322,5.550751686096191,2598.714599609375,0
336.9410000000007,0.006029656156897545,0.0018702473025768995,0.000665149069391191,0.0,0.0,0.0,0.0,-0.0008842101087793708,0.0012254905886948109,0.0007881880737841129,1.0003741979599,0.0,0.0,0.0,-14.369731903076172,1.9942238330841064,5.552608966827393,2600.9501953125,0
346.84799999999996,0.006011575926095247,0.001870695035904646,0.0006541596376337111,0.0,0.0,0.0,0.0,-0.002994881011545658,-0.000979539006948471,-0.0017580335261300206,1.000723123550415,0.0,0.0,0.0,-14.35401439666748,1.9940546751022339,5.544713973999023,2598.105224609375,0
356.7639999999992,0.006065347231924534,0.0018723099492490292,0.0006480168667621911,0.0,0.0,0.0,0.0,0.0012772631598636508,-0.001680175424553454,0.001189538510516286,1.002708077430725,0.0,0.0,0.0,-14.377798080444336,2.0037336349487305,5.559469223022461,2602.41015625,0
366.66699999999946,0.006049762014299631,0.0018719496438279748,0.0006400412530638278,0.0,0.0,0.0,0.0,-0.002762948628515005,-0.006555706262588501,-0.0034449552185833454,1.003159523010254,0.0,0.0,0.0,-14.363560676574707,1.9982446432113647,5.557634353637695,2599.8330078125,0
376.58699999999953,0.006068083923310041,0.0018726368434727192,0.0006364377913996577,0.0,0.0,0.0,0.0,-0.0019414599519222975,0.005009381100535393,-0.0019094254821538925,1.001707673072815,0.0,0.0,0.0,-14.38581371307373,2.0059757232666016,5.580852508544922,2603.861083984375,0
386.4840000000004,0.00605326471850276,0.00187233230099082,0.000634421652648598,0.0,0.0,0.0,0.0,0.002499735215678811,0.0009117020526900887,-0.004094734787940979,0.9986502528190613,0.0,0.0,0.0,-14.371973991394043,2.0038065910339355,5.561907768249512,2601.356201171875,0
396.39999999999964,0.006043503060936928,0.001872231368906796,0.0006288064760155976,0.0,0.0,0.0,0.0,0.0016224340070039034,0.0013629896566271782,-0.0014194732066243887,0.9968792200088501,0.0,0.0,0.0,-14.384319305419922,1.995531678199768,5.55424690246582,2603.59033203125,0
406.3080000000009,0.0060292696580290794,0.0018728633876889944,0.000625726068392396,0.0,0.0,0.0,0.0,-0.00013003901403862983,-0.0044133905321359634,0.002628630492836237,0.9992232918739319,0.0,0.0,0.0,-14.370211601257324,1.9971843957901,5.54840087890625,2601.036865234375,0
416.22199999999975,0.005988464690744877,0.001881613046862185,0.0006209835992194712,0.0,0.0,0.0,0.0,-0.0003689132281579077,-0.00014634417311754078,0.0019608871079981327,0.9999451637268066,0.0,0.0,0.0,-14.388531684875488,1.9967061281204224,5.543342113494873,2604.35302734375,0
426.1229999999996,0.005971358623355627,0.0018815891817212105,0.0006158474134281278,0.0,0.0,0.0,0.0,0.001221385900862515,-0.0012038180138915777,0.00046181093784980476,0.9997096657752991,0.0,0.0,0.0,-14.373635292053223,1.9948524236679077,5.5410637855529785,2601.656494140625,0
436.0400000000009,0.005968249402940273,0.0018980364548042417,0.0006204528617672622,0.0,0.0,0.0,0.0,0.00030157368746586144,0.0009613162255845964,-0.0031992646399885416,0.9989327788352966,0.0,0.0,0.0,-14.379890441894531,1.9983576536178589,5.5374016761779785,2602.788818359375,0
445.9490000000005,0.005951188039034605,0.001897998619824648,0.0006159220356494188,0.0,0.0,0.0,0.0,0.0005569833447225392,-0.0038384171202778816,0.003694869577884674,0.9996975064277649,0.0,0.0,0.0,-14.36637020111084,1.9921401739120483,5.528131484985352,2600.341552734375,0
455.8610000000008,0.005972834769636393,0.001899233553558588,0.0006110398680903018,0.0,0.0,0.0,0.0,0.0008476217626594007,-0.0007927230908535421,0.0008139673736877739,0.9981205463409424,0.0,0.0,0.0,-14.383359909057617,1.9968141317367554,5.550111770629883,2603.416748046875,0
465.77100000000064,0.005943902302533388,0.0019116720650345087,0.0005936824018135667,0.0,0.0,0.0,0.0,-0.0009787610033527017,0.0001575999049236998,-0.0022628302685916424,1.0000061988830566,0.0,0.0,0.0,-14.392695426940918,2.004108428955078,5.5503363609313965,2605.1064453125,0
475.6859999999997,0.005973080638796091,0.0018861499847844243,0.0006297724903561175,0.0,0.0,0.0,0.0,-0.0005837020580656826,0.00385378603823483,0.0019417171133682132,0.9987901449203491,0.0,0.0,0.0,-14.410062789916992,2.0038325786590576,5.556281089782715,2608.250244140625,0
485.59699999999975,0.005927107762545347,0.0018674097955226898,0.0007028818363323808,0.0,0.0,0.0,0.0,0.00023210857762023807,0.0036636730656027794,-0.0032297277357429266,1.0008199214935303,0.0,0.0,0.0,-14.414575576782227,2.0040528774261475,5.543177127838135,2609.06689453125,0
495.5059999999994,0.0060436478815972805,0.0018352639162912965,0.0007727900519967079,0.0,0.0,0.0,0.0,-0.0007581065292470157,-0.00180633959826082,0.00044952527969144285,1.000791311264038,0.0,0.0,0.0,-14.417792320251465,1.9998785257339478,5.554050922393799,2609.649169921875,0
505.41799999999967,0.006028968375176191,0.0018331424798816442,0.0007764968904666603,0.0,0.0,0.0,0.0,-0.0018645112868398428,-0.004835418425500393,-0.0007893962319940329,0.9987300038337708,0.0,0.0,0.0,-14.402532577514648,1.9941080808639526,5.547464370727539,2606.88720703125,0
515.3299999999999,0.006067156326025724,0.0018237041076645255,0.0007905386737547815,0.0,0.0,0.0,0.0,-0.0012760452227666974,-0.0030797640793025494,0.003998960833996534,1.0020198822021484,0.0,0.0,0.0,-14.40389633178711,1.9971506595611572,5.563140392303467,2607.1337890625,0
525.2340000000004,0.0060538239777088165,0.0018220912897959352,0.000794950348790735,0.0,0.0,0.0,0.0,0.001380809349939227,0.001582931843586266,-0.0014283615164458752,1.0015150308609009,0.0,0.0,0.0,-14.387768745422363,2.000685214996338,5.570612907409668,2604.21484375,0
535.1460000000006,0.006051384378224611,0.0018098714062944055,0.0007959686918184161,0.0,0.0,0.0,0.0,-0.0029179868288338184,-0.004562415648251772,0.002954962896183133,1.0020734071731567,0.0,0.0,0.0,-14.403491973876953,1.9934685230255127,5.573618412017822,2607.060546875,0
545.0509999999995,0.0060385302640497684,0.0018086910713464022,0.0008033794001676142,0.0,0.0,0.0,0.0,0.00024174497229978442,0.0009692040621303022,-0.004216278437525034,1.001909613609314,0.0,0.0,0.0,-14.387494087219238,1.9993921518325806,5.576728343963623,2604.1650390625,0
554.9680000000008,0.006042955908924341,0.0018114587292075157,0.0008186352788470685,0.0,0.0,0.0,0.0,-0.0003590836131479591,0.0011782735818997025,0.0007761396700516343,0.9986154437065125,0.0,0.0,0.0,-14.407408714294434,1.99480140209198,5.574039936065674,2607.76953125,0
564.8760000000002,0.006011074408888817,0.0017808020347729325,0.0008567931945435703,0.0,0.0,0.0,0.0,0.0004103211686015129,0.0012737020151689649,-0.0003988929674960673,0.9991806149482727,0.0,0.0,0.0,-14.411443710327148,1.9929572343826294,5.568741321563721,2608.5,0
574.7929999999997,0.005976032465696335,0.0017590696224942803,0.0008748399559408426,0.0,0.0,0.0,0.0,0.0009646068210713565,-0.0028000217862427235,-0.0014838604256510735,0.9983888268470764,0.0,0.0,0.0,-14.418623924255371,1.9874378442764282,5.562323093414307,2609.799560546875,0
584.7000000000007,0.005956464447081089,0.001753296353854239,0.0008855947526171803,0.0,0.0,0.0,0.0,-0.0028699259273707867,-0.0027329782024025917,0.0035665479954332113,0.9974279999732971,0.0,0.0,0.0,-14.40507984161377,1.9862600564956665,5.5664520263671875,2607.34814453125,0
594.6119999999992,0.005997593980282545,0.0017375637544319034,0.000905921624507755,0.0,0.0,0.0,0.0,-0.000808887358289212,0.0006055397097952664,-0.0009690987062640488,1.000230312347412,0.0,0.0,0.0,-14.419185638427734,1.9914835691452026,5.586709022521973,2609.901123046875,0
604.5139999999992,0.005980031564831734,0.001730859512463212,0.0009149382822215557,0.0,0.0,0.0,0.0,0.00018086824275087565,-0.00446787104010582,-0.00021277213818393648,0.9997857809066772,0.0,0.0,0.0,-14.405442237854004,1.9929084777832031,5.5835347175598145,2607.41357421875,0
614.4279999999999,0.006034333258867264,0.0017380930949002504,0.0009426380274817348,0.0,0.0,0.0,0.0,-0.004802771378308535,0.008030805736780167,0.0020153713412582874,0.9998979568481445,0.0,0.0,0.0,-14.405014991760254,1.9969286918640137,5.607193946838379,2607.33642578125,0
624.3389999999999,0.006017033942043781,0.0017305442597717047,0.0009536133147776127,0.0,0.0,0.0,0.0,0.002222580136731267,-0.0027199944015592337,0.00010971157462336123,0.9992945194244385,0.0,0.0,0.0,-14.389881134033203,2.0024962425231934,5.591453552246094,2604.59716796875,0
634.2479999999996,0.0061030276119709015,0.0017142175929620862,0.000964767939876765,0.0,0.0,0.0,0.0,0.001949860597960651,0.00015987319056876004,-0.0023830498103052378,0.9986317753791809,0.0,0.0,0.0,-14.387121200561523,1.997671127319336,5.621270656585693,2604.09765625,0
644.1620000000003,0.006084923632442951,0.0017048025038093328,0.0009749290184117854,0.0,0.0,0.0,0.0,-0.0033177249133586884,-0.001998940948396921,0.00035532773472368717,1.0005725622177124,0.0,0.0,0.0,-14.373080253601074,1.9934276342391968,5.6172404289245605,2601.55615234375,0
654.0699999999997,0.005943489260971546,0.001696695457212627,0.0009789401665329933,0.0,0.0,0.0,0.0,-0.002736537717282772,-0.0014272961998358369,0.000576239894144237,0.9975214600563049,0.0,0.0,0.0,-14.387243270874023,1.9983255863189697,5.597434043884277,2604.11962890625,0
663.973,0.005919936578720808,0.0016868261154741049,0.0009877406992018223,0.0,0.0,0.0,0.0,-0.002278916770592332,0.0019506823737174273,-0.000519760767929256,0.9974613189697266,0.0,0.0,0.0,-14.371275901794434,1.9994394779205322,5.601845741271973,2601.2294921875,0
673.8790000000008,0.0058780694380402565,0.001685334020294249,0.0010024303337559104,0.0,0.0,0.0,0.0,-0.0002743993536569178,0.0030413938220590353,-0.00017160047718789428,0.9984607696533203,0.0,0.0,0.0,-14.388254165649414,2.0050415992736816,5.595676422119141,2604.302734375,0
683.8009999999995,0.005853785667568445,0.0016736063407734036,0.0010077981278300285,0.0,0.0,0.0,0.0,0.004212911240756512,-0.004016318824142218,0.0011386212427169085,0.9990765452384949,0.0,0.0,0.0,-14.374786376953125,2.0065653324127197,5.583693027496338,2601.865234375,0
693.7119999999995,0.005853273905813694,0.0016743037849664688,0.0010288648772984743,0.0,0.0,0.0,0.0,-0.0014861009549349546,-0.0008227697690017521,0.002068090019747615,1.000555157661438,0.0,0.0,0.0,-14.394619941711426,2.0064291954040527,5.597245693206787,2605.454833984375,0
703.6239999999998,0.005829273257404566,0.001661523594520986,0.0010345400078222156,0.0,0.0,0.0,0.0,0.0031975102610886097,-0.005112262908369303,0.00019058765610679984,1.0000067949295044,0.0,0.0,0.0,-14.37935733795166,2.0102591514587402,5.596900463104248,2602.6923828125,0
713.5190000000002,0.005861177574843168,0.001670581754297018,0.0010682777501642704,0.0,0.0,0.0,0.0,-0.00042611765093170106,-0.0024748642463237047,0.0005691812257282436,0.9988217353820801,0.0,0.0,0.0,-14.389939308166504,2.017908811569214,5.615224838256836,2604.607666015625,0
723.4390000000003,0.0058378432877361774,0.0016621537506580353,0.001076113199815154,0.0,0.0,0.0,0.0,0.0012051330413669348,0.0007746039773337543,-0.001770361908711493,0.9980443716049194,0.0,0.0,0.0,-14.374512672424316,2.016633987426758,5.6167449951171875,2601.8154296875,0
733.3410000000003,0.005829453002661467,0.0016885994700714946,0.0011159379500895739,0.0,0.0,0.0,0.0,0.00018701324006542563,0.002996110823005438,-0.004172914195805788,0.9983086585998535,0.0,0.0,0.0,-14.394862174987793,2.03318190574646,5.613794803619385,2605.49853515625,0
743.2639999999992,0.005830030422657728,0.0017682422185316682,0.0009751686011441052,0.0,0.0,0.0,0.0,-0.0010316971456632018,0.003127594944089651,0.0037290281616151333,0.9985024929046631,0.0,0.0,0.0,-14.401483535766602,2.05299973487854,5.597695350646973,2606.697021484375,0
753.1610000000001,0.005919330287724733,0.001708654104731977,0.0010209798347204924,0.0,0.0,0.0,0.0,-0.000840130727738142,-0.0009238847997039557,-0.00024996561114676297,1.0036393404006958,0.0,0.0,0.0,-14.40976333618164,2.046186923980713,5.612884998321533,2608.19580078125,0
763.0750000000007,0.005902877077460289,0.0017086392035707831,0.001024080440402031,0.0,0.0,0.0,0.0,-0.00027941589360125363,-0.0007188247400335968,-0.0023386573884636164,1.0020567178726196,0.0,0.0,0.0,-14.396538734436035,2.045520305633545,5.608781814575195,2605.802001953125,0
772.9860000000008,0.0059289634227752686,0.0016866051591932774,0.0010270150378346443,0.0,0.0,0.0,0.0,0.0008466026629321277,0.0006038970896042883,1.534563352834084e-06,1.0003384351730347,0.0,0.0,0.0,-14.403401374816895,2.0412065982818604,5.617877006530762,2607.044189453125,0
782.8970000000008,0.005995373707264662,0.0018199345795437694,0.0008471915498375893,0.0,0.0,0.0,0.0,-6.192206910782261e-06,-0.003672021208330989,-3.0007176974322647e-05,0.9982388019561768,0.0,0.0,0.0,-14.408367156982422,2.064849376678467,5.613516330718994,2607.943115234375,0
792.8009999999995,0.005946912802755833,0.0018188698450103402,0.0008456120267510414,0.0,0.0,0.0,0.0,-0.002217646921053529,-0.0026525917928665876,0.0017530423356220126,1.0009946823120117,0.0,0.0,0.0,-14.424332618713379,2.062910556793213,5.612268447875977,2610.832763671875,0
802.719000000001,0.005932219792157412,0.0018247250700369477,0.0008425075793638825,0.0,0.0,0.0,0.0,0.0005545945605263114,0.00023688026703894138,0.0005644194316118956,1.0028462409973145,0.0,0.0,0.0,-14.409401893615723,2.062891721725464,5.612524032592773,2608.13037109375,0
812.6229999999996,0.005984798539429903,0.0018455589888617396,0.0008700910839252174,0.0,0.0,0.0,0.0,3.269482476753183e-05,-0.002790589351207018,0.0021607873495668173,1.0025529861450195,0.0,0.0,0.0,-14.42536735534668,2.0650103092193604,5.616731643676758,2611.02001953125,0
822.5470000000005,0.005972219165414572,0.0018510738154873252,0.0008738123578950763,0.0,0.0,0.0,0.0,-0.00271860184147954,-0.003099588444456458,-0.002681549871340394,1.0009585618972778,0.0,0.0,0.0,-14.410229682922363,2.0593478679656982,5.610006809234619,2608.2802734375,0
832.4500000000007,0.0059472667053341866,0.0018463486339896917,0.0008721407502889633,0.0,0.0,0.0,0.0,0.0023365977685898542,-0.0020031773019582033,-0.0030602284241467714,0.9994310140609741,0.0,0.0,0.0,-14.42967700958252,2.0606112480163574,5.621464252471924,2611.80029296875,0
842.366,0.0059322789311409,0.0018519983859732747,0.0008770010317675769,0.0,0.0,0.0,0.0,-0.0029676505364477634,0.0006076792487874627,0.0030877592507749796,0.9994053244590759,0.0,0.0,0.0,-14.416197776794434,2.048926830291748,5.61749267578125,2609.3603515625,0
852.2630000000008,0.006018944550305605,0.0018386082956567407,0.0008679454331286252,0.0,0.0,0.0,0.0,0.0020395955070853233,0.00245092180557549,-0.0019578360952436924,0.9992619156837463,0.0,0.0,0.0,-14.43380069732666,2.0501465797424316,5.634512424468994,2612.546630859375,0
862.1839999999993,0.006008910480886698,0.0018436522223055363,0.0008707104716449976,0.0,0.0,0.0,0.0,-0.000602906453423202,0.0007014768780209124,-0.0037488341331481934,0.9992913603782654,0.0,0.0,0.0,-14.419225692749023,2.046522378921509,5.621633529663086,2609.908447265625,0
872.0879999999997,0.006048782728612423,0.0018322387477383018,0.0008558558765798807,0.0,0.0,0.0,0.0,0.0003550443216226995,0.003853515489026904,0.0014467418659478426,1.0002803802490234,0.0,0.0,0.0,-14.43590259552002,2.043491840362549,5.630756855010986,2612.92724609375,0
881.9979999999996,0.006022708956152201,0.0017953753704205155,0.0008855948108248413,0.0,0.0,0.0,0.0,-0.0007883765501901507,-0.003211800241842866,0.0009744782582856715,1.0002251863479614,0.0,0.0,0.0,-14.437718391418457,2.0359368324279785,5.616851329803467,2613.255615234375,0
891.9040000000005,0.006056958343833685,0.0017807151889428496,0.0009206432150676847,0.0,0.0,0.0,0.0,-0.0018506621709093451,7.431675476254895e-05,0.0006530218524858356,0.9996227622032166,0.0,0.0,0.0,-14.44183349609375,2.031257390975952,5.626919746398926,2614.00048828125,0
901.8230000000003,0.006089633796364069,0.0018476186087355018,0.0008589728968217969,0.0,0.0,0.0,0.0,0.0012715450720861554,-0.0015153236454352736,-0.0005072046769782901,0.9994223713874817,0.0,0.0,0.0,-14.44536304473877,2.041938304901123,5.619540691375732,2614.639404296875,0
911.7260000000006,0.006067432463169098,0.0018277029739692807,0.0008583226590417325,0.0,0.0,0.0,0.0,-0.0017014340264722705,-0.002064754255115986,-0.0003349194012116641,0.9991525411605835,0.0,0.0,0.0,-14.460862159729004,2.038525104522705,5.623804092407227,2617.444580078125,0
921.6409999999996,0.006083800457417965,0.0018705930560827255,0.0008299118489958346,0.0,0.0,0.0,0.0,0.0008691049297340214,0.0035918308421969414,0.002831586403772235,1.0011050701141357,0.0,0.0,0.0,-14.462307929992676,2.0468478202819824,5.629281044006348,2617.70654296875,0
931.5509999999995,0.006031611002981663,0.0018477615667507052,0.000807529198937118,0.0,0.0,0.0,0.0,-0.00038836756721138954,0.0030129358638077974,-0.00417740736156702,1.0008949041366577,0.0,0.0,0.0,-14.464579582214355,2.039212226867676,5.6185302734375,2618.11767578125,0
941.4590000000007,0.0060239448212087154,0.0018554743146523833,0.0008062809356488287,0.0,0.0,0.0,0.0,-0.003272315952926874,-0.0008726477972231805,0.003981904126703739,0.9996126294136047,0.0,0.0,0.0,-14.452437400817871,2.0372042655944824,5.605774879455566,2615.919677734375,0
951.3610000000008,0.005957087501883507,0.0018623166251927614,0.0008018546504899859,0.0,0.0,0.0,0.0,-0.001349528436549008,-0.002724098740145564,0.004665915388613939,1.00091552734375,0.0,0.0,0.0,-14.46509838104248,2.041581630706787,5.597200870513916,2618.21142578125,0
961.2880000000005,0.0058935354463756084,0.0018017475958913565,0.0008703199564479291,0.0,0.0,0.0,0.0,-0.0014454127522185445,-0.0002597974380478263,-0.0022011653054505587,0.998391330242157,0.0,0.0,0.0,-14.465614318847656,2.0354440212249756,5.593648910522461,2618.304931640625,0
971.1859999999997,0.005873057525604963,0.0018476510886102915,0.0009117930894717574,0.0,0.0,0.0,0.0,-0.0020647768396884203,-0.003139244858175516,0.0015336881624534726,0.9997316002845764,0.0,0.0,0.0,-14.478836059570312,2.0423505306243896,5.602066516876221,2620.6982421875,0
981.1090000000004,0.0058574615977704525,0.00185839319601655,0.0009176249732263386,0.0,0.0,0.0,0.0,-0.0023980322293937206,0.0007813447155058384,0.00037742266431450844,0.9995093941688538,0.0,0.0,0.0,-14.464141845703125,2.0383718013763428,5.610837936401367,2618.03857421875,0
991.0040000000008,0.005903500132262707,0.001838605385273695,0.0009203004301525652,0.0,0.0,0.0,0.0,-0.003282971680164337,-0.0022673930507153273,0.00011101863492513075,0.9978222250938416,0.0,0.0,0.0,-14.477119445800781,2.038884401321411,5.624066352844238,2620.3876953125,0
1000.9220000000005,0.005887841340154409,0.0018483238527551293,0.0009244779357686639,0.0,0.0,0.0,0.0,0.0032708810176700354,-0.0023307001683861017,0.0015847665490582585,0.9992697834968567,0.0,0.0,0.0,-14.462959289550781,2.0468411445617676,5.6242804527282715,2617.824462890625,0
1010.8250000000007,0.0059838686138391495,0.0018540784949436784,0.0009340672986581922,0.0,0.0,0.0,0.0,-0.00018985886708833277,3.156461025355384e-05,-0.002811672631651163,1.0008941888809204,0.0,0.0,0.0,-14.47508716583252,2.0496203899383545,5.642199516296387,2620.019775390625,0
1020.7450000000008,0.00597149645909667,0.0018635973101481795,0.0009385613957419991,0.0,0.0,0.0,0.0,0.0009248901042155921,0.004795528948307037,0.0019470563856884837,1.001466989517212,0.0,0.0,0.0,-14.46168327331543,2.0473170280456543,5.640887260437012,2617.59326171875,0
1030.6470000000008,0.006050013471394777,0.0018351905746385455,0.0009227331611327827,0.0,0.0,0.0,0.0,-0.0006957645528018475,0.002135456772521138,-0.0027125326450914145,0.9997286796569824,0.0,0.0,0.0,-14.473058700561523,2.03315806388855,5.643256664276123,2619.652587890625,0
1040.5589999999993,0.006041186396032572,0.001840130309574306,0.0009271388407796621,0.0,0.0,0.0,0.0,-0.0006299200467765331,0.0006502217147499323,0.004430840257555246,0.9992597103118896,0.0,0.0,0.0,-14.459487915039062,2.0265166759490967,5.63223934173584,2617.19580078125,0
1050.4609999999993,0.005967846605926752,0.0018264780519530177,0.0009146569063887,0.0,0.0,0.0,0.0,0.00018207803077530116,-0.0031906915828585625,-0.001290808548219502,1.0012489557266235,0.0,0.0,0.0,-14.469758033752441,2.012702226638794,5.625874996185303,2619.05517578125,0
1060.3799999999992,0.005955302622169256,0.0018285971600562334,0.0009180304477922618,0.0,0.0,0.0,0.0,-0.00024271199072245508,0.0025755863171070814,-0.0010598418302834034,1.0015438795089722,0.0,0.0,0.0,-14.456235885620117,2.0117335319519043,5.624850749969482,2616.607177734375,0
1070.2870000000003,0.005986799020320177,0.001838056487031281,0.0009294180781580508,0.0,0.0,0.0,0.0,-0.0002602163003757596,-0.0006376711535267532,-0.00227238517254591,0.9989995956420898,0.0,0.0,0.0,-14.470873832702637,2.016153335571289,5.621912002563477,2619.257080078125,0
1080.196,0.005974069237709045,0.0018403573194518685,0.0009350317995995283,0.0,0.0,0.0,0.0,-0.0009541853796690702,-0.007595749106258154,0.001264815335161984,0.9982013702392578,0.0,0.0,0.0,-14.457088470458984,2.015584945678711,5.615234375,2616.761474609375,0
1090.1020000000008,0.006026251707226038,0.001815051306039095,0.000918799894861877,0.0,0.0,0.0,0.0,-0.00017851592565421015,5.091773800813826e-06,-0.00012550184328574687,0.9995067119598389,0.0,0.0,0.0,-14.471221923828125,2.012637138366699,5.6463236808776855,2619.3203125,0
1100.0210000000006,0.006014184560626745,0.001814211718738079,0.0009208573610521853,0.0,0.0,0.0,0.0,0.002036504913121462,0.000722972210496664,-0.0006728897569701076,0.9991703033447266,0.0,0.0,0.0,-14.457276344299316,2.0102248191833496,5.636976718902588,2616.795654296875,0
1109.9269999999997,0.006059166043996811,0.001808862085454166,0.0009200819185934961,0.0,0.0,0.0,0.0,0.002545413561165333,0.0018436298705637455,0.003934457898139954,0.9993674755096436,0.0,0.0,0.0,-14.45982551574707,2.0114219188690186,5.640209674835205,2617.25732421875,0
1119.848,0.006048609968274832,0.0018066924531012774,0.0009210648131556809,0.0,0.0,0.0,0.0,0.002196243731305003,0.004241466987878084,-0.0004949304275214672,1.0007336139678955,0.0,0.0,0.0,-14.444622039794922,2.007822275161743,5.6283135414123535,2614.505126953125,0
1129.7440000000006,0.0060590049251914024,0.0018001237185671926,0.000918797159101814,0.0,0.0,0.0,0.0,-0.004449778702110052,-0.0007990875164978206,-0.0014348587719723582,0.9994708299636841,0.0,0.0,0.0,-14.446633338928223,2.007129192352295,5.619154930114746,2614.869140625,0
1139.6550000000007,0.006045559421181679,0.0017956264782696962,0.000920003978535533,0.0,0.0,0.0,0.0,-0.00022557594638783485,-0.00019422895275056362,0.002626675646752119,0.9993747472763062,0.0,0.0,0.0,-14.432351112365723,2.011019468307495,5.613936424255371,2612.2841796875,0
1149.5679999999993,0.00600922666490078,0.00177870225161314,0.0009064132464118302,0.0,0.0,0.0,0.0,-0.00042743669473566115,-0.002298197941854596,-0.0030418315436691046,0.998565673828125,0.0,0.0,0.0,-14.43677043914795,2.0035548210144043,5.6106038093566895,2613.083984375,0
1159.4860000000008,0.005991464015096426,0.0017732862615957856,0.0009050153312273324,0.0,0.0,0.0,0.0,-0.0003267626161687076,0.001966247335076332,0.00172066455706954,0.9999145269393921,0.0,0.0,0.0,-14.422956466674805,1.9992709159851074,5.612677097320557,2610.583984375,0
1169.3889999999992,0.006032171659171581,0.0017787979450076818,0.000912773422896862,0.0,0.0,0.0,0.0,0.0013394036795943975,-0.0016802760073915124,0.001011993852443993,1.0003206729888916,0.0,0.0,0.0,-14.42952823638916,2.0084543228149414,5.625682830810547,2611.773193359375,0
1179.3070000000007,0.006017080042511225,0.0017741823103278875,0.000912659743335098,0.0,0.0,0.0,0.0,4.5241933548823e-05,-0.004961834754794836,0.0013349823420867324,1.0010136365890503,0.0,0.0,0.0,-14.415528297424316,2.0047848224639893,5.619562149047852,2609.2392578125,0
1189.2070000000003,0.006039272993803024,0.0017752476269379258,0.0009159463224932551,0.0,0.0,0.0,0.0,0.0019323130836710334,-0.00046882827882654965,0.0015443821903318167,0.9991641640663147,0.0,0.0,0.0,-14.421571731567383,2.011312961578369,5.6340651512146,2610.333251953125,0
1199.1299999999992,0.006026270799338818,0.0017720413161441684,0.0009170849225483835,0.0,0.0,0.0,0.0,-0.0009805705631151795,-0.002422934863716364,0.0012292210012674332,1.0008021593093872,0.0,0.0,0.0,-14.40806770324707,2.0061919689178467,5.629627227783203,2607.88916015625,0
1209.0319999999992,0.005988382734358311,0.0017664305632933974,0.0009045072947628796,0.0,0.0,0.0,0.0,-0.001654754625633359,-0.00484231673181057,0.001070575905032456,1.0001299381256104,0.0,0.0,0.0,-14.416886329650879,2.0070624351501465,5.6243791580200195,2609.485107421875,0
1218.9529999999995,0.005969945341348648,0.001764583634212613,0.0009051751694642007,0.0,0.0,0.0,0.0,-0.0010316778207197785,0.00012526646605692804,-0.002762231742963195,0.9988028407096863,0.0,0.0,0.0,-14.4020357131958,2.0087831020355225,5.632656574249268,2606.797119140625,0
1228.8459999999995,0.005987261887639761,0.0017947168089449406,0.0009229016723111272,0.0,0.0,0.0,0.0,0.001590002328157425,-0.0012318429071456194,-0.000114530383143574,0.9977558255195618,0.0,0.0,0.0,-14.421490669250488,2.023648500442505,5.630610466003418,2610.318603515625,0
1238.768,0.005968889221549034,0.001794655923731625,0.0009236600599251688,0.0,0.0,0.0,0.0,0.0009410911588929594,-0.004314885940402746,0.0018009182531386614,1.0002144575119019,0.0,0.0,0.0,-14.40727710723877,2.017512559890747,5.629049301147461,2607.745849609375,0
1248.6659999999993,0.005983979906886816,0.001780919381417334,0.0009132399572990835,0.0,0.0,0.0,0.0,0.0015820636181160808,0.0032352518755942583,-0.0035528764128684998,0.9977157115936279,0.0,0.0,0.0,-14.414294242858887,2.0100600719451904,5.647899627685547,2609.01611328125,0
1258.589,0.005964754149317741,0.0017801154172047973,0.0009118960006162524,0.0,0.0,0.0,0.0,0.0025101881474256516,-0.003260337747633457,-0.0034979090560227633,0.9998323917388916,0.0,0.0,0.0,-14.401449203491211,2.006329298019409,5.642153263092041,2606.69091796875,0
1268.4879999999994,0.005944088567048311,0.0017774443840608,0.0008946595480665565,0.0,0.0,0.0,0.0,0.00044869788689538836,-0.002306321170181036,0.004911887459456921,0.9994515776634216,0.0,0.0,0.0,-14.41700553894043,2.0022714138031006,5.647193908691406,2609.506591796875,0
1278.4040000000005,0.005922331474721432,0.0017782672075554729,0.0008915277430787683,0.0,0.0,0.0,0.0,0.0008808990241959691,-0.0014442014507949352,0.0023750881664454937,1.000267744064331,0.0,0.0,0.0,-14.40107250213623,2.000976324081421,5.647130489349365,2606.622802734375,0
1288.3230000000003,0.0059221116825938225,0.0017873395700007677,0.0008776793838478625,0.0,0.0,0.0,0.0,-0.004294537007808685,-0.004103578627109528,-0.00225795223377645,1.0003793239593506,0.0,0.0,0.0,-14.41639232635498,2.0045597553253174,5.644702911376953,2609.3955078125,0
1298.2270000000008,0.005903594195842743,0.0017901055980473757,0.0008748368127271533,0.0,0.0,0.0,0.0,0.0014386246912181377,0.0023290228564292192,0.0010454208822920918,1.0009574890136719,0.0,0.0,0.0,-14.4019193649292,2.0039188861846924,5.645971298217773,2606.776123046875,0
1308.143,0.005937912501394749,0.0017742884811013937,0.0008694857824593782,0.0,0.0,0.0,0.0,-0.0006282973918132484,0.0009869406931102276,-0.003377320244908333,0.9994237422943115,0.0,0.0,0.0,-14.406133651733398,2.0054495334625244,5.665892601013184,2607.538818359375,0
1318.0470000000005,0.005922410637140274,0.0017736521549522877,0.0008672118419781327,0.0,0.0,0.0,0.0,-0.0019330087816342711,-0.0013529428979381919,0.0019484481308609247,0.9996339082717896,0.0,0.0,0.0,-14.392343521118164,2.0058634281158447,5.659298896789551,2605.042724609375,0
1327.9570000000003,0.005968152545392513,0.0017903028056025505,0.0008675833232700825,0.0,0.0,0.0,0.0,-1.2064549537171843e-06,-0.000828161952085793,-0.003090126905590296,0.9981163144111633,0.0,0.0,0.0,-14.409442901611328,2.0252275466918945,5.686079978942871,2608.1376953125,0
1337.8619999999992,0.005941786337643862,0.0018143515335395932,0.0008152511436492205,0.0,0.0,0.0,0.0,0.003152316901832819,0.0031273881904780865,-0.0023787019308656454,1.0003325939178467,0.0,0.0,0.0,-14.412257194519043,2.0327816009521484,5.677877902984619,2608.6474609375,0
1347.7819999999992,0.006032465025782585,0.0017904870910570025,0.0008884693379513919,0.0,0.0,0.0,0.0,0.0008655638666823506,0.0019233481725677848,0.003210389753803611,1.0002397298812866,0.0,0.0,0.0,-14.419452667236328,2.028926134109497,5.68397331237793,2609.949462890625,0
1357.688,0.006025097332894802,0.001787399174645543,0.0008882171241566539,0.0,0.0,0.0,0.0,0.0005749505362473428,-0.0019725998863577843,-0.0009169149561785161,1.00196373462677,0.0,0.0,0.0,-14.404451370239258,2.021394968032837,5.6765971183776855,2607.234375,0
1367.5990000000002,0.005954206455498934,0.0017797915497794747,0.0008791034924797714,0.0,0.0,0.0,0.0,-0.000540688750334084,-0.0017941033001989126,-0.006879083812236786,1.0022023916244507,0.0,0.0,0.0,-14.417628288269043,2.017031669616699,5.674856185913086,2609.61962890625,0
1377.509,0.005945570766925812,0.0017761593917384744,0.0008817686466500163,0.0,0.0,0.0,0.0,-6.327537903416669e-06,0.00558295426890254,-0.0013709255727007985,0.9991822242736816,0.0,0.0,0.0,-14.40413761138916,2.015685796737671,5.669168949127197,2607.177490234375,0
1387.4179999999997,0.0059374733828008175,0.0017654222901910543,0.0008818908827379346,0.0,0.0,0.0,0.0,-0.00023368703841697425,-0.0001636749366298318,0.0021140901371836662,0.9996243119239807,0.0,0.0,0.0,-14.417448997497559,2.014155864715576,5.65330171585083,2609.5869140625,0
1397.3240000000005,0.00592828867956996,0.0017597725382074714,0.0008846104610711336,0.0,0.0,0.0,0.0,-0.00137952936347574,-0.00456255441531539,0.0007635810179635882,0.9994770884513855,0.0,0.0,0.0,-14.403020858764648,2.0109100341796875,5.65701961517334,2606.9755859375,0
1407.2369999999992,0.006002886686474085,0.0017611193470656872,0.0008999494602903724,0.0,0.0,0.0,0.0,-0.0018831139896064997,0.0020187916234135628,-0.0032527975272387266,0.9997226595878601,0.0,0.0,0.0,-14.410274505615234,2.0093085765838623,5.668936252593994,2608.288330078125,0
1417.152,0.005995868239551783,0.0017568266484886408,0.0009030631626956165,0.0,0.0,0.0,0.0,0.0019092318834736943,-0.0005003581754863262,0.0019073615549132228,0.9996923804283142,0.0,0.0,0.0,-14.396836280822754,2.011160135269165,5.666972637176514,2605.856201171875,0
1427.0570000000007,0.005987655837088823,0.0017474768683314323,0.0008998726843856275,0.0,0.0,0.0,0.0,-0.001750118681229651,-0.0008372251759283245,0.003882818855345249,1.0000683069229126,0.0,0.0,0.0,-14.405289649963379,2.007988691329956,5.661319732666016,2607.385986328125,0
1436.9789999999994,0.005980693269520998,0.0017427384154871106,0.0009023479651659727,0.0,0.0,0.0,0.0,0.002273867605254054,0.00363723817281425,-0.00154692807700485,0.999161422252655,0.0,0.0,0.0,-14.389898300170898,2.009110927581787,5.6591386795043945,2604.60009765625,0
1446.8819999999996,0.005976861342787743,0.0017349283443763852,0.0009006285690702498,0.0,0.0,0.0,0.0,0.003491270123049617,0.0010960260406136513,-0.000465170422103256,1.0000708103179932,0.0,0.0,0.0,-14.397327423095703,2.0058305263519287,5.646470069885254,2605.945068359375,0
1456.7880000000005,0.005968267563730478,0.0017292930278927088,0.0009028394124470651,0.0,0.0,0.0,0.0,-0.00026394534506835043,-0.00507527869194746,0.0005874641356058419,1.000022530555725,0.0,0.0,0.0,-14.383698463439941,1.9946868419647217,5.64384651184082,2603.478271484375,0
1466.705,0.006017821375280619,0.0017358799232169986,0.0009257863275706768,0.0,0.0,0.0,0.0,0.0014985755551606417,0.0012709717266261578,-0.0020875546615570784,0.9998679161071777,0.0,0.0,0.0,-14.3909273147583,2.00390625,5.6542439460754395,2604.786376953125,0
1476.607,0.006008104886859655,0.0017305049113929272,0.0009294929914176464,0.0,0.0,0.0,0.0,0.0033670710399746895,0.003042059252038598,1.205799708259292e-05,0.9974889159202576,0.0,0.0,0.0,-14.37619686126709,2.0003201961517334,5.646848201751709,2602.1201171875,0
1486.5149999999994,0.006028160918504,0.0017338455654680729,0.0009468078496865928,0.0,0.0,0.0,0.0,-0.0008331364369951189,-0.0034995682071894407,0.0016681227134540677,0.999231219291687,0.0,0.0,0.0,-14.382046699523926,2.0003905296325684,5.642452716827393,2603.178955078125,0
1496.4359999999997,0.006019063293933868,0.001726898830384016,0.0009492761455476284,0.0,0.0,0.0,0.0,0.0008510819752700627,0.0022349238861352205,0.0004888077965006232,0.9983347654342651,0.0,0.0,0.0,-14.367196083068848,1.9978781938552856,5.636654376983643,2600.490966796875,0
1506.3400000000001,0.0059533752501010895,0.0017266980139538646,0.0009489725343883038,0.0,0.0,0.0,0.0,-0.000800609530415386,0.003171911695972085,-0.003705692244693637,1.0002635717391968,0.0,0.0,0.0,-14.38797378540039,1.9920507669448853,5.617430210113525,2604.251953125,0
1516.2530000000006,0.005940703209489584,0.0017212379025295377,0.0009503744659014046,0.0,0.0,0.0,0.0,-0.0008495553629472852,-0.0033115146216005087,-0.003385297954082489,1.0003037452697754,0.0,0.0,0.0,-14.374130249023438,1.9905709028244019,5.60200834274292,2601.746337890625,0
1526.1589999999997,0.005946272052824497,0.0017134208464995027,0.0009479751461185515,0.0,0.0,0.0,0.0,-0.00035924481926485896,0.0016922963550314307,-0.0008632888784632087,0.9978891015052795,0.0,0.0,0.0,-14.383926391601562,1.9918773174285889,5.610731601715088,2603.519287109375,0
1536.0699999999997,0.0059315175749361515,0.001707527437247336,0.0009483159519731998,0.0,0.0,0.0,0.0,-0.00021225950331427157,0.0013394487323239446,0.0011683546472340822,0.9988503456115723,0.0,0.0,0.0,-14.369938850402832,1.9868890047073364,5.607853412628174,2600.98779296875,0
1545.9840000000004,0.0059411125257611275,0.0017066487343981862,0.0009508249931968749,0.0,0.0,0.0,0.0,-0.0020630499348044395,-0.0030410485342144966,-0.0025679138489067554,1.0003690719604492,0.0,0.0,0.0,-14.383305549621582,1.9891091585159302,5.6052470207214355,2603.406982421875,0
1555.8870000000006,0.005926774349063635,0.0017016479978337884,0.0009501635213382542,0.0,0.0,0.0,0.0,0.002842407440766692,0.0035889018326997757,-0.0006828636396676302,0.9998350739479065,0.0,0.0,0.0,-14.369083404541016,1.9962018728256226,5.6061482429504395,2600.8330078125,0
1565.8029999999999,0.005916614085435867,0.001708387047983706,0.0009544299100525677,0.0,0.0,0.0,0.0,-0.0018071619560942054,-0.0006128395325504243,-0.005151637829840183,0.9990053176879883,0.0,0.0,0.0,-14.388226509094238,1.9955389499664307,5.594968795776367,2604.297607421875,0
1575.701000000001,0.005900953896343708,0.0017027797875925899,0.0009540635510347784,0.0,0.0,0.0,0.0,0.00046897088759578764,0.0015848600305616856,-0.0006602559005841613,1.0003207921981812,0.0,0.0,0.0,-14.374432563781738,1.9896996021270752,5.594542503356934,2601.80078125,0
1585.6149999999998,0.005928564351052046,0.0016922714421525598,0.0009538630838505924,0.0,0.0,0.0,0.0,0.00024311560264322907,-0.002117404481396079,-0.0011709745740517974,0.999656617641449,0.0,0.0,0.0,-14.384167671203613,1.9888349771499634,5.605078220367432,2603.56298828125,0
1595.5229999999992,0.005915565881878138,0.0016846057260408998,0.0009537432924844325,0.0,0.0,0.0,0.0,-0.0004508061974775046,4.084008082827495e-07,0.0015955725684762,1.0022591352462769,0.0,0.0,0.0,-14.37002944946289,1.986266016960144,5.602227687835693,2601.00390625,0
1605.4449999999997,0.005914370995014906,0.001691181561909616,0.0009547687950544059,0.0,0.0,0.0,0.0,-6.637606566073373e-05,-0.002835898194462061,-0.0017340745544061065,0.9997182488441467,0.0,0.0,0.0,-14.387308120727539,1.9883135557174683,5.601385116577148,2604.13134765625,0
1615.3430000000008,0.0058997562155127525,0.0016831167740747333,0.0009572593844495714,0.0,0.0,0.0,0.0,0.0010362329194322228,-0.003821382764726877,-0.00264432979747653,1.0003989934921265,0.0,0.0,0.0,-14.373903274536133,1.9857653379440308,5.5967912673950195,2601.705078125,0
1625.2569999999996,0.005931485909968615,0.001669342746026814,0.000957802461925894,0.0,0.0,0.0,0.0,-0.0045231240801513195,-0.0020678986329585314,2.922187741205562e-05,0.9965636730194092,0.0,0.0,0.0,-14.383377075195312,1.9884823560714722,5.620774269104004,2603.419921875,0
1635.1630000000005,0.005918234586715698,0.0016621948452666402,0.0009583226055838168,0.0,0.0,0.0,0.0,-0.00032507069408893585,-0.001887250691652298,0.0008694420102983713,0.9972755908966064,0.0,0.0,0.0,-14.369446754455566,1.9939881563186646,5.620530605316162,2600.898681640625,0
1645.0840000000007,0.005973006132990122,0.0016692591598257422,0.0009762005647644401,0.0,0.0,0.0,0.0,0.0001825275830924511,-0.0013485532253980637,0.0017893033800646663,0.9979663491249084,0.0,0.0,0.0,-14.393357276916504,2.0072104930877686,5.640139579772949,2605.226318359375,0
1654.9850000000006,0.005963176488876343,0.0016629393212497234,0.0009738833759911358,0.0,0.0,0.0,0.0,-0.0012700831284746528,0.0008329901029355824,-0.0038670359645038843,1.0000947713851929,0.0,0.0,0.0,-14.379437446594238,2.0080649852752686,5.622838973999023,2602.706787109375,0
1664.9069999999992,0.005988028831779957,0.00167894980404526,0.0009831422939896584,0.0,0.0,0.0,0.0,0.000622911611571908,0.0017542419955134392,-4.6829118218738586e-05,0.9995790719985962,0.0,0.0,0.0,-14.40356159210205,2.0226433277130127,5.627561092376709,2607.0732421875,0
1674.8009999999995,0.005979799199849367,0.0016746019246056676,0.0009817127138376236,0.0,0.0,0.0,0.0,-0.0012581219198182225,-0.0035533022601157427,0.00021453798399306834,0.9996152520179749,0.0,0.0,0.0,-14.389222145080566,2.0124521255493164,5.61562442779541,2604.47802734375,0
1684.7219999999998,0.006011187098920345,0.0016857689479365945,0.0009870262583717704,0.0,0.0,0.0,0.0,-0.0011585747124627233,0.004900133702903986,0.002507522702217102,0.9995893239974976,0.0,0.0,0.0,-14.397562980651855,2.019120931625366,5.634612560272217,2605.98779296875,0
1694.643,0.00601942278444767,0.0018182616913691163,0.000784489035140723,0.0,0.0,0.0,0.0,-0.0015058729331940413,0.0029470426961779594,0.0011892967158928514,0.9983420968055725,0.0,0.0,0.0,-14.405738830566406,2.043478012084961,5.615419864654541,2607.46728515625,0
1704.5349999999999,0.005988249555230141,0.0018109815428033471,0.0007773115066811442,0.0,0.0,0.0,0.0,0.0018516745185479522,-0.0008493572240695357,0.00502979289740324,0.9993153214454651,0.0,0.0,0.0,-14.414833068847656,2.0438480377197266,5.607153415679932,2609.11328125,0
1714.4470000000001,0.005984278861433268,0.001812750124372542,0.0007694686064496636,0.0,0.0,0.0,0.0,0.0022344242315739393,0.002713118214160204,-5.632014654111117e-05,0.9986582398414612,0.0,0.0,0.0,-14.398938179016113,2.0344741344451904,5.603135585784912,2606.236328125,0
1724.357,0.006007135845720768,0.001805382315069437,0.0007678342517465353,0.0,0.0,0.0,0.0,-0.0014914893545210361,-0.0007939669885672629,0.00418352335691452,0.9994527697563171,0.0,0.0,0.0,-14.407970428466797,2.030702829360962,5.601345539093018,2607.871337890625,0
1734.2610000000004,0.006000855006277561,0.0018057591514661908,0.000758916256017983,0.0,0.0,0.0,0.0,-0.0008991042268462479,0.0008807306876406074,0.0026602039579302073,0.9976983666419983,0.0,0.0,0.0,-14.393588066101074,2.031808853149414,5.594839096069336,2605.26806640625,0
1744.1730000000007,0.006006235722452402,0.001804692787118256,0.0007513687014579773,0.0,0.0,0.0,0.0,0.0011488418094813824,0.0011639556614682078,-0.001690743723884225,0.999428391456604,0.0,0.0,0.0,-14.400474548339844,2.02946400642395,5.590177536010742,2606.514404296875,0
1754.0830000000005,0.005985393188893795,0.0018158674938604236,0.0007707799086347222,0.0,0.0,0.0,0.0,0.0001658005639910698,0.004562939517199993,-0.0015106466598808765,0.9988600611686707,0.0,0.0,0.0,-14.406814575195312,2.03359317779541,5.574030876159668,2607.662109375,0
1763.9969999999994,0.005973052699118853,0.0018038628622889519,0.0007729249773547053,0.0,0.0,0.0,0.0,0.001309610321186483,-0.0009965311037376523,0.004211914725601673,0.9996139407157898,0.0,0.0,0.0,-14.416202545166016,2.0326836109161377,5.566256046295166,2609.361572265625,0
1773.9060000000009,0.005961291491985321,0.0018049111822620034,0.0007635557558387518,0.0,0.0,0.0,0.0,0.0005795276374556124,0.001541266799904406,0.0029190739151090384,0.9984849095344543,0.0,0.0,0.0,-14.400290489196777,2.025977849960327,5.5601115226745605,2606.4814453125,0
1783.817000000001,0.0060339500196278095,0.0018223172519356012,0.0007869771216064692,0.0,0.0,0.0,0.0,0.0008849015575833619,-0.001250438392162323,-0.004227842669934034,1.0007027387619019,0.0,0.0,0.0,-14.40884017944336,2.0285375118255615,5.5605645179748535,2608.02880859375,0
1793.7250000000004,0.006023773457854986,0.0018246681429445744,0.0007793528493493795,0.0,0.0,0.0,0.0,-0.0007153284386731684,-0.0030650324188172817,0.00171216344460845,0.9992680549621582,0.0,0.0,0.0,-14.395601272583008,2.0220038890838623,5.55859375,2605.63232421875,0
1803.6380000000008,0.005959582980722189,0.0018286795821040869,0.000769175763707608,0.0,0.0,0.0,0.0,0.0018159419996663928,0.0015185714000836015,0.0013730941573157907,0.9992009997367859,0.0,0.0,0.0,-14.411303520202637,2.021543502807617,5.561677932739258,2608.474609375,0
1813.5429999999997,0.005930643994361162,0.0018120812019333243,0.000783278257586062,0.0,0.0,0.0,0.0,0.00245973514392972,-0.001772118965163827,-0.0023324356880038977,0.9983491897583008,0.0,0.0,0.0,-14.409061431884766,2.018630266189575,5.55612850189209,2608.068603515625,0
1823.4539999999997,0.006007508374750614,0.0017859461950138211,0.0008189757354557514,0.0,0.0,0.0,0.0,-0.0012031449005007744,0.005772807635366917,5.733894431614317e-05,1.0003143548965454,0.0,0.0,0.0,-14.423989295959473,2.0170257091522217,5.572680473327637,2610.770751953125,0
1833.3629999999994,0.005994821432977915,0.0017926765140146017,0.0008130621863529086,0.0,0.0,0.0,0.0,0.0021202212665230036,0.0024433049838989973,0.00035778895835392177,1.0007305145263672,0.0,0.0,0.0,-14.409782409667969,2.01747465133667,5.559960842132568,2608.19921875,0
1843.2749999999996,0.005942255724221468,0.0018118086736649275,0.0008150822250172496,0.0,0.0,0.0,0.0,-0.00306199979968369,-0.0016712737269699574,0.0007643968565389514,0.9983607530593872,0.0,0.0,0.0,-14.422636985778809,2.0142881870269775,5.549993515014648,2610.526123046875,0
1853.183000000001,0.005928284488618374,0.0018207619432359934,0.0008103227009996772,0.0,0.0,0.0,0.0,0.0027117261197417974,-0.00036182464100420475,-0.0014603747986257076,0.9993036985397339,0.0,0.0,0.0,-14.40770435333252,2.02178692817688,5.544994354248047,2607.8232421875,0
1863.0930000000008,0.005975084379315376,0.0018475389806553721,0.000825089868158102,0.0,0.0,0.0,0.0,-0.0023886060807853937,0.0009000336867757142,-0.0034480844624340534,1.0017571449279785,0.0,0.0,0.0,-14.42349910736084,2.024937868118286,5.549715518951416,2610.681884765625,0
1873.0120000000006,0.005959958303719759,0.0018576899310573936,0.0008224252960644662,0.0,0.0,0.0,0.0,2.0663910618168302e-05,-0.0034660447854548693,0.00040575809543952346,0.998181164264679,0.0,0.0,0.0,-14.410510063171387,2.024348258972168,5.543260097503662,2608.3310546875,0
1882.9249999999993,0.0059981863014400005,0.0018717263592407107,0.0008256252622231841,0.0,0.0,0.0,0.0,0.0007914772140793502,0.0016508030239492655,-0.003704515052959323,0.9998000860214233,0.0,0.0,0.0,-14.426475524902344,2.0263171195983887,5.549285888671875,2611.220703125,0
1892.8269999999993,0.005980339366942644,0.0018821227131411433,0.0008224560879170895,0.0,0.0,0.0,0.0,-0.0019693283829838037,0.0022730398923158646,0.0001405653456458822,0.9992198348045349,0.0,0.0,0.0,-14.413186073303223,2.0198514461517334,5.54095983505249,2608.815185546875,0
1902.7369999999992,0.0060140048153698444,0.0018957954598590732,0.0008237052243202925,0.0,0.0,0.0,0.0,-0.001144023728556931,-0.002265657763928175,-0.0006759825628250837,1.0010703802108765,0.0,0.0,0.0,-14.429059028625488,2.0283522605895996,5.5546135902404785,2611.6884765625,0
1912.6440000000002,0.0060140048153698444,0.0018957954598590732,0.0008237052243202925,0.0,0.0,0.0,0.0,0.0041554756462574005,-0.002927628345787525,-0.00037671017344109714,1.0014207363128662,0.0,0.0,0.0,-14.429059028625488,2.0283522605895996,5.5546135902404785,2611.6884765625,0
1922.5550000000003,0.006008358206599951,0.001924816519021988,0.0008283270290121436,0.0,0.0,0.0,0.0,0.0019171071471646428,-0.0012193936854600906,-0.0009241303778253496,0.999468207359314,0.0,0.0,0.0,-14.435068130493164,2.0327508449554443,5.5642008781433105,2612.77587890625,0
1932.4650000000001,0.005958683788776398,0.0019042259082198143,0.0008882308029569685,0.0,0.0,0.0,0.0,0.0018252627924084663,-0.002734010573476553,0.000692805799189955,0.9990864992141724,0.0,0.0,0.0,-14.440237998962402,2.032454490661621,5.56751823425293,2613.711669921875,0
1942.375,0.005988631397485733,0.0018850628985092044,0.0009264446562156081,0.0,0.0,0.0,0.0,-0.0012193482834845781,0.0024915023241192102,0.00031154442694969475,0.9981842041015625,0.0,0.0,0.0,-14.457376480102539,2.027590751647949,5.579126834869385,2616.81396484375,0
1952.286,0.005963829346001148,0.001896556350402534,0.0009302229736931622,0.0,0.0,0.0,0.0,-0.0020174295641481876,-0.000635740056168288,0.001475802855566144,0.9991081357002258,0.0,0.0,0.0,-14.44336986541748,2.0252881050109863,5.5708112716674805,2614.278564453125,0
1962.196,0.0059171379543840885,0.001872239401564002,0.0009066574857570231,0.0,0.0,0.0,0.0,-0.0008573183440603316,0.00538416625931859,-0.00218619080260396,1.0003342628479004,0.0,0.0,0.0,-14.455942153930664,2.018040657043457,5.57051420211792,2616.55419921875,0
1972.1049999999996,0.0059171379543840885,0.001872239401564002,0.0009066574857570231,0.0,0.0,0.0,0.0,0.002244671108201146,0.001127435825765133,-0.0011962666176259518,0.9999914765357971,0.0,0.0,0.0,-14.455942153930664,2.018040657043457,5.57051420211792,2616.55419921875,0
1982.0149999999994,0.005923989228904247,0.0018676769686862826,0.0008937388192862272,0.0,0.0,0.0,0.0,-0.00014109617040958256,-0.0024680988863110542,-0.004145799670368433,1.0016158819198608,0.0,0.0,0.0,-14.456036567687988,2.009601354598999,5.548228740692139,2616.571533203125,0
1991.9259999999995,0.005923989228904247,0.0018676769686862826,0.0008937388192862272,0.0,0.0,0.0,0.0,-9.205095557263121e-05,-0.004055397119373083,-0.0013569795992225409,1.0012152194976807,0.0,0.0,0.0,-14.456036567687988,2.009601354598999,5.548228740692139,2616.571533203125,0
2001.8359999999993,0.00597272627055645,0.0018838042160496116,0.0008981490973383188,0.0,0.0,0.0,0.0,0.0035309307277202606,0.002680954523384571,-0.0036858797539025545,1.0009700059890747,0.0,0.0,0.0,-14.45674991607666,2.015967607498169,5.570319175720215,2616.700439453125,0
2011.7459999999992,0.00597272627055645,0.0018838042160496116,0.0008981490973383188,0.0,0.0,0.0,0.0,4.0660677768755704e-05,0.0007363717304542661,0.0004694883245974779,1.0000355243682861,0.0,0.0,0.0,-14.45674991607666,2.015967607498169,5.570319175720215,2616.700439453125,0
2021.6560000000009,0.00595115777105093,0.0018882828298956156,0.0008842800161801279,0.0,0.0,0.0,0.0,-2.613365177239757e-05,-0.0018729667644947767,-0.00019946237443946302,0.9992959499359131,0.0,0.0,0.0,-14.459528923034668,2.000352382659912,5.551180839538574,2617.203369140625,0
2031.5660000000007,0.00595115777105093,0.0018882828298956156,0.0008842800161801279,0.0,0.0,0.0,0.0,-0.0021344416309148073,-0.003464048495516181,-0.0001461824431316927,1.0005899667739868,0.0,0.0,0.0,-14.459528923034668,2.000352382659912,5.551180839538574,2617.203369140625,0
2041.4779999999992,0.005944442003965378,0.0018826015293598175,0.0008590901852585375,0.0,0.0,0.0,0.0,0.0024043454322963953,-0.002477852860465646,-0.002515591448172927,1.0001246929168701,0.0,0.0,0.0,-14.456625938415527,1.9936603307724,5.569232940673828,2616.677978515625,0
2051.3870000000006,0.005944442003965378,0.0018826015293598175,0.0008590901852585375,0.0,0.0,0.0,0.0,-0.0008610791410319507,0.0046617016196250916,-0.004241888877004385,1.0001786947250366,0.0,0.0,0.0,-14.456625938415527,1.9936603307724,5.569232940673828,2616.677978515625,0
2061.299000000001,0.005907356273382902,0.001809507142752409,0.0009486756171099842,0.0,0.0,0.0,0.0,-0.0011339623015373945,0.0009743274422362447,0.0008024181588552892,0.9984292984008789,0.0,0.0,0.0,-14.471264839172363,1.9723237752914429,5.566898345947266,2619.327880859375,0
2071.2080000000005,0.005929956678301096,0.001772460644133389,0.0009733513579703867,0.0,0.0,0.0,0.0,-5.732558201998472e-05,-0.0011863975087180734,0.0017180885188281536,1.0002803802490234,0.0,0.0,0.0,-14.483664512634277,1.9696451425552368,5.576128959655762,2621.572265625,0
2081.117,0.005912385415285826,0.0017726881196722388,0.0009770281612873077,0.0,0.0,0.0,0.0,0.0009655515314079821,0.0027977812569588423,-0.0002140319556929171,0.9995177984237671,0.0,0.0,0.0,-14.46973991394043,1.9677050113677979,5.568056583404541,2619.0517578125,0
2091.0290000000005,0.005923930089920759,0.001758933300152421,0.0009836789686232805,0.0,0.0,0.0,0.0,-0.0033213873393833637,0.0013547110138460994,-0.0031933430582284927,1.0009186267852783,0.0,0.0,0.0,-14.482197761535645,1.9654690027236938,5.562735080718994,2621.306884765625,0
2100.937,0.005905758123844862,0.0017565417801961303,0.0009881190489977598,0.0,0.0,0.0,0.0,-0.0004024918598588556,0.0016163629479706287,0.00032671549706719816,1.0011216402053833,0.0,0.0,0.0,-14.468522071838379,1.9697132110595703,5.554819107055664,2618.831298828125,0
2110.849,0.005974720697849989,0.001775142503902316,0.0010220194235444069,0.0,0.0,0.0,0.0,-6.0548773035407066e-05,0.0018570070387795568,5.872519250260666e-05,0.999921977519989,0.0,0.0,0.0,-14.486554145812988,1.9843990802764893,5.562170505523682,2622.095458984375,0
2120.758,0.005958775524049997,0.0017715858994051814,0.0010305928299203515,0.0,0.0,0.0,0.0,-0.00019852827244903892,-2.1522755559999496e-05,-0.0032938255462795496,1.0008721351623535,0.0,0.0,0.0,-14.472328186035156,1.9876176118850708,5.548877239227295,2619.520263671875,0
2130.67,0.006026438437402248,0.001761605846695602,0.0010383608750998974,0.0,0.0,0.0,0.0,0.00023670317023061216,0.00626940606161952,-0.0017448035068809986,1.0004709959030151,0.0,0.0,0.0,-14.47679328918457,1.9893661737442017,5.55895471572876,2620.32861328125,0
2140.5820000000003,0.006011053454130888,0.0017544090515002608,0.001048136968165636,0.0,0.0,0.0,0.0,0.0019114719470962882,0.0021422088611871004,-3.687217758852057e-05,0.998466432094574,0.0,0.0,0.0,-14.462021827697754,1.9873409271240234,5.544695854187012,2617.65478515625,0
2150.491,0.0060210381634533405,0.0017338184406980872,0.001042815507389605,0.0,0.0,0.0,0.0,0.0016379877924919128,-0.0028503150679171085,0.0017120917327702045,0.999319314956665,0.0,0.0,0.0,-14.476395606994629,1.9797639846801758,5.551040172576904,2620.25634765625,0
2160.3979999999992,0.006004475522786379,0.001725240028463304,0.0010501309297978878,0.0,0.0,0.0,0.0,0.0009039340075105429,-0.0036308388225734234,0.001298986142501235,0.9999082684516907,0.0,0.0,0.0,-14.462812423706055,1.973098874092102,5.547405242919922,2617.797607421875,0
