timestamp,stateEstimate.x,stateEstimate.y,stateEstimate.z,controller.cmd_thrust,controller.cmd_roll,controller.cmd_pitch,controller.cmd_yaw,controller.r_roll,controller.r_pitch,controller.r_yaw,controller.accelz,controller.actuatorThrust,controller.roll,controller.pitch,controller.yaw,controller.rollRate,controller.pitchRate,controller.yawRate,controller.ctr_yaw
0.0,-3.86843821615912e-05,-0.00014836274203844368,0.00036370602902024984,0.0,0.0,0.0,0.0,0.0020240016747266054,-0.0014941650442779064,0.003567924490198493,1.0004780292510986,0.0,0.0,0.0,0.30077239871025085,0.3583499491214752,5.176716327667236,-54.440399169921875,0
9.915000000000873,2.097485412377864e-05,-5.1019713282585144e-05,0.0002999751304741949,0.0,0.0,0.0,0.0,0.00016060075722634792,-0.0037832199595868587,0.0012715539196506143,1.0002963542938232,0.0,0.0,0.0,0.2966165542602539,0.3992345631122589,5.212646007537842,-53.68818664550781,0
19.820999999999913,-2.2914999135537073e-05,-4.6869710786268115e-05,0.0002994596434291452,0.0,0.0,0.0,0.0,-0.0031343637965619564,0.0036207735538482666,-0.0025654395576566458,0.9980209469795227,0.0,0.0,0.0,0.2957518994808197,0.40025436878204346,5.216111660003662,-53.531681060791016,0
29.736000000000786,-6.888635107316077e-05,-4.298289422877133e-05,0.00029838920454494655,0.0,0.0,0.0,0.0,0.0013075065799057484,-0.0007494326564483345,0.003662793431431055,0.9969079494476318,0.0,0.0,0.0,0.29431167244911194,0.4054112434387207,5.197911739349365,-53.270992279052734,0
39.64099999999962,-0.00011655329581117257,-3.936917710234411e-05,0.0002953011426143348,0.0,0.0,0.0,0.0,0.0017745799850672483,-0.0035433254670351744,-0.0008270923281088471,0.9986862540245056,0.0,0.0,0.0,0.29399093985557556,0.4018832743167877,5.183099746704102,-53.212947845458984,0
49.5630000000001,-8.796441397862509e-05,-8.345151400135364e-06,0.0002303399523952976,0.0,0.0,0.0,0.0,0.00047770244418643415,-0.0024557504802942276,-0.0001264528837054968,0.9999499917030334,0.0,0.0,0.0,0.29349157214164734,0.40099745988845825,5.179035663604736,-53.122554779052734,0
59.46100000000115,-0.0001347249635728076,-3.6026935958943795e-06,0.00021980809106025845,0.0,0.0,0.0,0.0,5.171242082724348e-05,-0.001322263851761818,0.001931605045683682,0.9995324611663818,0.0,0.0,0.0,0.29260480403900146,0.39760786294937134,5.1744232177734375,-52.96205139160156,0
69.38000000000102,-0.00013076038158033043,2.055090226349421e-05,0.00016951192810665816,0.0,0.0,0.0,0.0,-0.0028813378885388374,0.004864464048296213,-0.0012850944185629487,0.9998937845230103,0.0,0.0,0.0,0.29210805892944336,0.39248645305633545,5.170502662658691,-52.872135162353516,0
79.28700000000026,-0.00017808310803957283,2.366081935178954e-05,0.00015540885215159506,0.0,0.0,0.0,0.0,-0.0007710509235039353,-0.0068720984272658825,-0.0021880955900996923,1.0003422498703003,0.0,0.0,0.0,0.29153767228126526,0.3967133164405823,5.157098770141602,-52.768898010253906,0
89.20600000000013,-0.00022741551219951361,2.5604411348467693e-05,0.00014145152817945927,0.0,0.0,0.0,0.0,-0.0008544092997908592,0.0002612241078168154,0.000270718737738207,1.000547170639038,0.0,0.0,0.0,0.2914105951786041,0.3937695026397705,5.160712718963623,-52.74589920043945,0
99.10200000000077,-0.00027918434352613986,2.76550417765975e-05,0.00012804199650418013,0.0,0.0,0.0,0.0,-0.0013008457608520985,0.0020103007555007935,-0.0011357851326465607,1.0006694793701172,0.0,0.0,0.0,0.29153886437416077,0.39525166153907776,5.158668518066406,-52.76911544799805,0
109.02900000000045,-0.0003394713858142495,2.9295961212483235e-05,0.00011409421858843416,0.0,0.0,0.0,0.0,0.0005458712694235146,-0.0001853636495070532,0.0005815437179990113,0.999687910079956,0.0,0.0,0.0,0.2904455363750458,0.3974353075027466,5.147745609283447,-52.57121658325195,0
118.92500000000109,0.00011077323142671958,-0.0002768583653960377,0.0003069702070206404,0.0,0.0,0.0,0.0,0.00023883418180048466,0.0025352463126182556,-0.0034244111739099026,1.0020322799682617,0.0,0.0,0.0,0.29107099771499634,0.3246038258075714,5.2242817878723145,-52.68442916870117,0
128.84100000000035,7.403701602015644e-05,-0.0002944822481367737,0.0002988929918501526,0.0,0.0,0.0,0.0,0.0021236282773315907,0.002105780877172947,-0.0006879593129269779,1.00141179561615,0.0,0.0,0.0,0.2894071340560913,0.32171931862831116,5.217040061950684,-52.383270263671875,0
138.7510000000002,3.6093351809540763e-05,-0.0003125029616057873,0.0002921984705608338,0.0,0.0,0.0,0.0,-0.0021272916346788406,-0.0032510573510080576,-0.0015599315520375967,1.0008000135421753,0.0,0.0,0.0,0.28939512372016907,0.3188917934894562,5.201681137084961,-52.3810920715332,0
148.66699999999946,-3.2759489840827882e-06,-0.0003307579318061471,0.00028674647910520434,0.0,0.0,0.0,0.0,-0.00384250795468688,0.0007790824747644365,0.0031251120381057262,0.9996312856674194,0.0,0.0,0.0,0.288569837808609,0.3169906735420227,5.206043243408203,-52.231712341308594,0
158.5699999999997,-4.4105094275437295e-05,-0.00035023721284233034,0.0002819265646394342,0.0,0.0,0.0,0.0,0.0014506325824186206,0.003121552988886833,0.002278650877997279,1.0008488893508911,0.0,0.0,0.0,0.28857704997062683,0.3202192187309265,5.199848651885986,-52.23301696777344,0
168.48300000000017,-8.750209235586226e-05,-0.0003715912171173841,0.00027756381314247847,0.0,0.0,0.0,0.0,-0.003339013084769249,0.0015256275655701756,-0.00011994256055913866,0.9988605976104736,0.0,0.0,0.0,0.28810250759124756,0.3182717263698578,5.189774513244629,-52.14712905883789,0
178.38500000000022,-5.907726153964177e-05,-0.00024188606766983867,0.0004678130499087274,0.0,0.0,0.0,0.0,0.0007007935782894492,0.005182434804737568,-0.0003507276705931872,0.9985774159431458,0.0,0.0,0.0,0.29110702872276306,0.36330652236938477,5.199357986450195,-52.690956115722656,0
188.3060000000005,-0.00010523883975110948,-0.0002576543774921447,0.0004732614033855498,0.0,0.0,0.0,0.0,0.0010481334757059813,0.004544273484498262,0.0013268786715343595,0.9982125163078308,0.0,0.0,0.0,0.29049837589263916,0.36360377073287964,5.1806817054748535,-52.580780029296875,0
198.20600000000013,-0.00015391211491078138,-0.0002731750428210944,0.0004774845438078046,0.0,0.0,0.0,0.0,0.002172906184569001,-0.002542772563174367,0.006240460556000471,1.0008788108825684,0.0,0.0,0.0,0.2894670367240906,0.3591061532497406,5.16873025894165,-52.394107818603516,0
208.12900000000081,-0.00020565095474012196,-0.00028707479941658676,0.000481448951177299,0.0,0.0,0.0,0.0,-0.0007075252942740917,-0.0037745442241430283,0.00056397111620754,1.0009697675704956,0.0,0.0,0.0,0.2899203896522522,0.35328546166419983,5.165090560913086,-52.476165771484375,0
218.02599999999984,-0.000260422209976241,-0.00030061177676543593,0.0004865480004809797,0.0,0.0,0.0,0.0,-0.0006031661760061979,0.0009205053793266416,7.656959496671334e-05,1.0012003183364868,0.0,0.0,0.0,0.2895002067089081,0.3511542081832886,5.160888671875,-52.40011215209961,0
227.95100000000093,-0.0003179446212016046,-0.0003161326749250293,0.0004930851282551885,0.0,0.0,0.0,0.0,-0.000708697596564889,-0.0006803096039220691,-0.0016836823197081685,0.9998555183410645,0.0,0.0,0.0,0.28926438093185425,0.35303303599357605,5.1556878089904785,-52.3574333190918,0
237.84599999999955,-0.0003782715939451009,-0.0003337410162203014,0.0005004394915886223,0.0,0.0,0.0,0.0,-0.0016555370530113578,-0.0024359957315027714,-0.0031608205754309893,1.0008381605148315,0.0,0.0,0.0,0.28877508640289307,0.3547027111053467,5.155548095703125,-52.26886749267578,0
247.77399999999943,-0.0004416867741383612,-0.00035224086605012417,0.0005082949064671993,0.0,0.0,0.0,0.0,0.0019491007551550865,0.0007776747806929052,-0.00034658974618650973,1.0005563497543335,0.0,0.0,0.0,0.2867053151130676,0.3621514141559601,5.160215854644775,-51.89422607421875,0
257.6660000000011,-0.0005093896761536598,-0.0003718603402376175,0.0005171055672690272,0.0,0.0,0.0,0.0,0.0005495172226801515,-0.00031971913995221257,0.000342449638992548,1.001780390739441,0.0,0.0,0.0,0.2865560054779053,0.3546265661716461,5.14884614944458,-51.867210388183594,0
267.58300000000054,-0.0005816945340484381,-0.00039308035047724843,0.0005273079732432961,0.0,0.0,0.0,0.0,-0.0002212299732491374,-0.005515367724001408,0.0008479352691210806,0.9984796643257141,0.0,0.0,0.0,0.28649604320526123,0.35196956992149353,5.141721248626709,-51.856353759765625,0
277.4879999999994,-0.000657047494314611,-0.00041640110430307686,0.0005379521171562374,0.0,0.0,0.0,0.0,0.0033435269724577665,0.0027747636195272207,0.0003736705402843654,0.999433159828186,0.0,0.0,0.0,0.2863037884235382,0.3503080904483795,5.141998291015625,-51.821556091308594,0
287.41100000000006,-0.0007346800994127989,-0.00044108228757977486,0.0005478973616845906,0.0,0.0,0.0,0.0,0.004491086583584547,0.002997372765094042,0.0020207776688039303,1.000405192375183,0.0,0.0,0.0,0.2865205705165863,0.34738990664482117,5.134495258331299,-51.86079406738281,0
297.3099999999995,-0.0008155836840160191,-0.0004661147540900856,0.0005576835828833282,0.0,0.0,0.0,0.0,-0.0015031540533527732,-0.0026985788717865944,0.00037839903961867094,0.9999783039093018,0.0,0.0,0.0,0.2868247926235199,0.3384319543838501,5.12335205078125,-51.91585159301758,0
307.22700000000077,0.00023582749417982996,-0.0007173317717388272,0.0006376455421559513,0.0,0.0,0.0,0.0,0.001468651695176959,0.0014092066558077931,0.00023832909937482327,1.0019798278808594,0.0,0.0,0.0,0.29909029603004456,0.26023271679878235,5.453551292419434,-54.13593673706055,0
317.1280000000006,0.0003073080151807517,-0.0004390135873109102,0.0002577324630692601,0.0,0.0,0.0,0.0,-0.00150047626812011,0.004547829739749432,-0.0037799635902047157,1.0005419254302979,0.0,0.0,0.0,0.2984725534915924,0.3280368149280548,5.4697160720825195,-54.02412414550781,0
327.0550000000003,0.0004781677562277764,-0.0005546887405216694,0.00030138398869894445,0.0,0.0,0.0,0.0,0.0008535642991773784,-0.0035180922131985426,0.0017755514709278941,1.001150369644165,0.0,0.0,0.0,0.2970896065235138,0.3309593200683594,5.454836368560791,-53.7738151550293,0
336.9480000000003,0.00046799815027043223,-0.0005153982783667743,0.00033691152930259705,0.0,0.0,0.0,0.0,-0.004439923912286758,0.0017598769627511501,0.0035605398006737232,1.0005418062210083,0.0,0.0,0.0,0.29011043906211853,0.34723377227783203,5.459987163543701,-52.510562896728516,0
346.8670000000002,0.0005505232838913798,-0.0006447529885917902,0.0003316558140795678,0.0,0.0,0.0,0.0,0.0008443165570497513,0.0038566223811358213,0.0011551392963156104,1.0021189451217651,0.0,0.0,0.0,0.2904267907142639,0.35546576976776123,5.444509029388428,-52.56782913208008,0
356.77200000000084,0.0005542536382563412,-0.0005510137416422367,0.0003580313641577959,0.0,0.0,0.0,0.0,-0.0012703447137027979,-0.0034981619101017714,-0.0002445750869810581,1.0003138780593872,0.0,0.0,0.0,0.2908190190792084,0.35186120867729187,5.429220676422119,-52.63882064819336,0
366.6930000000011,0.0005650356761179864,-0.0006598534528166056,0.00034312435309402645,0.0,0.0,0.0,0.0,0.002453040797263384,-0.002629650756716728,0.0005862812395207584,1.000977873802185,0.0,0.0,0.0,0.29012927412986755,0.35027188062667847,5.427984237670898,-52.51397705078125,0
376.59300000000076,0.0005914662033319473,-0.0005618805298581719,0.00032729061786085367,0.0,0.0,0.0,0.0,0.00010966073750751093,-0.001973657635971904,-0.0019044053042307496,1.0009686946868896,0.0,0.0,0.0,0.28397902846336365,0.3644009530544281,5.430994510650635,-51.40076446533203,0
386.51900000000023,0.000580346561037004,-0.000652711431030184,0.00031622382812201977,0.0,0.0,0.0,0.0,-0.0001907969417516142,0.0025595638435333967,-0.0009705767151899636,0.9996340274810791,0.0,0.0,0.0,0.28341519832611084,0.3659929633140564,5.423299789428711,-51.2987174987793,0
396.4210000000003,0.000604519504122436,-0.0005061665433458984,0.00031731982016935945,0.0,0.0,0.0,0.0,0.0020972993224859238,-0.0017897236393764615,0.0011063625570386648,0.9984174966812134,0.0,0.0,0.0,0.2831404209136963,0.3674757480621338,5.41396427154541,-51.24897766113281,0
406.33500000000095,0.0006180746131576598,-0.0006062716129235923,0.0003101331531070173,0.0,0.0,0.0,0.0,0.002171116415411234,0.0008630615775473416,0.0008750923443585634,1.0009809732437134,0.0,0.0,0.0,0.2839451730251312,0.3606812655925751,5.411303520202637,-51.3946418762207,0
416.237000000001,0.0006558955647051334,-0.0004702707810793072,0.00028245028806850314,0.0,0.0,0.0,0.0,0.0019208694575354457,0.000797624234110117,-0.002174830064177513,1.0005347728729248,0.0,0.0,0.0,0.28454846143722534,0.3558090329170227,5.397540092468262,-51.50383758544922,0
426.1660000000011,0.00058608571998775,-0.0005311829154379666,0.00026412750594317913,0.0,0.0,0.0,0.0,-0.0025239617098122835,0.0037888330407440662,0.0015715975314378738,1.0000606775283813,0.0,0.0,0.0,0.28376084566116333,0.34848183393478394,5.38563871383667,-51.36127853393555,0
436.0550000000003,0.0006062975153326988,-0.0004237114335410297,0.00024166415096260607,0.0,0.0,0.0,0.0,-0.0028816128615289927,0.0026878928765654564,0.002044393913820386,1.0001085996627808,0.0,0.0,0.0,0.2832947075366974,0.3505726456642151,5.372509002685547,-51.27690887451172,0
445.97700000000077,0.0005672560073435307,-0.0004863336798734963,0.00023186142789199948,0.0,0.0,0.0,0.0,-0.0004594331549014896,5.059695467934944e-05,0.0015486436896026134,1.001631736755371,0.0,0.0,0.0,0.28316569328308105,0.3492184579372406,5.360858917236328,-51.2535514831543,0
455.8809999999994,0.0005701465415768325,-0.0003916782734449953,0.0002145055477740243,0.0,0.0,0.0,0.0,0.001375050051137805,0.0036261994391679764,0.0013344710459932685,1.001947045326233,0.0,0.0,0.0,0.2835041284561157,0.3462148904800415,5.348803520202637,-51.31481170654297,0
465.8060000000005,0.0004792792024090886,-0.0004441688070073724,0.00019397094729356468,0.0,0.0,0.0,0.0,-0.0013643825659528375,0.003668820718303323,0.002636465709656477,0.9998728036880493,0.0,0.0,0.0,0.2837245762348175,0.34037989377975464,5.334784984588623,-51.35470962524414,0
475.70700000000033,0.0004773333785124123,-0.0003467312781140208,0.00016872223932296038,0.0,0.0,0.0,0.0,-0.0006028666393831372,-0.0005530400085262954,-0.0011046894360333681,1.0002555847167969,0.0,0.0,0.0,0.2838038504123688,0.34115102887153625,5.312689781188965,-51.36906051635742,0
485.6170000000002,0.00034286145819351077,-0.0003112807753495872,0.00017970026237890124,0.0,0.0,0.0,0.0,0.0030102781020104885,-0.0008467032457701862,-0.00041665369644761086,1.000781774520874,0.0,0.0,0.0,0.2924617826938629,0.34572920203208923,5.3068037033081055,-52.93616485595703,0
495.52399999999943,0.0003453511744737625,-0.00023442087695002556,0.00014106108574196696,0.0,0.0,0.0,0.0,-0.001231067581102252,0.002370439702644944,-0.004386160522699356,1.0005086660385132,0.0,0.0,0.0,0.2919815182685852,0.339770644903183,5.301990985870361,-52.84923553466797,0
505.4529999999995,0.00029083044501021504,-0.0002664366620592773,0.00014097709208726883,0.0,0.0,0.0,0.0,0.0004960832302458584,3.408956399653107e-05,-0.002127677435055375,1.0025593042373657,0.0,0.0,0.0,0.29112356901168823,0.34345513582229614,5.289231777191162,-52.69395065307617,0
515.3449999999993,0.00025220459792762995,-0.00021314159675966948,0.000145891317515634,0.0,0.0,0.0,0.0,-0.0017038482474163175,0.0011234558187425137,0.001382486312650144,1.0008114576339722,0.0,0.0,0.0,0.2899453341960907,0.3426547944545746,5.2892374992370605,-52.480682373046875,0
525.2489999999998,0.0001941245427588001,-0.00024116924032568932,0.00014993349032010883,0.0,0.0,0.0,0.0,0.002468503313139081,0.002877277322113514,-0.001072668470442295,0.9993230700492859,0.0,0.0,0.0,0.2900850474834442,0.3450767695903778,5.2797040939331055,-52.50596618652344,0
535.1630000000005,0.0001509586872998625,-0.00018111021199729294,0.00015349201567005366,0.0,0.0,0.0,0.0,0.0005270520341582596,0.004059206694364548,-0.0018380078254267573,1.0011017322540283,0.0,0.0,0.0,0.2899840176105499,0.34011194109916687,5.268736839294434,-52.4876823425293,0
545.0660000000007,0.00021067667694296688,-0.0001818162272684276,0.00026276084827259183,0.0,0.0,0.0,0.0,-0.0008172973175533116,0.0007914598099887371,-0.0019042262574657798,1.0022227764129639,0.0,0.0,0.0,0.2821139395236969,0.34416812658309937,5.283276557922363,-51.06318283081055,0
554.9860000000008,0.00021214436856098473,-0.0001258446864085272,0.00020850609871558845,0.0,0.0,0.0,0.0,-0.00033262924989685416,0.0005549732595682144,-0.005219044629484415,1.0016261339187622,0.0,0.0,0.0,0.2813435196876526,0.347114235162735,5.27301549911499,-50.923736572265625,0
564.8909999999996,0.00013738662528339773,-6.14062519161962e-05,0.0002668264787644148,0.0,0.0,0.0,0.0,0.0031093000434339046,-0.0006235514301806688,0.001235825358889997,1.0017286539077759,0.0,0.0,0.0,0.2795045077800751,0.35113662481307983,5.265351295471191,-50.59087371826172,0
574.8060000000005,0.00016553359455429018,3.366829696460627e-05,0.00017493344785179943,0.0,0.0,0.0,0.0,-0.0013402344193309546,-0.002138890326023102,-0.002958019031211734,1.0006579160690308,0.0,0.0,0.0,0.2800487279891968,0.34483447670936584,5.265585422515869,-50.68937683105469,0
584.7080000000005,0.00013089561252854764,8.30896824481897e-05,0.0002333713782718405,0.0,0.0,0.0,0.0,0.0010713565861806273,-0.0024797667283564806,-0.0020450048614293337,1.0010192394256592,0.0,0.0,0.0,0.28557804226875305,0.3494974672794342,5.270519733428955,-51.69019317626953,0
594.6229999999996,9.385312296217307e-05,5.621988748316653e-05,0.0001893398875836283,0.0,0.0,0.0,0.0,-0.0023366441018879414,-0.0007904261583462358,0.00027632719138637185,1.002659559249878,0.0,0.0,0.0,0.2840101420879364,0.3467351794242859,5.2728471755981445,-51.40639877319336,0
604.5370000000003,0.00011480856483103707,6.001064684824087e-05,0.00024098089488688856,0.0,0.0,0.0,0.0,-0.00033848118619062006,0.0006249442812986672,-0.0007679312257096171,1.0013036727905273,0.0,0.0,0.0,0.2841033339500427,0.34804269671440125,5.269252300262451,-51.42327117919922,0
614.4480000000003,5.310449341777712e-05,2.6253739633830264e-05,0.00023713591508567333,0.0,0.0,0.0,0.0,5.517387762665749e-06,0.0010507033439353108,0.001097701140679419,0.9976876378059387,0.0,0.0,0.0,0.2830612361431122,0.34787246584892273,5.26469612121582,-51.23464584350586,0
624.3469999999998,8.890165918273851e-05,1.9654384232126176e-05,0.000292719982098788,0.0,0.0,0.0,0.0,-0.0021589682437479496,-0.0034740620758384466,0.0026013883762061596,0.9978501200675964,0.0,0.0,0.0,0.28272393345832825,0.3468981981277466,5.258483409881592,-51.17359161376953,0
634.2710000000006,-3.1419945116795134e-06,-6.555390427820385e-05,0.00030940683791413903,0.0,0.0,0.0,0.0,0.001078814035281539,0.0005150523502379656,0.0026385821402072906,0.9999343752861023,0.0,0.0,0.0,0.28308725357055664,0.3476027846336365,5.258514881134033,-51.239356994628906,0
644.1720000000005,-7.763651956338435e-05,-8.123283623717725e-05,0.00032386183738708496,0.0,0.0,0.0,0.0,0.0020834726747125387,-0.0007807383080944419,0.0017800845671445131,0.99958336353302,0.0,0.0,0.0,0.2835599184036255,0.344539612531662,5.248839855194092,-51.32490921020508,0
654.0900000000001,-0.00012461343430913985,-4.341934254625812e-05,0.0002895715006161481,0.0,0.0,0.0,0.0,0.0008301527705043554,0.002675255062058568,-0.0004928854759782553,1.0001678466796875,0.0,0.0,0.0,0.2828887701034546,0.3366764187812805,5.238549709320068,-51.20343017578125,0
663.9860000000008,-0.000202575494768098,-5.850982415722683e-05,0.0003004091267939657,0.0,0.0,0.0,0.0,-2.7948792194365524e-05,0.0044630360789597034,0.001083527342416346,1.0007789134979248,0.0,0.0,0.0,0.2815522253513336,0.33231112360954285,5.225787162780762,-50.96151351928711,0
673.9150000000009,-0.0002312016295036301,-1.0329813449061476e-05,0.0002451964537613094,0.0,0.0,0.0,0.0,0.0035174228250980377,-0.0006733552436344326,0.0012567532248795033,0.9997770190238953,0.0,0.0,0.0,0.2815588414669037,0.33305445313453674,5.212982177734375,-50.96271514892578,0
683.8170000000009,0.00019909092225134373,-0.0002666460641194135,0.00042325956746935844,0.0,0.0,0.0,0.0,0.00447459751740098,-0.0002428922161925584,0.0019870472606271505,0.9984387755393982,0.0,0.0,0.0,0.27843111753463745,0.2813376784324646,5.3457136154174805,-50.396583557128906,0
693.7350000000006,0.00020566306193359196,-0.00019498330948408693,0.0003821055288426578,0.0,0.0,0.0,0.0,0.0003138364991173148,0.000148492690641433,-0.0005416300846263766,0.9984262585639954,0.0,0.0,0.0,0.27831757068634033,0.2759871780872345,5.343413829803467,-50.37603759765625,0
703.6280000000006,0.0001514238683739677,-0.00021811960323248059,0.0003923045005649328,0.0,0.0,0.0,0.0,-0.0015864988090470433,-0.000789279758464545,0.0011126414174214005,1.0000364780426025,0.0,0.0,0.0,0.2768467664718628,0.27777284383773804,5.33212947845459,-50.10980987548828,0
713.5450000000001,0.00016417932056356221,-0.00010344070324208587,0.00033750649890862405,0.0,0.0,0.0,0.0,-0.0023863636888563633,-0.0038454707246273756,0.002355257049202919,1.001654863357544,0.0,0.0,0.0,0.27654585242271423,0.28058770298957825,5.328912734985352,-50.05534744262695,0
723.460000000001,0.0004063629312440753,-0.00035046396078541875,0.00036113307578489184,0.0,0.0,0.0,0.0,-0.0014464668929576874,0.002795878332108259,0.003047155449166894,1.0004900693893433,0.0,0.0,0.0,0.2752940058708191,0.24164338409900665,5.394275188446045,-49.82876205444336,0
733.3690000000006,0.00045918888645246625,-0.00022001983597874641,0.00027816035435535014,0.0,0.0,0.0,0.0,0.0011799592757597566,-0.0007286458858288825,-0.001017895876429975,1.000656008720398,0.0,0.0,0.0,0.2753203511238098,0.24477219581604004,5.385560512542725,-49.83353042602539,0
743.268,0.00048451530165039003,-0.00035172069328837097,0.00023917818907648325,0.0,0.0,0.0,0.0,-0.004218359477818012,-0.002223198302090168,6.718748772982508e-05,1.0013155937194824,0.0,0.0,0.0,0.2745460867881775,0.2453089952468872,5.37960958480835,-49.693389892578125,0
753.1869999999999,0.00047025943058542907,-0.00029648790950886905,0.00022997164342086762,0.0,0.0,0.0,0.0,0.002460944000631571,0.0031962061766535044,-0.0006045454065315425,1.0009511709213257,0.0,0.0,0.0,0.27355605363845825,0.25683149695396423,5.3757781982421875,-49.514183044433594,0
763.0930000000008,0.0005389229627326131,-0.00043516975711099803,0.00020416153711266816,0.0,0.0,0.0,0.0,-0.0003905683697666973,-0.0020824719686061144,-0.0010073092998936772,1.000565528869629,0.0,0.0,0.0,0.27233466506004333,0.25711360573768616,5.365817070007324,-49.29311752319336,0
773.0079999999998,0.0005031639011576772,-0.000382297788746655,0.00023617000260856003,0.0,0.0,0.0,0.0,-0.00032093809568323195,-0.001979213207960129,-0.0008175265393219888,1.0021287202835083,0.0,0.0,0.0,0.2711869776248932,0.2598279118537903,5.364754676818848,-49.08537673950195,0
782.9089999999997,0.000586724781896919,-0.0005852978792972863,0.00018541842291597277,0.0,0.0,0.0,0.0,0.004419759381562471,-0.001824691891670227,-6.213368760654703e-05,1.0015190839767456,0.0,0.0,0.0,0.2713468372821808,0.25951191782951355,5.3632893562316895,-49.11431884765625,0
792.8369999999995,0.0005980913410894573,-0.0004663375730160624,0.00017360049241688102,0.0,0.0,0.0,0.0,-0.0002164041652576998,0.0003477733407635242,0.0015113202389329672,1.0020644664764404,0.0,0.0,0.0,0.27162450551986694,0.25299468636512756,5.359195709228516,-49.16456985473633,0
802.732,0.0005673545529134572,-0.0006289060693234205,0.00010629073949530721,0.0,0.0,0.0,0.0,0.0016298209084197879,0.0001672876242082566,0.000875967787578702,1.0013271570205688,0.0,0.0,0.0,0.27155840396881104,0.2509201169013977,5.351006031036377,-49.15260696411133,0
812.6589999999997,0.0005315810558386147,-0.0005711408448405564,0.00014180454309098423,0.0,0.0,0.0,0.0,0.00034465716453269124,0.00027653458528220654,-0.001860588090494275,1.0014580488204956,0.0,0.0,0.0,0.2717427909374237,0.24716128408908844,5.343906402587891,-49.18598175048828,0
822.5619999999999,0.000530193850863725,-0.0006733048940077424,0.00012392833014018834,0.0,0.0,0.0,0.0,-0.001995914615690708,0.005627442616969347,-0.0036316486075520515,1.0010331869125366,0.0,0.0,0.0,0.278697669506073,0.23634053766727448,5.343385696411133,-50.4448356628418,0
832.4770000000008,0.0005197321879677474,-0.0005300061893649399,0.00015194389561656862,0.0,0.0,0.0,0.0,0.00601648585870862,0.0005945301381871104,-0.004573787562549114,1.0011881589889526,0.0,0.0,0.0,0.2780974209308624,0.2374698519706726,5.322882175445557,-50.336185455322266,0
842.3809999999994,0.0005230599199421704,-0.0006510322564281523,0.0001275621325476095,0.0,0.0,0.0,0.0,-0.0031768083572387695,-0.0037278172094374895,-0.0014530714834108949,1.0020033121109009,0.0,0.0,0.0,0.2874484658241272,0.2148713320493698,5.318081378936768,-52.028743743896484,0
852.3060000000005,0.0005104673909954727,-0.0005230142851360142,0.00014922101399861276,0.0,0.0,0.0,0.0,0.003621643641963601,0.0021111436653882265,0.00027292646700516343,1.0018144845962524,0.0,0.0,0.0,0.2868608236312866,0.22323988378047943,5.317426681518555,-51.92237854003906,0
862.2000000000007,0.0004602730623446405,-0.0006565957446582615,0.0001027790640364401,0.0,0.0,0.0,0.0,-0.0009060812299139798,-0.006549810990691185,0.0009138506138697267,1.000216007232666,0.0,0.0,0.0,0.29488086700439453,0.19844591617584229,5.309230327606201,-53.374027252197266,0
872.1170000000002,0.0004893119330517948,-0.000443910073954612,8.748103573452681e-05,0.0,0.0,0.0,0.0,-0.0031771513167768717,-0.0007207478047348559,-1.3258598301035818e-05,0.9994806051254272,0.0,0.0,0.0,0.29185545444488525,0.2420683354139328,5.3246259689331055,-52.826416015625,0
882.0190000000002,0.00044473871821537614,-0.000550145166926086,5.180333027965389e-05,0.0,0.0,0.0,0.0,0.0019591907039284706,0.002474562032148242,-0.0017978595569729805,1.0009430646896362,0.0,0.0,0.0,0.2977016866207123,0.2382480800151825,5.3265204429626465,-53.88459396362305,0
891.9340000000011,0.00046457198914140463,-0.0003670149890240282,3.240336081944406e-05,0.0,0.0,0.0,0.0,0.0006502036703750491,0.0009774157078936696,-0.0021267759148031473,0.9991029500961304,0.0,0.0,0.0,0.2968807816505432,0.2791479825973511,5.324234485626221,-53.73601150512695,0
901.8340000000007,0.0002854688500519842,-0.00042028052848763764,-3.0015988158993423e-05,0.0,0.0,0.0,0.0,0.0013187910662963986,0.0017178549896925688,0.0014627801720052958,0.999951183795929,0.0,0.0,0.0,0.2967810332775116,0.27929550409317017,5.324179649353027,-53.71795654296875,0
911.7600000000002,0.00032998929964378476,-0.0002260175533592701,-9.681083611212671e-05,0.0,0.0,0.0,0.0,-0.0004619586979970336,-0.003605671925470233,-0.0008702183840796351,0.9993168115615845,0.0,0.0,0.0,0.297004759311676,0.3136861026287079,5.322858810424805,-53.75844955444336,0
921.6589999999997,0.0002573400270193815,-0.0002801343216560781,-0.00013133867469150573,0.0,0.0,0.0,0.0,0.001079897629097104,0.0020668909419327974,-1.2825791600334924e-05,1.0012537240982056,0.0,0.0,0.0,0.29617732763290405,0.3123565912246704,5.320756435394287,-53.60868453979492,0
931.5779999999995,0.00020454406330827624,-0.00023579041589982808,-0.00011975636152783409,0.0,0.0,0.0,0.0,-0.0022776692640036345,6.748201121808961e-05,-0.0027631560806185007,1.002429723739624,0.0,0.0,0.0,0.29660528898239136,0.30997270345687866,5.308717727661133,-53.686153411865234,0
941.4740000000002,0.00019809926743619144,-0.00027124601183459163,-0.00011818762868642807,0.0,0.0,0.0,0.0,0.0006148680113255978,-0.00022290318156592548,-0.004093396943062544,1.0003269910812378,0.0,0.0,0.0,0.2952679991722107,0.31641021370887756,5.3010101318359375,-53.444091796875,0
951.3909999999996,0.00012289467849768698,-0.00023988822067622095,-7.251335046021268e-05,0.0,0.0,0.0,0.0,-0.001061488757841289,0.003021486569195986,0.006956315599381924,1.0004894733428955,0.0,0.0,0.0,0.29349565505981445,0.31674569845199585,5.299671649932861,-53.12329864501953,0
961.2939999999999,0.00010494104935787618,-0.00025696074590086937,-6.038352512405254e-05,0.0,0.0,0.0,0.0,-0.0004408753593452275,-0.0028831190429627895,-0.004871795419603586,1.0014541149139404,0.0,0.0,0.0,0.29646843671798706,0.3217512369155884,5.2997331619262695,-53.661376953125,0
971.2270000000008,1.2926255294587463e-05,-0.00026554992655292153,-2.876675353036262e-06,0.0,0.0,0.0,0.0,-0.0009078528382815421,0.0008287681848742068,-0.0027447917964309454,1.001534342765808,0.0,0.0,0.0,0.2947976589202881,0.32030409574508667,5.296910762786865,-53.35896301269531,0
981.116,-2.833403050317429e-05,-0.00021205548546276987,4.79322079627309e-05,0.0,0.0,0.0,0.0,-0.0008336895261891186,0.003008402418345213,0.00019132698071189225,0.9997341632843018,0.0,0.0,0.0,0.3014173209667206,0.33490365743637085,5.296394348144531,-54.557132720947266,0
991.0370000000003,-9.364412107970566e-05,-0.0002041415573330596,7.346002530539408e-05,0.0,0.0,0.0,0.0,-0.0031561367213726044,0.001882661716081202,0.002288054907694459,0.9978371262550354,0.0,0.0,0.0,0.30179449915885925,0.33432531356811523,5.28308629989624,-54.62540817260742,0
1000.9410000000007,-0.00015862370491959155,-0.00022419335437007248,8.48428244353272e-05,0.0,0.0,0.0,0.0,0.0020946739241480827,-0.0019551580771803856,0.00011435768828960136,0.9988816976547241,0.0,0.0,0.0,0.30201414227485657,0.33969444036483765,5.272823810577393,-54.665157318115234,0
1010.8580000000002,-0.00017540442058816552,-0.00017124607984442264,4.4065647671232e-05,0.0,0.0,0.0,0.0,0.0015402737772092223,-0.001409627147950232,-1.763086038408801e-05,1.0002796649932861,0.0,0.0,0.0,0.3024613857269287,0.334208607673645,5.267910003662109,-54.74611282348633,0
1020.7579999999998,-7.977423956617713e-05,-0.00015776984218973666,0.0001577900693519041,0.0,0.0,0.0,0.0,0.00027668895199894905,0.0015980617608875036,0.004293897654861212,1.0000627040863037,0.0,0.0,0.0,0.3104760944843292,0.33488625288009644,5.304320812225342,-56.19679260253906,0
1030.6720000000005,-5.4682837799191475e-05,-6.122540071373805e-05,8.503274148097262e-05,0.0,0.0,0.0,0.0,8.128304034471512e-05,0.0030050345230847597,-5.9542551753111184e-05,0.9986938834190369,0.0,0.0,0.0,0.310247540473938,0.33533230423927307,5.296604156494141,-56.15542221069336,0
1040.5770000000011,9.359617251902819e-06,-9.773868077900261e-05,0.00012381501437630504,0.0,0.0,0.0,0.0,0.0011558622354641557,0.006374059710651636,-0.0015683514066040516,1.0024374723434448,0.0,0.0,0.0,0.3087836802005768,0.3388814926147461,5.28186559677124,-55.89046096801758,0
1050.496000000001,1.557050200062804e-05,-6.084492270019837e-06,8.02528447820805e-05,0.0,0.0,0.0,0.0,0.0027087603230029345,0.006328979507088661,-0.00038397329626604915,1.001969575881958,0.0,0.0,0.0,0.30743375420570374,0.3384329080581665,5.257777690887451,-55.646121978759766,0
1060.4009999999998,-4.0131410059984773e-05,-1.6219528333749622e-05,8.908760355552658e-05,0.0,0.0,0.0,0.0,0.002117330674082041,-0.0018420766573399305,-0.0006061932654120028,0.9982690215110779,0.0,0.0,0.0,0.30729180574417114,0.3364509344100952,5.239151954650879,-55.620426177978516,0
1070.3140000000003,-6.234735337784514e-05,-7.372681920969626e-06,5.0656712119234726e-05,0.0,0.0,0.0,0.0,0.002747518941760063,-0.00037702653207816184,-0.002413482405245304,0.9994722008705139,0.0,0.0,0.0,0.3071904182434082,0.33218979835510254,5.234797477722168,-55.60207748413086,0
1080.2209999999995,7.678338442929089e-05,-0.00011297871242277324,9.798153769224882e-05,0.0,0.0,0.0,0.0,-0.001741281826980412,-0.002544470364227891,0.0017023250693455338,1.001556396484375,0.0,0.0,0.0,0.30112436413764954,0.3089549243450165,5.267629146575928,-54.504112243652344,0
1090.1370000000006,3.411019133636728e-05,-8.901631372282282e-05,0.0001129886950366199,0.0,0.0,0.0,0.0,-0.002439048606902361,-0.003011449007317424,-0.004490358289331198,1.0011273622512817,0.0,0.0,0.0,0.30098703503608704,0.3083283007144928,5.267581462860107,-54.47925567626953,0
1100.0429999999997,-1.6729380149627104e-05,-0.00010032894351752475,0.00012325274292379618,0.0,0.0,0.0,0.0,0.001551033928990364,0.004230644553899765,-0.0032124100252985954,1.0002397298812866,0.0,0.0,0.0,0.30007627606391907,0.31252321600914,5.2642903327941895,-54.31439971923828,0
1109.9580000000005,-5.2487132052192464e-05,-0.00011642305616987869,0.00010532607848290354,0.0,0.0,0.0,0.0,-0.0030639301985502243,-0.0007305679027922451,0.0009403928415849805,1.0005912780761719,0.0,0.0,0.0,0.2997814416885376,0.30909276008605957,5.24636697769165,-54.26103591918945,0
1119.8610000000008,-0.00010586201096884906,-0.00012819754192605615,0.00011461997928563505,0.0,0.0,0.0,0.0,-0.00015683106903452426,0.0057724155485630035,-0.0020821013022214174,1.0004236698150635,0.0,0.0,0.0,0.299525648355484,0.3139297366142273,5.24081563949585,-54.21473693847656,0
1129.777,-0.00013110569852869958,-8.162089216057211e-05,9.32479088078253e-05,0.0,0.0,0.0,0.0,0.0037667942233383656,0.0013663300778716803,0.004468289669603109,1.0007879734039307,0.0,0.0,0.0,0.29294630885124207,0.33250007033348083,5.236226558685303,-53.02386474609375,0
1139.6779999999999,0.0002925818262156099,-0.00032872488372959197,0.00026268401416018605,0.0,0.0,0.0,0.0,-0.0019003980560228229,-2.769995990092866e-05,0.0011979300761595368,1.0023373365402222,0.0,0.0,0.0,0.2912985682487488,0.27018168568611145,5.347678184509277,-52.72562026977539,0
1149.6000000000004,0.00029474752955138683,-0.00026037197676487267,0.00027661139029078186,0.0,0.0,0.0,0.0,0.002657368080690503,-0.0031399892177432775,0.0001434993464499712,1.0014666318893433,0.0,0.0,0.0,0.2912561595439911,0.267697811126709,5.344995498657227,-52.71794128417969,0
1159.4989999999998,0.00026798399630934,-0.0002799445646815002,0.000297953694825992,0.0,0.0,0.0,0.0,0.0001599473471287638,0.0030198644381016493,0.00292295403778553,0.9992095828056335,0.0,0.0,0.0,0.29034504294395447,0.25837579369544983,5.343564987182617,-52.55302810668945,0
1169.4310000000005,0.00026594195514917374,-0.00021775669301860034,0.00030804070411249995,0.0,0.0,0.0,0.0,-0.0022956610191613436,-0.002762570045888424,-0.004651198163628578,1.000820517539978,0.0,0.0,0.0,0.29069244861602783,0.2602044343948364,5.335546493530273,-52.61591339111328,0
1179.3230000000003,0.0005051949992775917,-0.00044726463966071606,0.0003404527378734201,0.0,0.0,0.0,0.0,-0.002473735949024558,0.0004120342491660267,0.0016062721842899919,0.9989297986030579,0.0,0.0,0.0,0.2887085974216461,0.22239527106285095,5.384900093078613,-52.25682830810547,0
1189.2440000000006,0.0005079988623037934,-0.00037585487007163465,0.0003784885921049863,0.0,0.0,0.0,0.0,0.0003905658086296171,-0.0009204241796396673,0.0024461783468723297,0.9992566704750061,0.0,0.0,0.0,0.2885385751724243,0.22946521639823914,5.381829738616943,-52.22605895996094,0
1199.1419999999998,0.0006028026691637933,-0.00053984863916412,0.0003651206789072603,0.0,0.0,0.0,0.0,-0.0003838175907731056,-0.0024641421623528004,0.0014787878608331084,1.0003867149353027,0.0,0.0,0.0,0.28901296854019165,0.22795988619327545,5.369631290435791,-52.311927795410156,0
1209.062,0.0006013292586430907,-0.0005056948284618556,0.00038840921479277313,0.0,0.0,0.0,0.0,-0.0026254949625581503,-0.0030805938877165318,0.002241308568045497,1.0022250413894653,0.0,0.0,0.0,0.2884150743484497,0.22723785042762756,5.365807056427002,-52.203704833984375,0
1218.960000000001,0.0006217870395630598,-0.0006205684039741755,0.00037701844121329486,0.0,0.0,0.0,0.0,0.0006085793138481677,-0.002244507195428014,0.003698889398947358,0.9997330904006958,0.0,0.0,0.0,0.2884056270122528,0.23072227835655212,5.367578983306885,-52.20199203491211,0
1228.8809999999994,0.0006504617631435394,-0.0005018452065996826,0.0003863532328978181,0.0,0.0,0.0,0.0,0.005272273439913988,0.00014154828386381269,-2.7170093744643964e-05,1.0009691715240479,0.0,0.0,0.0,0.2886350750923157,0.22751013934612274,5.369179725646973,-52.24352264404297,0
1238.7829999999994,0.0006290379096753895,-0.0006103019695729017,0.00036152248503640294,0.0,0.0,0.0,0.0,-0.00013401621254161,-0.0020117387175559998,-0.0008081313571892679,0.9994142651557922,0.0,0.0,0.0,0.2878507077693939,0.21807900071144104,5.354986190795898,-52.10155487060547,0
1248.701000000001,0.0006709160516038537,-0.0004809905949514359,0.00034748943289741874,0.0,0.0,0.0,0.0,0.00026246235938742757,0.0006761345430277288,-0.0034102401696145535,1.0000817775726318,0.0,0.0,0.0,0.2876070737838745,0.21545545756816864,5.3508806228637695,-52.05745315551758,0
1258.603000000001,0.0006241044029593468,-0.0005319064948707819,0.00033906399039551616,0.0,0.0,0.0,0.0,-0.000776241417042911,-0.00039190868847072124,-0.00020507271983660758,0.9991567134857178,0.0,0.0,0.0,0.2872559726238251,0.21874751150608063,5.347975730895996,-51.99390411376953,0
1268.523000000001,0.0006884454633109272,-0.0003676090273074806,0.0002978461852762848,0.0,0.0,0.0,0.0,-0.0023029977455735207,-0.0007304748287424445,0.0017322695348411798,0.9987497925758362,0.0,0.0,0.0,0.28771260380744934,0.22346550226211548,5.340306758880615,-52.07655334472656,0
1278.424000000001,0.000646674947347492,-0.0004442110366653651,0.00026853795861825347,0.0,0.0,0.0,0.0,0.00037008608342148364,0.003558102762326598,-0.002006805967539549,1.000693440437317,0.0,0.0,0.0,0.2878310978412628,0.22885596752166748,5.3366522789001465,-52.097999572753906,0
1288.339,0.0006858231499791145,-0.0003243759856559336,0.0002372374729020521,0.0,0.0,0.0,0.0,0.0008831581217236817,-0.003025735029950738,-0.0018067522905766964,1.0030889511108398,0.0,0.0,0.0,0.28671082854270935,0.2282775491476059,5.328160285949707,-51.89522933959961,0
1298.2420000000002,0.0006173409055918455,-0.00041945945122279227,0.00018513176473788917,0.0,0.0,0.0,0.0,-3.0190576580935158e-05,-0.004038590006530285,0.003911077976226807,1.0021798610687256,0.0,0.0,0.0,0.28541192412376404,0.2282695770263672,5.324580192565918,-51.660125732421875,0
1308.161,0.00064779695821926,-0.00029929057927802205,0.00016139507351908833,0.0,0.0,0.0,0.0,0.0006500831805169582,-0.001970949349924922,0.0021185921505093575,1.0023006200790405,0.0,0.0,0.0,0.28566214442253113,0.2307717353105545,5.329882621765137,-51.705421447753906,0
1318.0689999999995,0.0005844879779033363,-0.0003634182212408632,0.00012755696661770344,0.0,0.0,0.0,0.0,0.0024799355305731297,0.004042098764330149,-0.00044158296077512205,1.001218318939209,0.0,0.0,0.0,0.2856752276420593,0.23510050773620605,5.332871437072754,-51.70778274536133,0
1327.9799999999996,0.0005569042405113578,-0.0003304228594060987,0.00015170448750723153,0.0,0.0,0.0,0.0,0.001051730359904468,0.00023470375163014978,-0.001891418593004346,1.0021394491195679,0.0,0.0,0.0,0.28455305099487305,0.23152297735214233,5.314915180206299,-51.50466537475586,0
1337.889000000001,0.0004595305072143674,-0.00038099431549198925,0.0001181690749945119,0.0,0.0,0.0,0.0,-0.0009918486466631293,-0.003968903329223394,0.00102385098580271,1.001873254776001,0.0,0.0,0.0,0.2839471101760864,0.23518575727939606,5.3093647956848145,-51.394989013671875,0
1347.8029999999999,0.0004211653722450137,-0.0003301422402728349,0.00015732325846329331,0.0,0.0,0.0,0.0,0.0013961180811747909,0.0013896389864385128,-0.0018725423142313957,1.001617670059204,0.0,0.0,0.0,0.28424203395843506,0.2383105456829071,5.312309265136719,-51.4483757019043,0
1357.7119999999995,0.00035525529528968036,-0.00032988793100230396,0.000167961698025465,0.0,0.0,0.0,0.0,-0.0003897033748216927,0.000886351044755429,0.00037443748442456126,1.0006943941116333,0.0,0.0,0.0,0.2903366684913635,0.23168714344501495,5.300737380981445,-52.551517486572266,0
1367.625,0.00031010209931991994,-0.00032711116364225745,0.0001964278781088069,0.0,0.0,0.0,0.0,-0.0015184476505964994,-0.0015873139491304755,0.00020464147382881492,0.9999334812164307,0.0,0.0,0.0,0.2899978458881378,0.22770282626152039,5.303101539611816,-52.49018478393555,0
1377.532000000001,0.00031406176276504993,-0.00033255512244068086,0.00023128480825107545,0.0,0.0,0.0,0.0,-0.003185281530022621,-0.0021824438590556383,-0.002667624270543456,0.9991438984870911,0.0,0.0,0.0,0.28905096650123596,0.23057778179645538,5.299191474914551,-52.31880569458008,0
1387.4430000000011,0.00025315722450613976,-0.00032952355104498565,0.00027972226962447166,0.0,0.0,0.0,0.0,3.2563908462179825e-05,-0.00013905478408560157,0.0017725122161209583,0.9998531937599182,0.0,0.0,0.0,0.2885318994522095,0.2382216900587082,5.29401159286499,-52.22484588623047,0
1397.3500000000004,0.00014295225264504552,-0.0002423263795208186,0.000332681491272524,0.0,0.0,0.0,0.0,-0.0011900877580046654,-0.0029582451097667217,0.001958447275683284,1.0008817911148071,0.0,0.0,0.0,0.28849518299102783,0.23994222283363342,5.293127536773682,-52.218204498291016,0
1407.2659999999996,0.00015216594329103827,-0.0001648614852456376,0.00029714233824051917,0.0,0.0,0.0,0.0,0.004142530728131533,-0.0027607805095613003,0.003123863134533167,1.0012627840042114,0.0,0.0,0.0,0.28927892446517944,0.23876042664051056,5.293412208557129,-52.36005783081055,0
1417.1759999999995,9.913076064549387e-05,-0.00018020598508883268,0.00031380352447740734,0.0,0.0,0.0,0.0,0.002625855151563883,-0.0019314653472974896,-0.0006050635711289942,0.999568521976471,0.0,0.0,0.0,0.28908011317253113,0.23296180367469788,5.292901992797852,-52.32408142089844,0
1427.085000000001,0.00011009798618033528,-0.00011539180559339002,0.00025830965023487806,0.0,0.0,0.0,0.0,0.001597939757630229,-0.00012312806211411953,0.0016148838913068175,0.9998455047607422,0.0,0.0,0.0,0.2878165543079376,0.23173457384109497,5.292101860046387,-52.095367431640625,0
1436.9940000000006,5.628342478303239e-05,-0.00012937972496729344,0.0002701468765735626,0.0,0.0,0.0,0.0,-0.0017152285436168313,0.0015061800368130207,0.0027683491352945566,1.0001810789108276,0.0,0.0,0.0,0.28798577189445496,0.22717586159706116,5.279036998748779,-52.12599563598633,0
1446.9009999999998,5.739703556173481e-05,-7.851448754081503e-05,0.00021446406026370823,0.0,0.0,0.0,0.0,-0.0005414641927927732,0.0019378665601834655,0.003443163586780429,1.0001919269561768,0.0,0.0,0.0,0.28826287388801575,0.2299068123102188,5.270595073699951,-52.176151275634766,0
1456.813,2.86102294921875e-06,-8.88314243638888e-05,0.000221698748646304,0.0,0.0,0.0,0.0,1.611422521818895e-05,0.0039470917545259,0.0021650493144989014,0.9995350241661072,0.0,0.0,0.0,0.2883594334125519,0.227254718542099,5.257182598114014,-52.193626403808594,0
1466.723,-5.71708005736582e-06,-5.496856465470046e-05,0.00017185890465043485,0.0,0.0,0.0,0.0,-0.00040127706597559154,0.000403765618102625,0.0006928314105607569,1.0004264116287231,0.0,0.0,0.0,0.28888270258903503,0.2273368388414383,5.242745399475098,-52.2883415222168,0
1476.6399999999994,2.5045632355613634e-05,-3.044757977477275e-05,0.0002732996072154492,0.0,0.0,0.0,0.0,0.0011552931973710656,0.004040069878101349,-0.0004306175687815994,0.9992542862892151,0.0,0.0,0.0,0.2992134690284729,0.23517602682113647,5.262431621551514,-54.15822982788086,0
1486.5400000000009,2.4759046937106177e-05,-4.2053256947838236e-06,0.0002015924983425066,0.0,0.0,0.0,0.0,0.0020475101191550493,-0.003514377400279045,-0.0020335593726485968,1.0008862018585205,0.0,0.0,0.0,0.2981618046760559,0.22918853163719177,5.249783515930176,-53.96788024902344,0
1496.4580000000005,6.744952406734228e-05,-1.792224975361023e-05,0.00025383170577697456,0.0,0.0,0.0,0.0,0.00044861205969937146,0.00039216902223415673,-5.671920007443987e-05,1.0019512176513672,0.0,0.0,0.0,0.29854077100753784,0.22760765254497528,5.255697727203369,-54.036476135253906,0
1506.362000000001,2.9911789170000702e-05,-2.6135207008337602e-05,0.00023633464297745377,0.0,0.0,0.0,0.0,-0.0005017649382352829,-0.0045404392294585705,0.0012172890128567815,1.0020718574523926,0.0,0.0,0.0,0.29781612753868103,0.2217874377965927,5.258114814758301,-53.90530776977539,0
1516.2790000000005,-2.4447097530355677e-05,-3.9078600821085274e-05,0.0002453383058309555,0.0,0.0,0.0,0.0,-0.00047381414333358407,0.0034301052801311016,0.0008979634149000049,1.0016494989395142,0.0,0.0,0.0,0.2979336977005005,0.22444696724414825,5.267600059509277,-53.92658996582031,0
1526.184000000001,-8.706910739419982e-05,-8.551988139515743e-05,0.0002564112946856767,0.0,0.0,0.0,0.0,0.0015100029995664954,-0.0035038008354604244,0.0013294500531628728,1.0017517805099487,0.0,0.0,0.0,0.29795926809310913,0.22544993460178375,5.255031585693359,-53.931217193603516,0
1536.1059999999998,-0.00014610480866394937,-0.00010197670781053603,0.00026915883063338697,0.0,0.0,0.0,0.0,-0.00014494496281258762,0.004679838661104441,0.0008615622064098716,1.0007590055465698,0.0,0.0,0.0,0.2977597713470459,0.22705572843551636,5.2617316246032715,-53.89511489868164,0
1546.0030000000006,-0.000161141186254099,-2.9587068638647906e-05,0.0002183137839892879,0.0,0.0,0.0,0.0,-2.9695002012886107e-05,-0.0006725885323248804,0.0003859247372020036,1.0010673999786377,0.0,0.0,0.0,0.2970530390739441,0.2269512563943863,5.248440742492676,-53.76719284057617,0
1555.9169999999995,-0.00022242430713959038,-4.058656486449763e-05,0.00022866671497467905,0.0,0.0,0.0,0.0,-0.0007475733291357756,-0.0008300957269966602,0.001469382899813354,0.9976176023483276,0.0,0.0,0.0,0.29645639657974243,0.22853024303913116,5.245985507965088,-53.65919876098633,0
1565.8189999999995,-0.00021985678176861256,1.7976517483475618e-05,0.00012651243014261127,0.0,0.0,0.0,0.0,-0.0021760521922260523,0.0024649258702993393,0.001545688952319324,0.9988994002342224,0.0,0.0,0.0,0.2962489724159241,0.2312435656785965,5.24406623840332,-53.62165069580078,0
1575.7360000000008,-0.00027901335852220654,9.533836418995634e-06,0.0001265605678781867,0.0,0.0,0.0,0.0,-0.0016894250875338912,-0.0027523895259946585,-0.0006391467759385705,1.0015337467193604,0.0,0.0,0.0,0.29559436440467834,0.23584702610969543,5.238908767700195,-53.503170013427734,0
1585.639000000001,-0.00027820118702948093,4.9139518523588777e-05,2.327503534615971e-05,0.0,0.0,0.0,0.0,-0.003980323672294617,-0.004237730987370014,0.0038105021230876446,0.9999687075614929,0.0,0.0,0.0,0.29454344511032104,0.23467989265918732,5.235562801361084,-53.31294631958008,0
1595.5599999999995,0.0004396419390104711,-0.00038415330345742404,0.00034088187385350466,0.0,0.0,0.0,0.0,0.0012484117178246379,0.009976470842957497,0.0009608534164726734,1.0001970529556274,0.0,0.0,0.0,0.2959352731704712,0.14550165832042694,5.43482780456543,-53.564876556396484,0
1605.4650000000001,0.0004802701878361404,-0.0003058187139686197,0.00030503017478622496,0.0,0.0,0.0,0.0,0.0036864581052213907,0.002430540742352605,0.002667846390977502,0.9994238018989563,0.0,0.0,0.0,0.2958042323589325,0.1466602385044098,5.410192012786865,-53.54115676879883,0
1615.3819999999996,0.0006006411276757717,-0.0004413166316226125,0.00030137188150547445,0.0,0.0,0.0,0.0,-0.002212873660027981,0.0019887113012373447,-0.0031285418663173914,0.9977166056632996,0.0,0.0,0.0,0.29649829864501953,0.14097216725349426,5.399048328399658,-53.66678237915039,0
1625.286,0.0006413520313799381,-0.00032100974931381643,0.0002934523799922317,0.0,0.0,0.0,0.0,-0.0006895863334648311,-0.0016836688155308366,-0.000945937994401902,1.0010219812393188,0.0,0.0,0.0,0.2958379089832306,0.14678362011909485,5.389858245849609,-53.54724884033203,0
1635.2020000000011,0.0006795749650336802,-0.00047741271555423737,0.0002364004758419469,0.0,0.0,0.0,0.0,-0.00024583007325418293,-0.0012281110975891352,0.0008103452855721116,1.0019105672836304,0.0,0.0,0.0,0.29558655619621277,0.15196599066257477,5.389499664306641,-53.50175476074219,0
1645.1080000000002,0.0006906143389642239,-0.0004110625886823982,0.0002477301750332117,0.0,0.0,0.0,0.0,-0.0010520352516323328,-0.00045560323633253574,-0.0011751570273190737,1.0022579431533813,0.0,0.0,0.0,0.29589197039604187,0.15026335418224335,5.390895366668701,-53.557037353515625,0
1655.0220000000008,0.0006535925786010921,-0.0005643811309710145,0.00016985789989121258,0.0,0.0,0.0,0.0,0.0020094874780625105,0.002749063540250063,0.001590011757798493,0.9998282194137573,0.0,0.0,0.0,0.295248419046402,0.15367434918880463,5.390020847320557,-53.440555572509766,0
1664.9210000000003,0.0006794244982302189,-0.0004684581363108009,0.00016447968664579093,0.0,0.0,0.0,0.0,-0.0015585562214255333,0.0036567721981555223,-0.005220083985477686,0.9998193383216858,0.0,0.0,0.0,0.2967047393321991,0.1512645035982132,5.37928581237793,-53.70414733886719,0
1674.8369999999995,0.0006566888187080622,-0.0006070697563700378,9.941522148437798e-05,0.0,0.0,0.0,0.0,-0.001827950356528163,0.0018055156106129289,0.00044806930236518383,1.0013229846954346,0.0,0.0,0.0,0.2949334383010864,0.15187707543373108,5.365555763244629,-53.38353729248047,0
1684.7440000000006,0.0006379375699907541,-0.000528195290826261,0.00015415357484016567,0.0,0.0,0.0,0.0,-0.0009197904146276414,0.002454121597111225,-0.00022847163199912757,1.0003323554992676,0.0,0.0,0.0,0.29454660415649414,0.15476468205451965,5.350856304168701,-53.31352233886719,0
1694.67,0.0006145470542833209,-0.0006131379632279277,0.0001221773272845894,0.0,0.0,0.0,0.0,0.0036061990540474653,0.0026424224488437176,0.0015094896079972386,0.9988366365432739,0.0,0.0,0.0,0.2938023507595062,0.1566334366798401,5.342076301574707,-53.178810119628906,0
1704.563,0.0006117000593803823,-0.0005063301068730652,0.00015936794807203114,0.0,0.0,0.0,0.0,-0.00326153333298862,0.0029560488183051348,-0.0008670205716043711,0.9982120990753174,0.0,0.0,0.0,0.2937301695346832,0.14954213798046112,5.33285665512085,-53.165748596191406,0
1714.478000000001,0.0005436876090243459,-0.0006184068042784929,9.73413116298616e-05,0.0,0.0,0.0,0.0,5.3426847443915904e-05,-0.002436351729556918,-3.144725496895262e-06,1.0001169443130493,0.0,0.0,0.0,0.29368385672569275,0.15235233306884766,5.319697380065918,-53.15736389160156,0
1724.3829999999998,0.0005431174067780375,-0.0005193562246859074,0.00011997210094705224,0.0,0.0,0.0,0.0,0.0013033832656219602,-0.0024805106222629547,0.00924204383045435,1.0018993616104126,0.0,0.0,0.0,0.2926448881626129,0.15252327919006348,5.319382667541504,-52.96930694580078,0
1734.2980000000007,0.00045812924508936703,-0.0005920626572333276,7.672239007661119e-05,0.0,0.0,0.0,0.0,-0.002537881024181843,-0.0013017301680520177,0.0008878618245944381,1.0021473169326782,0.0,0.0,0.0,0.29437825083732605,0.14694146811962128,5.316595554351807,-53.28304672241211,0
1744.2029999999995,0.0004529223660938442,-0.0004943438107147813,0.00010074239980895072,0.0,0.0,0.0,0.0,0.0017626003827899694,-0.004217371344566345,0.002716959221288562,1.0007511377334595,0.0,0.0,0.0,0.2934790849685669,0.1477305293083191,5.306743621826172,-53.12030029296875,0
1754.1190000000006,0.00035614072112366557,-0.0005307949613779783,7.697384717175737e-05,0.0,0.0,0.0,0.0,0.00151068193372339,-0.0009074511472135782,-0.002480041468515992,0.9989051222801208,0.0,0.0,0.0,0.29326242208480835,0.14538738131523132,5.30153226852417,-53.081085205078125,0
1764.0239999999994,0.00035621385904960334,-0.0004193889908492565,8.878255175659433e-05,0.0,0.0,0.0,0.0,0.0012879575369879603,-0.0004640310653485358,0.0001960177905857563,0.9993951320648193,0.0,0.0,0.0,0.2921302020549774,0.14559882879257202,5.290818214416504,-52.87614822387695,0
1773.9349999999995,0.0002864533453248441,-0.0005230444367043674,3.62268001481425e-05,0.0,0.0,0.0,0.0,-2.554550337663386e-05,0.0016449150862172246,0.0030239468906074762,0.9994027614593506,0.0,0.0,0.0,0.29140999913215637,0.14568893611431122,5.287375450134277,-52.74578857421875,0
1783.8449999999993,0.000287224625935778,-0.0004066087130922824,3.5813700378639624e-05,0.0,0.0,0.0,0.0,0.0023341104388237,0.00127971766050905,-0.00029628636548295617,1.0011188983917236,0.0,0.0,0.0,0.2851782739162445,0.17334629595279694,5.280482769012451,-51.617835998535156,0
1793.7540000000008,0.00018574207206256688,-0.00046658411156386137,-8.222173164540436e-06,0.0,0.0,0.0,0.0,0.001954304287210107,-0.00569307804107666,0.003083267714828253,1.00254487991333,0.0,0.0,0.0,0.28501224517822266,0.1705632209777832,5.269866943359375,-51.5877799987793,0
1803.6650000000009,0.00018379952234681696,-0.0003546522930264473,-1.4407984053832479e-05,0.0,0.0,0.0,0.0,-0.0013554842444136739,-0.0010077083716169,8.404575783060864e-05,1.001833200454712,0.0,0.0,0.0,0.28503984212875366,0.17034249007701874,5.274868488311768,-51.592777252197266,0
1813.5750000000007,0.00014376321632880718,-0.0003913734690286219,-2.2894240828463808e-05,0.0,0.0,0.0,0.0,-0.004781205207109451,0.0015694916946813464,-0.0023140073753893375,0.9995952844619751,0.0,0.0,0.0,0.284376859664917,0.1755712330341339,5.275844573974609,-51.472774505615234,0
1823.4879999999994,0.00014003357500769198,-0.00028839492006227374,-3.489291339064948e-05,0.0,0.0,0.0,0.0,-0.00058431999059394,0.004740273114293814,0.00046655753976665437,0.9987189173698425,0.0,0.0,0.0,0.2829712927341461,0.18299773335456848,5.2686872482299805,-51.21836471557617,0
1833.398000000001,9.538044105283916e-05,-0.00031606454285793006,-3.8527428841916844e-05,0.0,0.0,0.0,0.0,-0.001468317466787994,0.0017012135358527303,-7.447046664310619e-05,1.0013072490692139,0.0,0.0,0.0,0.2824099063873291,0.1764959841966629,5.256453990936279,-51.11675262451172,0
1843.3050000000003,6.044345354894176e-05,-0.00027506169863045216,-3.5596454836195335e-05,0.0,0.0,0.0,0.0,-0.0009193599107675254,-0.0026810718700289726,0.0009965745266526937,1.001336693763733,0.0,0.0,0.0,0.28194567561149597,0.17797721922397614,5.247805595397949,-51.0327262878418,0
1853.2150000000001,1.1932621418964118e-05,-0.0002994371752720326,-3.715205457410775e-05,0.0,0.0,0.0,0.0,-0.0005923533462919295,-0.0015397542156279087,0.0012274618493393064,0.998823881149292,0.0,0.0,0.0,0.2815878093242645,0.17949652671813965,5.253249168395996,-50.967952728271484,0
1863.1280000000006,7.029735570540652e-05,-0.0002408913424005732,2.7606074581854045e-05,0.0,0.0,0.0,0.0,0.0023613942321389914,0.00586669659242034,-0.003921171650290489,0.9988613128662109,0.0,0.0,0.0,0.2813050150871277,0.18113459646701813,5.246669292449951,-50.91676712036133,0
1873.0429999999997,2.5888803065754473e-05,-0.0002609759394545108,3.0391252948902547e-05,0.0,0.0,0.0,0.0,0.00011754470324376598,-0.0014865361154079437,-2.9003869713051245e-05,1.0012315511703491,0.0,0.0,0.0,0.2790796756744385,0.17494012415409088,5.222754955291748,-50.513973236083984,0
1882.9490000000005,1.4034587366040796e-05,-0.0001830190303735435,2.5216771973646246e-05,0.0,0.0,0.0,0.0,-0.0008630238007754087,0.0014264670899137855,0.0034487834200263023,0.9997037649154663,0.0,0.0,0.0,0.27899572253227234,0.17149055004119873,5.220486164093018,-50.498775482177734,0
1892.8580000000002,-3.210644354112446e-05,-0.00020131742348894477,2.796033186314162e-05,0.0,0.0,0.0,0.0,0.001741859712637961,0.0014909814344719052,0.0005341512151062489,0.9984866380691528,0.0,0.0,0.0,0.2797776460647583,0.17357809841632843,5.214509963989258,-50.64030838012695,0
1902.7690000000002,2.2517535398947075e-05,-0.00012813105422537774,0.00011128155892947689,0.0,0.0,0.0,0.0,0.0010515825124457479,0.0015171115519478917,-0.0016614148626103997,1.0009126663208008,0.0,0.0,0.0,0.28837189078330994,0.18264548480510712,5.232912063598633,-52.19588851928711,0
1912.679,-2.1787498553749174e-05,-0.0001464156957808882,0.00011892696056747809,0.0,0.0,0.0,0.0,-0.004634541925042868,-0.003219310427084565,0.0014450560556724668,1.00201416015625,0.0,0.0,0.0,0.2875613272190094,0.17807665467262268,5.2261481285095215,-52.049171447753906,0
1922.589,8.212676038965583e-05,-0.00017437367932870984,0.00019951275316998363,0.0,0.0,0.0,0.0,0.0009088715305551887,-1.717467966955155e-05,0.0008432131144218147,0.9999708533287048,0.0,0.0,0.0,0.2940364181995392,0.18693655729293823,5.252831935882568,-53.22117614746094,0
1932.4979999999996,3.6622757761506364e-05,-0.00019535621686372906,0.0002146598999388516,0.0,0.0,0.0,0.0,-0.0005959392874501646,0.0010030728299170732,-0.0013039530022069812,0.9991903305053711,0.0,0.0,0.0,0.2941848039627075,0.18474474549293518,5.245410442352295,-53.2480354309082,0
1942.4089999999997,2.467137892381288e-05,-0.00017012299213092774,0.0001860238699009642,0.0,0.0,0.0,0.0,-0.0009643255034461617,-0.0013666733866557479,0.0022639839444309473,1.0004595518112183,0.0,0.0,0.0,0.29334864020347595,0.1867627054452896,5.233143329620361,-53.09668731689453,0
1952.3199999999997,1.2760915524268057e-05,-0.00015032102237455547,0.00014634527906309813,0.0,0.0,0.0,0.0,-4.8993704695021734e-05,0.0010497580515220761,-0.00014655479753855616,1.0005117654800415,0.0,0.0,0.0,0.29324910044670105,0.1866445094347,5.231484889984131,-53.078670501708984,0
1962.2340000000004,-3.802937862928957e-05,-0.00017060789105016738,0.00015483556489925832,0.0,0.0,0.0,0.0,-0.004989823792129755,-0.004912056028842926,0.004083374515175819,1.0011115074157715,0.0,0.0,0.0,0.2927977740764618,0.18901745975017548,5.225168704986572,-52.99698257446289,0
1972.139000000001,-5.7473946071695536e-05,-0.00010275617387378588,0.00012768492160830647,0.0,0.0,0.0,0.0,0.0038421705830842257,0.00725377444177866,0.0022093469742685556,1.0013757944107056,0.0,0.0,0.0,0.28690358996391296,0.2285076528787613,5.2488017082214355,-51.93011474609375,0
1982.0560000000005,-0.0001102518435800448,-0.00011844011169159785,0.00013573550677392632,0.0,0.0,0.0,0.0,-0.00028433912666514516,0.0018041497096419334,-0.0007419946487061679,1.001787781715393,0.0,0.0,0.0,0.28738337755203247,0.21939131617546082,5.235396862030029,-52.016963958740234,0
1991.9660000000003,-0.00010474758164491504,-5.8462595916353166e-05,5.128256816533394e-05,0.0,0.0,0.0,0.0,0.0009316179784946144,-0.004243561998009682,0.0059129707515239716,1.001619577407837,0.0,0.0,0.0,0.28618377447128296,0.2241094559431076,5.229582786560059,-51.799827575683594,0
2001.871000000001,-0.0001559232041472569,-7.02497418387793e-05,5.540547499549575e-05,0.0,0.0,0.0,0.0,-0.0009065617923624814,-0.0007502290536649525,-0.0003559183969628066,1.0009416341781616,0.0,0.0,0.0,0.287482351064682,0.22260069847106934,5.2319016456604,-52.03487777709961,0
2011.782000000001,-0.00015474219981115311,-2.025583671638742e-05,-1.661430360400118e-05,0.0,0.0,0.0,0.0,0.002557594794780016,0.002331203082576394,0.00030403296113945544,1.0011951923370361,0.0,0.0,0.0,0.286664217710495,0.22617454826831818,5.229679107666016,-51.88679504394531,0
2021.6980000000003,0.0004135505296289921,-0.0003355037479195744,0.0002727587125264108,0.0,0.0,0.0,0.0,0.0015412968350574374,0.0018093676771968603,-0.000249542819801718,1.0009005069732666,0.0,0.0,0.0,0.28346556425094604,0.1514894813299179,5.390976905822754,-51.307830810546875,0
2031.6059999999998,0.00044290057849138975,-0.00026697220164351165,0.00025818910216912627,0.0,0.0,0.0,0.0,-0.00045657987357117236,0.0009711220045574009,0.004675618372857571,1.000292420387268,0.0,0.0,0.0,0.28315111994743347,0.15069203078746796,5.380782127380371,-51.250911712646484,0
2041.514000000001,0.00042904570000246167,-0.0002871128963306546,0.0002741344505921006,0.0,0.0,0.0,0.0,-0.0004030131967738271,-0.002247721655294299,0.0013897826429456472,1.0015023946762085,0.0,0.0,0.0,0.2835903465747833,0.14711804687976837,5.372239589691162,-51.33041763305664,0
2051.4300000000003,0.0004620291292667389,-0.00021831410413142294,0.00022638312657363713,0.0,0.0,0.0,0.0,-0.0009637260809540749,-0.000936110329348594,-0.0016116988845169544,1.000352144241333,0.0,0.0,0.0,0.2834661602973938,0.1456586718559265,5.368712425231934,-51.30794143676758,0
2061.335000000001,0.0004481805663090199,-0.00023510708706453443,0.00023938014055602252,0.0,0.0,0.0,0.0,0.004463888704776764,0.005391176324337721,6.718793883919716e-05,0.9982683062553406,0.0,0.0,0.0,0.2828593850135803,0.1460527628660202,5.367722511291504,-51.1981086730957,0
2071.2430000000004,0.00044345820788294077,-0.00018907901539932936,0.0002482770069036633,0.0,0.0,0.0,0.0,-0.0007025066297501326,0.0014529938343912363,-2.821681300702039e-05,0.9999710321426392,0.0,0.0,0.0,0.2825172245502472,0.13655172288417816,5.355221271514893,-51.13617706298828,0
2081.152,0.000644422136247158,-0.0004235125961713493,0.0002612195967230946,0.0,0.0,0.0,0.0,0.002402577083557844,-0.0031686504371464252,-0.00047757060383446515,1.0009652376174927,0.0,0.0,0.0,0.27927377820014954,0.09373829513788223,5.4052510261535645,-50.549110412597656,0
2091.063,0.0006208756240084767,-0.0004295851103961468,0.00031085661612451077,0.0,0.0,0.0,0.0,-0.0003025093174073845,0.003324011340737343,-0.002375971991568804,1.0010063648223877,0.0,0.0,0.0,0.2788856327533722,0.09030715376138687,5.404285430908203,-50.478851318359375,0
2100.973,0.000649012450594455,-0.0005411621532402933,0.000293339864583686,0.0,0.0,0.0,0.0,0.00369015010073781,0.0016118689673021436,-0.0007061571232043207,1.0006208419799805,0.0,0.0,0.0,0.2779812514781952,0.09069270640611649,5.394069194793701,-50.31515884399414,0
2110.8870000000006,0.0006047516944818199,-0.0005319469491951168,0.0003726774302776903,0.0,0.0,0.0,0.0,0.00256801163777709,0.001635857974179089,-0.00018864985031541437,1.0008716583251953,0.0,0.0,0.0,0.2779865264892578,0.08760040998458862,5.391587257385254,-50.31611633300781,0
