timestamp,stateEstimate.x,stateEstimate.y,stateEstimate.z,controller.cmd_thrust,controller.cmd_roll,controller.cmd_pitch,controller.cmd_yaw,controller.r_roll,controller.r_pitch,controller.r_yaw,controller.accelz,controller.actuatorThrust,controller.roll,controller.pitch,controller.yaw,controller.rollRate,controller.pitchRate,controller.yawRate,controller.ctr_yaw
0.0,0.027805346995592117,0.0034466267097741365,0.001033990178257227,0.0,0.0,0.0,0.0,-0.0026539028622210026,-0.0046974108554422855,-0.0023944524582475424,1.0001534223556519,0.0,0.0,0.0,2.5575366020202637,1.6647825241088867,4.574984073638916,-462.919189453125,0
9.920000000000073,0.027767188847064972,0.003439574036747217,0.0010070765856653452,0.0,0.0,0.0,0.0,0.002342857187613845,-0.0030850879848003387,-0.00160462805069983,0.9990106821060181,0.0,0.0,0.0,2.5544960498809814,1.6712584495544434,4.579844951629639,-462.36883544921875,0
19.8179999999993,0.028320573270320892,0.0032580781262367964,0.0014119296101853251,0.0,0.0,0.0,0.0,0.0003828734334092587,0.0004550669400487095,0.0028124398086220026,0.999753475189209,0.0,0.0,0.0,2.5606844425201416,1.6379896402359009,4.689694881439209,-463.4889831542969,0
29.736000000000786,0.028305618092417717,0.003243901999667287,0.0014003226533532143,0.0,0.0,0.0,0.0,0.000451328611234203,0.0015762047842144966,-0.0028608141001313925,0.998621940612793,0.0,0.0,0.0,2.559281826019287,1.64352285861969,4.679845333099365,-463.235107421875,0
39.637000000000626,0.028307169675827026,0.003239859826862812,0.0014128999318927526,0.0,0.0,0.0,0.0,-0.0016529926797375083,0.0026173871010541916,-0.002694536931812763,0.9999179244041443,0.0,0.0,0.0,2.5685598850250244,1.64568030834198,4.682435035705566,-464.9144287109375,0
49.55400000000009,0.028290119022130966,0.003223930485546589,0.001401551067829132,0.0,0.0,0.0,0.0,0.0013468194520100951,0.005657400004565716,-0.0012309143785387278,0.9991285800933838,0.0,0.0,0.0,2.5652923583984375,1.6407520771026611,4.669140815734863,-464.3230285644531,0
59.457000000000335,0.028368402272462845,0.0032152680214494467,0.0014109103940427303,0.0,0.0,0.0,0.0,0.0017692400142550468,-0.0012034083483740687,0.0018283480312675238,0.9992648959159851,0.0,0.0,0.0,2.5709121227264404,1.6352365016937256,4.6678547859191895,-465.3402099609375,0
69.37800000000061,0.02835116535425186,0.0031979477498680353,0.0013999217189848423,0.0,0.0,0.0,0.0,0.0009397558169439435,0.0039217607118189335,-0.00410032831132412,0.9991341829299927,0.0,0.0,0.0,2.568556070327759,1.6334604024887085,4.657896995544434,-464.91375732421875,0
79.27599999999984,0.028349438682198524,0.003170096781104803,0.00137874495703727,0.0,0.0,0.0,0.0,0.0013356002746149898,-0.0005294021684676409,-0.0026593299116939306,0.9999411702156067,0.0,0.0,0.0,2.57759165763855,1.6299656629562378,4.651398658752441,-466.5492248535156,0
89.19900000000052,0.028328901156783104,0.0031514461152255535,0.0013655261136591434,0.0,0.0,0.0,0.0,0.0008756609749980271,-0.00616326043382287,-0.003432844066992402,1.002061128616333,0.0,0.0,0.0,2.5747501850128174,1.626621961593628,4.6401824951171875,-466.0348815917969,0
99.09799999999996,0.02838594652712345,0.0031605935655534267,0.0013755259569734335,0.0,0.0,0.0,0.0,0.0017486229771748185,0.002087594708427787,-0.0036618129815906286,0.9992992877960205,0.0,0.0,0.0,2.5842032432556152,1.6238455772399902,4.653067588806152,-467.74591064453125,0
109.01900000000023,0.02836294285953045,0.0031391833908855915,0.0013662237906828523,0.0,0.0,0.0,0.0,0.0017712083645164967,-0.0029035862535238266,-0.002668724162504077,1.0018372535705566,0.0,0.0,0.0,2.5803868770599365,1.617991328239441,4.643064022064209,-467.0551452636719,0
118.91599999999926,0.028337951749563217,0.0031165003310889006,0.00135754921939224,0.0,0.0,0.0,0.0,-0.002517793094739318,0.00346193159930408,-0.0006358979735523462,1.0015350580215454,0.0,0.0,0.0,2.576951265335083,1.61623215675354,4.635096073150635,-466.4333190917969,0
128.83699999999953,0.028310872614383698,0.0030938598792999983,0.001350221922621131,0.0,0.0,0.0,0.0,0.002068737056106329,0.005314813926815987,0.0003733915218617767,0.9994469285011292,0.0,0.0,0.0,2.57395076751709,1.6200621128082275,4.623728275299072,-465.8902282714844,0
138.73799999999937,0.028366325423121452,0.003119469154626131,0.001373827108182013,0.0,0.0,0.0,0.0,0.0019219940295442939,-0.0018307254649698734,0.0008091293857432902,1.0018200874328613,0.0,0.0,0.0,2.585167169570923,1.6281003952026367,4.6353278160095215,-467.9203796386719,0
148.65600000000086,0.028339695185422897,0.0030979402363300323,0.001371849561110139,0.0,0.0,0.0,0.0,0.0018452771473675966,0.0018069070065394044,0.0019394754199311137,0.9983968138694763,0.0,0.0,0.0,2.5832788944244385,1.6287342309951782,4.628286838531494,-467.57861328125,0
158.5570000000007,0.028311392292380333,0.0030760050285607576,0.0013705921592190862,0.0,0.0,0.0,0.0,0.0012619943590834737,0.0005292168934829533,-0.00045046748709864914,0.9988205432891846,0.0,0.0,0.0,2.581986665725708,1.623556137084961,4.619340419769287,-467.3447265625,0
168.48300000000017,0.02828185260295868,0.003054106840863824,0.0013686310267075896,0.0,0.0,0.0,0.0,-0.0003131490957457572,-0.00013210803444962949,-0.0015250052092596889,1.0001641511917114,0.0,0.0,0.0,2.578993082046509,1.6223390102386475,4.604379653930664,-466.8028869628906,0
178.3799999999992,0.02824816107749939,0.003029006067663431,0.0013657095842063427,0.0,0.0,0.0,0.0,0.0011335350573062897,-0.003289187094196677,0.001318005146458745,0.9983032941818237,0.0,0.0,0.0,2.5766971111297607,1.6238583326339722,4.601688861846924,-466.3872985839844,0
188.29999999999927,0.028215967118740082,0.003005926264449954,0.0013624685816466808,0.0,0.0,0.0,0.0,0.0021967494394630194,-0.0030734471511095762,0.002600583713501692,0.9977391362190247,0.0,0.0,0.0,2.5745856761932373,1.6186720132827759,4.6010260581970215,-466.005126953125,0
198.20000000000073,0.02826227992773056,0.0031094227451831102,0.0014274206478148699,0.0,0.0,0.0,0.0,0.00302833947353065,-0.002176586538553238,-0.0015379560645669699,0.9988640546798706,0.0,0.0,0.0,2.581655740737915,1.654539704322815,4.622441291809082,-467.2847900390625,0
208.1219999999994,0.028233060613274574,0.003096146509051323,0.001428735675290227,0.0,0.0,0.0,0.0,-0.001811332767829299,-0.003401536960154772,0.00344873801805079,0.996425986289978,0.0,0.0,0.0,2.5789432525634766,1.6439650058746338,4.619207382202148,-466.7938537597656,0
218.03299999999945,0.02825448475778103,0.0031362990848720074,0.0014580200659111142,0.0,0.0,0.0,0.0,-0.0007409836980514228,-0.000838749052491039,-0.0008526239544153214,0.998112142086029,0.0,0.0,0.0,2.5892279148101807,1.664310097694397,4.641862392425537,-468.6554260253906,0
227.9349999999995,0.0282273106276989,0.003124613082036376,0.001458601327612996,0.0,0.0,0.0,0.0,-0.0005951221100986004,0.0016239389078691602,-0.0030303329695016146,0.9981279969215393,0.0,0.0,0.0,2.586653232574463,1.6625784635543823,4.639958381652832,-468.18939208984375,0
237.84399999999914,0.028228001669049263,0.0032803674694150686,0.001303428434766829,0.0,0.0,0.0,0.0,0.0022556118201464415,-0.0006312671466730535,0.0015777824446558952,0.9989024996757507,0.0,0.0,0.0,2.589215040206909,1.70464289188385,4.646524906158447,-468.6530456542969,0
247.7569999999996,0.0281999371945858,0.0032741352915763855,0.0012984105851501226,0.0,0.0,0.0,0.0,0.0016936082392930984,-0.0016712868819013238,0.0011234594276174903,0.9994158148765564,0.0,0.0,0.0,2.5869994163513184,1.7001943588256836,4.642422676086426,-468.2520446777344,0
257.65899999999965,0.02828526869416237,0.0032635231036692858,0.0014034975320100784,0.0,0.0,0.0,0.0,0.0005307640531100333,0.002871630946174264,-0.002717518014833331,1.0004819631576538,0.0,0.0,0.0,2.6026499271392822,1.6988756656646729,4.660572052001953,-471.0848388671875,0
267.58400000000074,0.028305141255259514,0.003363849362358451,0.0013566341949626803,0.0,0.0,0.0,0.0,-0.00036869655014015734,-0.0022904116194695234,0.000651360722258687,0.9995909333229065,0.0,0.0,0.0,2.5997190475463867,1.6990309953689575,4.6614990234375,-470.5543212890625,0
277.4889999999996,0.028277557343244553,0.0033573247492313385,0.0013544575776904821,0.0,0.0,0.0,0.0,-0.0011656793067231774,0.002221218775957823,2.7403744752518833e-05,0.9991390705108643,0.0,0.0,0.0,2.5973494052886963,1.7005960941314697,4.655569076538086,-470.12542724609375,0
287.41300000000047,0.028264814987778664,0.003415872808545828,0.001347762648947537,0.0,0.0,0.0,0.0,0.0031793254893273115,-0.0007858815370127559,-0.00020234857220202684,0.9988132119178772,0.0,0.0,0.0,2.5953032970428467,1.6994143724441528,4.6571784019470215,-469.75506591796875,0
297.3009999999995,0.02836795337498188,0.0033196848817169666,0.0013634244678542018,0.0,0.0,0.0,0.0,0.00057635159464553,0.0005388702265918255,0.0018589032115414739,0.9992440342903137,0.0,0.0,0.0,2.6012983322143555,1.684818983078003,4.674216270446777,-470.84014892578125,0
307.22700000000077,0.02835550345480442,0.0033705858513712883,0.0013631409965455532,0.0,0.0,0.0,0.0,-0.0028048574458807707,-0.0036315973848104477,0.0026362885255366564,1.0005978345870972,0.0,0.0,0.0,2.5999724864959717,1.6801930665969849,4.673655986785889,-470.6001892089844,0
317.1290000000008,0.0283257644623518,0.003362494520843029,0.0013593847397714853,0.0,0.0,0.0,0.0,-0.0036669138353317976,-0.0022429150994867086,-0.001605479628778994,0.9999802708625793,0.0,0.0,0.0,2.5980656147003174,1.6837643384933472,4.670928955078125,-470.2550048828125,0
327.03499999999985,0.02827492728829384,0.0033372296020388603,0.0013906500535085797,0.0,0.0,0.0,0.0,-0.0028839365113526583,-0.0029191088397055864,0.002593753393739462,1.0005543231964111,0.0,0.0,0.0,2.594627857208252,1.6856732368469238,4.671194076538086,-469.6328125,0
336.9420000000009,0.02840517833828926,0.003262290731072426,0.0014408997958526015,0.0,0.0,0.0,0.0,0.0022326891776174307,-0.0015812201891094446,9.64927749009803e-05,1.0000098943710327,0.0,0.0,0.0,2.601062059402466,1.6745176315307617,4.694649696350098,-470.79742431640625,0
346.85599999999977,0.02837292104959488,0.0033162501640617847,0.0014828955754637718,0.0,0.0,0.0,0.0,-0.003503932151943445,0.0032761720940470695,0.00311973481439054,0.9986432194709778,0.0,0.0,0.0,2.5991618633270264,1.6710867881774902,4.693934440612793,-470.45343017578125,0
356.76300000000083,0.028344158083200455,0.0033102247398346663,0.0014888853766024113,0.0,0.0,0.0,0.0,0.0003049267688766122,-0.0020632415544241667,-0.00015849601186346263,0.9993941783905029,0.0,0.0,0.0,2.596658229827881,1.669159173965454,4.672281742095947,-470.0003356933594,0
366.6869999999999,0.02831624262034893,0.0033690170384943485,0.001520104007795453,0.0,0.0,0.0,0.0,-0.001610282459296286,0.0029256786219775677,-0.0017435416812077165,0.9997729063034058,0.0,0.0,0.0,2.5942516326904297,1.6683205366134644,4.66471004486084,-469.564697265625,0
376.58300000000054,0.02832009829580784,0.003314525354653597,0.0015101350145414472,0.0,0.0,0.0,0.0,-3.189779818058014e-05,-0.00233031390234828,0.0006191570428200066,0.9990083575248718,0.0,0.0,0.0,2.5996789932250977,1.6649224758148193,4.665551662445068,-470.5470886230469,0
386.4920000000002,0.028300240635871887,0.003365022363141179,0.0015226966934278607,0.0,0.0,0.0,0.0,5.482409324031323e-05,0.0077116833999753,-0.003570708679035306,0.9980999827384949,0.0,0.0,0.0,2.5976436138153076,1.6720874309539795,4.661513328552246,-470.17864990234375,0
396.40099999999984,0.028313996270298958,0.003310848493129015,0.0015143681084737182,0.0,0.0,0.0,0.0,-0.0006454491522163153,-0.002697148360311985,-0.003116901498287916,0.9987777471542358,0.0,0.0,0.0,2.6039845943450928,1.6622058153152466,4.644634246826172,-471.3263854980469,0
406.3170000000009,0.02828683890402317,0.003324884455651045,0.0015143239870667458,0.0,0.0,0.0,0.0,0.0002566373732406646,-0.008615431375801563,0.00015846596215851605,0.9994583129882812,0.0,0.0,0.0,2.6090688705444336,1.6625343561172485,4.640098571777344,-472.2466735839844,0
416.22799999999916,0.028254278004169464,0.003318397793918848,0.0015146215446293354,0.0,0.0,0.0,0.0,0.00132556795142591,4.042063301312737e-05,-0.0008873395854607224,1.0015573501586914,0.0,0.0,0.0,2.6073203086853027,1.6618342399597168,4.646607875823975,-471.9301452636719,0
426.13800000000083,0.028227204456925392,0.0033272593282163143,0.0015107125509530306,0.0,0.0,0.0,0.0,-0.0024050988722592592,-0.0006365036242641509,0.0013886884553357959,0.9980553388595581,0.0,0.0,0.0,2.6045405864715576,1.6591837406158447,4.646071434020996,-471.4270324707031,0
436.04199999999946,0.028190575540065765,0.003319184295833111,0.001511437469162047,0.0,0.0,0.0,0.0,0.0034429621882736683,-0.004595467355102301,0.00346707203425467,0.9987425804138184,0.0,0.0,0.0,2.601595878601074,1.6603907346725464,4.641725063323975,-470.8940124511719,0
445.9529999999995,0.028166551142930984,0.0033508383203297853,0.001491463859565556,0.0,0.0,0.0,0.0,0.0006818918627686799,-0.0038394643925130367,0.001512956223450601,0.9995073676109314,0.0,0.0,0.0,2.598895788192749,1.6543673276901245,4.632505416870117,-470.40533447265625,0
455.8629999999994,0.028126034885644913,0.0033444431610405445,0.0014882918912917376,0.0,0.0,0.0,0.0,-0.00034002517350018024,0.009997114539146423,-0.002088173059746623,1.0015827417373657,0.0,0.0,0.0,2.5962905883789062,1.647347331047058,4.635560035705566,-469.93377685546875,0
465.77200000000084,0.02811916545033455,0.003430903423577547,0.0014396673068404198,0.0,0.0,0.0,0.0,-0.000763279793318361,-0.002474614419043064,0.0009203309891745448,0.9989875555038452,0.0,0.0,0.0,2.593924045562744,1.6430212259292603,4.617361545562744,-469.5054016113281,0
475.6820000000007,0.028293872252106667,0.003303144359961152,0.001509684487245977,0.0,0.0,0.0,0.0,0.00014226861821953207,-0.00032335473224520683,0.00021265025134198368,0.9978036880493164,0.0,0.0,0.0,2.598633050918579,1.606497883796692,4.66898775100708,-470.35772705078125,0
485.59300000000076,0.028315037488937378,0.0033943590242415667,0.0014723375206813216,0.0,0.0,0.0,0.0,7.715983520029113e-05,0.005713341757655144,0.004046590067446232,0.9996058940887451,0.0,0.0,0.0,2.596585750579834,1.6056023836135864,4.665844917297363,-469.9872131347656,0
495.5030000000006,0.02834354341030121,0.00333414482884109,0.0014557888498529792,0.0,0.0,0.0,0.0,0.0006454319809563458,0.0019381607417017221,0.0015219309134408832,0.99875807762146,0.0,0.0,0.0,2.60168194770813,1.6017013788223267,4.657609939575195,-470.9096374511719,0
505.4200000000001,0.028342394158244133,0.0033885985612869263,0.001435473095625639,0.0,0.0,0.0,0.0,-0.00041814378346316516,0.0007488569826819003,-0.004355104174464941,0.9987547993659973,0.0,0.0,0.0,2.5999815464019775,1.5989608764648438,4.653273582458496,-470.601806640625,0
515.3230000000003,0.028311727568507195,0.0033761244267225266,0.0014238290023058653,0.0,0.0,0.0,0.0,-0.0008621947490610182,-0.00021524057956412435,0.001004976686090231,0.9982905387878418,0.0,0.0,0.0,2.5947885513305664,1.5975713729858398,4.642282485961914,-469.661865234375,0
525.2340000000004,0.02829885482788086,0.003413007128983736,0.0014020769158378243,0.0,0.0,0.0,0.0,0.002188378246501088,-0.001394575578160584,-0.001031422638334334,0.9989607334136963,0.0,0.0,0.0,2.5923686027526855,1.5922588109970093,4.639894962310791,-469.2238464355469,0
535.1460000000006,0.028345009312033653,0.0033513654489070177,0.001398925669491291,0.0,0.0,0.0,0.0,0.0004997311043553054,0.0017137648537755013,-0.0013882382772862911,0.9996922612190247,0.0,0.0,0.0,2.6005971431732178,1.5803945064544678,4.651034355163574,-470.7132263183594,0
545.0570000000007,0.028370581567287445,0.0034221874084323645,0.0013317837147042155,0.0,0.0,0.0,0.0,-0.0019283602014183998,0.0028744826558977365,0.0032064588740468025,0.9983212947845459,0.0,0.0,0.0,2.5982065200805664,1.5809606313705444,4.652593612670898,-470.280517578125,0
554.9689999999991,0.02835872396826744,0.0033823014236986637,0.001303023425862193,0.0,0.0,0.0,0.0,-0.0007019913755357265,0.0007310518994927406,-0.0013913242146372795,0.9998999834060669,0.0,0.0,0.0,2.60418701171875,1.5697582960128784,4.641017436981201,-471.3630065917969,0
564.8850000000002,0.028327610343694687,0.0034012498799711466,0.0012990443501621485,0.0,0.0,0.0,0.0,-0.0011257085716351867,0.0026028864085674286,-0.00024144064809661359,0.9995577335357666,0.0,0.0,0.0,2.600896120071411,1.571178674697876,4.62678861618042,-470.7673645019531,0
574.7839999999997,0.028325865045189857,0.0033639760222285986,0.0012785641010850668,0.0,0.0,0.0,0.0,-0.00018726156849879771,0.002124213147908449,-0.0012900925939902663,0.9999749064445496,0.0,0.0,0.0,2.6053786277770996,1.5659958124160767,4.622421741485596,-471.5787048339844,0
584.6990000000005,0.02830604650080204,0.00342028820887208,0.0012735832715407014,0.0,0.0,0.0,0.0,0.000526767922565341,0.0021701199002563953,0.00039162157918326557,0.9984406232833862,0.0,0.0,0.0,2.60904598236084,1.5774770975112915,4.619173526763916,-472.2425231933594,0
594.6090000000004,0.028276104480028152,0.0034045050852000713,0.0012545002391561866,0.0,0.0,0.0,0.0,-0.0017443622928112745,-0.0018760693492367864,0.0003159756597597152,0.9985746741294861,0.0,0.0,0.0,2.6062498092651367,1.5755192041397095,4.618879318237305,-471.7364196777344,0
604.5249999999996,0.02821512147784233,0.0034077540040016174,0.0012910622172057629,0.0,0.0,0.0,0.0,-0.005035520996898413,0.0027060348074883223,-0.0030688291881233454,1.000194787979126,0.0,0.0,0.0,2.6097981929779053,1.5819779634475708,4.604861259460449,-472.378662109375,0
614.4290000000001,0.028309199959039688,0.0033362004905939102,0.0013119217474013567,0.0,0.0,0.0,0.0,0.003465281566604972,-0.0005149082280695438,-0.0025424181949347258,1.0010977983474731,0.0,0.0,0.0,2.6064295768737793,1.5825042724609375,4.595516204833984,-471.7689514160156,0
624.3430000000008,0.028249554336071014,0.0033107285853475332,0.0013349989894777536,0.0,0.0,0.0,0.0,-0.003106921911239624,0.0031102311331778765,0.0024627824313938618,0.9986205101013184,0.0,0.0,0.0,2.603459119796753,1.5840116739273071,4.586091995239258,-471.2312927246094,0
634.2510000000002,0.028299249708652496,0.003285937011241913,0.0013584389816969633,0.0,0.0,0.0,0.0,0.0021875083912163973,0.0026939106173813343,0.004256873857229948,0.9993405342102051,0.0,0.0,0.0,2.608426570892334,1.5811381340026855,4.584532260894775,-472.13043212890625,0
644.1730000000007,0.028259659186005592,0.0032965694554150105,0.001369165605865419,0.0,0.0,0.0,0.0,-0.0022094666492193937,-0.0062354919500648975,-0.002127203391864896,1.000507116317749,0.0,0.0,0.0,2.6125268936157227,1.5833836793899536,4.584085464477539,-472.8725891113281,0
654.0660000000007,0.028222179040312767,0.0032721643801778555,0.0013618645025417209,0.0,0.0,0.0,0.0,0.0015205246163532138,0.0005708098760806024,-0.0027664832305163145,0.9982520937919617,0.0,0.0,0.0,2.609379291534424,1.5832971334457397,4.580510139465332,-472.3028564453125,0
663.9869999999992,0.02819153107702732,0.003343810560181737,0.0013758792774751782,0.0,0.0,0.0,0.0,0.000915275071747601,0.00011385070683900267,-0.00232700165361166,0.997952401638031,0.0,0.0,0.0,2.606058120727539,1.5819132328033447,4.575052738189697,-471.70172119140625,0
673.8870000000006,0.0282824095338583,0.003281492507085204,0.0014172461815178394,0.0,0.0,0.0,0.0,-0.0005581880686804652,0.0009330147295258939,0.0020463226828724146,0.999078631401062,0.0,0.0,0.0,2.6108038425445557,1.5698204040527344,4.599071979522705,-472.5606994628906,0
683.8040000000001,0.02829059399664402,0.0033602630719542503,0.0013923798687756062,0.0,0.0,0.0,0.0,0.0006747700972482562,0.0038462781812995672,-0.0011900902027264237,0.9982225894927979,0.0,0.0,0.0,2.6153037548065186,1.5910942554473877,4.5994768142700195,-473.37518310546875,0
693.7070000000003,0.02832273207604885,0.0033248853869736195,0.0014030701713636518,0.0,0.0,0.0,0.0,-0.0015511539531871676,0.00013792455138172954,0.000468190701212734,0.9988777041435242,0.0,0.0,0.0,2.620140790939331,1.584106206893921,4.594120502471924,-474.2507019042969,0
703.6239999999998,0.028318149968981743,0.0033725504763424397,0.0013829342788085341,0.0,0.0,0.0,0.0,0.0017503696726635098,-0.00028457428561523557,-0.00017046532593667507,0.9986153841018677,0.0,0.0,0.0,2.618021249771118,1.586601734161377,4.588066101074219,-473.8670959472656,0
713.5290000000005,0.02833392284810543,0.0033258500043302774,0.0013785463524982333,0.0,0.0,0.0,0.0,-0.0011649469379335642,0.0020045943092554808,-0.0004837438464164734,0.9998221397399902,0.0,0.0,0.0,2.620945453643799,1.5778957605361938,4.583877086639404,-474.3963623046875,0
723.4459999999999,0.02836056612432003,0.0034346652682870626,0.0013295280514284968,0.0,0.0,0.0,0.0,0.0030077449046075344,-0.0013564422260969877,0.002172228414565325,1.0024546384811401,0.0,0.0,0.0,2.61857533454895,1.5781607627868652,4.580157279968262,-473.96734619140625,0
733.3469999999998,0.028379179537296295,0.003331998595967889,0.0012945770286023617,0.0,0.0,0.0,0.0,-0.004080472979694605,-0.004749060142785311,0.0058433120138943195,0.9989849328994751,0.0,0.0,0.0,2.6167807579040527,1.5714277029037476,4.573385715484619,-473.6424865722656,0
743.2759999999998,0.028384650126099586,0.0034275955986231565,0.0012680299114435911,0.0,0.0,0.0,0.0,0.003334395121783018,-0.0005157139385119081,-0.0003631994186434895,0.9991285800933838,0.0,0.0,0.0,2.613788604736328,1.574683666229248,4.574193954467773,-473.1009521484375,0
753.1769999999997,0.02839750424027443,0.0033310912549495697,0.0012352229095995426,0.0,0.0,0.0,0.0,-0.0012813921784982085,0.0022666205186396837,-0.0028719226829707623,0.9981488585472107,0.0,0.0,0.0,2.616652727127075,1.5539145469665527,4.574151039123535,-473.61932373046875,0
763.0859999999993,0.028404688462615013,0.0034057493321597576,0.0011943902354687452,0.0,0.0,0.0,0.0,-0.0013541178777813911,0.0010463617509230971,-0.0021826233714818954,0.9987704753875732,0.0,0.0,0.0,2.6138994693756104,1.5528746843338013,4.5627360343933105,-473.12103271484375,0
772.9899999999998,0.028364021331071854,0.0033843747805804014,0.001177207799628377,0.0,0.0,0.0,0.0,0.0005969532649032772,-0.0027895933017134666,-0.0022540022619068623,1.0006275177001953,0.0,0.0,0.0,2.6184823513031006,1.5570482015609741,4.559519290924072,-473.9505310058594,0
782.9069999999992,0.028312914073467255,0.0033812434412539005,0.0011846359120681882,0.0,0.0,0.0,0.0,0.0021726195700466633,0.004087328910827637,6.238629430299625e-05,1.0006978511810303,0.0,0.0,0.0,2.6154444217681885,1.5543460845947266,4.569336414337158,-473.400634765625,0
792.8089999999993,0.02827027626335621,0.0033495621755719185,0.0011675417190417647,0.0,0.0,0.0,0.0,-0.0016202778788283467,0.0007893351721577346,0.0005757508333772421,1.0004585981369019,0.0,0.0,0.0,2.6114728450775146,1.5484282970428467,4.558012962341309,-472.6817626953125,0
802.7330000000002,0.028218846768140793,0.003399319015443325,0.0011894191848114133,0.0,0.0,0.0,0.0,0.0009741507237777114,0.00019226886797696352,0.002279775682836771,1.000160574913025,0.0,0.0,0.0,2.615487575531006,1.5729771852493286,4.540075302124023,-473.4084777832031,0
812.6329999999998,0.028171684592962265,0.0033712205477058887,0.001177167403511703,0.0,0.0,0.0,0.0,0.001093333587050438,-0.000718137074727565,-0.0019123258534818888,0.9982737302780151,0.0,0.0,0.0,2.6131184101104736,1.570444107055664,4.533162593841553,-472.9796142578125,0
822.5570000000007,0.028103435412049294,0.0034250286407768726,0.0012232072185724974,0.0,0.0,0.0,0.0,0.0021182862110435963,0.0009239968494512141,0.0008916875813156366,0.9994170069694519,0.0,0.0,0.0,2.6175098419189453,1.5908498764038086,4.526959419250488,-473.7745056152344,0
832.4500000000007,0.02828442119061947,0.00331558333709836,0.001316930283792317,0.0,0.0,0.0,0.0,-0.0013821496395394206,0.004807221237570047,0.00019115566101390868,0.9980058073997498,0.0,0.0,0.0,2.6191422939300537,1.5661048889160156,4.590524673461914,-474.0699462890625,0
842.3670000000002,0.028237514197826385,0.0033150282688438892,0.0013460986083373427,0.0,0.0,0.0,0.0,0.0006273688632063568,-0.002999600488692522,-0.007167163770645857,0.9990475177764893,0.0,0.0,0.0,2.627011775970459,1.5748645067214966,4.581905364990234,-475.494384765625,0
852.2700000000004,0.028327280655503273,0.0032323207706212997,0.0013684573350474238,0.0,0.0,0.0,0.0,0.00189972051884979,-0.0021594236604869366,-0.00042896674131043255,0.9998100399971008,0.0,0.0,0.0,2.6306302547454834,1.566267728805542,4.597836971282959,-476.1492919921875,0
862.1900000000005,0.028287339955568314,0.0032430323772132397,0.0013955660397186875,0.0,0.0,0.0,0.0,0.0014182598097249866,0.0028117515612393618,-0.0001502584491390735,1.0001845359802246,0.0,0.0,0.0,2.635011672973633,1.5659607648849487,4.595609664916992,-476.9423522949219,0
872.0900000000001,0.028247782960534096,0.0032079946249723434,0.0013977540656924248,0.0,0.0,0.0,0.0,-5.318040621205e-06,0.004745387937873602,-0.0018054702086374164,0.9991846680641174,0.0,0.0,0.0,2.6327826976776123,1.5692212581634521,4.585031509399414,-476.5389099121094,0
882.0110000000004,0.028220925480127335,0.0032397687900811434,0.0014074123464524746,0.0,0.0,0.0,0.0,0.0002329026465304196,-0.004297815263271332,0.0024965228512883186,0.9992468953132629,0.0,0.0,0.0,2.6277928352355957,1.5680046081542969,4.5737528800964355,-475.6357116699219,0
891.9130000000005,0.028183184564113617,0.0032123939599841833,0.001409650780260563,0.0,0.0,0.0,0.0,0.002199071692302823,0.000675599614623934,0.0009964676573872566,0.9988760948181152,0.0,0.0,0.0,2.624537706375122,1.5602771043777466,4.5744242668151855,-475.0465393066406,0
901.835000000001,0.028157949447631836,0.0032666362822055817,0.0014133777003735304,0.0,0.0,0.0,0.0,-0.0014071303885430098,-0.0018918607383966446,-0.0009249080321751535,0.9989115595817566,0.0,0.0,0.0,2.623323678970337,1.5586957931518555,4.5720295906066895,-474.8267822265625,0
911.7360000000008,0.028118569403886795,0.0032416966278105974,0.0014139424310997128,0.0,0.0,0.0,0.0,-0.0013363074976950884,0.0021155669819563627,0.0026941108517348766,0.999073326587677,0.0,0.0,0.0,2.620591163635254,1.5590308904647827,4.5708231925964355,-474.33221435546875,0
921.6550000000007,0.028096329420804977,0.0032997874077409506,0.001402551308274269,0.0,0.0,0.0,0.0,0.0004484123201109469,-0.0014388825511559844,-0.0022043786011636257,0.99997478723526,0.0,0.0,0.0,2.618131637573242,1.5595444440841675,4.56835412979126,-473.8870849609375,0
931.5529999999999,0.028253929689526558,0.0032122558914124966,0.0015160837210714817,0.0,0.0,0.0,0.0,0.0034035849384963512,0.0025450168177485466,-0.001905202167108655,0.9989185929298401,0.0,0.0,0.0,2.6232755184173584,1.5424342155456543,4.616425037384033,-474.8180847167969,0
941.4709999999995,0.028285205364227295,0.003304936457425356,0.0014632288366556168,0.0,0.0,0.0,0.0,0.0018400389235466719,-0.0027458725962787867,-0.002727298066020012,0.9985691905021667,0.0,0.0,0.0,2.62969970703125,1.5546000003814697,4.623829364776611,-475.9808349609375,0
951.3739999999998,0.02825363352894783,0.0032822454813867807,0.001462560729123652,0.0,0.0,0.0,0.0,-0.0005765660316683352,0.006145568564534187,-0.000751456362195313,0.9998364448547363,0.0,0.0,0.0,2.6264591217041016,1.5555272102355957,4.626279354095459,-475.3943176269531,0
961.2909999999993,0.02828877419233322,0.003432038240134716,0.0013941574143245816,0.0,0.0,0.0,0.0,-0.0010987172136083245,0.00044289955985732377,-0.0031961165368556976,1.0015305280685425,0.0,0.0,0.0,2.6201915740966797,1.5977998971939087,4.637775897979736,-474.2598876953125,0
971.1949999999997,0.02832307107746601,0.0033636698499321938,0.0013937072362750769,0.0,0.0,0.0,0.0,0.00023775400768499821,0.006102722603827715,-0.0017794568557292223,0.9990491271018982,0.0,0.0,0.0,2.6169233322143555,1.598031997680664,4.63387393951416,-473.6683349609375,0
981.1119999999992,0.028348321095108986,0.0034726725425571203,0.001355071202851832,0.0,0.0,0.0,0.0,0.001093357801437378,0.005362392403185368,-0.0044985441491007805,0.9980781674385071,0.0,0.0,0.0,2.620577573776245,1.621171474456787,4.63271427154541,-474.32977294921875,0
991.0229999999992,0.028355520218610764,0.003418669803068042,0.0013381845783442259,0.0,0.0,0.0,0.0,9.565093205310404e-05,0.0018391312332823873,-0.0039517637342214584,0.9966421127319336,0.0,0.0,0.0,2.6160025596618652,1.6200170516967773,4.608320236206055,-473.50164794921875,0
1000.9330000000009,0.028339020907878876,0.003476100042462349,0.0013420340837910771,0.0,0.0,0.0,0.0,0.000261160806985572,-0.001986413961276412,-0.0013497630134224892,0.9993687272071838,0.0,0.0,0.0,2.6073033809661865,1.631263017654419,4.594491004943848,-471.9270935058594,0
1010.8330000000005,0.028309911489486694,0.0034555518068373203,0.0013294884702190757,0.0,0.0,0.0,0.0,-0.000526326010003686,0.004128591623157263,-0.0028016469441354275,0.9987237453460693,0.0,0.0,0.0,2.6032657623291016,1.6266987323760986,4.585618019104004,-471.1962890625,0
1020.7459999999992,0.028282882645726204,0.00351500092074275,0.0013407421065494418,0.0,0.0,0.0,0.0,-1.0031601050286554e-05,0.0011889167362824082,-0.004927483387291431,0.9972392916679382,0.0,0.0,0.0,2.6002721786499023,1.6258665323257446,4.586254119873047,-470.6543884277344,0
1030.6550000000007,0.028248578310012817,0.003494473174214363,0.0013283132575452328,0.0,0.0,0.0,0.0,-0.001345338998362422,0.0009237173362635076,-0.0013545973924919963,0.9983717799186707,0.0,0.0,0.0,2.5966639518737793,1.6236628293991089,4.567126274108887,-470.0013427734375,0
1040.5720000000001,0.02818683534860611,0.003435133257880807,0.0013525676913559437,0.0,0.0,0.0,0.0,0.0021343014668673277,-0.004178975708782673,-0.0032278283033519983,1.0014138221740723,0.0,0.0,0.0,2.6022346019744873,1.6085500717163086,4.550765037536621,-471.0096435546875,0
1050.4740000000002,0.02831307053565979,0.0033227994572371244,0.0013936952454969287,0.0,0.0,0.0,0.0,0.0005365112447179854,-0.0001824985956773162,0.003117969259619713,1.0004781484603882,0.0,0.0,0.0,2.608515977859497,1.586829662322998,4.592572212219238,-472.1465759277344,0
1060.3919999999998,0.028265535831451416,0.003308370476588607,0.0014161047292873263,0.0,0.0,0.0,0.0,-0.003698275424540043,0.0006177459727041423,0.00030413822969421744,1.0004558563232422,0.0,0.0,0.0,2.6141889095306396,1.5855538845062256,4.589716911315918,-473.1733703613281,0
1070.2960000000003,0.028346875682473183,0.0032285391353070736,0.001427865936420858,0.0,0.0,0.0,0.0,0.0010472170542925596,0.001607886515557766,-0.004362217150628567,0.9994281530380249,0.0,0.0,0.0,2.620095729827881,1.5745372772216797,4.599902629852295,-474.2425842285156,0
1080.205,0.028312664479017258,0.0032467907294631004,0.001443025073967874,0.0,0.0,0.0,0.0,0.0020048918668180704,-0.0013019029283896089,0.0023593471851199865,0.9986030459403992,0.0,0.0,0.0,2.6170296669006348,1.5714105367660522,4.592438220977783,-473.6875915527344,0
1090.1139999999996,0.028276383876800537,0.0032187255565077066,0.0014404011890292168,0.0,0.0,0.0,0.0,0.0005142722511664033,0.0009349079336971045,-0.002435496775433421,1.000702142715454,0.0,0.0,0.0,2.614837646484375,1.5688539743423462,4.592623233795166,-473.290771484375,0
1100.0249999999996,0.028253335505723953,0.0032987133599817753,0.0014544938458129764,0.0,0.0,0.0,0.0,-0.0029340495821088552,0.0003610229177866131,0.0005596168921329081,1.0012683868408203,0.0,0.0,0.0,2.6112430095672607,1.5646954774856567,4.583335876464844,-472.6401672363281,0
1109.9339999999993,0.028215043246746063,0.003275056602433324,0.0014536192175000906,0.0,0.0,0.0,0.0,-0.0014453475596383214,-0.0015730831073597074,0.0002413001930108294,0.9985155463218689,0.0,0.0,0.0,2.60856556892395,1.5661109685897827,4.581640720367432,-472.1555480957031,0
1119.8439999999991,0.028207851573824883,0.003355675609782338,0.0014208840439096093,0.0,0.0,0.0,0.0,0.0032925151754170656,-0.00425764312967658,-0.004736216273158789,1.0016191005706787,0.0,0.0,0.0,2.6060986518859863,1.568202257156372,4.583093643188477,-471.7090759277344,0
1129.7579999999998,0.02816946431994438,0.0033330386504530907,0.0014174877433106303,0.0,0.0,0.0,0.0,-0.002693376038223505,-0.0014746151864528656,-0.0026401164941489697,0.9986763596534729,0.0,0.0,0.0,2.6024317741394043,1.5629949569702148,4.586577415466309,-471.04534912109375,0
1139.6650000000009,0.028150292113423347,0.003409474855288863,0.0013931177090853453,0.0,0.0,0.0,0.0,0.0012006978504359722,0.0014025416458025575,-0.0005478783277794719,0.9966017603874207,0.0,0.0,0.0,2.608628511428833,1.5979021787643433,4.598875999450684,-472.1669616699219,0
1149.5740000000005,0.028259538114070892,0.003293820424005389,0.001445310888811946,0.0,0.0,0.0,0.0,0.0026816693134605885,-0.003821696387603879,0.0024571195244789124,0.998087465763092,0.0,0.0,0.0,2.613476276397705,1.579898476600647,4.629910945892334,-473.04437255859375,0
1159.4950000000008,0.028265446424484253,0.0033661937341094017,0.001422531669959426,0.0,0.0,0.0,0.0,0.001886645331978798,0.001153013203293085,-0.000649135559797287,0.9993952512741089,0.0,0.0,0.0,2.612515449523926,1.576930046081543,4.635883331298828,-472.8704833984375,0
1169.4009999999998,0.028230847790837288,0.0033410731703042984,0.0014147517504170537,0.0,0.0,0.0,0.0,-0.001222593942657113,-0.0016149512957781553,0.0024649323895573616,0.9996234178543091,0.0,0.0,0.0,2.6097004413604736,1.571632981300354,4.629811763763428,-472.3609924316406,0
1179.3060000000005,0.028213469311594963,0.0034036734141409397,0.0014095512451604009,0.0,0.0,0.0,0.0,0.002387825632467866,-0.0016211351612582803,-0.0026963152922689915,0.998132586479187,0.0,0.0,0.0,2.6161043643951416,1.5900195837020874,4.635156631469727,-473.52008056640625,0
1189.2150000000001,0.028177237138152122,0.003377844113856554,0.001400752691552043,0.0,0.0,0.0,0.0,0.0007299525896087289,-0.0017304874490946531,-0.0024192817509174347,0.9996212720870972,0.0,0.0,0.0,2.6121180057525635,1.5853577852249146,4.633012771606445,-472.7985534667969,0
1199.125,0.028155367821455002,0.003428711323067546,0.0013899999903514981,0.0,0.0,0.0,0.0,0.0014202657621353865,-0.0023202646989375353,0.0016055998858064413,0.9996633529663086,0.0,0.0,0.0,2.61726975440979,1.6013425588607788,4.643887519836426,-473.73101806640625,0
1209.0439999999999,0.028285568580031395,0.0033198522869497538,0.0014480415266007185,0.0,0.0,0.0,0.0,0.003120772773399949,-0.0017191130900755525,0.0018241930520161986,0.9992867708206177,0.0,0.0,0.0,2.6213901042938232,1.573799729347229,4.688907623291016,-474.476806640625,0
1218.946,0.028292488306760788,0.0033618155866861343,0.0014169056667014956,0.0,0.0,0.0,0.0,0.00021500414004549384,-0.00381371658295393,-0.00040024641202762723,0.9989454746246338,0.0,0.0,0.0,2.619403123855591,1.5700738430023193,4.68452787399292,-474.1172180175781,0
1228.8559999999998,0.028307966887950897,0.0032965573482215405,0.001406087656505406,0.0,0.0,0.0,0.0,0.0014271262334659696,-4.4069918658351526e-05,-0.0006642460357397795,0.9988117814064026,0.0,0.0,0.0,2.623051643371582,1.5620821714401245,4.690303325653076,-474.7775573730469,0
1238.7749999999996,0.028318090364336967,0.003394020488485694,0.0013905479572713375,0.0,0.0,0.0,0.0,-0.003022804157808423,0.003746089991182089,-0.0006480948068201542,0.9988869428634644,0.0,0.0,0.0,2.620393753051758,1.561630129814148,4.677934646606445,-474.2964782714844,0
1248.679,0.028318854048848152,0.003332137828692794,0.001370602985844016,0.0,0.0,0.0,0.0,0.0024999123997986317,-0.001089341240003705,-0.001370663638226688,0.9984695911407471,0.0,0.0,0.0,2.6243691444396973,1.5610206127166748,4.66947603225708,-475.01605224609375,0
1258.5959999999995,0.028307141736149788,0.003359296126291156,0.001356380758807063,0.0,0.0,0.0,0.0,0.0032877482008188963,0.002551204292103648,-0.004020026884973049,0.9981521964073181,0.0,0.0,0.0,2.6203036308288574,1.5514521598815918,4.668738842010498,-474.2801818847656,0
1268.5049999999992,0.028315870091319084,0.0033042829018086195,0.0013401794712990522,0.0,0.0,0.0,0.0,-0.000660430989228189,0.0030458951368927956,-0.0003893683897331357,0.9984291791915894,0.0,0.0,0.0,2.616485357284546,1.5408103466033936,4.659427642822266,-473.58905029296875,0
1278.4089999999997,0.02830718830227852,0.0033443020656704903,0.0013250709744170308,0.0,0.0,0.0,0.0,-0.002680323552340269,-0.0007198532111942768,0.0009121951879933476,0.9981961250305176,0.0,0.0,0.0,2.614335775375366,1.5393438339233398,4.650848865509033,-473.199951171875,0
1288.317000000001,0.02828133851289749,0.0033167158253490925,0.0013072220608592033,0.0,0.0,0.0,0.0,-0.0002513847721274942,-0.0007586564170196652,0.002289180178195238,0.999973475933075,0.0,0.0,0.0,2.6126248836517334,1.545013189315796,4.653321266174316,-472.8902893066406,0
1298.2289999999994,0.028263693675398827,0.0033663171343505383,0.0012998408637940884,0.0,0.0,0.0,0.0,-0.0029254343826323748,-0.0005095424130558968,0.0008206290658563375,0.999424397945404,0.0,0.0,0.0,2.610020160675049,1.542291283607483,4.650245189666748,-472.4188537597656,0
1308.1380000000008,0.028234515339136124,0.003342856653034687,0.001281636068597436,0.0,0.0,0.0,0.0,0.0010773232206702232,0.003982546739280224,-0.0004529627913143486,0.9986322522163391,0.0,0.0,0.0,2.6066396236419678,1.5456169843673706,4.6397247314453125,-471.80694580078125,0
1318.0480000000007,0.028207875788211823,0.0033989856019616127,0.0012803993886336684,0.0,0.0,0.0,0.0,0.0004000599728897214,-0.004416825715452433,-0.0037386345211416483,0.9992008209228516,0.0,0.0,0.0,2.6136653423309326,1.5612757205963135,4.6355180740356445,-473.0786437988281,0
1327.9580000000005,0.02833559922873974,0.003273778362199664,0.0012976030120626092,0.0,0.0,0.0,0.0,0.00012225059617776424,0.0035898268688470125,-0.006382432766258717,0.9981430768966675,0.0,0.0,0.0,2.614513397216797,1.5358240604400635,4.681815147399902,-473.2320861816406,0
1337.8690000000006,0.02832537516951561,0.0033334384206682444,0.0013007639208808541,0.0,0.0,0.0,0.0,-0.0015155344735831022,0.0006412460352294147,0.002404578262940049,0.997122049331665,0.0,0.0,0.0,2.6173818111419678,1.552336573600769,4.673385143280029,-473.7513122558594,0
1347.7839999999997,0.028302162885665894,0.003313185181468725,0.0012825459707528353,0.0,0.0,0.0,0.0,-3.8916907215025276e-05,0.001861653639934957,-0.001567550003528595,0.996501088142395,0.0,0.0,0.0,2.615727186203003,1.5505313873291016,4.66914176940918,-473.4518127441406,0
1357.6890000000003,0.028284812346100807,0.0033668691758066416,0.0012815087102353573,0.0,0.0,0.0,0.0,0.0006596086313948035,1.8979646483785473e-05,-0.0010056659812107682,1.0000604391098022,0.0,0.0,0.0,2.6131131649017334,1.547175407409668,4.660528182983398,-472.9786682128906,0
1367.5990000000002,0.02832302451133728,0.003331192070618272,0.0012888913042843342,0.0,0.0,0.0,0.0,-0.0019704054575413465,-0.003620017319917679,0.0012932820245623589,0.999239981174469,0.0,0.0,0.0,2.616791009902954,1.533902645111084,4.668099880218506,-473.64434814453125,0
1377.5139999999992,0.028270158916711807,0.0033345562405884266,0.001330715254880488,0.0,0.0,0.0,0.0,0.000954704824835062,0.0026548299938440323,-0.000246865936787799,0.9993385076522827,0.0,0.0,0.0,2.6147940158843994,1.537062644958496,4.6669921875,-473.28289794921875,0
1387.4210000000003,0.028242357075214386,0.0033140520099550486,0.0013145807897672057,0.0,0.0,0.0,0.0,-0.0011444136034697294,-0.0017737549496814609,0.0034253017511218786,0.9993011951446533,0.0,0.0,0.0,2.6117987632751465,1.5358705520629883,4.656003475189209,-472.74078369140625,0
1397.3410000000003,0.028224674984812737,0.0033874684013426304,0.0013179000234231353,0.0,0.0,0.0,0.0,-0.0019732178188860416,0.003940250724554062,0.0006814562366344035,1.0004539489746094,0.0,0.0,0.0,2.6190733909606934,1.5575745105743408,4.664031982421875,-474.0574951171875,0
1407.2469999999994,0.028300385922193527,0.003315627807751298,0.001328510232269764,0.0,0.0,0.0,0.0,0.0025885298382490873,0.001499835983850062,0.0007405895739793777,0.9990262389183044,0.0,0.0,0.0,2.626086473464966,1.5484004020690918,4.67668342590332,-475.326904296875,0
1417.161,0.028299368917942047,0.0034127954859286547,0.0013318592682480812,0.0,0.0,0.0,0.0,0.001870967447757721,0.00031182350357994437,-0.0017650549998506904,0.9982162117958069,0.0,0.0,0.0,2.6233153343200684,1.5460429191589355,4.67252779006958,-474.8252868652344,0
1427.0650000000005,0.028273489326238632,0.0033980505540966988,0.0013187301810830832,0.0,0.0,0.0,0.0,-0.0006379298283718526,0.0039038951508700848,-0.0012942415196448565,0.997093141078949,0.0,0.0,0.0,2.6194353103637695,1.5412464141845703,4.67042350769043,-474.123046875,0
1436.9779999999992,0.028241613879799843,0.0034140883944928646,0.001323956297710538,0.0,0.0,0.0,0.0,0.0021676223259419203,0.002041816245764494,-0.000547087169252336,0.9980807304382324,0.0,0.0,0.0,2.6167032718658447,1.5453890562057495,4.6615777015686035,-473.62847900390625,0
1446.8850000000002,0.028300680220127106,0.003351909341290593,0.0013275791425257921,0.0,0.0,0.0,0.0,-0.0010204912396147847,-0.0061366683803498745,0.0026435793843120337,1.0010943412780762,0.0,0.0,0.0,2.6204185485839844,1.532634973526001,4.671621322631836,-474.30096435546875,0
1456.7960000000003,0.028252603486180305,0.003370449645444751,0.0013649051543325186,0.0,0.0,0.0,0.0,0.0024864673614501953,-0.0034995826426893473,0.0014623133465647697,0.9999164938926697,0.0,0.0,0.0,2.617976665496826,1.5354102849960327,4.677354335784912,-473.8590087890625,0
1466.7119999999995,0.02822260744869709,0.003355256747454405,0.0013539355713874102,0.0,0.0,0.0,0.0,-0.0018724650144577026,0.00042294710874557495,0.0044931708835065365,0.9998202323913574,0.0,0.0,0.0,2.6152381896972656,1.5307245254516602,4.679121494293213,-473.3633117675781,0
1476.6219999999994,0.0282041747123003,0.0034123570658266544,0.0013479733606800437,0.0,0.0,0.0,0.0,-0.0001828477979870513,0.0018822902347892523,0.001373877632431686,0.9997711777687073,0.0,0.0,0.0,2.6133127212524414,1.5369434356689453,4.676210880279541,-473.0147705078125,0
1486.536,0.028300054371356964,0.0033336826600134373,0.0013705025194212794,0.0,0.0,0.0,0.0,0.000513123522978276,0.0005177536513656378,-0.0024088281206786633,1.0021250247955322,0.0,0.0,0.0,2.6172244548797607,1.5231090784072876,4.692498683929443,-473.72283935546875,0
1496.438,0.028246965259313583,0.003317171474918723,0.0013981031952425838,0.0,0.0,0.0,0.0,-0.002454205881804228,-0.00010148846922675148,-0.0017067799344658852,1.001023530960083,0.0,0.0,0.0,2.620265007019043,1.5209181308746338,4.682803153991699,-474.273193359375,0
1506.3510000000006,0.028324002400040627,0.003220137907192111,0.0013911916175857186,0.0,0.0,0.0,0.0,0.0016341626178473234,0.0003160900960210711,-9.241221960110124e-06,0.9978533387184143,0.0,0.0,0.0,2.6246166229248047,1.5079283714294434,4.684769630432129,-475.0608215332031,0
1516.2700000000004,0.028286630287766457,0.003229938680306077,0.0014063831185922027,0.0,0.0,0.0,0.0,-0.0017660417361184955,-0.003090791404247284,0.00018138049927074462,0.9987050890922546,0.0,0.0,0.0,2.6215732097625732,1.5031228065490723,4.673830509185791,-474.50994873046875,0
1526.174000000001,0.028253264725208282,0.0032096426002681255,0.0014015644555911422,0.0,0.0,0.0,0.0,-0.0036636069416999817,0.004984558559954166,-0.00094499351689592,1.0010262727737427,0.0,0.0,0.0,2.618802547454834,1.5091902017593384,4.676438331604004,-474.0085144042969,0
1536.0830000000005,0.028226235881447792,0.0032942143734544516,0.0014244186459109187,0.0,0.0,0.0,0.0,0.0016678236424922943,0.00022705101582687348,0.0008040089160203934,1.0010722875595093,0.0,0.0,0.0,2.615391731262207,1.5099389553070068,4.653578758239746,-473.3910827636719,0
1545.9879999999994,0.02819177508354187,0.0032774819992482662,0.0014223754405975342,0.0,0.0,0.0,0.0,-0.001485174405388534,0.007054136600345373,4.941168299410492e-05,1.0005555152893066,0.0,0.0,0.0,2.6130411624908447,1.510391354560852,4.64519739151001,-472.96563720703125,0
1555.9050000000007,0.028163600713014603,0.0033017059322446585,0.0014217996504157782,0.0,0.0,0.0,0.0,0.0014803335070610046,-7.988322613527998e-05,-0.0019266115268692374,0.998229444026947,0.0,0.0,0.0,2.611245632171631,1.5113180875778198,4.623485088348389,-472.64068603515625,0
1565.812,0.02812805213034153,0.0032857945188879967,0.0014204736799001694,0.0,0.0,0.0,0.0,-0.00022544882085639983,-0.0024123957846313715,0.001369514619000256,0.9987971782684326,0.0,0.0,0.0,2.608957290649414,1.5009729862213135,4.621222496032715,-472.2264709472656,0
1575.7160000000003,0.028096700087189674,0.003324630204588175,0.001417163060978055,0.0,0.0,0.0,0.0,0.0009442744194529951,0.0007060247589834034,-0.001484159380197525,1.0006402730941772,0.0,0.0,0.0,2.606180191040039,1.502078890800476,4.6231560707092285,-471.72381591796875,0
1585.6399999999994,0.02805950492620468,0.003312664572149515,0.0014140673447400331,0.0,0.0,0.0,0.0,-0.0020245229825377464,0.0021775024943053722,-0.0013983392855152488,0.9988926649093628,0.0,0.0,0.0,2.603336811065674,1.496536374092102,4.614266395568848,-471.20916748046875,0
1595.5370000000003,0.02806233800947666,0.0034153927117586136,0.0013768183998763561,0.0,0.0,0.0,0.0,-0.0005740695050917566,0.00022584844555240124,0.002299584448337555,0.9997314810752869,0.0,0.0,0.0,2.6082892417907715,1.5375374555587769,4.6273627281188965,-472.1055603027344,0
1605.4590000000007,0.028267763555049896,0.0032821488566696644,0.0014734405558556318,0.0,0.0,0.0,0.0,0.0012161271879449487,0.0014591660583391786,-0.002037741942331195,0.9989006519317627,0.0,0.0,0.0,2.6119139194488525,1.5051237344741821,4.682959079742432,-472.7615966796875,0
1615.3629999999994,0.02828865498304367,0.0033687616232782602,0.0014462247490882874,0.0,0.0,0.0,0.0,-0.0023947320878505707,0.0014954236103221774,-0.0018277295166626573,0.9982743263244629,0.0,0.0,0.0,2.615478992462158,1.519628882408142,4.685844898223877,-473.4068603515625,0
1625.2790000000005,0.028302306309342384,0.0033138080034404993,0.0014299838803708553,0.0,0.0,0.0,0.0,-0.0018415289232507348,1.6642294212942943e-05,-0.001477924408391118,0.9983948469161987,0.0,0.0,0.0,2.619457721710205,1.5065425634384155,4.680827617645264,-474.1270446777344,0
1635.1839999999993,0.028312355279922485,0.003381307702511549,0.0014074614737182856,0.0,0.0,0.0,0.0,0.0010664159199222922,-0.0025513023138046265,0.002472445135936141,0.998076319694519,0.0,0.0,0.0,2.615448236465454,1.5087295770645142,4.681267738342285,-473.40130615234375,0
1645.0990000000002,0.028329944238066673,0.003335562301799655,0.0013923714868724346,0.0,0.0,0.0,0.0,0.0012102340115234256,0.0021030502393841743,-0.0009059348958544433,0.9982789754867554,0.0,0.0,0.0,2.613396644592285,1.501245379447937,4.683595657348633,-473.0299987792969,0
1655.0010000000002,0.02836447022855282,0.0034583176020532846,0.001341004972346127,0.0,0.0,0.0,0.0,-0.0002853582554962486,-0.0011865023989230394,0.0012312940089032054,0.9982376098632812,0.0,0.0,0.0,2.618032693862915,1.5187954902648926,4.68018913269043,-473.8691101074219,0
1664.9169999999995,0.02835032530128956,0.003402680391445756,0.0013008540263399482,0.0,0.0,0.0,0.0,0.004143320024013519,0.0024044576566666365,-0.001946464879438281,0.9983612895011902,0.0,0.0,0.0,2.622380256652832,1.5117143392562866,4.67943000793457,-474.6560363769531,0
1674.8199999999997,0.02830328606069088,0.003414585255086422,0.0013236267259344459,0.0,0.0,0.0,0.0,1.7077947632060386e-05,-0.0012933405814692378,-0.00485692173242569,0.9997590780258179,0.0,0.0,0.0,2.626142740249634,1.5106873512268066,4.6642327308654785,-475.3370666503906,0
1684.7330000000002,0.02827730029821396,0.0034038310404866934,0.0013063589576631784,0.0,0.0,0.0,0.0,0.0017302095657214522,0.0017921290127560496,-0.001639659982174635,0.9991642236709595,0.0,0.0,0.0,2.622316837310791,1.5094445943832397,4.652853488922119,-474.64453125,0
1694.6540000000005,0.02821916900575161,0.003417923813685775,0.0013514631427824497,0.0,0.0,0.0,0.0,-0.0032077166251838207,0.00360634527169168,-0.0003707259311340749,0.9996078610420227,0.0,0.0,0.0,2.6265556812286377,1.5101438760757446,4.63523530960083,-475.4118347167969,0
1704.563,0.028293427079916,0.0033396014478057623,0.0013532625744119287,0.0,0.0,0.0,0.0,-0.0007623454439453781,-0.002384880790486932,0.002473617671057582,0.9986379146575928,0.0,0.0,0.0,2.623769521713257,1.5132368803024292,4.623974800109863,-474.907470703125,0
1714.4650000000001,0.028276648372411728,0.003387833945453167,0.0013502524234354496,0.0,0.0,0.0,0.0,0.000763240153901279,0.0015229700366035104,-0.002212678547948599,0.9995073676109314,0.0,0.0,0.0,2.628929376602173,1.5225471258163452,4.626513481140137,-475.8414306640625,0
1724.3760000000002,0.02824793942272663,0.0033769842702895403,0.001337122288532555,0.0,0.0,0.0,0.0,0.0015962834004312754,0.0016076569445431232,0.0003176605678163469,0.9990634918212891,0.0,0.0,0.0,2.6257545948028564,1.5231105089187622,4.627791881561279,-475.26678466796875,0
1734.2870000000003,0.028224512934684753,0.0034282938577234745,0.0013369846856221557,0.0,0.0,0.0,0.0,0.004568041302263737,-0.0031324320007115602,-0.005442087538540363,0.9987636804580688,0.0,0.0,0.0,2.6318092346191406,1.5298880338668823,4.620611667633057,-476.3627014160156,0
1744.1910000000007,0.02833707630634308,0.0032878608908504248,0.001318490831181407,0.0,0.0,0.0,0.0,0.0010903056245297194,-0.004171212203800678,0.0005587320774793625,0.9986170530319214,0.0,0.0,0.0,2.628161907196045,1.5207698345184326,4.619808673858643,-475.7025451660156,0
1754.1100000000006,0.028322741389274597,0.0033510506618767977,0.0013223092537373304,0.0,0.0,0.0,0.0,0.0015047144843265414,-0.002085248241201043,0.0005744397640228271,0.9997456073760986,0.0,0.0,0.0,2.633772611618042,1.530279517173767,4.628358840942383,-476.7181091308594,0
1764.0169999999998,0.02829698659479618,0.0033354584593325853,0.0013073335867375135,0.0,0.0,0.0,0.0,-0.0018234311137348413,0.004969433881342411,-0.0005095569067634642,0.9991223812103271,0.0,0.0,0.0,2.6314570903778076,1.5245144367218018,4.630648136138916,-476.2989501953125,0
1773.9269999999997,0.028269300237298012,0.003380146576091647,0.001319199101999402,0.0,0.0,0.0,0.0,-0.0016112604644149542,-0.0027039963752031326,0.0009368323371745646,0.9989689588546753,0.0,0.0,0.0,2.6284677982330322,1.5281596183776855,4.617221832275391,-475.7579040527344,0
1783.8320000000003,0.02832075022161007,0.0033266788814216852,0.0013248035684227943,0.0,0.0,0.0,0.0,0.000576831167563796,-0.001992263598367572,-0.001752366661094129,0.9994084239006042,0.0,0.0,0.0,2.626737356185913,1.5292059183120728,4.615901947021484,-475.4447021484375,0
1793.7469999999994,0.028311600908637047,0.0033810469321906567,0.0013217703672125936,0.0,0.0,0.0,0.0,-0.0036187157966196537,0.0007525257533416152,0.0024393314961344004,1.0006855726242065,0.0,0.0,0.0,2.6235010623931885,1.5296722650527954,4.624278545379639,-474.8589172363281,0
1803.6569999999992,0.02828720025718212,0.003364674048498273,0.0013093870365992188,0.0,0.0,0.0,0.0,-3.622531585278921e-05,-0.0013958386844024062,-0.0025227030273526907,1.0016759634017944,0.0,0.0,0.0,2.6215951442718506,1.5333545207977295,4.619577407836914,-474.5139465332031,0
1813.5679999999993,0.02825876697897911,0.0034062620252370834,0.0013266681926324964,0.0,0.0,0.0,0.0,0.0012335358187556267,0.000609481823630631,-0.0025664304848760366,0.9989450573921204,0.0,0.0,0.0,2.6278040409088135,1.5475366115570068,4.617598533630371,-475.63775634765625,0
1823.4740000000002,0.02823033556342125,0.0033901017159223557,0.0013184926938265562,0.0,0.0,0.0,0.0,-0.0010720158461481333,-0.0005523691652342677,0.0018152148695662618,0.9987009167671204,0.0,0.0,0.0,2.6252875328063965,1.5435764789581299,4.614226818084717,-475.1822814941406,0
1833.3909999999996,0.028200212866067886,0.0034305688459426165,0.0013294033706188202,0.0,0.0,0.0,0.0,-0.0017425244441255927,-0.0023516088258475065,0.002122892765328288,1.0006699562072754,0.0,0.0,0.0,2.628868341445923,1.5538443326950073,4.608903408050537,-475.83038330078125,0
1843.2880000000005,0.02829827554523945,0.0033376708161085844,0.001358106266707182,0.0,0.0,0.0,0.0,0.0027199387550354004,-0.00045222710468806326,0.001718080835416913,1.0002505779266357,0.0,0.0,0.0,2.6261353492736816,1.558621883392334,4.611541271209717,-475.3357238769531,0
1853.2080000000005,0.028294436633586884,0.0033872618805617094,0.0013508157571777701,0.0,0.0,0.0,0.0,0.00015205389354377985,0.0014018705114722252,-0.0002025505673373118,0.9979286193847656,0.0,0.0,0.0,2.6235740184783936,1.5478715896606445,4.607701778411865,-474.87213134765625,0
1863.116,0.02832108922302723,0.0033378098160028458,0.0013513757148757577,0.0,0.0,0.0,0.0,0.0031945074442774057,6.265037518460304e-05,-0.000553287158254534,0.9982134699821472,0.0,0.0,0.0,2.6263294219970703,1.540425419807434,4.607891082763672,-475.370849609375,0
1873.0239999999994,0.028312642127275467,0.003379098605364561,0.0013403824996203184,0.0,0.0,0.0,0.0,4.002535933977924e-05,-0.00022864260245114565,-0.0005702247726731002,0.9972184300422668,0.0,0.0,0.0,2.6241705417633057,1.5313771963119507,4.598820209503174,-474.9801025390625,0
1882.9279999999999,0.028284627944231033,0.0033600388560444117,0.0013308492489159107,0.0,0.0,0.0,0.0,0.0005389289581216872,0.002351881470531225,-0.00025028130039572716,0.9989650249481201,0.0,0.0,0.0,2.621694564819336,1.5251680612564087,4.592872142791748,-474.53192138671875,0
1892.8500000000004,0.02826727367937565,0.003442782210186124,0.0013407079968601465,0.0,0.0,0.0,0.0,0.0007503874367102981,0.0024074583780020475,0.0010619290405884385,0.9997706413269043,0.0,0.0,0.0,2.6184539794921875,1.5235058069229126,4.58754825592041,-473.9454040527344,0
1902.7489999999998,0.028238868340849876,0.003425990231335163,0.0013303114101290703,0.0,0.0,0.0,0.0,-0.00570139242336154,0.003993511199951172,0.002781889634206891,0.9993109703063965,0.0,0.0,0.0,2.615495443344116,1.5231342315673828,4.573630332946777,-473.40985107421875,0
1912.6650000000009,0.028214896097779274,0.0034483231138437986,0.0013206546427682042,0.0,0.0,0.0,0.0,0.001729048090055585,5.1473161875037476e-05,-0.004979113582521677,0.99896639585495,0.0,0.0,0.0,2.613389730453491,1.5326356887817383,4.553350448608398,-473.0287170410156,0
1922.5689999999995,0.0282981488853693,0.003355145687237382,0.0013353971298784018,0.0,0.0,0.0,0.0,0.0023755391594022512,0.0006319218664430082,-0.0006959413294680417,0.9987624287605286,0.0,0.0,0.0,2.6177220344543457,1.5092804431915283,4.5796122550964355,-473.8128967285156,0
1932.4869999999992,0.02829480729997158,0.003431696444749832,0.0013354322873055935,0.0,0.0,0.0,0.0,-0.0015595851000398397,-0.0037295003421604633,-0.0006158928154036403,0.9999316930770874,0.0,0.0,0.0,2.621670722961426,1.5274804830551147,4.58092737197876,-474.5276184082031,0
1942.3899999999994,0.028264816850423813,0.0034086545929312706,0.0013235672377049923,0.0,0.0,0.0,0.0,-0.002948732813820243,-0.0036951545625925064,0.0010526804253458977,1.0010247230529785,0.0,0.0,0.0,2.6198344230651855,1.5349855422973633,4.589687347412109,-474.1952209472656,0
1952.3150000000005,0.02821231260895729,0.003410138888284564,0.0013723024167120457,0.0,0.0,0.0,0.0,-0.0035104157868772745,0.001399073749780655,0.0034173859748989344,1.002158284187317,0.0,0.0,0.0,2.6177139282226562,1.538666009902954,4.587923049926758,-473.81146240234375,0
1962.2160000000003,0.028180021792650223,0.0033854376524686813,0.0013680218253284693,0.0,0.0,0.0,0.0,-0.004231360740959644,-0.00615543220192194,0.0031971631105989218,0.9980522990226746,0.0,0.0,0.0,2.616039276123047,1.5390820503234863,4.579638957977295,-473.5082702636719,0
1972.1290000000008,0.028135541826486588,0.0034092289861291647,0.0014070481993258,0.0,0.0,0.0,0.0,-0.0002136946131940931,0.0035969698801636696,-0.0010520556243136525,0.9968975782394409,0.0,0.0,0.0,2.6216320991516113,1.5579324960708618,4.5772013664245605,-474.5206604003906,0
1982.0300000000007,0.02837390825152397,0.003249169560149312,0.0015105102211236954,0.0,0.0,0.0,0.0,0.005408475641161203,-0.0009039900614880025,-0.0026400648057460785,0.9995781183242798,0.0,0.0,0.0,2.6268045902252197,1.527219533920288,4.628380298614502,-475.45684814453125,0
1991.9519999999993,0.028364326804876328,0.003288922132924199,0.0015384966973215342,0.0,0.0,0.0,0.0,-0.0019555750768631697,-0.0006939402665011585,0.0019738280680030584,1.000848412513733,0.0,0.0,0.0,2.624124765396118,1.5156924724578857,4.624744892120361,-474.9718322753906,0
2001.8510000000006,0.028409307822585106,0.0032094763591885567,0.0015415598172694445,0.0,0.0,0.0,0.0,0.0021688747219741344,0.0036097108386456966,-0.0009897032286971807,1.000624179840088,0.0,0.0,0.0,2.6306025981903076,1.508133053779602,4.629218101501465,-476.144287109375,0
2011.7710000000006,0.028399920091032982,0.0032095557544380426,0.0015499861910939217,0.0,0.0,0.0,0.0,-0.001991309691220522,-0.005048807710409164,-0.00024346195277757943,0.9991196990013123,0.0,0.0,0.0,2.627443313598633,1.5050655603408813,4.619109153747559,-475.57244873046875,0
2021.6749999999993,0.028339339420199394,0.0031481049954891205,0.0015243447851389647,0.0,0.0,0.0,0.0,-0.00043880598968826234,-0.006708878092467785,0.007068489212542772,1.0008742809295654,0.0,0.0,0.0,2.624344825744629,1.504851222038269,4.622167587280273,-475.0116271972656,0
2031.5969999999998,0.0283513180911541,0.0032342083286494017,0.0015224795788526535,0.0,0.0,0.0,0.0,-0.002522440394386649,0.005222979001700878,-0.002492255298420787,0.9995808005332947,0.0,0.0,0.0,2.623893976211548,1.5091842412948608,4.628370761871338,-474.9300231933594,0
2041.491,0.028288893401622772,0.0032116896472871304,0.0015206042444333434,0.0,0.0,0.0,0.0,0.0029688063077628613,-0.0014863039832562208,-0.00218920293264091,0.9981324076652527,0.0,0.0,0.0,2.625709295272827,1.5123130083084106,4.608180046081543,-475.25860595703125,0
2051.411,0.02829251065850258,0.003281774464994669,0.0015147849917411804,0.0,0.0,0.0,0.0,-0.002118265489116311,-0.0006094632553867996,-0.0011681773466989398,0.9996879696846008,0.0,0.0,0.0,2.6215124130249023,1.5046430826187134,4.601621150970459,-474.4989318847656,0
2061.3160000000007,0.028262704610824585,0.003248239867389202,0.0015157582238316536,0.0,0.0,0.0,0.0,0.0013358350843191147,-0.0020063172560185194,0.0017743256175890565,1.0010613203048706,0.0,0.0,0.0,2.618184804916382,1.5055805444717407,4.595374584197998,-473.8966369628906,0
2071.236000000001,0.028243964537978172,0.003252721158787608,0.0015115141868591309,0.0,0.0,0.0,0.0,-0.0015875708777457476,0.0019401501631364226,-0.0035949188750237226,0.9996789693832397,0.0,0.0,0.0,2.616084575653076,1.5027474164962769,4.595601558685303,-473.5165100097656,0
2081.1360000000004,0.0282217338681221,0.0032816692255437374,0.001514425384812057,0.0,0.0,0.0,0.0,3.7891342799412087e-05,0.004973777569830418,-0.001860955497249961,0.9996959567070007,0.0,0.0,0.0,2.619586706161499,1.5198979377746582,4.5894694328308105,-474.15045166015625,0
2091.053,0.028190642595291138,0.003251823829486966,0.0015154232969507575,0.0,0.0,0.0,0.0,0.0022349569480866194,-0.0021613603457808495,0.004062654450535774,1.000535488128662,0.0,0.0,0.0,2.617154121398926,1.5162608623504639,4.578319072723389,-473.7101135253906,0
2100.9580000000005,0.028174754232168198,0.003295732429251075,0.0015037775738164783,0.0,0.0,0.0,0.0,0.0022877883166074753,0.003391996258869767,-0.003597149858251214,0.9994290471076965,0.0,0.0,0.0,2.625938892364502,1.5319442749023438,4.588742256164551,-475.3001708984375,0
2110.8719999999994,0.028142279013991356,0.0032717620488256216,0.0015038938727229834,0.0,0.0,0.0,0.0,0.0021748929284512997,0.0029451437294483185,0.0007553034811280668,0.9996131062507629,0.0,0.0,0.0,2.6228249073028564,1.5228722095489502,4.576890468597412,-474.73651123046875,0
2120.7819999999992,0.02812935598194599,0.003308715531602502,0.001484733889810741,0.0,0.0,0.0,0.0,0.0018809640314429998,-0.005577957257628441,-0.0002217457367805764,0.9977921843528748,0.0,0.0,0.0,2.6199111938476562,1.5167583227157593,4.564483165740967,-474.20916748046875,0
2130.7000000000007,0.02809756062924862,0.0032885922119021416,0.0014823568053543568,0.0,0.0,0.0,0.0,0.002206755569204688,0.004165164660662413,0.0017542277928441763,0.9991079568862915,0.0,0.0,0.0,2.6163997650146484,1.5132973194122314,4.568718910217285,-473.57354736328125,0
2140.5949999999993,0.028107358142733574,0.0033763176761567593,0.0014412023592740297,0.0,0.0,0.0,0.0,0.0012774539645761251,0.002235245890915394,-0.0014612770173698664,0.9988915920257568,0.0,0.0,0.0,2.6221513748168945,1.5458446741104126,4.587972164154053,-474.6146545410156,0
2150.5110000000004,0.02807696908712387,0.0033636316657066345,0.0014331960119307041,0.0,0.0,0.0,0.0,0.0008743772050365806,-0.003349968930706382,0.000979602336883545,0.9998793601989746,0.0,0.0,0.0,2.618910074234009,1.5392484664916992,4.58318567276001,-474.0279541015625,0
2160.4140000000007,0.02829880267381668,0.0033588779624551535,0.0014896905049681664,0.0,0.0,0.0,0.0,-0.0033094054087996483,0.0006678901263512671,0.002938058925792575,0.997668445110321,0.0,0.0,0.0,2.629417657852173,1.53249192237854,4.6516923904418945,-475.9298095703125,0
