timestamp,stateEstimate.x,stateEstimate.y,stateEstimate.z,controller.cmd_thrust,controller.cmd_roll,controller.cmd_pitch,controller.cmd_yaw,controller.r_roll,controller.r_pitch,controller.r_yaw,controller.accelz,controller.actuatorThrust,controller.roll,controller.pitch,controller.yaw,controller.rollRate,controller.pitchRate,controller.yawRate,controller.ctr_yaw
0.0,0.06345812976360321,-0.020138651132583618,0.0003766536829061806,0.0,0.0,0.0,0.0,-0.0014172104420140386,-0.0012034897226840258,0.005463173612952232,0.9984025359153748,0.0,0.0,0.0,61.064640045166016,5.599936008453369,2.9542486667633057,-11052.8212890625,0
9.884000000000015,0.06352624297142029,-0.020127099007368088,0.000429253006586805,0.0,0.0,0.0,0.0,-0.00037265935679897666,0.0020655705593526363,-0.0006785321747884154,0.9989298582077026,0.0,0.0,0.0,61.07361602783203,5.605781555175781,2.9569180011749268,-11054.4453125,0
19.770000000000437,0.06346581876277924,-0.020154153928160667,0.0004054797755088657,0.0,0.0,0.0,0.0,-0.001395595376379788,0.005441035609692335,-0.0004238818073645234,1.000233769416809,0.0,0.0,0.0,61.05815887451172,5.6113996505737305,2.9481418132781982,-11051.6474609375,0
29.65600000000086,0.0635441467165947,-0.020166752859950066,0.0004383970226626843,0.0,0.0,0.0,0.0,-0.0002497124660294503,0.0013603422557935119,-0.0007487668772228062,0.9982181787490845,0.0,0.0,0.0,61.06787872314453,5.604853630065918,2.9374916553497314,-11053.4072265625,0
39.54100000000108,0.06346526741981506,-0.020191030576825142,0.00041334223351441324,0.0,0.0,0.0,0.0,-0.0008530145860277116,-0.0019115094328299165,-0.0008866310818120837,0.999432384967804,0.0,0.0,0.0,61.05557632446289,5.6070780754089355,2.9185900688171387,-11051.1806640625,0
49.431000000000495,0.06350643187761307,-0.02021055482327938,0.0004990698071196675,0.0,0.0,0.0,0.0,-0.0018454715609550476,-0.003870692104101181,0.006511477287858725,1.000704050064087,0.0,0.0,0.0,61.074195861816406,5.6137919425964355,2.914494276046753,-11054.55078125,0
59.3119999999999,0.06345711648464203,-0.02023356780409813,0.0004902392392978072,0.0,0.0,0.0,0.0,7.092602027114481e-05,-0.0008722542552277446,-0.0013626748695969582,0.9996618032455444,0.0,0.0,0.0,61.065834045410156,5.612703323364258,2.9165375232696533,-11053.0380859375,0
69.19800000000032,0.0635581985116005,-0.020217962563037872,0.0005107477772980928,0.0,0.0,0.0,0.0,-0.0010853795101866126,0.003035803558304906,-0.00015870023344177753,0.9985669851303101,0.0,0.0,0.0,61.08082962036133,5.611012935638428,2.9288816452026367,-11055.751953125,0
79.09000000000015,0.06342647224664688,-0.020226866006851196,0.0004831429396290332,0.0,0.0,0.0,0.0,-0.002448231913149357,-0.006161259487271309,0.0024086260236799717,0.997492790222168,0.0,0.0,0.0,61.068519592285156,5.619266986846924,2.9172441959381104,-11053.5234375,0
88.97200000000157,0.06353886425495148,-0.02015795186161995,0.0005077277310192585,0.0,0.0,0.0,0.0,0.003405788680538535,0.0006100295577198267,-0.0038228207267820835,1.0002727508544922,0.0,0.0,0.0,61.082576751708984,5.624243259429932,2.940744400024414,-11056.0673828125,0
98.86100000000079,0.06341839581727982,-0.020203404128551483,0.00046258539077825844,0.0,0.0,0.0,0.0,0.0007387975347228348,-0.000707017257809639,0.00041736726416274905,0.9988937377929688,0.0,0.0,0.0,61.070980072021484,5.630592346191406,2.931558609008789,-11053.96875,0
108.7400000000016,0.0635240450501442,-0.020144283771514893,0.0004881416680291295,0.0,0.0,0.0,0.0,0.0008054633508436382,-3.529639434418641e-05,-0.0005598252173513174,0.9982505440711975,0.0,0.0,0.0,61.08792495727539,5.627498626708984,2.9452126026153564,-11057.03515625,0
118.6260000000002,0.06333311647176743,-0.02015051245689392,0.0004379927704576403,0.0,0.0,0.0,0.0,-0.0020266808569431305,-0.0022737057879567146,-0.00037580393836833537,0.9991657137870789,0.0,0.0,0.0,61.07429122924805,5.6426568031311035,2.925797462463379,-11054.5673828125,0
128.52300000000105,0.06343986839056015,-0.02008572220802307,0.0004523760871961713,0.0,0.0,0.0,0.0,0.0013882438652217388,0.00785844400525093,-0.003947119694203138,0.9996984601020813,0.0,0.0,0.0,61.086265563964844,5.642379283905029,2.9411935806274414,-11056.7353515625,0
138.39700000000084,0.0633653774857521,-0.020103976130485535,0.0004326310590840876,0.0,0.0,0.0,0.0,0.000744327437132597,0.0010312789818271995,-0.0013943660305812955,1.0023000240325928,0.0,0.0,0.0,61.07166290283203,5.63958740234375,2.9368855953216553,-11054.091796875,0
148.29200000000128,0.06344940513372421,-0.020075539126992226,0.00046281475806608796,0.0,0.0,0.0,0.0,0.0012742656981572509,0.0034532276913523674,0.0013418459566310048,1.003036379814148,0.0,0.0,0.0,61.08334732055664,5.638007164001465,2.927741050720215,-11056.20703125,0
158.16899999999987,0.06338602304458618,-0.020107487216591835,0.0004459793563000858,0.0,0.0,0.0,0.0,-0.0009785025613382459,0.0056906938552856445,0.002832073252648115,1.0004048347473145,0.0,0.0,0.0,61.072139739990234,5.632856845855713,2.9113690853118896,-11054.1787109375,0
168.0550000000003,0.06347175687551498,-0.020086020231246948,0.0004788497171830386,0.0,0.0,0.0,0.0,-0.001327661913819611,-0.0020369505509734154,0.0006953367264941335,0.9995117783546448,0.0,0.0,0.0,61.08911895751953,5.628541946411133,2.8997676372528076,-11057.2529296875,0
177.9400000000005,0.06338196992874146,-0.020115572959184647,0.00046003394527360797,0.0,0.0,0.0,0.0,0.00046942831249907613,0.0022634242195636034,-0.001440493855625391,0.9994212985038757,0.0,0.0,0.0,61.077659606933594,5.631686687469482,2.8852052688598633,-11055.177734375,0
187.82500000000073,0.06342876702547073,-0.02015266939997673,0.0005240209284238517,0.0,0.0,0.0,0.0,0.00010235449008177966,-0.0031202679965645075,0.004326066467911005,1.0005837678909302,0.0,0.0,0.0,61.090110778808594,5.631714344024658,2.8833112716674805,-11057.431640625,0
197.71100000000115,0.06336463987827301,-0.020221469923853874,0.000499885471072048,0.0,0.0,0.0,0.0,-0.0014934676000848413,-0.0003679853107314557,0.000521198264323175,0.9983333349227905,0.0,0.0,0.0,61.07654571533203,5.627349853515625,2.8753933906555176,-11054.9755859375,0
207.59700000000157,0.06342684477567673,-0.02019842341542244,0.0005686198710463941,0.0,0.0,0.0,0.0,-0.0002626816276460886,-0.002262319438159466,-0.00029389513656497,0.9999812841415405,0.0,0.0,0.0,61.09330749511719,5.631383895874023,2.896864414215088,-11058.009765625,0
217.48199999999997,0.06328513473272324,-0.020224055275321007,0.0005456098588183522,0.0,0.0,0.0,0.0,-0.0012472481466829777,0.002648503053933382,-0.001970528159290552,1.0008127689361572,0.0,0.0,0.0,61.08038330078125,5.639559268951416,2.8836023807525635,-11055.6708984375,0
227.3680000000004,0.06340964138507843,-0.02014065906405449,0.0005503117572516203,0.0,0.0,0.0,0.0,0.0008562455186620355,-0.0037903159391134977,0.0020800847560167313,1.0019046068191528,0.0,0.0,0.0,61.09071731567383,5.638149738311768,2.9064831733703613,-11057.541015625,0
237.2530000000006,0.06333994120359421,-0.020165640860795975,0.0005502552376128733,0.0,0.0,0.0,0.0,0.0009085420751944184,0.002708581741899252,-0.00017620730795897543,1.0002344846725464,0.0,0.0,0.0,61.076656341552734,5.635461807250977,2.9068801403045654,-11054.99609375,0
247.13900000000103,0.06341365724802017,-0.020150454714894295,0.000602336716838181,0.0,0.0,0.0,0.0,-0.0018434184603393078,-0.004776160232722759,0.0009474378894083202,1.0005977153778076,0.0,0.0,0.0,61.09444046020508,5.638886451721191,2.9197475910186768,-11058.21484375,0
257.02400000000125,0.06341562420129776,-0.020240722224116325,0.0006094168638810515,0.0,0.0,0.0,0.0,0.000450743711553514,-0.0042089540511369705,0.0037421509623527527,1.0005950927734375,0.0,0.0,0.0,61.02194595336914,5.629307746887207,2.917726993560791,-11045.09375,0
266.9100000000017,0.06340906023979187,-0.02019338682293892,0.0006349222385324538,0.0,0.0,0.0,0.0,0.00036225648364052176,0.005934980697929859,0.0014374774182215333,0.9974656701087952,0.0,0.0,0.0,61.0943717956543,5.629889011383057,2.9268736839294434,-11058.2021484375,0
276.7960000000003,0.06342571973800659,-0.020321300253272057,0.0006314626662060618,0.0,0.0,0.0,0.0,-0.0011404750403016806,0.0036143860779702663,0.0030550858937203884,0.9992595314979553,0.0,0.0,0.0,61.02370834350586,5.619509696960449,2.9097046852111816,-11045.4130859375,0
286.6810000000005,0.06342937052249908,-0.020214857533574104,0.0006693826289847493,0.0,0.0,0.0,0.0,-0.004613159224390984,0.009881289675831795,0.0010317601263523102,1.0025242567062378,0.0,0.0,0.0,61.097774505615234,5.624013900756836,2.9280920028686523,-11058.8193359375,0
296.57800000000134,0.06339675933122635,-0.020314982160925865,0.0006642648950219154,0.0,0.0,0.0,0.0,0.00017660902813076973,-0.0008997670956887305,0.0004860080371145159,1.0023585557937622,0.0,0.0,0.0,61.02465057373047,5.62408447265625,2.8919262886047363,-11045.5830078125,0
306.45200000000114,0.06341665238142014,-0.0202134121209383,0.0006769323372282088,0.0,0.0,0.0,0.0,0.004354678560048342,0.001449700677767396,0.001279389951378107,0.9980437755584717,0.0,0.0,0.0,61.09308624267578,5.626223087310791,2.9107372760772705,-11057.9697265625,0
316.33800000000156,0.06345228850841522,-0.020344898104667664,0.0006831874488852918,0.0,0.0,0.0,0.0,0.0021607005037367344,0.002466086531057954,-0.001731058699078858,0.9998182058334351,0.0,0.0,0.0,61.01768112182617,5.608044624328613,2.893050193786621,-11044.322265625,0
326.22299999999996,0.06350509077310562,-0.020199500024318695,0.0006670195725746453,0.0,0.0,0.0,0.0,-0.002116237534210086,0.001783235464245081,-0.00022947379329707474,0.9991363286972046,0.0,0.0,0.0,61.091651916503906,5.608813285827637,2.9203219413757324,-11057.7099609375,0
336.1090000000004,0.06343439221382141,-0.02025742270052433,0.0006639219354838133,0.0,0.0,0.0,0.0,-0.0007082708762027323,-0.0011770313140004873,0.0008275883155874908,1.0013387203216553,0.0,0.0,0.0,61.01926803588867,5.620355129241943,2.907059669494629,-11044.6083984375,0
345.9970000000012,0.06346441060304642,-0.020154539495706558,0.0006613652803935111,0.0,0.0,0.0,0.0,0.00028263122658245265,-0.0038469498977065086,0.0022316775284707546,1.0014084577560425,0.0,0.0,0.0,61.0900764465332,5.62064266204834,2.92634654045105,-11057.4248046875,0
355.8820000000014,0.06348396837711334,-0.020290041342377663,0.0006479345029219985,0.0,0.0,0.0,0.0,-0.00012463881284929812,0.005704477895051241,-0.003638000227510929,0.9992992281913757,0.0,0.0,0.0,61.01433563232422,5.612228870391846,2.9216275215148926,-11043.7158203125,0
365.76600000000144,0.06352903693914413,-0.020152326673269272,0.000639919366221875,0.0,0.0,0.0,0.0,0.0018168182577937841,-0.0010691650677472353,-0.00415608799085021,1.0004839897155762,0.0,0.0,0.0,61.08928298950195,5.613559722900391,2.94793701171875,-11057.2822265625,0
375.65200000000004,0.06353188306093216,-0.020256616175174713,0.0006292374455370009,0.0,0.0,0.0,0.0,0.0032332760747522116,-0.002202915493398905,-0.0007848622626625001,0.9995911717414856,0.0,0.0,0.0,61.01683044433594,5.608148097991943,2.9308207035064697,-11044.1669921875,0
385.53700000000026,0.06356087327003479,-0.020132049918174744,0.0006391273927874863,0.0,0.0,0.0,0.0,-0.0014518945245072246,-0.00019440888718236238,-0.0025188105646520853,0.9976407289505005,0.0,0.0,0.0,61.089508056640625,5.610803127288818,2.95400071144104,-11057.322265625,0
395.4340000000011,0.0635487288236618,-0.020239483565092087,0.000615048804320395,0.0,0.0,0.0,0.0,-0.0006444065948016942,0.004535680636763573,-0.0006410705391317606,1.0003023147583008,0.0,0.0,0.0,61.017913818359375,5.604920864105225,2.9318673610687256,-11044.36328125,0
405.3080000000009,0.06356807798147202,-0.020137669518589973,0.0006282314425334334,0.0,0.0,0.0,0.0,-0.0025267412420362234,-0.0028716293163597584,-0.001141347223892808,1.0004456043243408,0.0,0.0,0.0,61.09185791015625,5.606752872467041,2.9510762691497803,-11057.7470703125,0
415.1940000000013,0.0635027289390564,-0.02020869217813015,0.0006005850154906511,0.0,0.0,0.0,0.0,-0.0023898377548903227,-0.005450467113405466,-0.0021053056698292494,1.0007818937301636,0.0,0.0,0.0,61.02083206176758,5.616684913635254,2.9377589225769043,-11044.8916015625,0
425.07900000000154,0.06348478049039841,-0.0201716385781765,0.0006391149945557117,0.0,0.0,0.0,0.0,0.0013404161436483264,0.0013779785949736834,-0.00017501019465271384,0.9998078346252441,0.0,0.0,0.0,61.09341049194336,5.6181535720825195,2.9450013637542725,-11058.0283203125,0
434.96800000000076,0.06342469900846481,-0.02026807889342308,0.0006093383999541402,0.0,0.0,0.0,0.0,-0.001533855334855616,-0.0029571682680398226,-0.001651215017773211,0.9993101954460144,0.0,0.0,0.0,61.02260208129883,5.617893218994141,2.9335782527923584,-11045.2119140625,0
444.85000000000036,0.06346194446086884,-0.020182348787784576,0.0005879778764210641,0.0,0.0,0.0,0.0,-0.0030525343026965857,-0.0005215592682361603,-0.0014810643624514341,1.0024688243865967,0.0,0.0,0.0,61.097023010253906,5.6153669357299805,2.9515440464019775,-11058.6826171875,0
454.7390000000014,0.06341658532619476,-0.02027769573032856,0.0005559954443015158,0.0,0.0,0.0,0.0,-0.0002820465306285769,0.007709268946200609,6.484671030193567e-05,1.0008296966552734,0.0,0.0,0.0,61.02553939819336,5.628157615661621,2.933619499206543,-11045.744140625,0
464.63300000000163,0.06345201283693314,-0.02018086053431034,0.0005430242163129151,0.0,0.0,0.0,0.0,0.0029374631121754646,-0.00022387514763977379,-0.00031594547908753157,0.9991085529327393,0.0,0.0,0.0,61.09852600097656,5.627114772796631,2.953151226043701,-11058.9541015625,0
514.0500000000011,0.06351775676012039,-0.020308716222643852,0.0005371532752178609,0.0,0.0,0.0,0.0,-0.003958698362112045,0.0017951522022485733,0.003653443418443203,0.9993220567703247,0.0,0.0,0.0,61.042720794677734,5.6169586181640625,2.918553590774536,-11048.853515625,0
523.9350000000013,0.06353756040334702,-0.020199622958898544,0.000553404854144901,0.0,0.0,0.0,0.0,-0.0011941619450226426,0.006576124578714371,-0.0005636794376187027,1.0022165775299072,0.0,0.0,0.0,61.121925354003906,5.6190266609191895,2.938988208770752,-11063.189453125,0
533.8240000000005,0.06354352086782455,-0.020302515476942062,0.0005379737704060972,0.0,0.0,0.0,0.0,0.003914430737495422,0.0023535850923508406,0.0005123672308400273,0.9987937808036804,0.0,0.0,0.0,61.0552978515625,5.618142604827881,2.900521993637085,-11051.130859375,0
543.7130000000016,0.06355714052915573,-0.020220205187797546,0.0005514507065527141,0.0,0.0,0.0,0.0,2.3184969904832542e-05,-0.004230181686580181,-0.00184921664185822,0.9988040328025818,0.0,0.0,0.0,61.126338958740234,5.619271755218506,2.916450023651123,-11063.98828125,0
553.5920000000006,0.06352698802947998,-0.020291585475206375,0.0005376082845032215,0.0,0.0,0.0,0.0,-0.0006300218519754708,-0.0002322863438166678,-0.00045538097037933767,1.0002059936523438,0.0,0.0,0.0,61.05544662475586,5.619237422943115,2.9090769290924072,-11051.158203125,0
563.4900000000016,0.06353548914194107,-0.020196475088596344,0.0005645923083648086,0.0,0.0,0.0,0.0,-0.0015465763863176107,-0.0018840959528461099,-0.00018682504014577717,1.000441312789917,0.0,0.0,0.0,61.13182067871094,5.621850967407227,2.926457405090332,-11064.98046875,0
573.3740000000016,0.06339702755212784,-0.020238565281033516,0.0005269377725198865,0.0,0.0,0.0,0.0,-0.0010168681619688869,-0.0017237721476703882,-0.002584021771326661,1.0017030239105225,0.0,0.0,0.0,61.11976623535156,5.634558200836182,2.9178521633148193,-11062.798828125,0
583.2560000000012,0.06351828575134277,-0.020157592371106148,0.000535259023308754,0.0,0.0,0.0,0.0,-0.00299316318705678,1.1082547644036822e-06,0.0010139336809515953,0.9999808669090271,0.0,0.0,0.0,61.139991760253906,5.63628625869751,2.940220355987549,-11066.4599609375,0
593.134,0.06346148997545242,-0.02019379660487175,0.0005247521330602467,0.0,0.0,0.0,0.0,0.0026781796477735043,0.0027412688359618187,0.002602902939543128,0.9990149140357971,0.0,0.0,0.0,61.129615783691406,5.638198375701904,2.9343886375427246,-11064.58203125,0
603.0400000000009,0.06356412917375565,-0.020137621089816093,0.0005529989721253514,0.0,0.0,0.0,0.0,0.0017432828899472952,0.000742653850466013,-0.00011984285083599389,0.9977442622184753,0.0,0.0,0.0,61.14338684082031,5.637521743774414,2.9497270584106445,-11067.07421875,0
612.9050000000007,0.06337753683328629,-0.020146474242210388,0.0005122276488691568,0.0,0.0,0.0,0.0,0.002260322915390134,0.0018802506383508444,0.0006015104008838534,0.9998502135276794,0.0,0.0,0.0,61.13404846191406,5.652514934539795,2.9348626136779785,-11065.384765625,0
622.7980000000007,0.06349890679121017,-0.020096762105822563,0.0004980253288522363,0.0,0.0,0.0,0.0,-0.0011947080492973328,-0.002914885990321636,0.0001962526876013726,0.9995232820510864,0.0,0.0,0.0,61.15072250366211,5.643847465515137,2.9432146549224854,-11068.40234375,0
632.6810000000005,0.06343170255422592,-0.020152945071458817,0.00046422024024650455,0.0,0.0,0.0,0.0,-0.0022835286799818277,0.002218138426542282,4.31334410677664e-05,0.9989372491836548,0.0,0.0,0.0,61.14141082763672,5.635298728942871,2.924488067626953,-11066.716796875,0
642.5690000000013,0.06351323425769806,-0.02012183517217636,0.0004964743857271969,0.0,0.0,0.0,0.0,0.0004188563325442374,0.0008912037592381239,0.0024938140995800495,0.9980843663215637,0.0,0.0,0.0,61.15947723388672,5.639078140258789,2.9362692832946777,-11069.986328125,0
652.4480000000003,0.06339725106954575,-0.020191749557852745,0.0004415112780407071,0.0,0.0,0.0,0.0,-0.000481680704979226,0.0005644659977406263,-0.0006581110064871609,1.000091314315796,0.0,0.0,0.0,61.146549224853516,5.637233257293701,2.913079023361206,-11067.646484375,0
662.3500000000004,0.06347503513097763,-0.020164867863059044,0.0004722478333860636,0.0,0.0,0.0,0.0,0.0009166269446723163,-0.00042299076449126005,-0.001190246781334281,1.0015056133270264,0.0,0.0,0.0,61.16535186767578,5.634454250335693,2.9153614044189453,-11071.0498046875,0
672.219000000001,0.06344388425350189,-0.020191024988889694,0.00046724232379347086,0.0,0.0,0.0,0.0,-0.00039062020368874073,0.0009422896546311677,-0.0005401636008173227,1.0002588033676147,0.0,0.0,0.0,61.152183532714844,5.630218505859375,2.9085865020751953,-11068.666015625,0
682.1170000000002,0.0634872242808342,-0.02023167908191681,0.0005284200888127089,0.0,0.0,0.0,0.0,0.0029901491943746805,0.004939782898873091,0.0024484870955348015,0.9983992576599121,0.0,0.0,0.0,61.171592712402344,5.634819507598877,2.9066567420959473,-11072.1796875,0
691.9900000000016,0.06341730058193207,-0.020257681608200073,0.0005194846889935434,0.0,0.0,0.0,0.0,0.00138036475982517,-0.00042372060124762356,-0.0008962024003267288,0.9991413354873657,0.0,0.0,0.0,61.156494140625,5.628817081451416,2.897035598754883,-11069.4462890625,0
701.8830000000016,0.0635247677564621,-0.02017691731452942,0.0005477078957483172,0.0,0.0,0.0,0.0,-0.0024051277432590723,-0.0003524470084812492,0.0005753915756940842,0.9990442991256714,0.0,0.0,0.0,61.168331146240234,5.6298322677612305,2.9166207313537598,-11071.5888671875,0
711.7610000000004,0.06334827840328217,-0.020192906260490417,0.0005084534059278667,0.0,0.0,0.0,0.0,0.0011743016075342894,-0.0005470729665830731,0.0011335498420521617,1.0004006624221802,0.0,0.0,0.0,61.15410232543945,5.646995544433594,2.907931089401245,-11069.013671875,0
721.652,0.06344380974769592,-0.020154383033514023,0.0005266893422231078,0.0,0.0,0.0,0.0,0.0024131571408361197,0.004942985717207193,0.0025381818413734436,0.9988566040992737,0.0,0.0,0.0,61.17476272583008,5.645432949066162,2.916120767593384,-11072.75390625,0
731.5320000000011,0.06340155005455017,-0.02021169289946556,0.0005092754727229476,0.0,0.0,0.0,0.0,-0.0002285303344251588,0.004314832855015993,0.00420235563069582,0.9981527328491211,0.0,0.0,0.0,61.16621780395508,5.635234832763672,2.898914337158203,-11071.20703125,0
741.4230000000007,0.0634986162185669,-0.020172014832496643,0.0005294893053360283,0.0,0.0,0.0,0.0,-0.0036273447331041098,0.0007721876027062535,-0.0031709517352283,1.0010075569152832,0.0,0.0,0.0,61.18619155883789,5.637780666351318,2.9132583141326904,-11074.822265625,0
751.3040000000001,0.06341242045164108,-0.020227694883942604,0.0004963045357726514,0.0,0.0,0.0,0.0,0.003224964952096343,0.005047059617936611,0.0035146186128258705,1.0008347034454346,0.0,0.0,0.0,61.175472259521484,5.640116214752197,2.8993773460388184,-11072.8818359375,0
761.1930000000011,0.06351277232170105,-0.020191190764307976,0.0005109966150484979,0.0,0.0,0.0,0.0,-0.0021377108059823513,-0.00678606191650033,-0.0010375642450526357,1.0021330118179321,0.0,0.0,0.0,61.18864059448242,5.639023303985596,2.899313449859619,-11075.265625,0
771.0750000000007,0.06339716911315918,-0.020234491676092148,0.0004779467126354575,0.0,0.0,0.0,0.0,-0.002094126073643565,0.0015537369763478637,-0.0003106718941126019,1.0008851289749146,0.0,0.0,0.0,61.17861557006836,5.6433587074279785,2.897183418273926,-11073.4501953125,0
780.969000000001,0.063505619764328,-0.020156575366854668,0.0004995886702090502,0.0,0.0,0.0,0.0,-0.0021632707212120295,0.0065496619790792465,0.001330745406448841,1.0006954669952393,0.0,0.0,0.0,61.19649124145508,5.644598960876465,2.9191040992736816,-11076.6865234375,0
790.8520000000008,0.06336072832345963,-0.020183667540550232,0.00046474733971990645,0.0,0.0,0.0,0.0,0.004520134534686804,0.0008321023196913302,-0.0008829294820316136,1.0021873712539673,0.0,0.0,0.0,61.18426513671875,5.655683517456055,2.8887782096862793,-11074.4736328125,0
800.732,0.06348130106925964,-0.02012067660689354,0.00045333249727264047,0.0,0.0,0.0,0.0,0.000745465571526438,-0.0004345080233179033,-0.0017274051206186414,0.9997366666793823,0.0,0.0,0.0,61.20611572265625,5.649935245513916,2.8990912437438965,-11078.427734375,0
810.6170000000002,0.06345763057470322,-0.020163806155323982,0.00044809692190028727,0.0,0.0,0.0,0.0,0.0006479985313490033,0.001476951059885323,-0.00017639645375311375,0.9994603991508484,0.0,0.0,0.0,61.19379425048828,5.639049530029297,2.901388645172119,-11076.19921875,0
820.5130000000008,0.063523069024086,-0.020162273198366165,0.0004917210317216814,0.0,0.0,0.0,0.0,0.00071229093009606,0.005652169231325388,-0.0006245148833841085,0.9984638690948486,0.0,0.0,0.0,61.21501922607422,5.635695934295654,2.904954671859741,-11080.0400390625,0
830.389000000001,0.06337091326713562,-0.02018045075237751,0.000461707852082327,0.0,0.0,0.0,0.0,-0.0018554507987573743,-0.00755793834105134,0.0005660798051394522,0.9986515045166016,0.0,0.0,0.0,61.201942443847656,5.6476054191589355,2.888672113418579,-11077.673828125,0
840.2890000000007,0.06345736235380173,-0.02014341577887535,0.0004870412521995604,0.0,0.0,0.0,0.0,0.0012436896795406938,0.002335825702175498,-0.002199557377025485,0.9993497729301453,0.0,0.0,0.0,61.22319030761719,5.64555549621582,2.904630184173584,-11081.5185546875,0
850.1620000000003,0.0633549913764,-0.020178701728582382,0.0004634633078239858,0.0,0.0,0.0,0.0,-0.00048623463953845203,-0.009525719098746777,-0.001025950419716537,0.9996346831321716,0.0,0.0,0.0,61.210750579833984,5.654029846191406,2.910205125808716,-11079.267578125,0
860.0560000000005,0.06345319002866745,-0.020113181322813034,0.00048243143828585744,0.0,0.0,0.0,0.0,-0.0007051942520774901,-0.0069282567128539085,-0.0010492394212633371,1.0005711317062378,0.0,0.0,0.0,61.232601165771484,5.648672103881836,2.9270496368408203,-11083.2216796875,0
869.9330000000009,0.06341077387332916,-0.020181754603981972,0.00046179554192349315,0.0,0.0,0.0,0.0,-0.0028495111037045717,0.0007660611881874502,-0.0005957559333182871,1.0012205839157104,0.0,0.0,0.0,61.22160339355469,5.637387752532959,2.9317755699157715,-11081.232421875,0
879.8380000000016,0.06352073699235916,-0.020122939720749855,0.0004592426703311503,0.0,0.0,0.0,0.0,0.0007799876038916409,-0.0017485673306509852,0.0006239590002223849,0.9998632669448853,0.0,0.0,0.0,61.23782730102539,5.637009620666504,2.9573721885681152,-11084.16796875,0
889.710000000001,0.0634114146232605,-0.02018388733267784,0.0004153088666498661,0.0,0.0,0.0,0.0,-0.0011866209097206593,0.0017549045151099563,0.0008230723324231803,1.0000654458999634,0.0,0.0,0.0,61.22712326049805,5.638632297515869,2.939239501953125,-11082.23046875,0
899.5990000000002,0.0635155513882637,-0.020125336945056915,0.00041847588727250695,0.0,0.0,0.0,0.0,0.002333870390430093,0.0012267405400052667,0.00022304871527012438,1.0023444890975952,0.0,0.0,0.0,61.2427864074707,5.635085582733154,2.9565911293029785,-11085.06640625,0
909.478000000001,0.06346901506185532,-0.02015707828104496,0.0004074550815857947,0.0,0.0,0.0,0.0,0.00010415324504720047,0.002711326116696,-0.0014078548410907388,1.0010652542114258,0.0,0.0,0.0,61.2283821105957,5.627946376800537,2.951904296875,-11082.4580078125,0
919.3830000000016,0.0635327622294426,-0.02014586515724659,0.00046009093057364225,0.0,0.0,0.0,0.0,-0.0013980481307953596,0.00285584875382483,-0.00024355683126486838,1.0003468990325928,0.0,0.0,0.0,61.248008728027344,5.624833106994629,2.9524495601654053,-11086.0107421875,0
929.2540000000008,0.06343827396631241,-0.02018381841480732,0.00043532339623197913,0.0,0.0,0.0,0.0,-0.0007979407091625035,0.0023931716568768024,-0.0030233277939260006,1.0006844997406006,0.0,0.0,0.0,61.235511779785156,5.626615524291992,2.9306979179382324,-11083.7490234375,0
939.1500000000015,0.0635235533118248,-0.020138178020715714,0.00047830393305048347,0.0,0.0,0.0,0.0,0.002461730968207121,0.0055756899528205395,-0.004005191847681999,1.0010526180267334,0.0,0.0,0.0,61.248291015625,5.628790378570557,2.933396816253662,-11086.0615234375,0
949.018,0.06339392066001892,-0.020136268809437752,0.000466704077553004,0.0,0.0,0.0,0.0,0.0036772226449102163,-0.0016404388006776571,-0.0005356537294574082,1.0005443096160889,0.0,0.0,0.0,61.233604431152344,5.637667179107666,2.9260971546173096,-11083.4033203125,0
958.9140000000007,0.0634383112192154,-0.02014452964067459,0.00054502347484231,0.0,0.0,0.0,0.0,-0.002302951645106077,0.008650027215480804,-0.0002854911726899445,1.0001451969146729,0.0,0.0,0.0,61.249595642089844,5.633077621459961,2.9053311347961426,-11086.2978515625,0
968.7990000000009,0.06335962563753128,-0.020161375403404236,0.0005463773850351572,0.0,0.0,0.0,0.0,0.0019043468637391925,-0.002897211816161871,0.0038129736203700304,0.9995895624160767,0.0,0.0,0.0,61.232383728027344,5.632014751434326,2.89216685295105,-11083.1826171875,0
978.6959999999999,0.0634172111749649,-0.020172584801912308,0.0006027602939866483,0.0,0.0,0.0,0.0,0.0003356804954819381,-0.0038895527832210064,0.00010796962305903435,0.9989874958992004,0.0,0.0,0.0,61.24462127685547,5.6314778327941895,2.895690441131592,-11085.3974609375,0
988.5600000000013,0.06328419595956802,-0.020218130201101303,0.0005740546621382236,0.0,0.0,0.0,0.0,0.0003801013808697462,0.0004304235044401139,-0.0011992081999778748,1.0000330209732056,0.0,0.0,0.0,61.227874755859375,5.639541149139404,2.8852593898773193,-11082.3662109375,0
998.4570000000003,0.06341416388750076,-0.020112257450819016,0.0005720920744352043,0.0,0.0,0.0,0.0,-0.0022223445121198893,-0.0069588483311235905,0.0031466572545468807,1.0002799034118652,0.0,0.0,0.0,61.240867614746094,5.643435001373291,2.9197490215301514,-11084.71875,0
1008.3330000000005,0.06330663710832596,-0.020165514200925827,0.0005421745590865612,0.0,0.0,0.0,0.0,-0.0018069694051519036,0.0011186099145561457,-0.0008247714140452445,0.9980603456497192,0.0,0.0,0.0,61.223812103271484,5.649375915527344,2.9125924110412598,-11081.630859375,0
1018.2270000000008,0.06337275356054306,-0.02015932835638523,0.00058673822786659,0.0,0.0,0.0,0.0,-0.0036307405680418015,-0.0015831351047381759,-0.0005371840088628232,0.9986681342124939,0.0,0.0,0.0,61.23106384277344,5.650671482086182,2.9227638244628906,-11082.9443359375,0
1028.103000000001,0.0633654072880745,-0.02023918367922306,0.0005791365401819348,0.0,0.0,0.0,0.0,0.0008977276738733053,0.004690396599471569,0.0011652405373752117,0.9989686012268066,0.0,0.0,0.0,61.21234893798828,5.638845920562744,2.921302080154419,-11079.5576171875,0
1037.9950000000008,0.06345134973526001,-0.020188353955745697,0.0006165634258650243,0.0,0.0,0.0,0.0,-0.00017414461763110012,-5.378809873946011e-05,0.000878756633028388,0.9996004700660706,0.0,0.0,0.0,61.2258415222168,5.644468784332275,2.934138774871826,-11081.9990234375,0
1047.875,0.06341418623924255,-0.020241448655724525,0.0006103131454437971,0.0,0.0,0.0,0.0,-0.0012032511876896024,0.0003899188304785639,0.0004088754940312356,1.0007156133651733,0.0,0.0,0.0,61.20657730102539,5.634749412536621,2.931297779083252,-11078.51171875,0
1057.777,0.06349249184131622,-0.020221535116434097,0.0006484463810920715,0.0,0.0,0.0,0.0,-0.0013418265152722597,-7.721449946984649e-05,0.0020792107097804546,0.998820424079895,0.0,0.0,0.0,61.2188720703125,5.631513595581055,2.9397807121276855,-11080.73828125,0
1067.6560000000009,0.06343016773462296,-0.020279252901673317,0.0006348678143694997,0.0,0.0,0.0,0.0,0.0008093825890682638,0.000982570694759488,0.0005910311010666192,0.9991922974586487,0.0,0.0,0.0,61.1999397277832,5.628810882568359,2.9299395084381104,-11077.310546875,0
1077.5439999999999,0.06351825594902039,-0.020236486569046974,0.0006708610453642905,0.0,0.0,0.0,0.0,-0.0005322385113686323,-0.0038134476635605097,0.0010376458521932364,1.0013792514801025,0.0,0.0,0.0,61.208587646484375,5.629113674163818,2.9411487579345703,-11078.8759765625,0
1087.416000000001,0.06343346834182739,-0.0202738419175148,0.0006599450716748834,0.0,0.0,0.0,0.0,-0.0012740440433844924,0.006057157646864653,-0.001414165599271655,1.0010578632354736,0.0,0.0,0.0,61.1945915222168,5.632813930511475,2.92997145652771,-11076.3427734375,0
1097.3100000000013,0.06351619213819504,-0.020244987681508064,0.0007002694183029234,0.0,0.0,0.0,0.0,-0.0007423379574902356,0.0012860188726335764,-0.003555858973413706,0.9998877048492432,0.0,0.0,0.0,61.201812744140625,5.6365275382995605,2.940427541732788,-11077.6494140625,0
1107.188,0.06337084621191025,-0.020297512412071228,0.000665120140183717,0.0,0.0,0.0,0.0,-0.00032039315556176007,-0.0025467423256486654,0.0006439411081373692,0.9989690184593201,0.0,0.0,0.0,61.184776306152344,5.641453266143799,2.9186179637908936,-11074.5654296875,0
1117.0830000000005,0.06350307166576385,-0.02022712118923664,0.0006478017894551158,0.0,0.0,0.0,0.0,0.0011098184622824192,0.0003319108800496906,-0.004167832434177399,0.9989506602287292,0.0,0.0,0.0,61.193702697753906,5.633840084075928,2.9328203201293945,-11076.181640625,0
1126.960000000001,0.06337495148181915,-0.020261866971850395,0.0006193387089297175,0.0,0.0,0.0,0.0,-0.0027350035961717367,0.002182066673412919,0.0018271359149366617,0.9978565573692322,0.0,0.0,0.0,61.17634963989258,5.645132064819336,2.9231460094451904,-11073.0400390625,0
1136.857,0.0635082945227623,-0.020134419202804565,0.0006173904985189438,0.0,0.0,0.0,0.0,0.0033659497275948524,0.0029723176266998053,3.498150181258097e-05,1.0002552270889282,0.0,0.0,0.0,61.187904357910156,5.642101764678955,2.9461240768432617,-11075.1318359375,0
1146.7300000000014,0.06340392678976059,-0.02015026845037937,0.0005976903485134244,0.0,0.0,0.0,0.0,-0.0015424670418724418,0.00022885815997142345,-0.0017258577281609178,0.999793291091919,0.0,0.0,0.0,61.168670654296875,5.652457237243652,2.9312655925750732,-11071.650390625,0
1156.6230000000014,0.06349632143974304,-0.02012048102915287,0.000604294880758971,0.0,0.0,0.0,0.0,0.0014778112526983023,0.0026782499626278877,-0.003968486096709967,1.001869797706604,0.0,0.0,0.0,61.178070068359375,5.648452281951904,2.9414875507354736,-11073.3515625,0
1166.509,0.06336558610200882,-0.02016529068350792,0.0005610499065369368,0.0,0.0,0.0,0.0,0.0023692010436207056,0.004629529081285,-0.0006944465567357838,0.9972114562988281,0.0,0.0,0.0,61.16144561767578,5.651783466339111,2.916261911392212,-11070.3427734375,0
1176.4080000000013,0.0634712278842926,-0.02009708061814308,0.0005623034667223692,0.0,0.0,0.0,0.0,0.002402350539341569,-0.0007112830062396824,0.0015681261429563165,1.0017304420471191,0.0,0.0,0.0,61.17098617553711,5.646919250488281,2.936976909637451,-11072.0703125,0
1186.2720000000008,0.06339047849178314,-0.020173190161585808,0.0005178296705707908,0.0,0.0,0.0,0.0,0.00012654891179408878,-0.0007401287439279258,-0.0003330933686811477,1.002172589302063,0.0,0.0,0.0,61.15343475341797,5.631785869598389,2.9140026569366455,-11068.8935546875,0
1196.174000000001,0.06347731500864029,-0.02015441283583641,0.0005253097042441368,0.0,0.0,0.0,0.0,-0.0020951111800968647,-0.0004942829837091267,0.000921094324439764,1.0020103454589844,0.0,0.0,0.0,61.16050720214844,5.626987934112549,2.9255754947662354,-11070.1728515625,0
1206.0460000000003,0.06335052847862244,-0.02017662301659584,0.0004959834041073918,0.0,0.0,0.0,0.0,-0.0021283735986799,-0.0010213232599198818,-0.003499126061797142,1.0004940032958984,0.0,0.0,0.0,61.14362335205078,5.6330037117004395,2.9151391983032227,-11067.1171875,0
1215.9390000000003,0.06345058232545853,-0.02010497637093067,0.0005139333079569042,0.0,0.0,0.0,0.0,-0.003147513372823596,-0.002289740601554513,0.0002443936245981604,1.0001367330551147,0.0,0.0,0.0,61.14911651611328,5.643891334533691,2.9194297790527344,-11068.111328125,0
1225.8250000000007,0.0633181780576706,-0.020146295428276062,0.00047397916205227375,0.0,0.0,0.0,0.0,0.00029820221243426204,-0.0007297724951058626,-0.0015283740358427167,0.9993109703063965,0.0,0.0,0.0,61.13187026977539,5.64924430847168,2.9081990718841553,-11064.9892578125,0
1235.7080000000005,0.06341387331485748,-0.02009393274784088,0.0004867841489613056,0.0,0.0,0.0,0.0,-0.00108035234734416,-0.004328287672251463,0.0014978433027863503,0.9981863498687744,0.0,0.0,0.0,61.14228439331055,5.648091793060303,2.9162721633911133,-11066.875,0
1245.5840000000007,0.06338153779506683,-0.020125171169638634,0.0004821874899789691,0.0,0.0,0.0,0.0,0.0017398619093000889,0.002305815229192376,0.0003440321597736329,0.999418318271637,0.0,0.0,0.0,61.12849044799805,5.642350196838379,2.9148213863372803,-11064.3779296875,0
1255.4770000000008,0.06345857679843903,-0.020135153084993362,0.0004988493165001273,0.0,0.0,0.0,0.0,-0.0014176296535879374,0.006539505440741777,0.001002216013148427,0.9989693760871887,0.0,0.0,0.0,61.13843536376953,5.637706756591797,2.9217381477355957,-11066.1787109375,0
1265.3550000000014,0.06343244761228561,-0.020185142755508423,0.00048419105587527156,0.0,0.0,0.0,0.0,0.002573959995061159,0.0029855575412511826,-0.0002596045087557286,1.00019109249115,0.0,0.0,0.0,61.11920166015625,5.625913143157959,2.9046030044555664,-11062.6962890625,0
1275.255000000001,0.06348258256912231,-0.020198684185743332,0.0005424265400506556,0.0,0.0,0.0,0.0,-0.001368537894450128,0.001710682176053524,0.00012375795631669462,1.0007212162017822,0.0,0.0,0.0,61.12540054321289,5.6256866455078125,2.8983728885650635,-11063.818359375,0
1285.1290000000008,0.06342824548482895,-0.020229823887348175,0.0005348716513253748,0.0,0.0,0.0,0.0,-0.002303631044924259,0.003717966377735138,0.0007104364922270179,1.0019947290420532,0.0,0.0,0.0,61.1074333190918,5.615785598754883,2.8828461170196533,-11060.56640625,0
1295.0250000000015,0.0635240375995636,-0.020182980224490166,0.0005594136309809983,0.0,0.0,0.0,0.0,0.001142185996286571,-0.0032542943954467773,-0.003578015137463808,1.0022207498550415,0.0,0.0,0.0,61.12054443359375,5.614483833312988,2.8762495517730713,-11062.9404296875,0
1304.8970000000008,0.06338076293468475,-0.02018439769744873,0.0005423572147265077,0.0,0.0,0.0,0.0,-0.003031643573194742,-0.0029551133047789335,0.000635751464869827,0.9982120990753174,0.0,0.0,0.0,61.10308837890625,5.626914024353027,2.868990659713745,-11059.7802734375,0
1314.800000000001,0.06343593448400497,-0.020178552716970444,0.0006065398338250816,0.0,0.0,0.0,0.0,-0.0006123327766545117,0.003693171078339219,-0.0005788018461316824,0.9994211196899414,0.0,0.0,0.0,61.11521911621094,5.631877899169922,2.874454975128174,-11061.9755859375,0
1324.6680000000015,0.06327957659959793,-0.020203134045004845,0.0005791933508589864,0.0,0.0,0.0,0.0,0.0004149950109422207,0.0066243973560631275,0.003387397387996316,1.0015983581542969,0.0,0.0,0.0,61.098968505859375,5.649046897888184,2.857851028442383,-11059.0341796875,0
1334.567000000001,0.06336342543363571,-0.020178651437163353,0.0006081686588004231,0.0,0.0,0.0,0.0,-0.002963680773973465,0.0008733008871786296,-0.0011171128135174513,0.999144971370697,0.0,0.0,0.0,61.1068115234375,5.645543575286865,2.85686993598938,-11060.4541015625,0
1344.4430000000011,0.063306525349617,-0.020209960639476776,0.0006094179698266089,0.0,0.0,0.0,0.0,0.002974902745336294,0.0005455923965200782,0.002546586561948061,1.000535011291504,0.0,0.0,0.0,61.092071533203125,5.6428704261779785,2.847532033920288,-11057.787109375,0
1354.3400000000001,0.0634201318025589,-0.020145390182733536,0.0006166636594571173,0.0,0.0,0.0,0.0,0.00036014895886182785,0.004990192595869303,0.00048146277549676597,1.0013577938079834,0.0,0.0,0.0,61.105499267578125,5.641211032867432,2.8636109828948975,-11060.216796875,0
1364.2110000000011,0.06329331547021866,-0.020187707617878914,0.0005917140515521169,0.0,0.0,0.0,0.0,-0.005472103599458933,-0.0023070345632731915,-0.001124926726333797,0.9988834857940674,0.0,0.0,0.0,61.09180450439453,5.639402866363525,2.8536248207092285,-11057.73828125,0
1374.107,0.06342048197984695,-0.020100077614188194,0.000586857961025089,0.0,0.0,0.0,0.0,0.0034186639823019505,-0.003502732375636697,-0.0009626677492633462,1.0002098083496094,0.0,0.0,0.0,61.10525894165039,5.635655879974365,2.8557045459747314,-11060.173828125,0
1383.982,0.0633339062333107,-0.020167386159300804,0.0005583810270763934,0.0,0.0,0.0,0.0,-0.0022741504944860935,-0.0014869016595184803,-0.0013928198022767901,0.9982627034187317,0.0,0.0,0.0,61.089317321777344,5.634198188781738,2.835324287414551,-11057.2880859375,0
1393.8720000000012,0.06345027685165405,-0.020094551146030426,0.000564441317692399,0.0,0.0,0.0,0.0,-0.003104201517999172,0.001649484853260219,0.0013917423784732819,0.9978876709938049,0.0,0.0,0.0,61.10137939453125,5.629970073699951,2.8690192699432373,-11059.470703125,0
1403.7570000000014,0.0633830577135086,-0.020196635276079178,0.0005203309701755643,0.0,0.0,0.0,0.0,0.000634035503026098,0.002739284187555313,0.0006753922789357603,0.9983301162719727,0.0,0.0,0.0,61.085384368896484,5.621485710144043,2.845754623413086,-11056.576171875,0
1413.6450000000004,0.06345367431640625,-0.020194631069898605,0.0005601346492767334,0.0,0.0,0.0,0.0,0.0016323697054758668,0.0017382209189236164,0.0015581896295771003,1.0000476837158203,0.0,0.0,0.0,61.096412658691406,5.622506141662598,2.8494246006011963,-11058.572265625,0
1423.5250000000015,0.06338221579790115,-0.020244920626282692,0.0005402956157922745,0.0,0.0,0.0,0.0,0.0031374930404126644,-0.0037822567392140627,0.0008811963489279151,1.000853180885315,0.0,0.0,0.0,61.08256912231445,5.618083477020264,2.8506252765655518,-11056.06640625,0
1433.4210000000003,0.0634901151061058,-0.020190902054309845,0.0005516987876035273,0.0,0.0,0.0,0.0,-0.002044759225100279,0.0016722327563911676,-0.0017189107602462173,1.0004979372024536,0.0,0.0,0.0,61.09748840332031,5.613358020782471,2.8649563789367676,-11058.7666015625,0
1443.2970000000005,0.06338091939687729,-0.020231451839208603,0.0005248902598395944,0.0,0.0,0.0,0.0,0.0007442504283972085,0.0015161657938733697,0.002659505233168602,0.9993297457695007,0.0,0.0,0.0,61.08287811279297,5.612056255340576,2.8573873043060303,-11056.1220703125,0
1453.1890000000003,0.06348630785942078,-0.020199526101350784,0.0005268924287520349,0.0,0.0,0.0,0.0,-0.001971462508663535,-0.0032848904374986887,-0.0010851601837202907,0.9989702105522156,0.0,0.0,0.0,61.09217834472656,5.613961219787598,2.870642900466919,-11057.8056640625,0
1463.0680000000011,0.06338536739349365,-0.020237334072589874,0.0005033694906160235,0.0,0.0,0.0,0.0,-0.0007240267586894333,-0.00420023500919342,0.0020180789288133383,1.001505970954895,0.0,0.0,0.0,61.07837677001953,5.611721992492676,2.8691160678863525,-11055.30859375,0
1472.955,0.06348315626382828,-0.020186251029372215,0.0005229074158705771,0.0,0.0,0.0,0.0,0.00014283678319770843,0.0011682031909003854,-0.00019698818505275995,0.9999665021896362,0.0,0.0,0.0,61.08818435668945,5.618592262268066,2.8975443840026855,-11057.0830078125,0
1482.8380000000016,0.06334231793880463,-0.020205596461892128,0.0004975000629201531,0.0,0.0,0.0,0.0,-0.0009452617960050702,-0.002615445526316762,-0.001025588484480977,1.0000550746917725,0.0,0.0,0.0,61.07370376586914,5.6313323974609375,2.900171995162964,-11054.4619140625,0
1492.7260000000006,0.06344721466302872,-0.020169245079159737,0.0004949021385982633,0.0,0.0,0.0,0.0,-0.0010131540475413203,-0.001897393143735826,-0.0005481956177391112,0.9989009499549866,0.0,0.0,0.0,61.08259201049805,5.625771522521973,2.9168992042541504,-11056.0703125,0
1502.6130000000012,0.06339260935783386,-0.02022058516740799,0.0004807837540283799,0.0,0.0,0.0,0.0,-0.0024864214938133955,-0.0005235346616245806,-6.40607186142006e-06,0.9999011754989624,0.0,0.0,0.0,61.069297790527344,5.621706962585449,2.9136276245117188,-11053.6640625,0
1512.5060000000012,0.06344827264547348,-0.02022401988506317,0.000533393700607121,0.0,0.0,0.0,0.0,-0.0002923707361333072,0.0010326462797820568,0.0032745476346462965,1.0010191202163696,0.0,0.0,0.0,61.08006286621094,5.6350860595703125,2.920491933822632,-11055.6123046875,0
1522.3920000000016,0.06335797905921936,-0.02026582509279251,0.0005200551822781563,0.0,0.0,0.0,0.0,-0.0018998471787199378,0.002352832816541195,-0.0010702544823288918,1.000983715057373,0.0,0.0,0.0,61.065460205078125,5.632280349731445,2.9060866832733154,-11052.9697265625,0
1532.268,0.06347542256116867,-0.020182425156235695,0.0005221500177867711,0.0,0.0,0.0,0.0,0.0029633406084030867,0.0034355276729911566,0.0012623413931578398,1.000940203666687,0.0,0.0,0.0,61.07845687866211,5.63807487487793,2.9340028762817383,-11055.322265625,0
1542.1530000000002,0.06332947313785553,-0.020207645371556282,0.0004959547659382224,0.0,0.0,0.0,0.0,-0.002987962681800127,0.0026820492930710316,0.0033614560961723328,1.000685691833496,0.0,0.0,0.0,61.06208038330078,5.646289348602295,2.920164108276367,-11052.357421875,0
1552.0400000000009,0.06342396140098572,-0.02015921100974083,0.0005130583303980529,0.0,0.0,0.0,0.0,-0.0003966682415921241,-0.0007112439488992095,0.0004629471804946661,0.9988481402397156,0.0,0.0,0.0,61.07449722290039,5.644224166870117,2.927255392074585,-11054.6064453125,0
1561.9270000000015,0.06336508691310883,-0.020223606377840042,0.0004960578517057002,0.0,0.0,0.0,0.0,0.00023222211166284978,0.002540383255109191,0.0008570753270760179,0.9975167512893677,0.0,0.0,0.0,61.057884216308594,5.63825798034668,2.9154703617095947,-11051.5986328125,0
1571.8200000000015,0.06350177526473999,-0.020135942846536636,0.0004744626930914819,0.0,0.0,0.0,0.0,0.0002144277677871287,-0.0032325892243534327,0.002295283367857337,0.9980549812316895,0.0,0.0,0.0,61.06803512573242,5.632959365844727,2.933995008468628,-11053.435546875,0
1581.6940000000013,0.0634375661611557,-0.020182160660624504,0.00045659084571525455,0.0,0.0,0.0,0.0,-0.000810555531643331,0.000874662830028683,-0.0042485943995416164,0.9989262819290161,0.0,0.0,0.0,61.052345275878906,5.622714519500732,2.9342782497406006,-11050.5966796875,0
1591.5910000000003,0.06354935467243195,-0.02013360522687435,0.0004516994231380522,0.0,0.0,0.0,0.0,-0.0006241619703359902,-0.0024098569992929697,0.0004503065429162234,0.9990909099578857,0.0,0.0,0.0,61.06136703491211,5.62427282333374,2.9442036151885986,-11052.228515625,0
1601.4650000000001,0.06346530467271805,-0.020160457119345665,0.00043229517177678645,0.0,0.0,0.0,0.0,-0.0022779321298003197,-0.0021466994658112526,-0.0001779494050424546,0.9994623064994812,0.0,0.0,0.0,61.0445442199707,5.623195171356201,2.934731960296631,-11049.1845703125,0
1611.3590000000004,0.06354469805955887,-0.020123392343521118,0.00046790370834060013,0.0,0.0,0.0,0.0,0.002146137412637472,0.0004801700997631997,-0.00040906897629611194,1.0004417896270752,0.0,0.0,0.0,61.0592155456543,5.6253275871276855,2.9412729740142822,-11051.8388671875,0
1621.237000000001,0.06341367959976196,-0.02012196183204651,0.00044957108912058175,0.0,0.0,0.0,0.0,0.0007574621704407036,-0.0016316300025209785,0.004081828985363245,0.997409999370575,0.0,0.0,0.0,61.04301071166992,5.628125190734863,2.940925359725952,-11048.90625,0
1631.1290000000008,0.06344952434301376,-0.02014773152768612,0.0005213694530539215,0.0,0.0,0.0,0.0,-0.0013693562941625714,0.0014323489740490913,0.0003276175120845437,0.9987465143203735,0.0,0.0,0.0,61.06014633178711,5.631496906280518,2.951396942138672,-11052.0087890625,0
1641.0080000000016,0.0633879229426384,-0.020170867443084717,0.0005175037076696754,0.0,0.0,0.0,0.0,-0.0016575695481151342,-0.002267891075462103,-0.0017092687776312232,0.998871386051178,0.0,0.0,0.0,61.04597854614258,5.622445106506348,2.935060977935791,-11049.4443359375,0
1650.893,0.06345177441835403,-0.020185619592666626,0.0005625986377708614,0.0,0.0,0.0,0.0,-0.001486951019614935,-0.00039731833385303617,-0.0013186716241762042,0.9981563091278076,0.0,0.0,0.0,61.06077575683594,5.629569053649902,2.940365791320801,-11052.12109375,0
1660.7790000000005,0.06336604058742523,-0.020245429128408432,0.0005356946494430304,0.0,0.0,0.0,0.0,-0.00024574276176281273,-0.0013482813956215978,0.002389879198744893,0.999448835849762,0.0,0.0,0.0,61.047176361083984,5.626758098602295,2.9287703037261963,-11049.66015625,0
1670.6650000000009,0.06347642093896866,-0.020188264548778534,0.0005445447750389576,0.0,0.0,0.0,0.0,-0.0019640678074210882,-0.0039394935593008995,0.0008028732263483107,0.9984054565429688,0.0,0.0,0.0,61.06149673461914,5.629688739776611,2.9599454402923584,-11052.251953125,0
1680.5510000000013,0.06339649856090546,-0.020239312201738358,0.0005206859786994755,0.0,0.0,0.0,0.0,0.0005086827441118658,0.0002898859675042331,-0.00026599434204399586,0.9969139099121094,0.0,0.0,0.0,61.05050277709961,5.632822036743164,2.9553887844085693,-11050.26171875,0
1690.437,0.06348259001970291,-0.020295018330216408,0.0005146043840795755,0.0,0.0,0.0,0.0,-6.096474317018874e-05,0.0036501579452306032,0.0014518076786771417,0.9989379644393921,0.0,0.0,0.0,60.992740631103516,5.625013828277588,2.9508845806121826,-11039.8076171875,0
1700.321,0.06358946859836578,-0.02022869512438774,0.0005278899916447699,0.0,0.0,0.0,0.0,0.0021533146500587463,0.0009465092443861067,7.238399848574772e-05,1.0008682012557983,0.0,0.0,0.0,61.00831985473633,5.627180099487305,2.9613442420959473,-11042.626953125,0
1710.2090000000007,0.06367737799882889,-0.020281977951526642,0.0005205919733271003,0.0,0.0,0.0,0.0,0.0014943423448130488,-0.0026156739331781864,0.0012112414697185159,0.9993113279342651,0.0,0.0,0.0,60.95038604736328,5.625422477722168,2.954099655151367,-11032.140625,0
1720.0920000000006,0.0637519583106041,-0.020235905423760414,0.0005655569839291275,0.0,0.0,0.0,0.0,-0.0021466000471264124,-0.003987018018960953,0.004226189572364092,0.9998531937599182,0.0,0.0,0.0,60.969093322753906,5.631928443908691,2.975363254547119,-11035.52734375,0
1729.9810000000016,0.06383834779262543,-0.020283011719584465,0.0005625085905194283,0.0,0.0,0.0,0.0,0.00195930153131485,0.003953143954277039,-0.0017281514592468739,0.9996310472488403,0.0,0.0,0.0,60.91322326660156,5.631133079528809,2.9820187091827393,-11025.4150390625,0
1739.8640000000014,0.06388038396835327,-0.02026960998773575,0.000641221646219492,0.0,0.0,0.0,0.0,-0.00017026705609168857,-0.003116231644526124,0.0041861766949296,1.0006569623947144,0.0,0.0,0.0,60.930904388427734,5.645446300506592,2.980032205581665,-11028.615234375,0
1749.7520000000004,0.06391735374927521,-0.020245522260665894,0.0007261261926032603,0.0,0.0,0.0,0.0,0.0005430211313068867,0.0028335987590253353,-0.0004223297000862658,0.9972984790802002,0.0,0.0,0.0,60.952056884765625,5.663801193237305,2.9884519577026367,-11032.443359375,0
1759.6460000000006,0.06399409472942352,-0.02028748020529747,0.0007349600200541317,0.0,0.0,0.0,0.0,0.00039337528869509697,-0.0002945403684861958,3.981841655331664e-05,0.9995620250701904,0.0,0.0,0.0,60.89445877075195,5.66739559173584,2.9827582836151123,-11022.01953125,0
1769.5210000000006,0.0639914721250534,-0.02035025879740715,0.00083498953608796,0.0,0.0,0.0,0.0,0.00127242726739496,0.00064672133885324,0.0011008268920704722,1.0005419254302979,0.0,0.0,0.0,60.91753005981445,5.689376354217529,2.95200514793396,-11026.1943359375,0
1779.4060000000009,0.06405972689390182,-0.020394569262862206,0.000849082600325346,0.0,0.0,0.0,0.0,-0.0015690437285229564,-0.0018803239800035954,-0.0011645350605249405,1.000779628753662,0.0,0.0,0.0,60.85889434814453,5.683204650878906,2.93825101852417,-11015.5810546875,0
1789.2930000000015,0.0640653669834137,-0.02039433643221855,0.0009486846392974257,0.0,0.0,0.0,0.0,-0.0022097784094512463,0.0015403840225189924,0.004131963010877371,0.999369740486145,0.0,0.0,0.0,60.885196685791016,5.708581924438477,2.930929183959961,-11020.3427734375,0
1799.1770000000015,0.06412554532289505,-0.02043728716671467,0.0009705954580567777,0.0,0.0,0.0,0.0,-0.002169752726331353,0.0001496827753726393,0.0017986181192100048,0.9985098242759705,0.0,0.0,0.0,60.82732009887695,5.708279132843018,2.9278900623321533,-11009.8662109375,0
1809.0650000000005,0.06412634253501892,-0.020462213084101677,0.0010599334491416812,0.0,0.0,0.0,0.0,0.0010633886558935046,0.0048597464337944984,-0.0019585422705858946,0.9981997609138489,0.0,0.0,0.0,60.860382080078125,5.720660209655762,2.9160497188568115,-11015.8505859375,0
1818.9480000000003,0.06417974829673767,-0.020504578948020935,0.0010856753215193748,0.0,0.0,0.0,0.0,-0.0006715503404848278,-0.00477837398648262,-7.07774015609175e-05,0.997761070728302,0.0,0.0,0.0,60.80322265625,5.721304893493652,2.896035671234131,-11005.5048828125,0
1828.8360000000011,0.06420108675956726,-0.02049022726714611,0.001164246117696166,0.0,0.0,0.0,0.0,-0.0013478384353220463,-0.00623836787417531,-0.000524667208082974,0.9999908804893494,0.0,0.0,0.0,60.8382453918457,5.729989528656006,2.9165711402893066,-11011.84375,0
1838.7220000000016,0.06425011157989502,-0.020528966560959816,0.0011911737965419888,0.0,0.0,0.0,0.0,0.0011522650020197034,0.0029202443547546864,0.0001143204644904472,0.999993085861206,0.0,0.0,0.0,60.7794189453125,5.7275261878967285,2.917588472366333,-11001.1962890625,0
1848.6060000000016,0.06429307907819748,-0.02049020491540432,0.0012614650186151266,0.0,0.0,0.0,0.0,-0.00012747336586471647,-0.012410551309585571,-0.002794091822579503,0.9993683099746704,0.0,0.0,0.0,60.81312561035156,5.739012718200684,2.95699143409729,-11007.296875,0
1858.4900000000016,0.06434085220098495,-0.02052474580705166,0.0012912014499306679,0.0,0.0,0.0,0.0,-0.0018525630002841353,0.001839236356317997,0.0005552254151552916,0.9997866153717041,0.0,0.0,0.0,60.75482940673828,5.735401630401611,2.9584012031555176,-10996.7451171875,0
1868.380000000001,0.06440826505422592,-0.02046392671763897,0.0013524028472602367,0.0,0.0,0.0,0.0,-0.00012012437218800187,0.0059582325629889965,-0.0014370182761922479,0.9995601773262024,0.0,0.0,0.0,60.79671096801758,5.7468791007995605,3.0109572410583496,-11004.326171875,0
1878.2660000000014,0.06445908546447754,-0.020491115748882294,0.0013834221754223108,0.0,0.0,0.0,0.0,0.0008687324589118361,-8.42649897094816e-05,-0.00011856064520543441,0.9999544024467468,0.0,0.0,0.0,60.73849868774414,5.746227264404297,2.994241237640381,-10993.7880859375,0
1888.1550000000007,0.06450989842414856,-0.020519960671663284,0.0014144065789878368,0.0,0.0,0.0,0.0,-0.0014510692562907934,-0.0025278786197304726,-0.001910326536744833,1.0013889074325562,0.0,0.0,0.0,60.679588317871094,5.743410110473633,2.991154909133911,-10983.1259765625,0
1898.0350000000017,0.06456134468317032,-0.02054866962134838,0.0014460361562669277,0.0,0.0,0.0,0.0,-0.0012649454874917865,0.006679239682853222,0.0023571469355374575,1.0002658367156982,0.0,0.0,0.0,60.62177658081055,5.739775657653809,2.979482650756836,-10972.662109375,0
1907.9210000000003,0.06461364030838013,-0.02057602070271969,0.0014786721440032125,0.0,0.0,0.0,0.0,0.0009713416220620275,-0.0024220403283834457,-0.0005480877007357776,1.0000005960464478,0.0,0.0,0.0,60.56394577026367,5.732780933380127,2.958367109298706,-10962.1943359375,0
1917.808000000001,0.06466637551784515,-0.0206032432615757,0.0015118794981390238,0.0,0.0,0.0,0.0,0.004296087194234133,0.0020412213634699583,-0.001863807556219399,0.9999064207077026,0.0,0.0,0.0,60.505802154541016,5.734768390655518,2.9412124156951904,-10951.6708984375,0
1927.6940000000013,0.06471902877092361,-0.0206307340413332,0.001545343198813498,0.0,0.0,0.0,0.0,-0.0005674795829690993,-0.007438632193952799,-0.0016621012473478913,0.9995646476745605,0.0,0.0,0.0,60.44792175292969,5.729964733123779,2.9384264945983887,-10941.1943359375,0
1937.5820000000003,0.06338425725698471,-0.020235341042280197,0.00070152897387743,0.0,0.0,0.0,0.0,-0.0021766710560768843,-0.0029851659201085567,-0.007009247317910194,0.9987993240356445,0.0,0.0,0.0,60.47401428222656,5.938121318817139,2.8987340927124023,-10945.9169921875,0
1947.4650000000001,0.06337770074605942,-0.02024456299841404,0.0007022639620117843,0.0,0.0,0.0,0.0,0.0004657738609239459,-0.0011834920151159167,0.00034419287112541497,0.9981369376182556,0.0,0.0,0.0,60.41621017456055,5.941924571990967,2.9215614795684814,-10935.4541015625,0
1957.3690000000006,0.06329360604286194,-0.020305326208472252,0.0006771287298761308,0.0,0.0,0.0,0.0,0.0008118491969071329,0.0023656333796679974,-0.0027440618723630905,0.9986127018928528,0.0,0.0,0.0,60.4482421875,5.923849582672119,2.9091899394989014,-10941.251953125,0
1967.232,0.06328796595335007,-0.020317962393164635,0.0006737910443916917,0.0,0.0,0.0,0.0,-0.0017081133555620909,0.0023094855714589357,6.544239295180887e-05,0.9984668493270874,0.0,0.0,0.0,60.391109466552734,5.917750835418701,2.9083447456359863,-10930.9111328125,0
1977.1280000000006,0.06323158740997314,-0.02033230848610401,0.0006751266191713512,0.0,0.0,0.0,0.0,0.001200004480779171,-0.004740302916616201,-0.0030663073994219303,1.0006508827209473,0.0,0.0,0.0,60.422828674316406,5.897631645202637,2.894202470779419,-10936.65234375,0
1987.0040000000008,0.06322918832302094,-0.020347805693745613,0.0006700217491015792,0.0,0.0,0.0,0.0,-0.0033200224861502647,0.0008184332400560379,0.0007058377377688885,1.0023075342178345,0.0,0.0,0.0,60.364784240722656,5.895797252655029,2.9024832248687744,-10926.146484375,0
1996.8960000000006,0.06328567862510681,-0.02036340907216072,0.0006737251533195376,0.0,0.0,0.0,0.0,0.0016554584726691246,0.0062586297281086445,-0.0037895790301263332,1.000252604484558,0.0,0.0,0.0,60.396629333496094,5.8694071769714355,2.9250333309173584,-10931.91015625,0
2006.7790000000005,0.06328792124986649,-0.020382309332489967,0.000672380265314132,0.0,0.0,0.0,0.0,0.0017349055269733071,-1.657720531511586e-05,0.0017046097200363874,0.998706042766571,0.0,0.0,0.0,60.338722229003906,5.8735551834106445,2.9022982120513916,-10921.4287109375,0
2016.6710000000003,0.06328388303518295,-0.020398160442709923,0.0006703035323880613,0.0,0.0,0.0,0.0,1.1413400898163673e-05,0.0035416309256106615,-8.979286212706938e-05,0.9980231523513794,0.0,0.0,0.0,60.37227249145508,5.853019714355469,2.9105937480926514,-10927.501953125,0
2026.5470000000005,0.06328669935464859,-0.02041899599134922,0.0006691032322123647,0.0,0.0,0.0,0.0,-9.129664249485359e-05,-0.005208802409470081,-0.00016251494525931776,1.0004485845565796,0.0,0.0,0.0,60.31430435180664,5.845324993133545,2.8980681896209717,-10917.009765625,0
2036.4390000000003,0.06330115348100662,-0.020423317328095436,0.0006754908245056868,0.0,0.0,0.0,0.0,8.802689262665808e-05,-3.130072582280263e-05,-0.0011865856358781457,0.9991146922111511,0.0,0.0,0.0,60.34638595581055,5.831808090209961,2.922828197479248,-10922.81640625,0
2046.3180000000011,0.06330421566963196,-0.02044575661420822,0.0006748424493707716,0.0,0.0,0.0,0.0,-0.00010626491712173447,-0.004393159877508879,0.0004003393405582756,1.0005433559417725,0.0,0.0,0.0,60.28948974609375,5.823774337768555,2.919400930404663,-10912.517578125,0
2056.2120000000014,0.06331416964530945,-0.020448630675673485,0.0006768652237951756,0.0,0.0,0.0,0.0,-0.0018151572439819574,7.230981282191351e-05,0.0003774449578486383,1.0008937120437622,0.0,0.0,0.0,60.32661819458008,5.815069675445557,2.9301319122314453,-10919.2392578125,0
2066.098,0.0633181482553482,-0.020473316311836243,0.0006773641216568649,0.0,0.0,0.0,0.0,-0.00013819467858411372,-0.0029625215101987123,-0.0010533658787608147,1.0023714303970337,0.0,0.0,0.0,60.268070220947266,5.811782360076904,2.9303133487701416,-10908.6396484375,0
2075.9810000000016,0.06334546953439713,-0.020478133112192154,0.0006803935975767672,0.0,0.0,0.0,0.0,-0.0028745366726070642,-0.0022758871782571077,-0.0011671308893710375,1.0005948543548584,0.0,0.0,0.0,60.30325698852539,5.798863410949707,2.94815993309021,-10915.009765625,0
2085.8600000000006,0.06335070729255676,-0.020502261817455292,0.0006851110956631601,0.0,0.0,0.0,0.0,0.0032789797987788916,0.0005339583731256425,-0.0008500453550368547,1.000120759010315,0.0,0.0,0.0,60.24630355834961,5.797558784484863,2.9510629177093506,-10904.7001953125,0
2095.754000000001,0.063361756503582,-0.02046263962984085,0.0007061460055410862,0.0,0.0,0.0,0.0,-0.0046120695769786835,-0.008899669162929058,0.00239595421589911,1.000187873840332,0.0,0.0,0.0,60.28192138671875,5.810481071472168,2.9579973220825195,-10911.1474609375,0
2105.631000000001,0.06336915493011475,-0.020481839776039124,0.0007150967139750719,0.0,0.0,0.0,0.0,0.000559045874979347,0.006003353279083967,-0.0028846911154687405,1.0000402927398682,0.0,0.0,0.0,60.223876953125,5.8081278800964355,2.9667999744415283,-10900.6416015625,0
2115.527,0.06335785984992981,-0.02045169472694397,0.0007172932964749634,0.0,0.0,0.0,0.0,0.0023000119253993034,0.0041016084142029285,-0.00021920655854046345,1.0001025199890137,0.0,0.0,0.0,60.26374435424805,5.8290486335754395,2.988506317138672,-10907.8564453125,0
2125.4030000000002,0.06348428875207901,-0.020218253135681152,0.00044177481322549284,0.0,0.0,0.0,0.0,-0.0030122704338282347,-0.004031541291624308,0.0013324912870302796,0.9991071820259094,0.0,0.0,0.0,60.3343620300293,5.8304314613342285,3.0308220386505127,-10920.6396484375,0
2135.291000000001,0.06328625231981277,-0.02019408904016018,0.0004353259864728898,0.0,0.0,0.0,0.0,2.243890230602119e-05,-0.0013235661899670959,0.0010761563898995519,1.0009046792984009,0.0,0.0,0.0,60.362709045410156,5.824617862701416,3.0383899211883545,-10925.771484375,0
2145.1730000000007,0.06333859264850616,-0.020062711089849472,0.0004064204986207187,0.0,0.0,0.0,0.0,-0.0015136705478653312,-0.0021938905119895935,0.0005889400490559638,1.000744342803955,0.0,0.0,0.0,60.431297302246094,5.82483434677124,3.060321569442749,-10938.185546875,0
2155.067000000001,0.0633244439959526,-0.02009745128452778,0.00043945122160948813,0.0,0.0,0.0,0.0,-0.0010756818810477853,-0.001118817483074963,-7.96006788732484e-05,0.9987131357192993,0.0,0.0,0.0,60.453521728515625,5.8019633293151855,3.0740160942077637,-10942.2080078125,0
2164.9440000000013,0.06334811449050903,-0.02002183347940445,0.00046964638750068843,0.0,0.0,0.0,0.0,-0.004340762738138437,0.005662451032549143,0.0019739274866878986,1.0001130104064941,0.0,0.0,0.0,60.507503509521484,5.802389621734619,3.0854332447052,-10951.978515625,0
2174.8380000000016,0.06333034485578537,-0.020110419020056725,0.00046155054587870836,0.0,0.0,0.0,0.0,-0.0024412355851382017,-0.0005259766476228833,-0.0006297393701970577,1.0017861127853394,0.0,0.0,0.0,60.5278434753418,5.779933929443359,3.073132276535034,-10955.66015625,0
2184.7270000000008,0.06334862858057022,-0.020063303411006927,0.0004919294151477516,0.0,0.0,0.0,0.0,0.0014735974837094545,-0.0010128719732165337,-0.006318767089396715,1.0005751848220825,0.0,0.0,0.0,60.58273696899414,5.781744480133057,3.0770580768585205,-10965.595703125,0
2194.6180000000004,0.06329786777496338,-0.020098602399230003,0.0004981360398232937,0.0,0.0,0.0,0.0,0.0013266914756968617,0.0015858339611440897,0.0018809093162417412,0.9990848302841187,0.0,0.0,0.0,60.59580993652344,5.7654500007629395,3.080605983734131,-10967.962890625,0
2204.488000000001,0.0633411779999733,-0.020025955513119698,0.0005151250516064465,0.0,0.0,0.0,0.0,0.0012792102061212063,-0.005261569749563932,-0.001593284192495048,0.9990662932395935,0.0,0.0,0.0,60.645042419433594,5.757282257080078,3.0824134349823,-10976.873046875,0
2214.3820000000014,0.06327832490205765,-0.020107833668589592,0.0004947068518958986,0.0,0.0,0.0,0.0,0.0020837681367993355,-0.001487265108153224,0.0014841568190604448,0.9998169541358948,0.0,0.0,0.0,60.6527099609375,5.741428375244141,3.0707976818084717,-10978.2607421875,0
