timestamp,stateEstimate.x,stateEstimate.y,stateEstimate.z,controller.cmd_thrust,controller.cmd_roll,controller.cmd_pitch,controller.cmd_yaw,controller.r_roll,controller.r_pitch,controller.r_yaw,controller.accelz,controller.actuatorThrust,controller.roll,controller.pitch,controller.yaw,controller.rollRate,controller.pitchRate,controller.yawRate,controller.ctr_yaw
0.0,0.1001315787434578,-0.03604917600750923,0.04929941147565842,0.0,0.0,0.0,0.0,-0.002814411884173751,-0.0028396279085427523,0.0012489057844504714,0.9981358647346497,0.0,0.0,0.0,40.996795654296875,9.633258819580078,2.683668851852417,-7420.50146484375,0
9.884000000000015,0.10057191550731659,-0.03629899397492409,0.049505431205034256,0.0,0.0,0.0,0.0,0.0006961846956983209,0.00011913858907064423,0.0019331587245687842,0.9980056881904602,0.0,0.0,0.0,40.95720672607422,9.635231018066406,2.6851673126220703,-7413.33544921875,0
19.77599999999984,0.10101591795682907,-0.036553941667079926,0.049710534512996674,0.0,0.0,0.0,0.0,0.0009339933167211711,0.0020094180945307016,-0.0026033008471131325,0.9990521669387817,0.0,0.0,0.0,40.918426513671875,9.626651763916016,2.681187391281128,-7406.3173828125,0
29.661000000000058,0.10146312415599823,-0.036812178790569305,0.04991418495774269,0.0,0.0,0.0,0.0,0.0006934897974133492,0.00017186770855914801,0.0021846205927431583,0.9986846446990967,0.0,0.0,0.0,40.87836837768555,9.618406295776367,2.6773831844329834,-7399.06591796875,0
39.542999999999665,0.10191319137811661,-0.03707292675971985,0.05011691898107529,0.0,0.0,0.0,0.0,-0.0030297122430056334,0.0034150145947933197,-0.0021251714788377285,0.997736930847168,0.0,0.0,0.0,40.837772369384766,9.6153564453125,2.664649724960327,-7391.7177734375,0
49.4369999999999,0.10236595571041107,-0.03733682632446289,0.050318941473960876,0.0,0.0,0.0,0.0,-0.003860289929434657,-0.004813428036868572,0.001413462683558464,0.9981291890144348,0.0,0.0,0.0,40.79752731323242,9.60528564453125,2.6495206356048584,-7384.43310546875,0
59.3130000000001,0.09280908852815628,-0.031116094440221786,0.04703843966126442,0.0,0.0,0.0,0.0,0.002276020124554634,-0.0027289765421301126,7.167257717810571e-05,0.998403787612915,0.0,0.0,0.0,41.27800369262695,10.047981262207031,2.775688648223877,-7471.400390625,0
69.21600000000035,0.09315037727355957,-0.0312538743019104,0.04725828394293785,0.0,0.0,0.0,0.0,-0.0003072135732509196,-0.00033830548636615276,-0.0013277967227622867,0.9995120167732239,0.0,0.0,0.0,41.237709045410156,10.036925315856934,2.772963762283325,-7464.107421875,0
79.08300000000054,0.0913475751876831,-0.03058052249252796,0.04596307873725891,0.0,0.0,0.0,0.0,-0.00019921656348742545,-0.0008659615996293724,-0.002985358238220215,0.9992921352386475,0.0,0.0,0.0,41.63994598388672,10.03325080871582,2.800976276397705,-7536.91357421875,0
88.98099999999977,0.09167899936437607,-0.030712418258190155,0.04617730900645256,0.0,0.0,0.0,0.0,-0.0020710451062768698,-0.003972933627665043,-0.0008066542795859277,1.0003570318222046,0.0,0.0,0.0,41.600135803222656,10.031729698181152,2.7949507236480713,-7529.70654296875,0
98.86399999999958,0.08992084115743637,-0.030084513127803802,0.044854819774627686,0.0,0.0,0.0,0.0,-0.0015482462476938963,-0.0035764258354902267,0.0049307262524962425,0.9986283779144287,0.0,0.0,0.0,41.93040084838867,10.042219161987305,2.8198232650756836,-7589.486328125,0
108.75,0.09024368226528168,-0.030210403725504875,0.045064881443977356,0.0,0.0,0.0,0.0,-0.002438597846776247,-0.0023879429791122675,0.0011628457577899098,1.0019460916519165,0.0,0.0,0.0,41.88982391357422,10.03825855255127,2.832160234451294,-7582.14111328125,0
118.63400000000001,0.09056980907917023,-0.03033747337758541,0.04527527093887329,0.0,0.0,0.0,0.0,-0.0017087515443563461,-0.0036345638800412416,0.00010506213584449142,1.0013606548309326,0.0,0.0,0.0,41.85063552856445,10.031899452209473,2.8399910926818848,-7575.04833984375,0
128.52900000000045,0.09089769423007965,-0.030466405674815178,0.045487165451049805,0.0,0.0,0.0,0.0,-0.0002626717905513942,-0.001994137652218342,4.213631109450944e-05,0.9996395111083984,0.0,0.0,0.0,41.810707092285156,10.027886390686035,2.8521900177001953,-7567.8212890625,0
138.40099999999984,0.09122717380523682,-0.030597927048802376,0.045700836926698685,0.0,0.0,0.0,0.0,-0.0029594271909445524,-0.003619733965024352,0.0025007149670273066,0.99751216173172,0.0,0.0,0.0,41.7707633972168,10.015826225280762,2.84432315826416,-7560.59130859375,0
148.29700000000048,0.0915600135922432,-0.03073151968419552,0.045914627611637115,0.0,0.0,0.0,0.0,0.0020930529572069645,-2.3343187422142364e-05,-0.00016940456407610327,0.999279797077179,0.0,0.0,0.0,41.730316162109375,10.015871047973633,2.8443312644958496,-7553.27001953125,0
158.1760000000013,0.09189607948064804,-0.030867639929056168,0.04612746089696884,0.0,0.0,0.0,0.0,-0.005056402646005154,-0.0030654058791697025,-0.0045401547104120255,0.9983723759651184,0.0,0.0,0.0,41.68943786621094,10.008495330810547,2.846625566482544,-7545.87158203125,0
168.0650000000005,0.09223436564207077,-0.031006691977381706,0.04633976146578789,0.0,0.0,0.0,0.0,-0.0024412337224930525,-0.0034479296300560236,-0.0019059594487771392,0.997842013835907,0.0,0.0,0.0,41.64921188354492,9.996811866760254,2.8391709327697754,-7538.59033203125,0
177.94700000000012,0.09021858125925064,-0.030269894748926163,0.04494604468345642,0.0,0.0,0.0,0.0,0.0003618808987084776,-0.0021383462008088827,-0.001131880097091198,0.9974818229675293,0.0,0.0,0.0,41.95267105102539,10.050159454345703,2.860283136367798,-7593.5166015625,0
187.84100000000035,0.09053713828325272,-0.0303970817476511,0.04515613242983818,0.0,0.0,0.0,0.0,-0.001657572342082858,-0.001417270628735423,0.0018635918386280537,0.9987988471984863,0.0,0.0,0.0,41.91199493408203,10.043134689331055,2.8611133098602295,-7586.15478515625,0
197.71700000000055,0.09085708856582642,-0.030525239184498787,0.045364391058683395,0.0,0.0,0.0,0.0,0.003769442904740572,-0.0013956237817183137,-0.0025117171462625265,0.9993268847465515,0.0,0.0,0.0,41.86951446533203,10.033333778381348,2.8698980808258057,-7578.46533203125,0
207.6130000000012,0.09117836505174637,-0.030654899775981903,0.04557183384895325,0.0,0.0,0.0,0.0,9.362208948004991e-05,0.002805915428325534,-0.0011651988606899977,0.9985877871513367,0.0,0.0,0.0,41.82913589477539,10.03182315826416,2.887018918991089,-7571.15625,0
217.48400000000038,0.09150119870901108,-0.03078593872487545,0.04577900469303131,0.0,0.0,0.0,0.0,0.0013921374920755625,0.000926545646507293,0.002516318578273058,0.9992214441299438,0.0,0.0,0.0,41.78797912597656,10.024998664855957,2.8609116077423096,-7563.70751953125,0
227.38100000000122,0.09182616323232651,-0.030918173491954803,0.04598591476678848,0.0,0.0,0.0,0.0,-0.002024116227403283,-0.003126805182546377,0.0011020115343853831,0.9971692562103271,0.0,0.0,0.0,41.74721145629883,10.014989852905273,2.841599941253662,-7556.32861328125,0
237.25900000000001,0.08977223932743073,-0.030157608911395073,0.04457920417189598,0.0,0.0,0.0,0.0,0.0006255655898712575,-0.001848473446443677,0.00024833742645569146,0.99840247631073,0.0,0.0,0.0,42.045196533203125,10.060620307922363,2.859844446182251,-7610.26416015625,0
247.15500000000065,0.09007854759693146,-0.03027796931564808,0.044784851372241974,0.0,0.0,0.0,0.0,0.0003595119924284518,-0.0034810726065188646,0.0053874594159424305,1.0006763935089111,0.0,0.0,0.0,42.00387191772461,10.055071830749512,2.850501537322998,-7602.78466796875,0
257.03000000000065,0.08868847787380219,-0.02977840229868889,0.04378603771328926,0.0,0.0,0.0,0.0,-0.001300118979997933,-0.00015312696632463485,-0.001259424607269466,1.0005511045455933,0.0,0.0,0.0,42.24690628051758,10.074737548828125,2.870696783065796,-7646.77392578125,0
266.9210000000003,0.08898541331291199,-0.02989831753075123,0.043991126120090485,0.0,0.0,0.0,0.0,0.002606877125799656,0.003966334275901318,-0.0036669615656137466,0.9988417029380798,0.0,0.0,0.0,42.20573425292969,10.065293312072754,2.8607659339904785,-7639.32177734375,0
276.7990000000009,0.08705071359872818,-0.02922414243221283,0.04247986152768135,0.0,0.0,0.0,0.0,-0.000204887954168953,-0.0002190221712226048,0.002255792496725917,0.998578667640686,0.0,0.0,0.0,42.433834075927734,10.085249900817871,2.8816916942596436,-7680.6083984375,0
286.6970000000001,0.08734050393104553,-0.029339447617530823,0.04268037900328636,0.0,0.0,0.0,0.0,0.0030618428718298674,0.0014004985569044948,-0.0004667926987167448,0.9979884624481201,0.0,0.0,0.0,42.390445709228516,10.074272155761719,2.8773000240325928,-7672.75537109375,0
296.5699999999997,0.08578575402498245,-0.02879430167376995,0.041476115584373474,0.0,0.0,0.0,0.0,0.0005616048583760858,-0.003614679677411914,-0.0022186562418937683,0.9984351992607117,0.0,0.0,0.0,42.586849212646484,10.085738182067871,2.8820056915283203,-7708.30419921875,0
306.46399999999994,0.0860687866806984,-0.028903739526867867,0.0416702926158905,0.0,0.0,0.0,0.0,-0.0002194829285144806,-0.0020974394865334034,0.0012596604647114873,0.9976693391799927,0.0,0.0,0.0,42.544925689697266,10.072067260742188,2.896979808807373,-7700.7158203125,0
316.34200000000055,0.08435282856225967,-0.028323285281658173,0.04031582921743393,0.0,0.0,0.0,0.0,0.0004852941492572427,-0.0034455261193215847,-0.0011024175910279155,0.99858158826828,0.0,0.0,0.0,42.71961212158203,10.083966255187988,2.9109578132629395,-7732.3349609375,0
326.237000000001,0.08462841808795929,-0.028430400416254997,0.04050157219171524,0.0,0.0,0.0,0.0,0.0018784397980198264,-0.0029651359654963017,-0.0012482742313295603,0.9997541904449463,0.0,0.0,0.0,42.677982330322266,10.071029663085938,2.9136643409729004,-7724.7998046875,0
336.1139999999996,0.08490545302629471,-0.028537482023239136,0.04068627581000328,0.0,0.0,0.0,0.0,0.003698718501254916,0.008059139363467693,0.0006785762379877269,1.0006239414215088,0.0,0.0,0.0,42.63544845581055,10.06527042388916,2.909791946411133,-7717.1005859375,0
346.0120000000006,0.08518288284540176,-0.028645187616348267,0.04087125509977341,0.0,0.0,0.0,0.0,-0.0012383642606437206,0.004400530364364386,0.00048769271234050393,0.9999642372131348,0.0,0.0,0.0,42.59403991699219,10.053101539611816,2.90134596824646,-7709.60595703125,0
355.88900000000103,0.08546124398708344,-0.02875470742583275,0.04105674847960472,0.0,0.0,0.0,0.0,-0.00023012288147583604,7.7133096056059e-05,0.0026645788457244635,1.0009956359863281,0.0,0.0,0.0,42.552486419677734,10.043265342712402,2.889340400695801,-7702.08447265625,0
365.78499999999985,0.08574157953262329,-0.028865642845630646,0.04124293476343155,0.0,0.0,0.0,0.0,0.001043544732965529,0.0019542076624929905,-4.11845940107014e-05,0.9996885657310486,0.0,0.0,0.0,42.51057815551758,10.033696174621582,2.8824617862701416,-7694.4990234375,0
375.65700000000106,0.08602412045001984,-0.02897726744413376,0.04143030568957329,0.0,0.0,0.0,0.0,-0.000392837479012087,-0.005604695063084364,-0.0011635238770395517,1.0004537105560303,0.0,0.0,0.0,42.4690055847168,10.02741527557373,2.881129264831543,-7686.974609375,0
385.5510000000013,0.08630962669849396,-0.02909007854759693,0.04161845147609711,0.0,0.0,0.0,0.0,-0.002880139509215951,-0.001975719118490815,-0.00013192511687520891,0.999819815158844,0.0,0.0,0.0,42.427734375,10.021044731140137,2.868100643157959,-7679.50390625,0
395.4290000000001,0.08659925311803818,-0.02920428290963173,0.04180708900094032,0.0,0.0,0.0,0.0,0.0020114632789045572,0.0018851890927180648,0.0009770778706297278,0.9998300671577454,0.0,0.0,0.0,42.38656234741211,10.018721580505371,2.8647336959838867,-7672.0517578125,0
405.3240000000005,0.08689247071743011,-0.02931954152882099,0.04199628531932831,0.0,0.0,0.0,0.0,0.0010633558267727494,-0.004205656703561544,-0.002564334077760577,0.9989899396896362,0.0,0.0,0.0,42.345699310302734,10.003665924072266,2.849909782409668,-7664.65576171875,0
415.2000000000007,0.08718805760145187,-0.029436886310577393,0.04218558594584465,0.0,0.0,0.0,0.0,-0.0008073646458797157,-0.003150665434077382,0.0012584852520376444,0.9997084736824036,0.0,0.0,0.0,42.304542541503906,9.995009422302246,2.842494249343872,-7657.2060546875,0
425.09400000000096,0.08748545497655869,-0.029557202011346817,0.04237450659275055,0.0,0.0,0.0,0.0,-0.003393108956515789,-0.0025751919019967318,0.0022731423377990723,0.9993194937705994,0.0,0.0,0.0,42.26337432861328,9.98731803894043,2.8414390087127686,-7649.75439453125,0
434.97199999999975,0.0877845361828804,-0.029679780825972557,0.04256318882107735,0.0,0.0,0.0,0.0,0.003690039739012718,0.002539356704801321,-0.002827479736879468,1.000713586807251,0.0,0.0,0.0,42.22187805175781,9.985146522521973,2.8415050506591797,-7642.24365234375,0
444.8700000000008,0.08808570355176926,-0.02980422042310238,0.04275227710604668,0.0,0.0,0.0,0.0,-0.003586855949833989,-0.004266226664185524,-0.004533957224339247,1.0002020597457886,0.0,0.0,0.0,42.18061447143555,9.980306625366211,2.840059995651245,-7634.775390625,0
454.7450000000008,0.08838965743780136,-0.029931414872407913,0.04294212535023689,0.0,0.0,0.0,0.0,-0.000602663669269532,-0.004971655551344156,0.0026111481711268425,1.0004819631576538,0.0,0.0,0.0,42.13948440551758,9.976442337036133,2.831477642059326,-7627.33056640625,0
464.64000000000124,0.08869612216949463,-0.030061785131692886,0.04313299059867859,0.0,0.0,0.0,0.0,0.00016724549641367048,0.0006762839038856328,1.1757304491766263e-05,0.9978196620941162,0.0,0.0,0.0,42.09718322753906,9.968587875366211,2.8436391353607178,-7619.67333984375,0
504.1830000000009,0.08584291487932205,-0.02876395918428898,0.041428279131650925,0.0,0.0,0.0,0.0,-0.0014260514872148633,0.0006374364020302892,-0.0011699532624334097,1.0006300210952759,0.0,0.0,0.0,42.43474578857422,10.073921203613281,2.884535074234009,-7680.77294921875,0
514.0580000000009,0.08454710245132446,-0.028297333046793938,0.04050442576408386,0.0,0.0,0.0,0.0,-0.0003303774574305862,-0.008426764979958534,0.0006780385738238692,0.9984817504882812,0.0,0.0,0.0,42.61267852783203,10.095027923583984,2.885596752166748,-7712.97998046875,0
523.9590000000007,0.08481535315513611,-0.02839565835893154,0.040699321776628494,0.0,0.0,0.0,0.0,0.000466210360173136,-0.0023640086874365807,-0.002380786230787635,0.9995177984237671,0.0,0.0,0.0,42.57046127319336,10.090628623962402,2.8969271183013916,-7705.33837890625,0
533.8299999999999,0.08508522063493729,-0.028496060520410538,0.04089386388659477,0.0,0.0,0.0,0.0,-0.0004822984919883311,0.0037947038654237986,0.0004839694011025131,1.0000519752502441,0.0,0.0,0.0,42.52886199951172,10.087002754211426,2.90024995803833,-7697.80859375,0
543.728000000001,0.0853554978966713,-0.028597524389624596,0.041088201105594635,0.0,0.0,0.0,0.0,0.0019743635784834623,-0.005207149777561426,-0.00034982149372808635,1.0006557703018188,0.0,0.0,0.0,42.487239837646484,10.079254150390625,2.8942644596099854,-7690.27490234375,0
553.6010000000006,0.08562623709440231,-0.02869942970573902,0.04128303751349449,0.0,0.0,0.0,0.0,0.0005930780316703022,-0.004085505846887827,-0.0009452876402065158,0.9978891611099243,0.0,0.0,0.0,42.4461784362793,10.069775581359863,2.8859715461730957,-7682.8427734375,0
563.4989999999998,0.08589785546064377,-0.028801588341593742,0.041478440165519714,0.0,0.0,0.0,0.0,-0.0018657384207472205,-0.0031016659922897816,-0.0031514090951532125,0.99886155128479,0.0,0.0,0.0,42.405311584472656,10.062183380126953,2.8967227935791016,-7675.4453125,0
573.3729999999996,0.08617109060287476,-0.02890479937195778,0.041673239320516586,0.0,0.0,0.0,0.0,-0.001500735292211175,-0.008119840174913406,-0.0019895571749657393,0.9989107251167297,0.0,0.0,0.0,42.36262893676758,10.058684349060059,2.8954687118530273,-7667.72021484375,0
583.2669999999998,0.0864470973610878,-0.029009701684117317,0.04186713322997093,0.0,0.0,0.0,0.0,-1.2630631317733787e-05,0.0064292410388588905,0.0021034914534538984,0.9995835423469543,0.0,0.0,0.0,42.32115173339844,10.048690795898438,2.908681869506836,-7660.2119140625,0
593.1440000000002,0.08672579377889633,-0.029115328565239906,0.04206051677465439,0.0,0.0,0.0,0.0,-0.0001460603525629267,0.0020953649654984474,0.0005242926417849958,0.9985051155090332,0.0,0.0,0.0,42.27994155883789,10.04262638092041,2.9094481468200684,-7652.75390625,0
603.0510000000013,0.08700770139694214,-0.029220523312687874,0.04225354269146919,0.0,0.0,0.0,0.0,0.0005261217593215406,0.0006459559663198888,0.0006815249798819423,0.9988604187965393,0.0,0.0,0.0,42.238800048828125,10.034000396728516,2.901325225830078,-7645.306640625,0
612.9150000000009,0.08729391545057297,-0.029325462877750397,0.042445920407772064,0.0,0.0,0.0,0.0,-0.0019542877562344074,-0.003994481172412634,-0.003734293859452009,0.9987960457801819,0.0,0.0,0.0,42.1976432800293,10.031510353088379,2.8933568000793457,-7637.857421875,0
622.8180000000011,0.0875844955444336,-0.029431317001581192,0.04263751953840256,0.0,0.0,0.0,0.0,-0.001184258027933538,-0.0010134272743016481,-0.003070957027375698,0.9961993098258972,0.0,0.0,0.0,42.15647506713867,10.019621849060059,2.889521837234497,-7630.40625,0
632.6880000000001,0.08787869662046432,-0.029539380222558975,0.04282806068658829,0.0,0.0,0.0,0.0,-0.00022165541304275393,3.413939703023061e-05,0.0014515651855617762,0.9981381893157959,0.0,0.0,0.0,42.1148567199707,10.013365745544434,2.8894400596618652,-7622.873046875,0
642.5820000000003,0.0881757140159607,-0.029649905860424042,0.0430162139236927,0.0,0.0,0.0,0.0,-0.0022602551616728306,-0.0008144763414748013,-0.00118897610809654,1.0009058713912964,0.0,0.0,0.0,42.0732307434082,10.010422706604004,2.886376142501831,-7615.3388671875,0
652.4590000000007,0.08847514539957047,-0.029762398451566696,0.043203070759773254,0.0,0.0,0.0,0.0,-0.0010452986462041736,-0.0056148553267121315,-0.005004948936402798,0.9992825388908386,0.0,0.0,0.0,42.03143310546875,10.005565643310547,2.873570680618286,-7607.7724609375,0
662.3610000000008,0.08877759426832199,-0.029876645654439926,0.0433906652033329,0.0,0.0,0.0,0.0,0.000980055658146739,-0.00040706718573346734,-0.0011019265512004495,0.9972777366638184,0.0,0.0,0.0,41.99070739746094,10.003931999206543,2.8651626110076904,-7600.40185546875,0
672.2299999999996,0.08908343315124512,-0.02999280020594597,0.043578140437603,0.0,0.0,0.0,0.0,0.00015114927373360842,0.003600726369768381,-0.0030036100652068853,0.996563732624054,0.0,0.0,0.0,41.94987869262695,9.995952606201172,2.864239454269409,-7593.01123046875,0
682.1280000000006,0.08939221501350403,-0.030111389234662056,0.04376380145549774,0.0,0.0,0.0,0.0,0.00013065990060567856,-0.004135820548981428,0.0015264756511896849,0.9993454217910767,0.0,0.0,0.0,41.908878326416016,9.989124298095703,2.8517861366271973,-7585.59033203125,0
692.0020000000004,0.0897044688463211,-0.03023211471736431,0.043947406113147736,0.0,0.0,0.0,0.0,0.001333738793618977,0.00358466524630785,-0.0019098679767921567,0.9983643889427185,0.0,0.0,0.0,41.86677932739258,9.982604026794434,2.8451859951019287,-7577.97021484375,0
701.8990000000013,0.09001981467008591,-0.030354207381606102,0.04412992671132088,0.0,0.0,0.0,0.0,-6.197339826030657e-05,0.0007557995850220323,-0.0025520059280097485,0.9964585900306702,0.0,0.0,0.0,41.82585144042969,9.971641540527344,2.8420653343200684,-7570.56201171875,0
711.7780000000002,0.08683786541223526,-0.029032481834292412,0.04231925681233406,0.0,0.0,0.0,0.0,0.00031119066989049315,0.009591963142156601,-0.0008685868815518916,0.9983588457107544,0.0,0.0,0.0,42.10784912109375,10.074958801269531,2.8399157524108887,-7621.60400390625,0
721.6710000000003,0.08711820095777512,-0.029129698872566223,0.042502954602241516,0.0,0.0,0.0,0.0,-0.0009835825767368078,0.0006105803186073899,-0.0010341537417843938,0.9981486201286316,0.0,0.0,0.0,42.066070556640625,10.071406364440918,2.829949378967285,-7614.04248046875,0
731.5470000000005,0.08740004897117615,-0.029228966683149338,0.042685069143772125,0.0,0.0,0.0,0.0,-0.003171338699758053,-0.006154676899313927,0.0017496250802651048,0.9989639520645142,0.0,0.0,0.0,42.02519989013672,10.057234764099121,2.8263280391693115,-7606.64501953125,0
741.4500000000007,0.08768357336521149,-0.029330363497138023,0.04286652430891991,0.0,0.0,0.0,0.0,-0.0011326271342113614,-0.0020953265484422445,-0.0008168406784534454,0.9974691867828369,0.0,0.0,0.0,41.983951568603516,10.046716690063477,2.820530414581299,-7599.1787109375,0
751.3199999999997,0.08599724620580673,-0.028750045225024223,0.041661638766527176,0.0,0.0,0.0,0.0,-0.0038728429935872555,-0.001578743103891611,0.0012755070347338915,0.9973705410957336,0.0,0.0,0.0,42.23185348510742,10.066313743591309,2.8379738330841064,-7644.04931640625,0
761.2070000000003,0.08627123385667801,-0.028847211971879005,0.041837871074676514,0.0,0.0,0.0,0.0,0.00226947502233088,0.0010226815938949585,-0.002504125703126192,0.9976898431777954,0.0,0.0,0.0,42.190223693847656,10.064772605895996,2.841113805770874,-7636.5146484375,0
771.0879999999997,0.0865478590130806,-0.028946762904524803,0.04201199859380722,0.0,0.0,0.0,0.0,-0.0016199426027014852,-0.0023445901460945606,0.0043077715672552586,0.9994935989379883,0.0,0.0,0.0,42.14915466308594,10.061829566955566,2.844878673553467,-7629.0810546875,0
780.978000000001,0.08682650327682495,-0.029049551114439964,0.042184554040431976,0.0,0.0,0.0,0.0,-0.003514125244691968,0.00025754296802915633,-0.0018991198157891631,1.000815987586975,0.0,0.0,0.0,42.108924865722656,10.05225944519043,2.855340003967285,-7621.79833984375,0
790.8690000000006,0.08710701763629913,-0.02915520779788494,0.04235713556408882,0.0,0.0,0.0,0.0,-0.0010495588649064302,-0.0028991028666496277,0.00113298196811229,0.9991703629493713,0.0,0.0,0.0,42.06779479980469,10.052421569824219,2.8477396965026855,-7614.3544921875,0
800.7510000000002,0.08738875389099121,-0.029262986034154892,0.04253054037690163,0.0,0.0,0.0,0.0,0.0009921812452375889,0.004185466095805168,0.0010946484981104732,1.000856637954712,0.0,0.0,0.0,42.02734375,10.046801567077637,2.8461620807647705,-7607.0322265625,0
810.6319999999996,0.0876724049448967,-0.029371799901127815,0.04270429536700249,0.0,0.0,0.0,0.0,-0.002972648711875081,-0.0027043528389185667,0.00012759662058670074,1.0001943111419678,0.0,0.0,0.0,41.986541748046875,10.0355224609375,2.8353424072265625,-7599.6474609375,0
820.518,0.08795825392007828,-0.029481159523129463,0.042879026383161545,0.0,0.0,0.0,0.0,0.00011087884922744706,-0.004223986063152552,0.0012809406034648418,0.9990206956863403,0.0,0.0,0.0,41.94525146484375,10.029317855834961,2.8322198390960693,-7592.173828125,0
830.4030000000002,0.08824551850557327,-0.02959132380783558,0.04305454343557358,0.0,0.0,0.0,0.0,-0.0005805015680380166,-5.282292931951815e-07,0.0026967166922986507,0.9982096552848816,0.0,0.0,0.0,41.90414810180664,10.025934219360352,2.8352432250976562,-7584.73388671875,0
840.2920000000013,0.08853413164615631,-0.02970271185040474,0.04322949796915054,0.0,0.0,0.0,0.0,-0.0006751592736691236,0.0024517590645700693,-0.0005269653629511595,0.999130368232727,0.0,0.0,0.0,41.864173889160156,10.019798278808594,2.833378314971924,-7577.49853515625,0
850.1750000000011,0.08616670966148376,-0.028778543695807457,0.041756004095077515,0.0,0.0,0.0,0.0,-0.0031618031207472086,-0.005036663729697466,-0.0002047427260549739,1.0002174377441406,0.0,0.0,0.0,42.1345329284668,10.087532997131348,2.8523666858673096,-7626.4345703125,0
860.0730000000003,0.0864291712641716,-0.0288761667907238,0.041931841522455215,0.0,0.0,0.0,0.0,-0.0007416332955472171,-0.0006081619649194181,0.0014997838297858834,0.9995661377906799,0.0,0.0,0.0,42.09361267089844,10.083545684814453,2.8484883308410645,-7619.02685546875,0
869.9459999999999,0.08491756021976471,-0.028382008895277977,0.04080238938331604,0.0,0.0,0.0,0.0,0.00012594685540534556,0.0018884703749790788,-0.0011637533316388726,0.9980711340904236,0.0,0.0,0.0,42.32368469238281,10.091280937194824,2.8636271953582764,-7660.6708984375,0
879.8340000000007,0.08516985177993774,-0.028478002175688744,0.04097510501742363,0.0,0.0,0.0,0.0,-0.001422147499397397,-0.0018151869298890233,-0.0013590012677013874,0.9994661808013916,0.0,0.0,0.0,42.282596588134766,10.080507278442383,2.85762357711792,-7653.23388671875,0
889.7180000000008,0.08542368561029434,-0.02857467159628868,0.041147179901599884,0.0,0.0,0.0,0.0,-0.0008820673101581633,0.003468090668320656,-0.0005731892888434231,0.9963890314102173,0.0,0.0,0.0,42.24015426635742,10.075798988342285,2.850442409515381,-7645.5517578125,0
899.6040000000012,0.08567970991134644,-0.028671424835920334,0.041318126022815704,0.0,0.0,0.0,0.0,0.0001544584520161152,0.0032763690687716007,-0.00010333640238968655,0.9966538548469543,0.0,0.0,0.0,42.200294494628906,10.065566062927246,2.847843885421753,-7638.33740234375,0
909.491,0.08402547240257263,-0.028131334111094475,0.0400572195649147,0.0,0.0,0.0,0.0,-0.00030922782025299966,0.0011838196078315377,0.0003186763497069478,0.9983477592468262,0.0,0.0,0.0,42.41957092285156,10.076614379882812,2.8437912464141846,-7678.02734375,0
919.3900000000012,0.08427197486162186,-0.028224876150488853,0.040219321846961975,0.0,0.0,0.0,0.0,-0.0044456664472818375,0.005365658551454544,0.0018947516800835729,1.0004655122756958,0.0,0.0,0.0,42.37947463989258,10.068509101867676,2.8275609016418457,-7670.76953125,0
929.2630000000008,0.08452186733484268,-0.028320055454969406,0.04038068279623985,0.0,0.0,0.0,0.0,-0.0032663436140865088,-0.002306756330654025,0.0019990643486380577,0.9998494386672974,0.0,0.0,0.0,42.33798599243164,10.062950134277344,2.8198254108428955,-7663.25927734375,0
939.1509999999998,0.08477503806352615,-0.028416622430086136,0.04054226726293564,0.0,0.0,0.0,0.0,0.0011557008838281035,-0.0010931993601843715,0.0008547245524823666,0.9980849623680115,0.0,0.0,0.0,42.29611587524414,10.061983108520508,2.807706117630005,-7655.68115234375,0
949.0330000000013,0.08364616334438324,-0.028052376583218575,0.039733659476041794,0.0,0.0,0.0,0.0,-0.002037861617282033,-0.0022956577595323324,0.0005542390863411129,0.9992501735687256,0.0,0.0,0.0,42.49599838256836,10.072495460510254,2.816253185272217,-7691.8603515625,0
958.9220000000005,0.08389275521039963,-0.028147025033831596,0.03989410772919655,0.0,0.0,0.0,0.0,-0.0023079668171703815,0.00206023664213717,0.0020287970546633005,1.0001349449157715,0.0,0.0,0.0,42.45516586303711,10.060689926147461,2.815735101699829,-7684.4697265625,0
968.8040000000001,0.08414120227098465,-0.028244860470294952,0.04005436599254608,0.0,0.0,0.0,0.0,0.000600486237090081,-0.0004421356425154954,-5.239613074081717e-06,0.9977523684501648,0.0,0.0,0.0,42.414100646972656,10.059250831604004,2.78879451751709,-7677.0361328125,0
978.7020000000011,0.08439119905233383,-0.02834402024745941,0.04021457955241203,0.0,0.0,0.0,0.0,0.0003980371402576566,0.003637159476056695,-0.0025187511928379536,0.9989323616027832,0.0,0.0,0.0,42.372440338134766,10.056647300720215,2.787770986557007,-7669.49609375,0
988.5750000000007,0.08464374393224716,-0.02844339795410633,0.04037400707602501,0.0,0.0,0.0,0.0,0.0009227774571627378,-0.0031998571939766407,0.0013427564408630133,0.9985227584838867,0.0,0.0,0.0,42.330867767333984,10.040343284606934,2.7769274711608887,-7661.9716796875,0
998.4670000000006,0.0848996564745903,-0.028544342145323753,0.0405324250459671,0.0,0.0,0.0,0.0,0.002818007953464985,-0.0008144024177454412,-0.0021183991339057684,1.0003398656845093,0.0,0.0,0.0,42.28941345214844,10.034000396728516,2.7580554485321045,-7654.46728515625,0
1008.3469999999998,0.0851585790514946,-0.02864774875342846,0.0406903512775898,0.0,0.0,0.0,0.0,-0.00026015948969870806,0.008352566510438919,-0.0024275497999042273,0.9991260766983032,0.0,0.0,0.0,42.24813461303711,10.027931213378906,2.7561721801757812,-7646.99658203125,0
1018.2380000000012,0.08541931211948395,-0.02875300496816635,0.040848344564437866,0.0,0.0,0.0,0.0,0.0012646064860746264,-0.0013284600572660565,0.0018229302950203419,0.9997158050537109,0.0,0.0,0.0,42.20624923706055,10.018824577331543,2.7432124614715576,-7639.41455078125,0
1028.121000000001,0.08568044006824493,-0.028859706595540047,0.041006289422512054,0.0,0.0,0.0,0.0,-0.00037043297197669744,0.004379271063953638,0.0024366085417568684,0.9985926151275635,0.0,0.0,0.0,42.16473388671875,10.01030158996582,2.740312099456787,-7631.900390625,0
1038.0169999999998,0.08594165742397308,-0.02896866574883461,0.041164059191942215,0.0,0.0,0.0,0.0,0.0028793662786483765,-0.0028301961719989777,0.0016271425411105156,0.9982522130012512,0.0,0.0,0.0,42.124359130859375,10.000558853149414,2.735388994216919,-7624.5927734375,0
1047.8900000000012,0.08620363473892212,-0.029080474749207497,0.04132113605737686,0.0,0.0,0.0,0.0,-0.0032030080910772085,-0.004033488687127829,-0.002172417938709259,0.9986433982849121,0.0,0.0,0.0,42.082794189453125,9.992603302001953,2.7287843227386475,-7617.0693359375,0
1057.7860000000019,0.08646656572818756,-0.029193950816988945,0.04147695377469063,0.0,0.0,0.0,0.0,-0.0017295952420681715,-0.0013981646625325084,0.003920197952538729,0.9987809658050537,0.0,0.0,0.0,42.04256820678711,9.99001693725586,2.7327682971954346,-7609.78857421875,0
1067.6669999999995,0.08673024922609329,-0.02930862456560135,0.04163168743252754,0.0,0.0,0.0,0.0,0.0018639018526300788,-0.0005090688355267048,0.00200704880990088,0.9986292123794556,0.0,0.0,0.0,42.00098419189453,9.982270240783691,2.7375173568725586,-7602.26123046875,0
1077.5559999999987,0.08699478209018707,-0.029425254091620445,0.041785791516304016,0.0,0.0,0.0,0.0,-0.0006322427070699632,-0.0003236925113014877,-0.002494677435606718,0.9971415400505066,0.0,0.0,0.0,41.96052551269531,9.974142074584961,2.74648118019104,-7594.9384765625,0
1087.4339999999993,0.08726046979427338,-0.029544519260525703,0.04193917661905289,0.0,0.0,0.0,0.0,-0.0032941021490842104,-0.0012576961889863014,0.0010100564686581492,0.9993739724159241,0.0,0.0,0.0,41.91887283325195,9.966950416564941,2.7465035915374756,-7587.3994140625,0
1097.3340000000007,0.08752772957086563,-0.029666556045413017,0.04209116846323013,0.0,0.0,0.0,0.0,0.0018337704241275787,-0.002457467606291175,0.0038411570712924004,0.9981364607810974,0.0,0.0,0.0,41.87823486328125,9.962825775146484,2.750227928161621,-7580.04443359375,0
1107.205,0.08779670298099518,-0.029791368171572685,0.04224210977554321,0.0,0.0,0.0,0.0,0.00126244081184268,0.0014458652585744858,-0.001364997704513371,0.998699963092804,0.0,0.0,0.0,41.83805465698242,9.96093463897705,2.755444288253784,-7572.7705078125,0
1117.1000000000004,0.08806836605072021,-0.029918890446424484,0.042392272502183914,0.0,0.0,0.0,0.0,-0.002378684701398015,-0.004187347833067179,-0.0009530497482046485,0.9983295798301697,0.0,0.0,0.0,41.79679489135742,9.953948020935059,2.7515456676483154,-7565.302734375,0
1126.9770000000008,0.08834253251552582,-0.03004828654229641,0.04254146292805672,0.0,0.0,0.0,0.0,0.0019350518705323339,0.000727424630895257,-2.404248334642034e-05,0.9970964789390564,0.0,0.0,0.0,41.75572204589844,9.940250396728516,2.7408432960510254,-7557.8681640625,0
1136.8700000000008,0.08861775696277618,-0.030179137364029884,0.04268921539187431,0.0,0.0,0.0,0.0,0.0010418837191537023,0.004469485022127628,0.0018748643342405558,0.9968392848968506,0.0,0.0,0.0,41.71513748168945,9.928218841552734,2.7337868213653564,-7550.5234375,0
1146.7600000000002,0.08889289945363998,-0.030311817303299904,0.04283469170331955,0.0,0.0,0.0,0.0,0.0011108502512797713,0.004040289204567671,-0.0006172247813083231,0.9986466765403748,0.0,0.0,0.0,41.67464065551758,9.920902252197266,2.7309863567352295,-7543.193359375,0
1156.6479999999992,0.0891675278544426,-0.030446914955973625,0.04297788441181183,0.0,0.0,0.0,0.0,-0.000734318105969578,-0.002146465238183737,-0.0012983089545741677,1.000295639038086,0.0,0.0,0.0,41.634033203125,9.913907051086426,2.7141916751861572,-7535.84326171875,0
1166.5199999999986,0.08944317698478699,-0.03058359958231449,0.04312026500701904,0.0,0.0,0.0,0.0,0.0004441419441718608,-0.007931551896035671,0.00023416006297338754,0.9983218908309937,0.0,0.0,0.0,41.59427261352539,9.906624794006348,2.712177276611328,-7528.6455078125,0
1176.4129999999986,0.08972107619047165,-0.030721336603164673,0.043262772262096405,0.0,0.0,0.0,0.0,-2.3441180019290186e-05,0.00010995316551998258,-0.00025391762028448284,1.0004671812057495,0.0,0.0,0.0,41.552494049072266,9.906759262084961,2.723085880279541,-7521.083984375,0
1186.2970000000005,0.09000089019536972,-0.03086134046316147,0.043405041098594666,0.0,0.0,0.0,0.0,0.0034533527214080095,0.0004123264807276428,0.003294580616056919,1.0002694129943848,0.0,0.0,0.0,41.511573791503906,9.896056175231934,2.7278175354003906,-7513.67724609375,0
1196.187,0.09028177708387375,-0.031004704535007477,0.043547630310058594,0.0,0.0,0.0,0.0,-0.0005381552618928254,-0.0005286175291985273,0.0005673661944456398,0.9969679713249207,0.0,0.0,0.0,41.4716911315918,9.888240814208984,2.7275407314300537,-7506.45849609375,0
1206.063,0.09056389331817627,-0.03115221858024597,0.0436902791261673,0.0,0.0,0.0,0.0,-0.004947342444211245,-0.0031827844213694334,0.00015818909741938114,0.9984837174415588,0.0,0.0,0.0,41.43124008178711,9.875274658203125,2.722196340560913,-7499.13720703125,0
1215.960000000001,0.09084770083427429,-0.031303055584430695,0.043831489980220795,0.0,0.0,0.0,0.0,0.0008149517234414816,0.0005016790819354355,-0.0016853597480803728,0.9987197518348694,0.0,0.0,0.0,41.39200973510742,9.870165824890137,2.7259557247161865,-7492.0361328125,0
1225.8340000000007,0.08630354702472687,-0.028988037258386612,0.041734810918569565,0.0,0.0,0.0,0.0,6.894038961036131e-05,-0.0008592747617512941,-0.001604219083674252,0.9980232119560242,0.0,0.0,0.0,41.7349853515625,10.077116012573242,2.795363187789917,-7554.11572265625,0
1235.7340000000022,0.0865335464477539,-0.029088031500577927,0.04188607633113861,0.0,0.0,0.0,0.0,-0.0008034710772335529,-0.0027558959554880857,-0.0007745753391645849,0.9983542561531067,0.0,0.0,0.0,41.69448471069336,10.066060066223145,2.7792205810546875,-7546.78515625,0
1245.608000000002,0.08500614017248154,-0.028417428955435753,0.04076146334409714,0.0,0.0,0.0,0.0,-0.00248846597969532,0.0015157856978476048,0.001758107217028737,1.000065565109253,0.0,0.0,0.0,41.987060546875,10.080857276916504,2.820221424102783,-7599.74169921875,0
1255.4990000000016,0.08522987365722656,-0.02850670926272869,0.04090692475438118,0.0,0.0,0.0,0.0,-8.318883374158759e-06,-0.00010226145968772471,-0.0001973241160158068,1.000205159187317,0.0,0.0,0.0,41.946754455566406,10.072921752929688,2.8121719360351562,-7592.4462890625,0
1265.3799999999992,0.08376879245042801,-0.028031064197421074,0.039808135479688644,0.0,0.0,0.0,0.0,0.000685202656313777,0.0005028548766858876,0.0028978241607546806,0.9981440305709839,0.0,0.0,0.0,42.20458221435547,10.078125953674316,2.827319860458374,-7639.11376953125,0
1275.2739999999994,0.0839826911687851,-0.028117051348090172,0.0399499274790287,0.0,0.0,0.0,0.0,0.0017635166877880692,-0.0029930726159363985,-0.0016832893015816808,0.9985167980194092,0.0,0.0,0.0,42.16325759887695,10.068202018737793,2.819125175476074,-7631.63330078125,0
1285.1499999999996,0.08419885486364365,-0.028204796835780144,0.04009108245372772,0.0,0.0,0.0,0.0,0.00028609103173948824,0.0025508704129606485,-0.002079237485304475,0.9996747374534607,0.0,0.0,0.0,42.12188720703125,10.062530517578125,2.8198797702789307,-7624.14599609375,0
1295.0439999999999,0.0844169557094574,-0.028294174000620842,0.04023134335875511,0.0,0.0,0.0,0.0,-0.00021572689001914114,-0.003277901792898774,-0.0021665203385055065,0.999228835105896,0.0,0.0,0.0,42.0813102722168,10.05406665802002,2.805219888687134,-7616.80078125,0
1304.9220000000005,0.08463594317436218,-0.028386235237121582,0.040371160954236984,0.0,0.0,0.0,0.0,0.001009599189274013,0.0006787959719076753,0.00031848071375861764,1.0006986856460571,0.0,0.0,0.0,42.03893280029297,10.049766540527344,2.8048787117004395,-7609.1298828125,0
1314.8150000000005,0.08485699445009232,-0.028481513261795044,0.0405111238360405,0.0,0.0,0.0,0.0,-0.0001840231561800465,0.00278025702573359,-0.00030944845639169216,0.998690664768219,0.0,0.0,0.0,41.99809265136719,10.038768768310547,2.7951807975769043,-7601.73828125,0
1324.692000000001,0.08508149534463882,-0.028579210862517357,0.04065171256661415,0.0,0.0,0.0,0.0,-0.00042238811147399247,-0.001075946376658976,0.0015531418612226844,0.9987483024597168,0.0,0.0,0.0,41.957603454589844,10.028115272521973,2.787018060684204,-7594.40966796875,0
1334.5880000000016,0.0853094682097435,-0.028679121285676956,0.04079222306609154,0.0,0.0,0.0,0.0,-0.0012902431190013885,0.0014725980581715703,-0.0015283842803910375,1.0000560283660889,0.0,0.0,0.0,41.916568756103516,10.01930046081543,2.7814102172851562,-7586.982421875,0
1344.4640000000018,0.08554026484489441,-0.028780771419405937,0.04093211144208908,0.0,0.0,0.0,0.0,0.0005934621440246701,-0.0062757330015301704,0.002033835044130683,1.0001612901687622,0.0,0.0,0.0,41.87489700317383,10.010395050048828,2.7743477821350098,-7579.43994140625,0
1354.358000000002,0.08600863814353943,-0.02899005077779293,0.041213259100914,0.0,0.0,0.0,0.0,-0.000843591580633074,-0.0017676625866442919,0.0015957813011482358,0.9991105198860168,0.0,0.0,0.0,41.79408264160156,9.994641304016113,2.767103672027588,-7564.8125,0
1364.2399999999998,0.08600863814353943,-0.02899005077779293,0.041213259100914,0.0,0.0,0.0,0.0,-0.00043043543701060116,0.0030038210097700357,0.0003510097449179739,1.000677227973938,0.0,0.0,0.0,41.79408264160156,9.994641304016113,2.767103672027588,-7564.8125,0
1374.1360000000004,0.08648402243852615,-0.02920873835682869,0.041496165096759796,0.0,0.0,0.0,0.0,0.0006507226498797536,0.00021039640705566853,0.0034857720602303743,0.9996620416641235,0.0,0.0,0.0,41.713157653808594,9.982064247131348,2.750831365585327,-7550.16455078125,0
1384.0100000000002,0.08648402243852615,-0.02920873835682869,0.041496165096759796,0.0,0.0,0.0,0.0,-0.001588545273989439,-0.0030985483899712563,0.0027030014898627996,0.9995852708816528,0.0,0.0,0.0,41.713157653808594,9.982064247131348,2.750831365585327,-7550.16455078125,0
1393.9040000000005,0.08696845173835754,-0.029442256316542625,0.04178111255168915,0.0,0.0,0.0,0.0,-0.00045066012535244226,-0.0026640836149454117,-0.000171828200109303,0.9985272288322449,0.0,0.0,0.0,41.63313293457031,9.9735689163208,2.747715950012207,-7535.6806640625,0
1403.782000000001,0.08696845173835754,-0.029442256316542625,0.04178111255168915,0.0,0.0,0.0,0.0,-0.0018720037769526243,-0.003873302135616541,0.0022042100317776203,0.9995836019515991,0.0,0.0,0.0,41.63313293457031,9.9735689163208,2.747715950012207,-7535.6806640625,0
1413.6730000000007,0.08746164292097092,-0.02968737855553627,0.04206553101539612,0.0,0.0,0.0,0.0,-0.0006985070067457855,0.0009866076288744807,0.0004891921416856349,1.0003458261489868,0.0,0.0,0.0,41.553855895996094,9.964746475219727,2.7502622604370117,-7521.3310546875,0
1423.5520000000015,0.08746164292097092,-0.02968737855553627,0.04206553101539612,0.0,0.0,0.0,0.0,-0.0018113269470632076,-0.0048026395961642265,-0.0001459289196645841,0.9990900754928589,0.0,0.0,0.0,41.553855895996094,9.964746475219727,2.7502622604370117,-7521.3310546875,0
1433.4570000000003,0.0879620611667633,-0.02993796207010746,0.042351461946964264,0.0,0.0,0.0,0.0,-0.0014517868403345346,-0.0007993375766091049,-0.0017170364735648036,1.0003174543380737,0.0,0.0,0.0,41.472442626953125,9.951202392578125,2.7572553157806396,-7506.5947265625,0
1443.324999999999,0.08479231595993042,-0.028523480519652367,0.040491532534360886,0.0,0.0,0.0,0.0,0.001469491864554584,0.00018164653738494962,0.0011888762237504125,1.0019460916519165,0.0,0.0,0.0,41.85436248779297,10.065679550170898,2.807299852371216,-7575.72216796875,0
1453.2160000000022,0.08523380756378174,-0.028722036629915237,0.04079065099358559,0.0,0.0,0.0,0.0,0.0014716857112944126,-0.005244603846222162,-0.00010759087308542803,0.999683678150177,0.0,0.0,0.0,41.771873474121094,10.0425443649292,2.7996246814727783,-7560.7919921875,0
1463.0939999999991,0.0834643766283989,-0.02803962491452694,0.03954855725169182,0.0,0.0,0.0,0.0,0.000489489350002259,0.008342678658664227,-0.0026678843423724174,0.9987374544143677,0.0,0.0,0.0,42.0986213684082,10.06932258605957,2.830690860748291,-7619.9345703125,0
1472.991,0.08389068394899368,-0.028224842622876167,0.0398469977080822,0.0,0.0,0.0,0.0,-0.0036175656132400036,0.0014488514279946685,0.0012927898205816746,0.9979286193847656,0.0,0.0,0.0,42.0167350769043,10.047154426574707,2.8008506298065186,-7605.11279296875,0
1482.866,0.08239004015922546,-0.027666132897138596,0.038725778460502625,0.0,0.0,0.0,0.0,0.0037371946964412928,-0.008047334849834442,0.0004856465384364128,0.9989310503005981,0.0,0.0,0.0,42.30762481689453,10.061846733093262,2.8300552368164062,-7657.763671875,0
1492.7630000000008,0.08280669152736664,-0.027844978496432304,0.03901560977101326,0.0,0.0,0.0,0.0,-0.0023934056516736746,-0.005535405594855547,0.003626133082434535,0.999036431312561,0.0,0.0,0.0,42.223751068115234,10.045881271362305,2.8348023891448975,-7642.5830078125,0
1502.6400000000012,0.0816086009144783,-0.027387550100684166,0.0380525104701519,0.0,0.0,0.0,0.0,6.961329927435145e-05,0.00023199657152872533,0.0012653114972636104,0.9992663264274597,0.0,0.0,0.0,42.471534729003906,10.052401542663574,2.8692047595977783,-7687.43212890625,0
1512.5330000000013,0.08202775567770004,-0.027563193812966347,0.03833295404911041,0.0,0.0,0.0,0.0,-0.00170840451028198,-0.0035544869024306536,-0.0004469618434086442,0.99836266040802,0.0,0.0,0.0,42.38946533203125,10.037088394165039,2.851156711578369,-7672.578125,0
1522.4080000000013,0.08048167079687119,-0.027011414989829063,0.03718316927552223,0.0,0.0,0.0,0.0,0.002138514770194888,0.0028473257552832365,0.000192477076780051,0.9964475631713867,0.0,0.0,0.0,42.62355422973633,10.05612850189209,2.871299982070923,-7714.94775390625,0
1532.3020000000015,0.0808890163898468,-0.02718460187315941,0.037454765290021896,0.0,0.0,0.0,0.0,-0.0021901405416429043,-0.003187426133081317,0.0005145037430338562,0.9991493821144104,0.0,0.0,0.0,42.540374755859375,10.036770820617676,2.8674118518829346,-7699.89208984375,0
1542.180000000002,0.0808890163898468,-0.02718460187315941,0.037454765290021896,0.0,0.0,0.0,0.0,0.0012543207267299294,0.00647685257717967,0.0004447102837730199,0.9994086623191833,0.0,0.0,0.0,42.540374755859375,10.036770820617676,2.8674118518829346,-7699.89208984375,0
1552.0739999999987,0.08130737394094467,-0.027368856593966484,0.037720803171396255,0.0,0.0,0.0,0.0,-0.002512685488909483,-0.006858634762465954,-0.0016631342004984617,0.9961817264556885,0.0,0.0,0.0,42.4554557800293,10.022067070007324,2.836076498031616,-7684.52197265625,0
1561.9519999999993,0.0795300230383873,-0.02676534466445446,0.03645646944642067,0.0,0.0,0.0,0.0,-0.00036287662805989385,2.9056747735012323e-05,-0.0030430383048951626,1.0001046657562256,0.0,0.0,0.0,42.68553161621094,10.050183296203613,2.8418192863464355,-7726.16650390625,0
1571.8469999999998,0.07992112636566162,-0.026940837502479553,0.036717407405376434,0.0,0.0,0.0,0.0,-0.0003540025791153312,-0.0018900472205132246,0.003285396145656705,0.9986977577209473,0.0,0.0,0.0,42.601375579833984,10.03404426574707,2.8460376262664795,-7710.93408203125,0
1581.723,0.07992112636566162,-0.026940837502479553,0.036717407405376434,0.0,0.0,0.0,0.0,-0.0003463746979832649,-0.005168518051505089,0.0010167345171794295,0.9974982738494873,0.0,0.0,0.0,42.601375579833984,10.03404426574707,2.8460376262664795,-7710.93408203125,0
1591.616,0.08031833916902542,-0.02712327428162098,0.036974966526031494,0.0,0.0,0.0,0.0,0.0011164691532030702,0.0028659042436629534,3.3413431083317846e-05,0.999111533164978,0.0,0.0,0.0,42.5194091796875,10.021378517150879,2.8473753929138184,-7696.09765625,0
1601.496000000001,0.0785827562212944,-0.02649741806089878,0.035742852836847305,0.0,0.0,0.0,0.0,-0.0006385849555954337,-0.011670592240989208,0.00101998052559793,1.0000072717666626,0.0,0.0,0.0,42.73895263671875,10.05508041381836,2.8644285202026367,-7735.8349609375,0
1611.3930000000018,0.0789593905210495,-0.026667054742574692,0.03599807620048523,0.0,0.0,0.0,0.0,-0.000517366046551615,-0.0010466058738529682,-0.0024335840716958046,0.9988306760787964,0.0,0.0,0.0,42.65580368041992,10.03547477722168,2.875706434249878,-7720.78564453125,0
1621.2670000000016,0.0789593905210495,-0.026667054742574692,0.03599807620048523,0.0,0.0,0.0,0.0,0.0009319685632362962,0.0040585738606750965,0.006840697955340147,0.9963157773017883,0.0,0.0,0.0,42.65580368041992,10.03547477722168,2.875706434249878,-7720.78564453125,0
1631.17,0.07934647053480148,-0.02684439718723297,0.036249611526727676,0.0,0.0,0.0,0.0,-2.3907707600301364e-06,-0.0011624806793406606,0.0005292618297971785,0.9971916675567627,0.0,0.0,0.0,42.57331085205078,10.017356872558594,2.8716344833374023,-7705.85400390625,0
1641.0379999999986,0.07934647053480148,-0.02684439718723297,0.036249611526727676,0.0,0.0,0.0,0.0,-0.0021525355987250805,-0.0014769949484616518,0.0015405804151669145,0.9975451231002808,0.0,0.0,0.0,42.57331085205078,10.017356872558594,2.8716344833374023,-7705.85400390625,0
1650.9359999999997,0.0797470360994339,-0.02702927775681019,0.03649286925792694,0.0,0.0,0.0,0.0,0.0015282754320651293,0.0027883469592779875,0.00033836509101092815,1.000807762145996,0.0,0.0,0.0,42.48991012573242,9.996537208557129,2.8610761165618896,-7690.7578125,0
1660.8089999999993,0.07910352200269699,-0.026662321761250496,0.03600114956498146,0.0,0.0,0.0,0.0,-0.0012259854702278972,-0.00570296635851264,0.0005475040525197983,1.000643253326416,0.0,0.0,0.0,42.695743560791016,10.018999099731445,2.9178006649017334,-7728.0146484375,0
1670.7169999999987,0.07951193302869797,-0.02682911977171898,0.036245591938495636,0.0,0.0,0.0,0.0,0.001765851746313274,0.00026256023556925356,-0.0027147303335368633,1.0004843473434448,0.0,0.0,0.0,42.612693786621094,10.011183738708496,2.90144944190979,-7712.982421875,0
1680.5810000000001,0.07858403027057648,-0.026459721848368645,0.03554282709956169,0.0,0.0,0.0,0.0,0.00023716445139143616,-0.002717649796977639,0.002275935374200344,0.9992899894714355,0.0,0.0,0.0,42.8015251159668,10.024267196655273,2.930269718170166,-7747.1611328125,0
1690.478000000001,0.0789949968457222,-0.02661995217204094,0.03578798100352287,0.0,0.0,0.0,0.0,-0.000541642599273473,-0.00795396976172924,0.00026237391284666955,1.0002436637878418,0.0,0.0,0.0,42.718902587890625,10.015740394592285,2.938089609146118,-7732.20654296875,0
1700.3520000000008,0.0789949968457222,-0.02661995217204094,0.03578798100352287,0.0,0.0,0.0,0.0,0.003379015950486064,0.001963278278708458,0.0004262787406332791,0.999658465385437,0.0,0.0,0.0,42.718902587890625,10.015740394592285,2.938089609146118,-7732.20654296875,0
1710.259,0.07941658049821854,-0.02678561583161354,0.036033980548381805,0.0,0.0,0.0,0.0,-0.002794313943013549,-0.0016753411618992686,0.000927467830479145,0.9976301789283752,0.0,0.0,0.0,42.63582229614258,9.994997024536133,2.9338197708129883,-7717.1689453125,0
1720.1240000000016,0.07941658049821854,-0.02678561583161354,0.036033980548381805,0.0,0.0,0.0,0.0,0.0007155156345106661,-0.00013686191232409328,-0.003056520828977227,0.9984782934188843,0.0,0.0,0.0,42.63582229614258,9.994997024536133,2.9338197708129883,-7717.1689453125,0
1730.0170000000016,0.07985056191682816,-0.026954572647809982,0.036276739090681076,0.0,0.0,0.0,0.0,-0.0009513860568404198,-0.0018325623823329806,0.00035532310721464455,1.0008946657180786,0.0,0.0,0.0,42.55222702026367,9.98010540008545,2.9270992279052734,-7702.0380859375,0
1739.9030000000002,0.07814063131809235,-0.026314647868275642,0.03512804955244064,0.0,0.0,0.0,0.0,-0.001885246834717691,0.004423951730132103,-0.0003307348524685949,1.0000404119491577,0.0,0.0,0.0,42.765647888183594,10.020428657531738,2.945302724838257,-7740.6669921875,0
1749.7929999999997,0.07855107635259628,-0.026467297226190567,0.03537502884864807,0.0,0.0,0.0,0.0,0.00046804960584267974,0.00022587692365050316,-0.002101656747981906,0.9993582963943481,0.0,0.0,0.0,42.68113708496094,10.003558158874512,2.9200122356414795,-7725.37109375,0
1759.6669999999995,0.07724795490503311,-0.025941580533981323,0.03440331295132637,0.0,0.0,0.0,0.0,-0.0007511642761528492,-0.0032278315629810095,-0.004101899452507496,0.9970601797103882,0.0,0.0,0.0,42.88112258911133,10.027873992919922,2.9551336765289307,-7761.56884765625,0
1769.5690000000013,0.07764983922243118,-0.02607983723282814,0.034644536674022675,0.0,0.0,0.0,0.0,-0.0012119939783588052,0.0041914465837180614,0.0016744498861953616,0.9983633160591125,0.0,0.0,0.0,42.79816436767578,10.013188362121582,2.9478750228881836,-7746.55322265625,0
1779.4390000000003,0.07614302635192871,-0.025576597079634666,0.033547598868608475,0.0,0.0,0.0,0.0,-0.0018149536335840821,-0.0020165522582829,-0.000490873004309833,0.998916745185852,0.0,0.0,0.0,42.98176956176758,10.03080940246582,2.954235553741455,-7779.78564453125,0
1789.3410000000022,0.0765305608510971,-0.025711318477988243,0.03378058969974518,0.0,0.0,0.0,0.0,-0.0021800589747726917,0.0039889393374323845,-3.5321307223057374e-05,0.9986117482185364,0.0,0.0,0.0,42.8995361328125,10.022010803222656,2.931657552719116,-7764.9013671875,0
1799.2110000000011,0.07515262812376022,-0.025255003944039345,0.03277818486094475,0.0,0.0,0.0,0.0,-0.0008486296283081174,-0.001707072020508349,0.00228475546464324,0.9988386034965515,0.0,0.0,0.0,43.06590270996094,10.038507461547852,2.935914993286133,-7795.01416015625,0
1809.1070000000018,0.07553090900182724,-0.025393912568688393,0.03300607576966286,0.0,0.0,0.0,0.0,0.0013705590972676873,-0.004547917749732733,-0.001957711996510625,0.9981688261032104,0.0,0.0,0.0,42.982242584228516,10.027257919311523,2.935335636138916,-7779.87158203125,0
1818.9820000000018,0.07553090900182724,-0.025393912568688393,0.03300607576966286,0.0,0.0,0.0,0.0,-0.0025242865085601807,-0.0006834522355347872,0.0001960588851943612,0.9982982873916626,0.0,0.0,0.0,42.982242584228516,10.027257919311523,2.935335636138916,-7779.87158203125,0
1828.8799999999992,0.07592227309942245,-0.025547649711370468,0.03323113173246384,0.0,0.0,0.0,0.0,0.0008296467131003737,-0.0009383977740071714,-0.0009293484617955983,0.9995449185371399,0.0,0.0,0.0,42.89800262451172,10.02177619934082,2.9303576946258545,-7764.6240234375,0
1838.7569999999996,0.07592227309942245,-0.025547649711370468,0.03323113173246384,0.0,0.0,0.0,0.0,-0.0008989532943814993,0.0007802674663253129,0.0006984915817156434,1.0010050535202026,0.0,0.0,0.0,42.89800262451172,10.02177619934082,2.9303576946258545,-7764.6240234375,0
1848.6499999999996,0.0763268694281578,-0.02571519836783409,0.03345559164881706,0.0,0.0,0.0,0.0,-0.003333651227876544,-0.0013788543874397874,0.0011110709747299552,0.995928943157196,0.0,0.0,0.0,42.81438446044922,10.005444526672363,2.92518949508667,-7749.48876953125,0
1858.5249999999996,0.0763268694281578,-0.02571519836783409,0.03345559164881706,0.0,0.0,0.0,0.0,0.0009444411844015121,0.010088678449392319,0.0005453488556668162,0.9953626394271851,0.0,0.0,0.0,42.81438446044922,10.005444526672363,2.92518949508667,-7749.48876953125,0
1868.4230000000007,0.07655148953199387,-0.025810645893216133,0.033576566725969315,0.0,0.0,0.0,0.0,-0.0029988205060362816,0.002911665942519903,-0.00402829609811306,0.9978271722793579,0.0,0.0,0.0,42.77241897583008,10.000327110290527,2.911776304244995,-7741.89306640625,0
1878.2980000000007,0.07675659656524658,-0.02589857578277588,0.033682744950056076,0.0,0.0,0.0,0.0,-0.002415182301774621,0.002188656013458967,0.004492439795285463,0.9977886080741882,0.0,0.0,0.0,42.731014251708984,9.995033264160156,2.8899638652801514,-7734.3984375,0
1888.1980000000021,0.07696384191513062,-0.025987552478909492,0.03378671407699585,0.0,0.0,0.0,0.0,-0.0011599507415667176,0.000737649854272604,-7.989018195075914e-05,0.9977001547813416,0.0,0.0,0.0,42.68886947631836,9.994413375854492,2.8702683448791504,-7726.7705078125,0
1898.0739999999987,0.07717463374137878,-0.02607865259051323,0.033889200538396835,0.0,0.0,0.0,0.0,0.0019865587819367647,-0.0029522411059588194,0.0008585432660765946,1.0001823902130127,0.0,0.0,0.0,42.648155212402344,9.988041877746582,2.8595027923583984,-7719.4013671875,0
1907.9620000000014,0.07738766074180603,-0.026172172278165817,0.03399073705077171,0.0,0.0,0.0,0.0,0.003358206944540143,5.911446123718633e-07,-0.0007985419942997396,0.9988550543785095,0.0,0.0,0.0,42.606285095214844,9.986018180847168,2.845979690551758,-7711.822265625,0
1917.848,0.07760224491357803,-0.026268068701028824,0.03409226983785629,0.0,0.0,0.0,0.0,0.001248519285582006,0.0014014142798259854,0.003048076992854476,0.9996779561042786,0.0,0.0,0.0,42.565635681152344,9.974336624145508,2.848784923553467,-7704.46484375,0
1927.735999999999,0.07781925052404404,-0.026366764679551125,0.03419383987784386,0.0,0.0,0.0,0.0,0.0003053620457649231,-0.0002437423972878605,-0.0005226188222877681,1.00093674659729,0.0,0.0,0.0,42.52376937866211,9.957610130310059,2.8415403366088867,-7696.88623046875,0
1937.6119999999992,0.07599037885665894,-0.025624774396419525,0.0332687608897686,0.0,0.0,0.0,0.0,0.0010219365358352661,-0.0047710663639009,-0.0007789119845256209,0.9975618720054626,0.0,0.0,0.0,42.72642135620117,10.037039756774902,2.8480100631713867,-7733.56689453125,0
1947.514000000001,0.07618262618780136,-0.02570767141878605,0.03338228911161423,0.0,0.0,0.0,0.0,0.002649717265740037,-0.0011964356526732445,-0.001642736722715199,1.000278115272522,0.0,0.0,0.0,42.684173583984375,10.028996467590332,2.842562437057495,-7725.92041015625,0
1957.384,0.07637719064950943,-0.02579091116786003,0.03349516540765762,0.0,0.0,0.0,0.0,-0.0008710238616913557,0.0019978322088718414,-0.0009007343905977905,1.0002977848052979,0.0,0.0,0.0,42.643226623535156,10.024304389953613,2.83815336227417,-7718.5087890625,0
1967.2909999999993,0.076575368642807,-0.025874707847833633,0.0336080901324749,0.0,0.0,0.0,0.0,-0.00023119057004805654,-0.008496892638504505,0.0010140443919226527,1.0000970363616943,0.0,0.0,0.0,42.60097122192383,10.017643928527832,2.8372416496276855,-7710.8603515625,0
1977.1580000000013,0.07677766680717468,-0.02596120908856392,0.03372219204902649,0.0,0.0,0.0,0.0,-0.001045871526002884,-0.00022021094628144056,-0.0016967525007203221,0.9962978363037109,0.0,0.0,0.0,42.560340881347656,10.00888729095459,2.8333396911621094,-7703.50634765625,0
1987.055000000002,0.07698410004377365,-0.0260511115193367,0.03383640944957733,0.0,0.0,0.0,0.0,0.0006012421217747033,-0.0001169766765087843,-0.0020535141229629517,0.9993906021118164,0.0,0.0,0.0,42.51870346069336,10.001798629760742,2.832770347595215,-7695.97021484375,0
1996.929000000002,0.07592711597681046,-0.025623900815844536,0.03334279730916023,0.0,0.0,0.0,0.0,-0.00014548201579600573,-0.002149952808395028,0.0004342928878031671,0.9995228052139282,0.0,0.0,0.0,42.706016540527344,10.05131721496582,2.852768659591675,-7729.87451171875,0
2006.8210000000017,0.07612185925245285,-0.025707008317112923,0.03346360847353935,0.0,0.0,0.0,0.0,0.0028398889116942883,0.0007360436720773578,-0.001688533928245306,0.9994034767150879,0.0,0.0,0.0,42.66466522216797,10.036820411682129,2.832001209259033,-7722.38916015625,0
2016.7090000000007,0.0753028616309166,-0.025342782959342003,0.03297142684459686,0.0,0.0,0.0,0.0,0.003187699243426323,0.005590522661805153,-0.0030301057267934084,0.9995759725570679,0.0,0.0,0.0,42.83144760131836,10.065370559692383,2.860137939453125,-7752.5771484375,0
2026.592999999999,0.07549037784337997,-0.02541704662144184,0.03309563547372818,0.0,0.0,0.0,0.0,-0.0006183480727486312,-0.0035817953757941723,0.0013464514631778002,0.9987825751304626,0.0,0.0,0.0,42.790008544921875,10.0515718460083,2.8328051567077637,-7745.0771484375,0
2036.4770000000008,0.07445623725652695,-0.02506336197257042,0.03230961039662361,0.0,0.0,0.0,0.0,-0.0011857833014801145,-0.003899084636941552,0.0013585026608780026,0.9995277523994446,0.0,0.0,0.0,42.95466613769531,10.056841850280762,2.846848249435425,-7774.8798828125,0
2046.366,0.07463927567005157,-0.025135379284620285,0.032430827617645264,0.0,0.0,0.0,0.0,-0.002068005036562681,0.002156572649255395,-0.002453045453876257,1.0006252527236938,0.0,0.0,0.0,42.912784576416016,10.053873062133789,2.851163864135742,-7767.29931640625,0
2056.2480000000014,0.07482346147298813,-0.025210663676261902,0.032552193850278854,0.0,0.0,0.0,0.0,0.0003782432177104056,-0.002295479876920581,-0.0030203652568161488,0.9991114735603333,0.0,0.0,0.0,42.872154235839844,10.043457984924316,2.8427793979644775,-7759.9453125,0
2066.138000000001,0.07500844448804855,-0.025288430973887444,0.03267429769039154,0.0,0.0,0.0,0.0,-0.002084397478029132,-0.001835293835029006,-0.0024072795640677214,0.9997133016586304,0.0,0.0,0.0,42.830142974853516,10.037229537963867,2.832947015762329,-7752.3408203125,0
2076.013000000001,0.07519524544477463,-0.02536804974079132,0.032796572893857956,0.0,0.0,0.0,0.0,0.003270253539085388,-0.004201565403491259,-0.00027834094362333417,0.9976972341537476,0.0,0.0,0.0,42.78755187988281,10.029664039611816,2.8285293579101562,-7744.6318359375,0
2085.9080000000013,0.07538453489542007,-0.025449838489294052,0.03291842341423035,0.0,0.0,0.0,0.0,-0.0009733944898471236,-0.0021236443426460028,0.0007663426804356277,0.9991462230682373,0.0,0.0,0.0,42.7464714050293,10.021556854248047,2.8351845741271973,-7737.1962890625,0
2095.7929999999997,0.07557551562786102,-0.025534383952617645,0.03303946554660797,0.0,0.0,0.0,0.0,0.0028893640264868736,-0.0015071703819558024,-0.001127176103182137,0.9994509220123291,0.0,0.0,0.0,42.70493698120117,10.011506080627441,2.8138060569763184,-7729.67822265625,0
2105.6859999999997,0.07576768100261688,-0.025621524080634117,0.033159587532281876,0.0,0.0,0.0,0.0,0.002883038716390729,0.002465894678607583,-0.0022016570437699556,0.9983310699462891,0.0,0.0,0.0,42.66461181640625,10.004897117614746,2.8217883110046387,-7722.3798828125,0
2115.5609999999997,0.07420292496681213,-0.0250783022493124,0.03227362781763077,0.0,0.0,0.0,0.0,-0.001276371069252491,0.0004850224358960986,-0.005681723356246948,0.9987385272979736,0.0,0.0,0.0,42.852787017822266,10.046004295349121,2.8094611167907715,-7756.43994140625,0
2125.4519999999993,0.07437684386968613,-0.025159023702144623,0.03240097686648369,0.0,0.0,0.0,0.0,2.1112895410624333e-05,-0.002355085453018546,-0.0007875383598729968,0.9999370574951172,0.0,0.0,0.0,42.81095504760742,10.0300931930542,2.8007078170776367,-7748.86767578125,0
2135.331,0.07455393671989441,-0.025242969393730164,0.032527707517147064,0.0,0.0,0.0,0.0,-0.0010966014815494418,-0.001986631192266941,4.133242691750638e-05,1.0007202625274658,0.0,0.0,0.0,42.76878356933594,10.02530288696289,2.8008980751037598,-7741.23486328125,0
2145.234000000002,0.07473421841859818,-0.025329411029815674,0.03265465050935745,0.0,0.0,0.0,0.0,0.0029862425290048122,-0.0021942344028502703,0.0006368349422700703,1.0014082193374634,0.0,0.0,0.0,42.727745056152344,10.018866539001465,2.8091647624969482,-7733.80712890625,0
2155.1000000000004,0.0749172493815422,-0.025417445227503777,0.032782673835754395,0.0,0.0,0.0,0.0,0.002221957314759493,-0.00394210871309042,-0.0007594816270284355,0.9999352693557739,0.0,0.0,0.0,42.6855354309082,10.010690689086914,2.8099451065063477,-7726.16748046875,0
2164.9990000000016,0.07510359585285187,-0.0255076065659523,0.032912224531173706,0.0,0.0,0.0,0.0,0.0004617504309862852,0.002805447904393077,-0.0015435336390510201,0.999805748462677,0.0,0.0,0.0,42.64420700073242,10.000914573669434,2.81711483001709,-7718.68603515625,0
2174.872000000001,0.0745016559958458,-0.02519315294921398,0.032459791749715805,0.0,0.0,0.0,0.0,0.0004472785221878439,0.004820946138352156,-0.0041013313457369804,0.9989374279975891,0.0,0.0,0.0,42.81180191040039,10.014078140258789,2.8538424968719482,-7749.02099609375,0
2184.7650000000012,0.07469072937965393,-0.025276795029640198,0.032590147107839584,0.0,0.0,0.0,0.0,-0.0006016778061166406,-0.001465731649659574,0.0009659459465183318,0.9989778399467468,0.0,0.0,0.0,42.770023345947266,10.00720500946045,2.846059560775757,-7741.458984375,0
2194.645999999999,0.07392643392086029,-0.024926364421844482,0.032011162489652634,0.0,0.0,0.0,0.0,-0.0026453565806150436,-0.003022056072950363,0.0002531806821934879,0.999222457408905,0.0,0.0,0.0,42.929168701171875,10.02480411529541,2.876530170440674,-7770.265625,0
2204.5379999999986,0.0741143450140953,-0.025006894022226334,0.03213923051953316,0.0,0.0,0.0,0.0,-5.048631282988936e-05,-0.0033563710749149323,0.0012245147954672575,1.0002973079681396,0.0,0.0,0.0,42.88711929321289,10.017264366149902,2.872498035430908,-7762.654296875,0
2214.4179999999997,0.07369132339954376,-0.024788696318864822,0.03177203610539436,0.0,0.0,0.0,0.0,-0.002481898060068488,-0.004902094602584839,0.0011414282489567995,0.9993477463722229,0.0,0.0,0.0,43.00971221923828,10.026368141174316,2.9127111434936523,-7784.84326171875,0
