timestamp,stateEstimate.x,stateEstimate.y,stateEstimate.z,controller.cmd_thrust,controller.cmd_roll,controller.cmd_pitch,controller.cmd_yaw,controller.r_roll,controller.r_pitch,controller.r_yaw,controller.accelz,controller.actuatorThrust,controller.roll,controller.pitch,controller.yaw,controller.rollRate,controller.pitchRate,controller.yawRate,controller.ctr_yaw
0.0,-2.2385285774362274e-05,-0.00014010854647494853,-0.00020290333486627787,0.0,0.0,0.0,0.0,-0.000780329282861203,-0.004701470490545034,0.0013944263337180018,0.9980118870735168,0.0,0.0,0.0,0.31652241945266724,11.618581771850586,2.8302853107452393,-57.29118728637695,0
9.905000000000655,-3.487344292807393e-05,-0.00012680584040936083,-0.00015133729903027415,0.0,0.0,0.0,0.0,0.0017954068025574088,-0.0029831179417669773,-0.00018958188593387604,0.9989378452301025,0.0,0.0,0.0,0.30673226714134216,11.628352165222168,2.8349449634552,-55.51914978027344,0
19.77400000000125,-1.2603940376720857e-05,-0.0001482679508626461,-0.0001869619736680761,0.0,0.0,0.0,0.0,0.0001052159714163281,0.0030801582615822554,-0.00010269662016071379,0.9999198913574219,0.0,0.0,0.0,0.3184053897857666,11.624914169311523,2.850647449493408,-57.63200759887695,0
29.67200000000048,-1.3032308743277099e-05,-0.00018605010700412095,-0.00015685737889725715,0.0,0.0,0.0,0.0,0.0031452190596610308,-9.654497262090445e-05,0.00022334417735692114,1.0001929998397827,0.0,0.0,0.0,0.31105872988700867,11.618969917297363,2.85514235496521,-56.302249908447266,0
39.5530000000017,9.883522579912096e-06,-0.00019764759053941816,-0.0001864946389105171,0.0,0.0,0.0,0.0,-0.0013562249951064587,-0.0032659044954925776,0.003506340319290757,1.0021175146102905,0.0,0.0,0.0,0.3246538043022156,11.61106014251709,2.858407735824585,-58.76298141479492,0
49.447000000000116,-7.993636972969398e-05,-0.00017771965940482914,-0.00014963246940169483,0.0,0.0,0.0,0.0,-0.00046570730046369135,-0.0011104391887784004,-0.0021156996954232454,1.0004340410232544,0.0,0.0,0.0,0.31283777952194214,11.616969108581543,2.842935085296631,-56.62425994873047,0
59.319000000001324,-4.2568226490402594e-05,-0.00017429329454898834,-0.0001951628364622593,0.0,0.0,0.0,0.0,0.003452720120549202,0.0006404276355169713,0.0009866902837529778,1.0006062984466553,0.0,0.0,0.0,0.325506329536438,11.622055053710938,2.8598363399505615,-58.917293548583984,0
69.22900000000118,-2.9030883524683304e-05,-0.000196344408323057,-0.00014783920778427273,0.0,0.0,0.0,0.0,0.0025810315273702145,-0.0010322415037080646,0.0004638124373741448,1.0014957189559937,0.0,0.0,0.0,0.3171742856502533,11.61581802368164,2.8600597381591797,-57.40917205810547,0
79.09200000000055,-2.7449099434306845e-05,-0.0002137914125341922,-0.00013930845307186246,0.0,0.0,0.0,0.0,-0.00012929101649206132,0.0027087675407528877,-0.0023238195572048426,0.9993882775306702,0.0,0.0,0.0,0.32763490080833435,11.609341621398926,2.8488354682922363,-59.30257034301758,0
88.98600000000079,-2.625050456117606e-06,-0.00023141305427998304,-7.456960884155706e-05,0.0,0.0,0.0,0.0,0.0015985650243237615,-0.006258678622543812,0.0012949391966685653,0.9985224008560181,0.0,0.0,0.0,0.3129272758960724,11.607359886169434,2.851905107498169,-56.64045715332031,0
98.8640000000014,3.9014180401864e-06,-0.00024167547235265374,-6.37640041531995e-05,0.0,0.0,0.0,0.0,0.0025124282110482454,-0.008681937120854855,-0.0014908984303474426,0.9990978240966797,0.0,0.0,0.0,0.32677364349365234,11.60288143157959,2.8562839031219482,-59.14667892456055,0
108.76800000000003,-3.0739931389689445e-05,-0.0002547002804931253,-1.7069814930437133e-05,0.0,0.0,0.0,0.0,-0.0008157441043294966,-1.9960731151513755e-05,0.001750474446453154,1.000809669494629,0.0,0.0,0.0,0.31548014283180237,11.599103927612305,2.8621599674224854,-57.10253143310547,0
118.63700000000063,-8.783654266153462e-06,-0.00023973309725988656,-2.2247655579121783e-05,0.0,0.0,0.0,0.0,0.0016850180691108108,-0.005365902557969093,-0.0014530515763908625,1.0006103515625,0.0,0.0,0.0,0.32410889863967896,11.600123405456543,2.870851755142212,-58.66435623168945,0
128.53700000000026,-3.139982800348662e-05,-0.00031757252872921526,-3.154204023303464e-06,0.0,0.0,0.0,0.0,0.0019110776484012604,-0.0013729146448895335,0.005469408817589283,0.9980096220970154,0.0,0.0,0.0,0.3233512043952942,11.591814994812012,2.8834216594696045,-58.52721405029297,0
138.41400000000067,-1.361233717034338e-05,-0.00033273815643042326,-2.50612101808656e-05,0.0,0.0,0.0,0.0,0.002374040661379695,-0.002783413277938962,0.00035210413625463843,0.9981207847595215,0.0,0.0,0.0,0.33578306436538696,11.597137451171875,2.9053149223327637,-60.777400970458984,0
148.3020000000015,-3.5920962545787916e-05,-0.00041225203312933445,-9.555562428431585e-06,0.0,0.0,0.0,0.0,-0.0012330148601904511,-0.0017425481928512454,-0.0004176355723757297,0.9994405508041382,0.0,0.0,0.0,0.3354037404060364,11.576484680175781,2.8950119018554688,-60.708740234375,0
158.19400000000132,8.886401701602153e-06,-0.00032662090961821377,-4.377656296128407e-05,0.0,0.0,0.0,0.0,-0.001601685769855976,-0.0002908961323555559,0.002105455845594406,0.9976533055305481,0.0,0.0,0.0,0.34746354818344116,11.61567497253418,2.9298617839813232,-62.89159393310547,0
168.08300000000054,-2.7466658139019273e-06,-0.0003993365098722279,-3.3751573937479407e-05,0.0,0.0,0.0,0.0,-0.0032645496539771557,-0.004748825915157795,0.0022656614892184734,0.9980941414833069,0.0,0.0,0.0,0.3475489914417267,11.604779243469238,2.9235684871673584,-62.90705871582031,0
177.95500000000175,5.044584031566046e-05,-0.00032539808307774365,-6.904199835844338e-05,0.0,0.0,0.0,0.0,0.0008804700337350368,0.0036401536781340837,-0.0008143089362420142,0.9969714283943176,0.0,0.0,0.0,0.35857129096984863,11.647355079650879,2.972670078277588,-64.90211486816406,0
187.85000000000036,-1.1838100363092963e-05,-0.00028193075559102,-1.757799691404216e-05,0.0,0.0,0.0,0.0,0.002231932245194912,-0.0006451847730204463,-9.707016579341143e-05,0.9978472590446472,0.0,0.0,0.0,0.34678635001182556,11.668288230895996,2.9352574348449707,-62.76902389526367,0
197.7380000000012,9.212145232595503e-05,-0.0001545405393699184,-0.00010557533096289262,0.0,0.0,0.0,0.0,-0.001216481439769268,-0.002042201114818454,0.0015214739833027124,0.9983504414558411,0.0,0.0,0.0,0.35632333159446716,11.692615509033203,2.9594249725341797,-64.49523162841797,0
207.62900000000081,-4.1717274143593386e-05,-0.0001267562183784321,-0.00011135444219689816,0.0,0.0,0.0,0.0,-0.0014432382304221392,-0.001910352031700313,0.001956554828211665,1.0001347064971924,0.0,0.0,0.0,0.3461388349533081,11.699575424194336,2.927554130554199,-62.651817321777344,0
217.51300000000083,4.008681571576744e-05,-4.267912663635798e-05,-0.00018634770822245628,0.0,0.0,0.0,0.0,0.002354684751480818,-0.0011925279395654798,-0.00405737804248929,1.000803828239441,0.0,0.0,0.0,0.3579722046852112,11.712373733520508,2.9478001594543457,-64.79368591308594,0
227.39900000000125,1.97110312001314e-05,-2.614108962006867e-05,-0.000158756593009457,0.0,0.0,0.0,0.0,0.0016243199352174997,0.0010581542737782001,0.0015922783641144633,1.0018092393875122,0.0,0.0,0.0,0.34574466943740845,11.713969230651855,2.9375789165496826,-62.58047103881836,0
237.28500000000167,6.464153557317331e-05,-1.1129554877697956e-06,-0.00019856907601933926,0.0,0.0,0.0,0.0,0.0037559778429567814,-0.0028085033409297466,-0.002038756851106882,1.0006994009017944,0.0,0.0,0.0,0.3580712080001831,11.716225624084473,2.946798801422119,-64.81160736083984,0
247.1740000000009,6.817726534791291e-05,-4.262066795490682e-05,-0.00019246130250394344,0.0,0.0,0.0,0.0,0.0009372637723572552,-0.0050002592615783215,-0.001890406128950417,0.9999871850013733,0.0,0.0,0.0,0.34723737835884094,11.697704315185547,2.940446615219116,-62.85065460205078,0
257.0570000000007,7.189909229055047e-05,-9.039339056471363e-05,-0.00019418529700487852,0.0,0.0,0.0,0.0,0.0006373171345330775,-0.0014373613521456718,-0.0005120752030052245,0.9983615875244141,0.0,0.0,0.0,0.35416752099990845,11.689163208007812,2.94266414642334,-64.10502624511719,0
266.94600000000173,-2.9636177714564838e-05,-8.93605247256346e-05,-0.00019379061996005476,0.0,0.0,0.0,0.0,0.003890479449182749,-0.0015113522531464696,-0.0006198038463480771,0.9976184964179993,0.0,0.0,0.0,0.34292730689048767,11.684854507446289,2.927048444747925,-62.07052230834961,0
276.8190000000013,-1.0605428542476147e-05,-0.00010800909512909129,-0.00021009243209846318,0.0,0.0,0.0,0.0,0.0016543728997930884,-0.001165937283076346,-0.0016559442738071084,1.0008817911148071,0.0,0.0,0.0,0.35428428649902344,11.676721572875977,2.934250831604004,-64.12616729736328,0
286.7220000000016,3.121149347862229e-05,-0.00012379490362945944,-0.00017308510723523796,0.0,0.0,0.0,0.0,0.001151296659372747,-0.004933375399559736,-0.0006156901363283396,0.9965442419052124,0.0,0.0,0.0,0.3412591218948364,11.66738510131836,2.946126699447632,-61.768577575683594,0
296.59100000000035,1.4027805264049675e-05,-0.00021373474737629294,-0.0001622698036953807,0.0,0.0,0.0,0.0,-0.0004406814114190638,0.0006355166551657021,-0.0006896280683577061,0.9983223676681519,0.0,0.0,0.0,0.35239920020103455,11.65324878692627,2.95646595954895,-63.78495407104492,0
306.4850000000006,-6.040557491360232e-05,-0.0001814486604416743,-0.00013272017531562597,0.0,0.0,0.0,0.0,0.0025581857189536095,0.008355173282325268,-0.0018938836874440312,1.001366376876831,0.0,0.0,0.0,0.3386417329311371,11.650203704833984,2.9396140575408936,-61.294830322265625,0
316.366,-4.825345240533352e-05,-0.00019692980276886374,-0.00013243162538856268,0.0,0.0,0.0,0.0,0.0011509920004755259,-0.0006133657298050821,0.0017893259646371007,1.0014947652816772,0.0,0.0,0.0,0.348486989736557,11.6442232131958,2.9377529621124268,-63.076839447021484,0
326.26300000000083,7.270404694281751e-06,-0.0002161010488634929,-8.33332451293245e-05,0.0,0.0,0.0,0.0,-2.0832055724895326e-06,0.0018123527988791466,-0.0022778583224862814,0.997170627117157,0.0,0.0,0.0,0.33669552206993103,11.633942604064941,2.9470205307006836,-60.94255828857422,0
336.1370000000006,6.474688416346908e-05,-0.00018764061678666621,-0.00011776502651628107,0.0,0.0,0.0,0.0,0.003384784096851945,0.0005584934260696173,0.002096229698508978,0.9999526739120483,0.0,0.0,0.0,0.3453544080257416,11.634496688842773,2.9463326930999756,-62.50983810424805,0
346.02700000000004,-2.2522281142300926e-05,-0.00020840072829741985,-0.00011415180051699281,0.0,0.0,0.0,0.0,-0.0008929175091907382,-0.00030527522903867066,-9.705417323857546e-05,0.9998138546943665,0.0,0.0,0.0,0.3350115418434143,11.626483917236328,2.924342632293701,-60.637760162353516,0
355.91300000000047,7.352641841862351e-05,-0.00010330422810511664,-0.00017501547699794173,0.0,0.0,0.0,0.0,-0.0004835167492274195,-0.002866192953661084,0.002274084137752652,1.0011402368545532,0.0,0.0,0.0,0.3463311791419983,11.645705223083496,2.945483446121216,-62.68663787841797,0
365.8060000000005,5.707180025638081e-05,-0.0001291777880396694,-0.0001576797803863883,0.0,0.0,0.0,0.0,0.001209487090818584,-0.0016884880606085062,-0.00011644044570857659,0.9994876384735107,0.0,0.0,0.0,0.3344862461090088,11.646889686584473,2.941316843032837,-60.54267501831055,0
375.6920000000009,0.00011274181451881304,-0.00013020641927141696,-0.00020725619106087834,0.0,0.0,0.0,0.0,0.002079976722598076,-0.0026795179583132267,0.0010220198892056942,0.9972392320632935,0.0,0.0,0.0,0.34625861048698425,11.646720886230469,2.9655942916870117,-62.67350387573242,0
385.57800000000134,5.015430360799655e-05,-0.00013129827857483178,-0.00019353561219759285,0.0,0.0,0.0,0.0,-0.002066470915451646,-0.00015081446326803416,0.0010026841191574931,0.999589204788208,0.0,0.0,0.0,0.3372414708137512,11.642538070678711,2.969020128250122,-61.041378021240234,0
395.46000000000095,7.443919457728043e-05,-0.00015822978457435966,-0.00021025414753239602,0.0,0.0,0.0,0.0,0.002268493641167879,0.000993410125374794,0.0003673687460832298,0.9978546500205994,0.0,0.0,0.0,0.34772077202796936,11.637984275817871,2.970402479171753,-62.938148498535156,0
405.3550000000014,4.624907160177827e-05,-0.0001567930303281173,-0.00018202004139311612,0.0,0.0,0.0,0.0,-0.0015159728936851025,-0.003868306754156947,0.001586292521096766,0.9983769059181213,0.0,0.0,0.0,0.3356139659881592,11.63585376739502,2.9624979496002197,-60.746795654296875,0
415.2300000000014,7.764145266264677e-05,-0.00015827565221115947,-0.00019722944125533104,0.0,0.0,0.0,0.0,-0.0009950778912752867,0.0036530543584376574,0.0013254189398139715,1.0018891096115112,0.0,0.0,0.0,0.34289753437042236,11.635323524475098,2.959019422531128,-62.06513595581055,0
425.1220000000012,4.844426439376548e-05,-0.00016032095300033689,-0.0001712775556370616,0.0,0.0,0.0,0.0,0.0007028849213384092,-0.0018309111474081874,-0.0035220591817051172,1.0000320672988892,0.0,0.0,0.0,0.33206719160079956,11.635422706604004,2.943887233734131,-60.10482406616211,0
434.9990000000016,8.972455543698743e-05,-0.00016908535326365381,-0.00019845044880639762,0.0,0.0,0.0,0.0,-0.0010545533150434494,-0.00020334622240625322,0.0014147404581308365,0.9996470808982849,0.0,0.0,0.0,0.3406684398651123,11.640138626098633,2.94230055809021,-61.66166687011719,0
444.89200000000164,5.309736661729403e-05,-0.0001602407282916829,-0.00016856072761584073,0.0,0.0,0.0,0.0,0.0009521655738353729,-0.003998474683612585,0.002580544212833047,1.0002822875976562,0.0,0.0,0.0,0.3292078673839569,11.64345932006836,2.9368529319763184,-59.5872802734375,0
454.77100000000064,9.176171442959458e-05,-0.00017283762281294912,-0.00018824334256350994,0.0,0.0,0.0,0.0,0.0018615697044879198,-0.0008699676254764199,0.0021465264726430178,0.9988057017326355,0.0,0.0,0.0,0.33915284276008606,11.644269943237305,2.9537408351898193,-61.3873405456543,0
464.6670000000013,-2.252759259135928e-05,-0.00014186816406436265,-0.0001695844839559868,0.0,0.0,0.0,0.0,0.0006850145291537046,-0.0015224544331431389,0.003273044480010867,0.9980069994926453,0.0,0.0,0.0,0.3278655707836151,11.644990921020508,2.9379425048828125,-59.344322204589844,0
474.5450000000001,1.5363348211394623e-05,-0.00014346989337354898,-0.00018741025996860117,0.0,0.0,0.0,0.0,0.0010620945831760764,0.0025628716684877872,0.0010708156041800976,0.9992678761482239,0.0,0.0,0.0,0.3393852114677429,11.64422607421875,2.937652349472046,-61.42939758300781,0
484.4370000000017,-5.075319859315641e-05,-0.00012618479377124459,-0.00016559724463149905,0.0,0.0,0.0,0.0,0.002452309476211667,-0.00498264329507947,0.0012092066463083029,1.0006704330444336,0.0,0.0,0.0,0.329969197511673,11.641642570495605,2.9152698516845703,-59.72508239746094,0
494.3160000000007,-4.292923767934553e-05,-0.00015283685934264213,-0.00015214939776342362,0.0,0.0,0.0,0.0,-0.00046477827709168196,0.00018213938164990395,0.002752048661932349,0.9983077645301819,0.0,0.0,0.0,0.330071359872818,11.625556945800781,2.91595721244812,-59.74357223510742,0
504.21000000000095,-7.734684186289087e-05,-0.00014749588444828987,-0.00012218976917210966,0.0,0.0,0.0,0.0,0.002693039132282138,0.004445004742592573,-0.0005497760139405727,0.9967221617698669,0.0,0.0,0.0,0.3193412125110626,11.616674423217773,2.9076991081237793,-57.8013916015625,0
514.0900000000001,-6.343722634483129e-05,-0.0001763685286277905,-0.00012001371214864776,0.0,0.0,0.0,0.0,-0.0007612314075231552,-0.00022988831915427,0.0001727932394715026,0.9991665482521057,0.0,0.0,0.0,0.3286922574043274,11.60122013092041,2.912114143371582,-59.49394989013672,0
523.9940000000006,-6.015691178617999e-05,-0.0001622526760911569,-7.66725861467421e-05,0.0,0.0,0.0,0.0,-9.89735999610275e-05,-0.00578969344496727,-0.0023108317982405424,0.9983797669410706,0.0,0.0,0.0,0.32154327630996704,11.60429859161377,2.9179303646087646,-58.19997787475586,0
533.8630000000012,-5.156533120498352e-07,-0.00013330117508303374,-0.00011754459410440177,0.0,0.0,0.0,0.0,-0.0013239767868071795,-0.0008580901194363832,-0.004617411643266678,0.9990540146827698,0.0,0.0,0.0,0.3293837606906891,11.608695983886719,2.929344654083252,-59.61912155151367,0
543.7600000000002,-3.2358235330320895e-05,-0.00017789554840419441,-0.00011020097008440644,0.0,0.0,0.0,0.0,0.0008898456580936909,-0.0013476940803229809,0.0017326590605080128,0.9990007877349854,0.0,0.0,0.0,0.32012939453125,11.602317810058594,2.9244027137756348,-57.944061279296875,0
553.634,1.1906199688382912e-05,-0.00018286568229086697,-0.00014086143346503377,0.0,0.0,0.0,0.0,-0.002616223180666566,-0.003115609521046281,-0.0007180116372182965,0.9974036812782288,0.0,0.0,0.0,0.33067843317985535,11.598282814025879,2.933042049407959,-59.853450775146484,0
563.5280000000002,1.75635505001992e-05,-0.0001872350403573364,-0.00010317337000742555,0.0,0.0,0.0,0.0,0.0009850453352555633,-0.0013913951115682721,0.0028786056209355593,0.9978321194648743,0.0,0.0,0.0,0.31965869665145874,11.598779678344727,2.936140775680542,-57.858863830566406,0
573.4150000000009,7.395052671199664e-05,-0.00017587137699592859,-0.0001419620675733313,0.0,0.0,0.0,0.0,0.0013124598190188408,-0.000332495488692075,-0.004413639660924673,0.9986853003501892,0.0,0.0,0.0,0.3339802026748657,11.601136207580566,2.9503064155578613,-60.451080322265625,0
583.3080000000009,2.2682004782836884e-05,-0.00017930824833456427,-0.00013185972056817263,0.0,0.0,0.0,0.0,-0.0013364719925448298,-0.0007014360162429512,-0.0009158122702501714,1.0005711317062378,0.0,0.0,0.0,0.32474321126937866,11.595646858215332,2.937934160232544,-58.77916717529297,0
593.1830000000009,6.850587669759989e-05,-0.0001654428633628413,-0.00016078764747362584,0.0,0.0,0.0,0.0,-0.0041954838670790195,4.294429163564928e-05,0.0034026100765913725,0.9996859431266785,0.0,0.0,0.0,0.3302614986896515,11.599848747253418,2.950963258743286,-59.777984619140625,0
603.0760000000009,4.884357258561067e-05,-0.00017085165018215775,-0.00013726743054576218,0.0,0.0,0.0,0.0,0.0012149461545050144,0.00622648885473609,-0.0023660308215767145,1.0005466938018799,0.0,0.0,0.0,0.31873348355293274,11.600387573242188,2.9562981128692627,-57.69139099121094,0
612.9580000000005,9.37974764383398e-05,-0.0001618943060748279,-0.00016086531104519963,0.0,0.0,0.0,0.0,0.0012985317735001445,-0.0013215952785685658,-0.0010040997294709086,0.99617600440979,0.0,0.0,0.0,0.3279562294483185,11.60110855102539,2.9550914764404297,-59.3607292175293,0
622.8460000000014,2.8421147362678312e-05,-0.00018034808454103768,-0.00016109539137687534,0.0,0.0,0.0,0.0,0.0033914591185748577,-0.006018731743097305,-0.003173018805682659,1.0003254413604736,0.0,0.0,0.0,0.3277927339076996,11.584159851074219,2.9528067111968994,-59.331138610839844,0
632.7250000000004,7.05997008481063e-05,-0.00018902703595813364,-0.00018884778546635062,0.0,0.0,0.0,0.0,0.0020751492120325565,-0.0003706937422975898,7.281437865458429e-05,0.9989051222801208,0.0,0.0,0.0,0.3372679352760315,11.576544761657715,2.9709556102752686,-61.04616928100586,0
642.621000000001,1.8170123439631425e-05,-0.00013921153731644154,-0.00014816490875091404,0.0,0.0,0.0,0.0,-0.0005381571245379746,0.002789352787658572,0.003934131003916264,0.9976744651794434,0.0,0.0,0.0,0.32712826132774353,11.584595680236816,2.9663920402526855,-59.21086502075195,0
652.5030000000006,5.876927025383338e-05,-0.00016494347073603421,-0.00017796899192035198,0.0,0.0,0.0,0.0,-0.0005592001252807677,-0.0013618633383885026,0.0004220715491101146,0.9985094666481018,0.0,0.0,0.0,0.3358665704727173,11.589012145996094,2.9695308208465576,-60.79251480102539,0
662.3950000000004,-8.288683602586389e-06,-0.00011086347512900829,-0.00014378517516888678,0.0,0.0,0.0,0.0,0.0017931772163137794,-0.002463007578626275,-0.0001547667634440586,0.9997164011001587,0.0,0.0,0.0,0.3253447711467743,11.600696563720703,2.9559192657470703,-58.88805389404297,0
672.2710000000006,6.550578837050125e-05,-6.514327105833218e-05,-0.00019189438899047673,0.0,0.0,0.0,0.0,0.0019229180179536343,0.0036538566928356886,-0.0020597174298018217,1.0013401508331299,0.0,0.0,0.0,0.3369210362434387,11.60393238067627,2.9633069038391113,-60.98337936401367,0
682.1720000000005,2.6366494694229914e-06,-4.732293382403441e-05,-0.0001784914347808808,0.0,0.0,0.0,0.0,0.0002263292990392074,-0.00441798847168684,0.003384636016562581,0.9995470643043518,0.0,0.0,0.0,0.3280707895755768,11.607735633850098,2.9432826042175293,-59.381465911865234,0
692.0520000000015,2.0070598111487925e-05,-0.00010717091208789498,-0.0001933370513143018,0.0,0.0,0.0,0.0,-0.00011082412675023079,-0.00034790055360645056,0.0019866658840328455,0.9975627660751343,0.0,0.0,0.0,0.3365233540534973,11.597835540771484,2.9441051483154297,-60.911399841308594,0
701.9380000000001,-3.968993769376539e-05,-0.00010854416905203834,-0.00018272177840117365,0.0,0.0,0.0,0.0,-0.00023231653904076666,0.004374476615339518,-0.001155478530563414,0.9984812140464783,0.0,0.0,0.0,0.326206773519516,11.598873138427734,2.9464383125305176,-59.04407501220703,0
711.8210000000017,1.0957872973449412e-06,-0.0001128504954976961,-0.00020706035138573498,0.0,0.0,0.0,0.0,0.0003220652579329908,0.0010769761865958571,-0.00025804818142205477,0.9989451169967651,0.0,0.0,0.0,0.33380651473999023,11.595194816589355,2.947693347930908,-60.419639587402344,0
721.7200000000012,-4.8630066885380074e-05,-9.114908607443795e-05,-0.00018377718515694141,0.0,0.0,0.0,0.0,0.0021009326446801424,-0.0006065880297683179,2.386680534982588e-05,0.9979643225669861,0.0,0.0,0.0,0.3202282786369324,11.59898853302002,2.9252171516418457,-57.96195983886719,0
731.5960000000014,-4.879919652012177e-05,-0.00012632149446289986,-0.00016489889821968973,0.0,0.0,0.0,0.0,-0.0005071619525551796,-0.007797321770340204,0.0010463058715686202,0.9996412992477417,0.0,0.0,0.0,0.3181705176830292,11.582533836364746,2.933445930480957,-57.58949661254883,0
741.4840000000004,-7.283101149369031e-05,-0.0001351180690107867,-0.00014405192632693797,0.0,0.0,0.0,0.0,0.002317336853593588,0.003804440377280116,-0.000773106177803129,0.9977582693099976,0.0,0.0,0.0,0.30731767416000366,11.573427200317383,2.9436092376708984,-55.6251106262207,0
751.3630000000012,-6.716753705404699e-05,-0.00022169908334035426,-0.000154865367221646,0.0,0.0,0.0,0.0,-0.0015220267232507467,-0.003788112662732601,-0.0023701011668890715,0.9979819655418396,0.0,0.0,0.0,0.318790465593338,11.560064315795898,2.937209129333496,-57.70170593261719,0
761.2570000000014,-8.658451406517997e-05,-0.00019917591998819262,-0.00011481747787911445,0.0,0.0,0.0,0.0,-0.0017280111787840724,-0.005320264492183924,-0.000299294973956421,0.9977347254753113,0.0,0.0,0.0,0.3065072298049927,11.564881324768066,2.930753707885742,-55.478416442871094,0
771.1460000000006,-5.315522139426321e-05,-0.00019016786245629191,-0.00011945269943680614,0.0,0.0,0.0,0.0,0.0006128633394837379,-0.0044977618381381035,-0.0009345158468931913,0.9957731366157532,0.0,0.0,0.0,0.3133029341697693,11.569193840026855,2.947791814804077,-56.70845413208008,0
781.0350000000017,-8.801146759651601e-05,-0.00017526355804875493,-8.829634316498414e-05,0.0,0.0,0.0,0.0,0.00012619199696928263,-0.0012771543115377426,-0.001865796628408134,0.9986938238143921,0.0,0.0,0.0,0.30383041501045227,11.570355415344238,2.9466025829315186,-54.99391174316406,0
790.9070000000011,-5.410761514212936e-05,-0.00019196361245121807,-0.00010602252586977556,0.0,0.0,0.0,0.0,0.0018672948936000466,0.0025768938940018415,0.000810942379757762,0.9994910359382629,0.0,0.0,0.0,0.315268874168396,11.568153381347656,2.961162567138672,-57.064292907714844,0
800.8070000000007,-4.9012480303645134e-05,-0.0002381502272328362,-9.563832281855866e-05,0.0,0.0,0.0,0.0,-0.001245321473106742,-0.0022859645541757345,0.0005347288097254932,0.9998849034309387,0.0,0.0,0.0,0.3065832853317261,11.559699058532715,2.9589762687683105,-55.4921875,0
810.6810000000005,2.1962950995657593e-05,-0.00021403153368737549,-0.0001471930299885571,0.0,0.0,0.0,0.0,0.0004621455445885658,0.0014979572733864188,-0.0012089958181604743,0.9982829689979553,0.0,0.0,0.0,0.318955659866333,11.566732406616211,2.973393440246582,-57.73160934448242,0
820.5890000000018,1.9754686945816502e-05,-0.00021133528207428753,-0.00011764036025851965,0.0,0.0,0.0,0.0,-0.0020924676209688187,0.0037578691262751818,-0.0007481914362870157,0.9982535243034363,0.0,0.0,0.0,0.3082219064235687,11.558619499206543,2.972949504852295,-55.788780212402344,0
830.4530000000013,8.155056275427341e-05,-0.00017478321387898177,-0.00014935506624169648,0.0,0.0,0.0,0.0,0.0024862620048224926,0.000637714343611151,-0.0038276861887425184,0.9970051646232605,0.0,0.0,0.0,0.320010781288147,11.567134857177734,2.956465721130371,-57.92258834838867,0
840.3590000000004,6.093297270126641e-05,-0.00017368911358062178,-0.0001289880310650915,0.0,0.0,0.0,0.0,-0.0002504298463463783,0.0013478589244186878,0.0012686388799920678,1.000319242477417,0.0,0.0,0.0,0.30714669823646545,11.565512657165527,2.9468469619750977,-55.59416580200195,0
850.2310000000016,0.00010253555228700861,-0.00019608231377787888,-0.00015616360178682953,0.0,0.0,0.0,0.0,0.0010518550407141447,0.0030642712954431772,-0.003046051599085331,1.00064218044281,0.0,0.0,0.0,0.320703387260437,11.566598892211914,2.949211597442627,-58.047950744628906,0
860.125,2.3476148271583952e-05,-0.00019137207709718496,-0.0001562826510053128,0.0,0.0,0.0,0.0,0.0004505344550125301,-0.0026602554135024548,0.0020820938516408205,0.9995028376579285,0.0,0.0,0.0,0.3147294223308563,11.56649398803711,2.922834634780884,-56.966651916503906,0
870.0,0.00010904478403972462,-0.00016124879766721278,-0.00022618399816565216,0.0,0.0,0.0,0.0,0.0029780170880258083,0.0030476562678813934,0.00024728590506128967,0.9985104203224182,0.0,0.0,0.0,0.3260922431945801,11.57165813446045,2.9310178756713867,-59.023345947265625,0
879.898000000001,3.9060323615558445e-05,-0.00015595571312587708,-0.00022624047414865345,0.0,0.0,0.0,0.0,-0.0018579544266685843,-0.0009685774566605687,0.005836412776261568,0.99916672706604,0.0,0.0,0.0,0.326473206281662,11.55643081665039,2.915286064147949,-59.09230041503906,0
889.7760000000017,0.00015478052955586463,-6.901226879563183e-05,-0.000316023884806782,0.0,0.0,0.0,0.0,-0.0011286349035799503,-0.0035007649566978216,0.0031583402305841446,0.9978389739990234,0.0,0.0,0.0,0.3380778133869171,11.56904411315918,2.938356637954712,-61.192752838134766,0
899.6650000000009,9.756307554198429e-05,-6.54167597531341e-05,-0.00031655951170250773,0.0,0.0,0.0,0.0,-0.00034803178277797997,-0.0013306972105056047,0.0008538338588550687,0.9979809522628784,0.0,0.0,0.0,0.3277590274810791,11.570869445800781,2.9297263622283936,-59.325035095214844,0
909.5490000000009,0.0001466810645069927,-6.023815512889996e-05,-0.0003474733093753457,0.0,0.0,0.0,0.0,-0.00015200643974822015,3.1218089134199545e-05,-0.0015293839387595654,0.9976827502250671,0.0,0.0,0.0,0.3381975591182709,11.575024604797363,2.938654899597168,-61.21443176269531,0
919.4380000000001,7.607400766573846e-05,-1.4631813428422902e-05,-0.00033209967659786344,0.0,0.0,0.0,0.0,-0.0029230474028736353,-0.0006894238176755607,1.8887380065280013e-05,0.9963573813438416,0.0,0.0,0.0,0.3274783194065094,11.589704513549805,2.9195797443389893,-59.274227142333984,0
929.3280000000013,0.00010185354767600074,-3.345697405165993e-05,-0.0003492215764708817,0.0,0.0,0.0,0.0,-0.0010771809611469507,-0.0010256043169647455,0.0007291486253961921,0.9974481463432312,0.0,0.0,0.0,0.3347732424736023,11.58991813659668,2.9143245220184326,-60.59462356567383,0
939.2170000000006,1.6483016224810854e-05,-1.8369588360656053e-05,-0.0003516816068440676,0.0,0.0,0.0,0.0,0.0028309409972280264,-0.00446590781211853,-0.003197932383045554,0.9976446032524109,0.0,0.0,0.0,0.3234652280807495,11.597397804260254,2.9115474224090576,-58.5478515625,0
949.094000000001,-3.141888009849936e-05,-0.00013664485595654696,-0.00030841666739434004,0.0,0.0,0.0,0.0,0.0020931994076818228,0.008481494151055813,-0.003518658922985196,0.9998776316642761,0.0,0.0,0.0,0.3305079936981201,11.572579383850098,2.9156301021575928,-59.822601318359375,0
958.9800000000014,-6.51764712529257e-05,-0.00010407212539575994,-0.0002816909400280565,0.0,0.0,0.0,0.0,0.0006987705128267407,-0.005689614452421665,0.0035407464019954205,1.0019981861114502,0.0,0.0,0.0,0.31976595520973206,11.574809074401855,2.8863301277160645,-57.878273010253906,0
968.8650000000016,-8.105004962999374e-05,-0.00021894992096349597,-0.0002739127376116812,0.0,0.0,0.0,0.0,0.0018172652926295996,-0.00017034767370205373,-5.3996503993403167e-05,1.0036242008209229,0.0,0.0,0.0,0.3295777142047882,11.555750846862793,2.881124258041382,-59.65422439575195,0
978.7690000000002,-8.003987750271335e-05,-0.0001941821101354435,-0.0002276970917591825,0.0,0.0,0.0,0.0,0.0017098443349823356,-0.004664620850235224,0.00310796988196671,1.001320481300354,0.0,0.0,0.0,0.31842103600502014,11.552486419677734,2.872729539871216,-57.63484191894531,0
988.6370000000006,-6.0353460867190734e-05,-0.00022066023666411638,-0.00021677363838534802,0.0,0.0,0.0,0.0,-0.00043018755968660116,0.0024044897872954607,0.001674775267019868,0.9984313249588013,0.0,0.0,0.0,0.328169584274292,11.547599792480469,2.875363349914551,-59.39934539794922,0
998.5310000000009,-4.54901201010216e-05,-0.0001753707620082423,-0.00014699135499540716,0.0,0.0,0.0,0.0,-2.5033237761817873e-05,-0.0009906359482556581,-0.0020340813789516687,0.9991012215614319,0.0,0.0,0.0,0.3178856074810028,11.557976722717285,2.876502513885498,-57.53792953491211,0
1008.4080000000013,-2.6583653379930183e-05,-0.00024992128601297736,-0.00014928779273759574,0.0,0.0,0.0,0.0,-0.0008407325949519873,0.003540063975378871,0.0016003705095499754,0.9999297857284546,0.0,0.0,0.0,0.3279672861099243,11.549521446228027,2.871816396713257,-59.362735748291016,0
1018.3080000000009,-8.973052899818867e-05,-0.00022598565556108952,-0.0001094255640055053,0.0,0.0,0.0,0.0,-0.001429012743756175,-0.00048136405530385673,-0.002776494948193431,1.001267433166504,0.0,0.0,0.0,0.31980812549591064,11.550248146057129,2.8560309410095215,-57.88591003417969,0
1028.1850000000013,-5.5096785217756405e-05,-0.000269760494120419,-0.00012032921222271398,0.0,0.0,0.0,0.0,0.0005022260011173785,-0.004856350366026163,0.0032814200967550278,0.9990977644920349,0.0,0.0,0.0,0.32972437143325806,11.547335624694824,2.86507248878479,-59.68077087402344,0
1038.0730000000003,-2.2218871890800074e-05,-0.00026339947362430394,-5.655044878949411e-05,0.0,0.0,0.0,0.0,0.0024959417060017586,0.008831466548144817,-0.0011770002311095595,0.9993380308151245,0.0,0.0,0.0,0.32085761427879333,11.551690101623535,2.8809587955474854,-58.07586669921875,0
1047.9540000000015,2.6228732167510316e-05,-0.0003000986180268228,-6.942328764125705e-05,0.0,0.0,0.0,0.0,-0.00021997727162670344,-0.0019782313611358404,-0.0005547171458601952,0.9980075359344482,0.0,0.0,0.0,0.33090940117836,11.54112434387207,2.8735032081604004,-59.895259857177734,0
1057.8490000000002,2.2989297576714307e-06,-0.00028855312848463655,-1.7764605217962526e-05,0.0,0.0,0.0,0.0,0.0007275177631527185,0.0031287120655179024,-0.0013666850281879306,0.9984163045883179,0.0,0.0,0.0,0.3201891779899597,11.545114517211914,2.860572576522827,-57.95487594604492,0
1067.7270000000008,0.00010491784632904455,-0.00025120191276073456,-7.191913755377755e-05,0.0,0.0,0.0,0.0,-0.0008006604039110243,0.0012823613360524178,0.0004948218702338636,0.9978705644607544,0.0,0.0,0.0,0.329246461391449,11.554228782653809,2.8636655807495117,-59.594268798828125,0
1077.612000000001,2.471703919582069e-05,-0.00023895343474578112,-4.412246562424116e-05,0.0,0.0,0.0,0.0,0.00144498934969306,-0.0024605465587228537,-0.0015249927528202534,0.9965313673019409,0.0,0.0,0.0,0.31949540972709656,11.556612014770508,2.8312745094299316,-57.829307556152344,0
1087.4990000000016,0.00010692778596421704,-0.0002194053231505677,-8.55155085446313e-05,0.0,0.0,0.0,0.0,-1.9702789359143935e-05,-0.009534352459013462,-0.0006902606692165136,0.9982846975326538,0.0,0.0,0.0,0.32974377274513245,11.560675621032715,2.843306303024292,-59.68427658081055,0
1097.3900000000012,4.480290590436198e-05,-0.00021822252892889082,-6.2646868173033e-05,0.0,0.0,0.0,0.0,0.0034727216698229313,-0.0003149770782329142,-0.0015756149077787995,0.9990355372428894,0.0,0.0,0.0,0.3180404603481293,11.563748359680176,2.8345022201538086,-57.56595230102539,0
1107.2720000000008,0.00015776179498061538,-0.00013862027844879776,-0.00012916458945255727,0.0,0.0,0.0,0.0,6.135342846391723e-05,-0.00036759773502126336,0.0014005206758156419,1.000420093536377,0.0,0.0,0.0,0.3271293342113495,11.573898315429688,2.8553318977355957,-59.211063385009766,0
1117.1680000000015,1.5172825442277826e-05,-9.76920491666533e-05,-0.00012067075294908136,0.0,0.0,0.0,0.0,0.002128555439412594,0.007441691588610411,-0.0022078154142946005,1.000440239906311,0.0,0.0,0.0,0.3181474506855011,11.583966255187988,2.8243017196655273,-57.585323333740234,0
1127.0440000000017,0.00010115480108652264,-6.252738239709288e-05,-0.00017613489762879908,0.0,0.0,0.0,0.0,0.0011786288814619184,0.00042393701733089983,-0.0012525002239271998,0.9989180564880371,0.0,0.0,0.0,0.3284332752227783,11.594038963317871,2.8250784873962402,-59.44707489013672,0
1136.9300000000003,-6.117159045970766e-07,-7.041283970465884e-05,-0.00017919485981110483,0.0,0.0,0.0,0.0,0.0008832939201965928,-0.001953169936314225,-0.0047782487235963345,0.9991106986999512,0.0,0.0,0.0,0.3163659870624542,11.589624404907227,2.8064470291137695,-57.262874603271484,0
1146.8240000000005,6.59190263831988e-05,-8.71949887368828e-05,-0.0002412722387816757,0.0,0.0,0.0,0.0,-0.005063640419393778,-0.006109466776251793,0.0023042315151542425,0.9994246363639832,0.0,0.0,0.0,0.3267270028591156,11.580920219421387,2.811811923980713,-59.13823699951172,0
1156.7050000000017,-1.898702248581685e-05,-8.488549065077677e-05,-0.00023878092179074883,0.0,0.0,0.0,0.0,0.0007917069015093148,-0.0015077306888997555,-0.0002268162788823247,0.9979615211486816,0.0,0.0,0.0,0.31709328293800354,11.587413787841797,2.805138349533081,-57.39451599121094,0
1166.5890000000018,3.5327457226230763e-06,-0.0001138554944191128,-0.0002452096960041672,0.0,0.0,0.0,0.0,-0.0007670329650864005,0.0029083862900733948,0.0017136987298727036,0.9994503855705261,0.0,0.0,0.0,0.3250434696674347,11.583427429199219,2.81640625,-58.83351135253906,0
1176.4920000000002,-3.6263721995055676e-05,-0.00010926222603302449,-0.00022669023019261658,0.0,0.0,0.0,0.0,0.0008697467856109142,0.00029343878850340843,-0.0006156217423267663,1.0006765127182007,0.0,0.0,0.0,0.3142830729484558,11.590374946594238,2.8074686527252197,-56.8858642578125,0
1186.3640000000014,-2.827711341524264e-06,-0.00014923980052117258,-0.0002514557563699782,0.0,0.0,0.0,0.0,0.004038200713694096,0.0033660640474408865,-0.0017630468355491757,1.0000102519989014,0.0,0.0,0.0,0.3261735737323761,11.590025901794434,2.8146088123321533,-59.03806686401367,0
1196.255000000001,8.453602276858874e-06,-0.00022124758106656373,-0.0002568511990830302,0.0,0.0,0.0,0.0,-0.0027680653147399426,-0.003834914183244109,0.0017524714348837733,0.9982271790504456,0.0,0.0,0.0,0.326086163520813,11.574774742126465,2.7984774112701416,-59.02224349975586,0
1206.1370000000006,1.3905648302170448e-05,-0.00024018912517931312,-0.00023152802896220237,0.0,0.0,0.0,0.0,0.003667427459731698,0.0004961546510457993,-0.0008260331233032048,0.9988922476768494,0.0,0.0,0.0,0.3257155418395996,11.566335678100586,2.799589157104492,-58.95515823364258,0
1216.036,2.3502743715653196e-05,-0.00031184760155156255,-0.00023449711443390697,0.0,0.0,0.0,0.0,-0.003991153556853533,-0.002832238795235753,-0.0029689057264477015,0.9989250898361206,0.0,0.0,0.0,0.3255952298641205,11.551617622375488,2.7996020317077637,-58.93338394165039,0
1225.9080000000013,5.7602966990089044e-05,-0.0002765835961326957,-0.00023937546939123422,0.0,0.0,0.0,0.0,0.0009389804909005761,-0.0010994704207405448,-0.0022740960121154785,0.9977121949195862,0.0,0.0,0.0,0.33691099286079407,11.572460174560547,2.7998263835906982,-60.98155975341797,0
1235.8120000000017,6.968231173232198e-05,-0.0003429373900871724,-0.00024329590087290853,0.0,0.0,0.0,0.0,0.0034123938530683517,-0.001478055608458817,0.002398153766989708,0.999956488609314,0.0,0.0,0.0,0.33708691596984863,11.55967903137207,2.7943062782287598,-61.013404846191406,0
1245.6870000000017,7.221846317406744e-05,-0.00029453434399329126,-0.00019490064005367458,0.0,0.0,0.0,0.0,-0.0017774360021576285,0.0035407007671892643,-0.0012529336381703615,0.9997562766075134,0.0,0.0,0.0,0.3414710760116577,11.57767105102539,2.8023571968078613,-61.80694580078125,0
1255.5740000000005,8.415667980443686e-05,-0.0003579807234928012,-0.00019540780340321362,0.0,0.0,0.0,0.0,0.0014672627439722419,-0.007951837033033371,0.0017327122623100877,0.9992725253105164,0.0,0.0,0.0,0.3404712975025177,11.565741539001465,2.7894415855407715,-61.62598419189453,0
1265.4630000000016,0.00012433961092028767,-0.00029057517531327903,-0.00018281498341821134,0.0,0.0,0.0,0.0,-0.003706567920744419,-0.0009260623482987285,-0.0035162423737347126,0.998954176902771,0.0,0.0,0.0,0.3503013849258423,11.595646858215332,2.8158445358276367,-63.40524673461914,0
1275.3500000000004,6.899365689605474e-05,-0.00022221246035769582,-0.00013251097698230296,0.0,0.0,0.0,0.0,0.0024482915177941322,-0.00010858762834686786,0.0012801778502762318,0.9973772168159485,0.0,0.0,0.0,0.343483567237854,11.621874809265137,2.8040859699249268,-62.171207427978516,0
1285.2270000000008,0.00012023625458823517,-0.00020803941879421473,-0.0001570341846672818,0.0,0.0,0.0,0.0,0.0006381040439009666,-0.0027013716753572226,0.0016220513498410583,0.9987233281135559,0.0,0.0,0.0,0.3554726541042328,11.626131057739258,2.816148519515991,-64.34125518798828,0
1295.1270000000004,0.00013514577585738152,-0.0002620684390421957,-0.00015615920710843056,0.0,0.0,0.0,0.0,0.00017910407041199505,-0.002462125616148114,0.001634608255699277,1.000032901763916,0.0,0.0,0.0,0.35501861572265625,11.613493919372559,2.8185997009277344,-64.25907135009766,0
1305.0060000000012,0.00017460195522289723,-0.00024424027651548386,-0.0001667305623413995,0.0,0.0,0.0,0.0,0.0019231876358389854,-0.0017589792842045426,-0.002135253744199872,1.001441240310669,0.0,0.0,0.0,0.3647212088108063,11.615320205688477,2.8230960369110107,-66.01526641845703,0
1314.8950000000004,-1.6244795915554278e-05,-0.00014474654744844884,-0.0001775218843249604,0.0,0.0,0.0,0.0,-0.001654594438150525,-0.000247732998104766,0.0025483001954853535,0.9988165497779846,0.0,0.0,0.0,0.3515293002128601,11.629669189453125,2.7808094024658203,-63.627506256103516,0
1324.7720000000008,1.9088134649791755e-05,-0.0001379799359710887,-0.00019217078806832433,0.0,0.0,0.0,0.0,9.13108087843284e-05,0.003937982022762299,0.0007310414803214371,0.9980478882789612,0.0,0.0,0.0,0.36275714635849,11.62403392791748,2.7790462970733643,-65.6597671508789,0
1334.674000000001,-5.0136677600676194e-05,-0.00011358483607182279,-0.0001747473143041134,0.0,0.0,0.0,0.0,0.0022861389443278313,0.0006288999575190246,0.0004355116980150342,1.000553011894226,0.0,0.0,0.0,0.3510541319847107,11.625717163085938,2.7555408477783203,-63.5414924621582,0
1344.5460000000003,2.0468838556553237e-05,-4.176746369921602e-05,-0.0002188856014981866,0.0,0.0,0.0,0.0,-0.0015667001716792583,-0.000988361076451838,-0.001108687836676836,1.000314474105835,0.0,0.0,0.0,0.363047331571579,11.626381874084473,2.749177932739258,-65.71228790283203,0
1354.4430000000011,2.6102883566636592e-05,-9.151663107331842e-05,-0.0002198580768890679,0.0,0.0,0.0,0.0,-0.0038152632769197226,0.005094639956951141,-0.001148313283920288,0.9997145533561707,0.0,0.0,0.0,0.36316144466400146,11.622343063354492,2.7477266788482666,-65.73294067382812,0
1364.317000000001,4.5410422899294645e-05,-0.00010553765605436638,-0.00022355667897500098,0.0,0.0,0.0,0.0,0.004853382706642151,0.0058912187814712524,-0.000749847968108952,0.9999186992645264,0.0,0.0,0.0,0.3705817759037018,11.615069389343262,2.734710693359375,-67.07603454589844,0
1374.2120000000014,5.5736898502800614e-05,-0.00016026460798457265,-0.00022329555940814316,0.0,0.0,0.0,0.0,0.0008815862238407135,-0.0004725181788671762,-7.578565259791503e-07,0.9983819127082825,0.0,0.0,0.0,0.3695444166660309,11.597228050231934,2.718893527984619,-66.8882827758789,0
1384.0950000000012,8.906864968594164e-05,-0.00010693137301132083,-0.00023147781030274928,0.0,0.0,0.0,0.0,-0.0004957239143550396,0.00480543402954936,-0.0003107094089500606,1.001328945159912,0.0,0.0,0.0,0.3802225887775421,11.609210014343262,2.7288076877593994,-68.821044921875,0
1393.9940000000006,4.324032488511875e-05,-0.0001053053856594488,-0.00023140700068324804,0.0,0.0,0.0,0.0,0.0009938082657754421,0.00012836128007620573,0.0026100962422788143,1.0008739233016968,0.0,0.0,0.0,0.3696776330471039,11.611420631408691,2.701751947402954,-66.91238403320312,0
1403.8650000000016,7.146815187297761e-05,-0.0001389549724990502,-0.00024158456653822213,0.0,0.0,0.0,0.0,5.140155553817749e-05,-0.0011805366957560182,0.002511733677238226,0.9977259635925293,0.0,0.0,0.0,0.37905266880989075,11.601808547973633,2.7000651359558105,-68.60928344726562,0
1413.7670000000016,4.7282759624067694e-05,-0.00013267189206089824,-0.00021352335170377046,0.0,0.0,0.0,0.0,0.001154844998382032,-0.0038208970800042152,0.0010019531473517418,0.9975876212120056,0.0,0.0,0.0,0.364266574382782,11.602481842041016,2.694481134414673,-65.93297576904297,0
1423.634,0.00011874292249558493,-0.00011855199409183115,-0.00026350378175266087,0.0,0.0,0.0,0.0,0.0016664799768477678,-0.0002493718347977847,0.001324691460467875,0.9987490773200989,0.0,0.0,0.0,0.37257134914398193,11.595993995666504,2.7107555866241455,-67.4361572265625,0
1433.5300000000007,8.460930257569999e-05,-0.00011442209506640211,-0.0002443842822685838,0.0,0.0,0.0,0.0,0.0005648925434798002,0.0021342902909964323,0.0012413806980475783,0.9975064396858215,0.0,0.0,0.0,0.35808831453323364,11.588302612304688,2.6991446018218994,-64.814697265625,0
1443.4130000000005,0.00010198733070865273,-0.00015494799299631268,-0.00023422246158588678,0.0,0.0,0.0,0.0,0.0017098069656640291,0.00117600301746279,0.002681238343939185,0.9979514479637146,0.0,0.0,0.0,0.3701774477958679,11.577430725097656,2.6947574615478516,-67.00285339355469,0
1453.313,-2.8895425202790648e-05,-0.00010500950884306803,-0.00022049774997867644,0.0,0.0,0.0,0.0,0.0007535435725003481,0.003392330138012767,0.0007811982068233192,0.9968411922454834,0.0,0.0,0.0,0.3549659550189972,11.583951950073242,2.669623374938965,-64.24954223632812,0
1463.184000000001,4.464531684789108e-06,-0.00012082581815775484,-0.0002312531287316233,0.0,0.0,0.0,0.0,0.00037132276338525116,-0.00019285944290459156,-0.0008609177311882377,0.9972091913223267,0.0,0.0,0.0,0.363273561000824,11.571878433227539,2.6645007133483887,-65.75323486328125,0
1473.0820000000003,-3.1543724617222324e-05,-0.00010928467963822186,-0.00020711742399726063,0.0,0.0,0.0,0.0,0.0001999318483285606,-2.3862816306063905e-05,0.0026877939235419035,0.9999174475669861,0.0,0.0,0.0,0.3478220999240875,11.569557189941406,2.657750129699707,-62.95648956298828,0
1482.9570000000003,-3.2829200790729374e-05,-0.00016893974679987878,-0.0001830399560276419,0.0,0.0,0.0,0.0,0.001505398890003562,0.0009270361042581499,-0.0013915892923250794,1.000625729560852,0.0,0.0,0.0,0.35830655694007874,11.559097290039062,2.6493639945983887,-64.85420227050781,0
1492.8580000000002,-7.083053060341626e-05,-0.00016148753638844937,-0.00015622681530658156,0.0,0.0,0.0,0.0,0.0020568780601024628,-0.004040210507810116,-6.808604211983038e-06,0.999118983745575,0.0,0.0,0.0,0.34553563594818115,11.555135726928711,2.6293983459472656,-62.54263687133789,0
1502.732,-6.22514562564902e-05,-0.00023863257956691086,-0.00015424132288899273,0.0,0.0,0.0,0.0,0.00036365518462844193,0.0016832362161949277,0.0016822944162413478,0.9993593692779541,0.0,0.0,0.0,0.34570184350013733,11.54584789276123,2.6308417320251465,-62.57271957397461,0
1512.6260000000002,-9.050573135027662e-05,-0.00021274852042552084,-0.00010671116615412757,0.0,0.0,0.0,0.0,-4.8930818593362346e-05,-0.00015333468036260456,-0.004709415137767792,0.9995816946029663,0.0,0.0,0.0,0.3312378525733948,11.54747200012207,2.6236674785614014,-59.954708099365234,0
1522.5070000000014,-1.154316578322323e-05,-0.00017805238894652575,-0.0001614503562450409,0.0,0.0,0.0,0.0,0.0004978863289579749,0.000662483274936676,-0.0008634620462544262,0.9995242953300476,0.0,0.0,0.0,0.3404475748538971,11.55582046508789,2.6244280338287354,-61.62168884277344,0
1532.398000000001,-4.6022199967410415e-05,-0.00014431242016144097,-0.00011782649380620569,0.0,0.0,0.0,0.0,0.0006973094423301518,-0.0019540542270988226,-0.0002207671059295535,1.000525712966919,0.0,0.0,0.0,0.3303970694541931,11.5573091506958,2.6164638996124268,-59.802528381347656,0
1542.273000000001,1.1169376193720382e-05,-0.00015241179789882153,-0.00016024548676796257,0.0,0.0,0.0,0.0,-0.000685364764649421,-0.0005504928412847221,-0.0010649081086739898,0.9993200302124023,0.0,0.0,0.0,0.3401208817958832,11.557320594787598,2.6217873096466064,-61.562557220458984,0
1552.1650000000009,2.1268066120683216e-05,-0.00017015502089634538,-0.00012128780508646742,0.0,0.0,0.0,0.0,-0.0008769024279899895,0.0008343972731381655,-0.0030576102435588837,0.9988798499107361,0.0,0.0,0.0,0.3237042725086212,11.551262855529785,2.6215338706970215,-58.59111785888672,0
1562.045,3.825402745860629e-05,-0.0001912830921355635,-0.00010571263555902988,0.0,0.0,0.0,0.0,-0.0009300617966800928,-0.006082505919039249,0.0015271743759512901,1.0004546642303467,0.0,0.0,0.0,0.33157745003700256,11.548925399780273,2.627195119857788,-60.01617431640625,0
1571.9400000000005,2.5843466573860496e-05,-0.00020536562078632414,-6.528688390972093e-05,0.0,0.0,0.0,0.0,0.0013803374022245407,-0.0035464034881442785,0.0012123354244977236,1.0011076927185059,0.0,0.0,0.0,0.3157575726509094,11.547003746032715,2.6236493587493896,-57.15275192260742,0
1581.8190000000013,5.088065154268406e-05,-0.00020575513190124184,-4.9751910410122946e-05,0.0,0.0,0.0,0.0,0.000606222718488425,-0.0023739906027913094,0.0022351660300046206,1.0001872777938843,0.0,0.0,0.0,0.3262890875339508,11.548487663269043,2.639423370361328,-59.0589714050293,0
1591.7120000000014,9.82604433374945e-06,-0.00021879626729059964,-1.1858125617436599e-05,0.0,0.0,0.0,0.0,0.0009892700472846627,0.001034905668348074,-0.001474883290939033,0.9996500611305237,0.0,0.0,0.0,0.31519681215286255,11.540385246276855,2.638896942138672,-57.05125045776367,0
1601.5890000000018,8.312951104016975e-05,-0.0001801858888939023,-5.399075598688796e-05,0.0,0.0,0.0,0.0,0.003290787572041154,0.004516063258051872,5.350428182282485e-05,0.9995279312133789,0.0,0.0,0.0,0.3253296911716461,11.538588523864746,2.6399073600769043,-58.88532257080078,0
1611.487000000001,5.442949486678117e-07,-0.00015051888476591557,-8.94118693395285e-06,0.0,0.0,0.0,0.0,0.004109296482056379,0.0016562948003411293,4.7246958274627104e-05,0.9982988238334656,0.0,0.0,0.0,0.31380513310432434,11.538928985595703,2.6131722927093506,-56.799354553222656,0
1621.3640000000014,5.317064642440528e-05,-0.00015880510909482837,-4.779749360750429e-05,0.0,0.0,0.0,0.0,0.00030333391623571515,0.0071083600632846355,0.0008339461055584252,1.001428484916687,0.0,0.0,0.0,0.3258023262023926,11.53012466430664,2.6096627712249756,-58.97087097167969,0
1631.2600000000002,-7.4899153332808055e-06,-0.00013840549218002707,-1.6236782585110632e-06,0.0,0.0,0.0,0.0,-0.002307610586285591,0.002266713185235858,-0.0008926558075472713,1.0016818046569824,0.0,0.0,0.0,0.31284624338150024,11.52638053894043,2.589494466781616,-56.62579345703125,0
1641.1460000000006,4.225973680149764e-05,-0.00015368657477665693,-3.970340912928805e-05,0.0,0.0,0.0,0.0,0.002747439546510577,0.006231378763914108,0.002030655276030302,1.0001543760299683,0.0,0.0,0.0,0.32202470302581787,11.528440475463867,2.589747428894043,-58.287113189697266,0
1651.0350000000017,-3.682363603729755e-05,-0.00012794765643775463,1.1663909305070774e-07,0.0,0.0,0.0,0.0,-0.0021944837644696236,-0.0011416459456086159,-9.725278505356982e-05,0.9982972741127014,0.0,0.0,0.0,0.31161925196647644,11.527509689331055,2.5686347484588623,-56.40370178222656,0
1660.907000000001,1.2937183782923967e-05,-0.00013105668767821044,-3.323092823848128e-05,0.0,0.0,0.0,0.0,0.002428575651720166,-0.003088474040850997,0.0020083158742636442,0.9985169768333435,0.0,0.0,0.0,0.320651650428772,11.52787971496582,2.5793356895446777,-58.0385856628418,0
1670.8050000000003,-5.972357757855207e-05,-0.00015574910503346473,-1.5650521163479425e-05,0.0,0.0,0.0,0.0,0.0006291241152212024,0.00414374191313982,-0.0004234518564771861,0.9996000528335571,0.0,0.0,0.0,0.30970966815948486,11.517720222473145,2.558762311935425,-56.05806350708008,0
1680.6800000000003,2.7373223929316737e-05,-0.0001167850277852267,-9.679574577603489e-05,0.0,0.0,0.0,0.0,0.0009204549714922905,0.003824142972007394,-0.0011069386964663863,1.0019786357879639,0.0,0.0,0.0,0.32288026809692383,11.520578384399414,2.558854103088379,-58.44197082519531,0
1690.576000000001,-5.679152673110366e-05,-0.00011777421605074778,-7.456403545802459e-05,0.0,0.0,0.0,0.0,-5.61807828489691e-05,0.004286154638975859,0.0015463685849681497,0.9992165565490723,0.0,0.0,0.0,0.3071209490299225,11.521132469177246,2.5270278453826904,-55.58950424194336,0
1700.4540000000015,3.2035226467996836e-05,-5.067892561783083e-05,-0.0001500533107900992,0.0,0.0,0.0,0.0,0.0016805208288133144,0.00410420959815383,0.0004821592301595956,0.9975515604019165,0.0,0.0,0.0,0.3173377215862274,11.538654327392578,2.534489154815674,-57.438758850097656,0
1710.3460000000014,4.2769883293658495e-05,-0.00011038754018954933,-0.00013253261568024755,0.0,0.0,0.0,0.0,-0.0003016852424480021,-0.0029429567512124777,0.006108277011662722,0.9973279237747192,0.0,0.0,0.0,0.305214524269104,11.526126861572266,2.5238122940063477,-55.24443435668945,0
1720.2270000000008,0.00010792719695018604,-6.136843876447529e-05,-0.00018029793864116073,0.0,0.0,0.0,0.0,-0.0024282869417220354,0.0026732771657407284,4.693731898441911e-05,0.9988680481910706,0.0,0.0,0.0,0.31845128536224365,11.539896011352539,2.532866954803467,-57.640316009521484,0
1730.1260000000002,4.588299270835705e-05,-9.909192885970697e-05,-0.0001842929923441261,0.0,0.0,0.0,0.0,0.003445613430812955,-0.0015492242528125644,0.003680738853290677,0.9980239272117615,0.0,0.0,0.0,0.31019988656044006,11.539078712463379,2.5201756954193115,-56.146793365478516,0
1739.9990000000016,6.542535993503407e-05,-0.00014028228179086,-0.00021253831801004708,0.0,0.0,0.0,0.0,0.0002023310080403462,-0.00375545397400856,-0.00047722592717036605,0.998589813709259,0.0,0.0,0.0,0.3215722143650055,11.532841682434082,2.5263915061950684,-58.2052116394043,0
1749.8940000000002,5.9414018323877826e-05,-0.00016158242942765355,-0.00018634444859344512,0.0,0.0,0.0,0.0,-0.0018768367590382695,-6.172852590680122e-05,0.0012321003014221787,0.9988383650779724,0.0,0.0,0.0,0.3060150444507599,11.530835151672363,2.5295636653900146,-55.38933181762695,0
1759.7720000000008,4.733222885988653e-05,-0.00021033058874309063,-0.00016250499174930155,0.0,0.0,0.0,0.0,0.0013424365315586329,-0.005807315930724144,-0.0026338710449635983,0.9970194697380066,0.0,0.0,0.0,0.306062787771225,11.51865291595459,2.531592845916748,-55.397972106933594,0
1769.6650000000009,-2.8235872377990745e-06,-0.00020851570297963917,-0.0001360012829536572,0.0,0.0,0.0,0.0,-0.00175056466832757,7.210222247522324e-05,0.00020847641280852258,0.9993633031845093,0.0,0.0,0.0,0.29492250084877014,11.515250205993652,2.519340753555298,-53.381561279296875,0
1779.5480000000007,2.285158643644536e-06,-0.00026614335365593433,-0.00015139247989282012,0.0,0.0,0.0,0.0,-0.0012883901363238692,-0.0025258813984692097,-0.0019481764174997807,1.0000122785568237,0.0,0.0,0.0,0.3073923885822296,11.511027336120605,2.511045455932617,-55.63862991333008,0
1789.4450000000015,-0.00010074317106045783,-0.00022588101273868233,-0.00011659602751024067,0.0,0.0,0.0,0.0,0.0006020612199790776,-0.0037495018914341927,0.0012791382614523172,0.999919593334198,0.0,0.0,0.0,0.2943105399608612,11.518682479858398,2.5071051120758057,-53.270790100097656,0
1799.3220000000001,-5.0286682380829006e-05,-0.00020666123600676656,-0.00016938521002884954,0.0,0.0,0.0,0.0,-0.0024325833655893803,-0.005581185221672058,-0.0015681287040933967,0.9999353885650635,0.0,0.0,0.0,0.308793306350708,11.523324966430664,2.520153045654297,-55.89220428466797,0
1809.2130000000016,-8.11545760370791e-05,-0.0001893876033136621,-0.00011954185902141035,0.0,0.0,0.0,0.0,0.00474544707685709,-0.0007206900627352297,-0.0003998049069195986,1.0012617111206055,0.0,0.0,0.0,0.2943093478679657,11.532380104064941,2.5303592681884766,-53.27057647705078,0
1819.0900000000001,-4.3245800043223426e-05,-0.00020473574113566428,-0.00017110943736042827,0.0,0.0,0.0,0.0,-0.0034010966774076223,0.0019428209634497762,0.001865618978627026,0.9977089166641235,0.0,0.0,0.0,0.30823013186454773,11.528099060058594,2.536191701889038,-55.79026412963867,0
1828.9900000000016,-6.61010853946209e-05,-0.00016762349696364254,-0.00010891222336795181,0.0,0.0,0.0,0.0,0.0015943722100928426,0.005435757339000702,-0.0021847279276698828,0.9999168515205383,0.0,0.0,0.0,0.29883092641830444,11.538834571838379,2.535478353500366,-54.0889892578125,0
1838.8630000000012,-1.8304184777662158e-05,-0.00013791007222607732,-0.000160377036081627,0.0,0.0,0.0,0.0,0.0007790735107846558,-0.006913484539836645,0.0010967111447826028,0.9999211430549622,0.0,0.0,0.0,0.3065088093280792,11.541926383972168,2.53586745262146,-55.47870635986328,0
1848.7630000000008,-2.1145337086636573e-05,-0.00017898094665724784,-0.00013234060315880924,0.0,0.0,0.0,0.0,-0.0016109542921185493,-0.001979881664738059,-0.0034048655070364475,1.000765323638916,0.0,0.0,0.0,0.29846835136413574,11.536117553710938,2.541774034500122,-54.02336120605469,0
1858.6360000000004,8.136635187838692e-06,-0.00016687766765244305,-0.0001655821833992377,0.0,0.0,0.0,0.0,0.0018774365307763219,0.0014710723189637065,0.0028680467512458563,0.9975832104682922,0.0,0.0,0.0,0.3085888624191284,11.545103073120117,2.5626845359802246,-55.855194091796875,0
1868.5300000000007,-1.775216151145287e-05,-0.0001978873769985512,-0.00013698292605113238,0.0,0.0,0.0,0.0,0.00017681458848528564,-0.0046072667464613914,0.0002186776982853189,0.999676525592804,0.0,0.0,0.0,0.30078646540641785,11.539691925048828,2.5612854957580566,-54.44294738769531,0
1878.411,1.5629237168468535e-05,-0.00020179034618195146,-0.00018519817967899144,0.0,0.0,0.0,0.0,-0.005050430539995432,-0.0017818305641412735,-0.0031133031006902456,0.9996713995933533,0.0,0.0,0.0,0.31438717246055603,11.54765510559082,2.583146810531616,-56.904701232910156,0
1888.304,3.932205800083466e-06,-0.0002180551236961037,-0.0001427490497007966,0.0,0.0,0.0,0.0,0.0005845064879395068,-0.006337607745081186,-0.0010170285822823644,0.9998968243598938,0.0,0.0,0.0,0.300737202167511,11.554489135742188,2.587939977645874,-54.43403244018555,0
1898.1860000000015,4.215789886075072e-05,-0.00020916727953590453,-0.00018889749480877072,0.0,0.0,0.0,0.0,0.0014609533827751875,0.00034043972846120596,0.0034486083313822746,0.9981491565704346,0.0,0.0,0.0,0.31090211868286133,11.557669639587402,2.6045994758605957,-56.273902893066406,0
1908.0820000000003,2.3864698960096575e-05,-0.000215911801205948,-0.00014330816338770092,0.0,0.0,0.0,0.0,0.00300164008513093,-0.0026895753107964993,0.0040141623467206955,0.9969382882118225,0.0,0.0,0.0,0.2975407838821411,11.563838958740234,2.602433919906616,-53.855472564697266,0
1917.9530000000013,9.08350630197674e-05,-0.00013655805378220975,-0.00020069690071977675,0.0,0.0,0.0,0.0,0.0010374938137829304,0.0047586839646101,-0.003072847845032811,0.9988719820976257,0.0,0.0,0.0,0.31264936923980713,11.579056739807129,2.6152024269104004,-56.59015655517578,0
1927.8470000000016,1.0318063687009271e-05,-0.00011633971735136583,-0.0001682492293184623,0.0,0.0,0.0,0.0,0.003674653358757496,0.0012318933149799705,-0.0004425681836437434,0.9979519844055176,0.0,0.0,0.0,0.30231091380119324,11.586256980895996,2.5928521156311035,-54.718875885009766,0
1937.7290000000012,2.5991996153607033e-05,-0.00012622641224879771,-0.0001965141127584502,0.0,0.0,0.0,0.0,0.0024042101576924324,-0.000566015369258821,-0.0013912249123677611,0.9987136721611023,0.0,0.0,0.0,0.31405219435691833,11.587735176086426,2.6034955978393555,-56.84407424926758,0
1947.6280000000006,-5.339508788892999e-05,-0.00013322259474080056,-0.00017829061835072935,0.0,0.0,0.0,0.0,0.00015008580521680415,-0.001751187490299344,0.00032029603607952595,0.998624861240387,0.0,0.0,0.0,0.301784873008728,11.586004257202148,2.5900650024414062,-54.623661041259766,0
1957.509,-7.847609231248498e-05,-0.00021273530728649348,-0.0001820333127398044,0.0,0.0,0.0,0.0,0.0026908249128609896,0.004219215363264084,0.0012915938859805465,0.999357283115387,0.0,0.0,0.0,0.30156055092811584,11.572478294372559,2.591123104095459,-54.58306121826172,0
1967.3990000000013,-9.241215593647212e-05,-0.00027027225587517023,-0.00019113266898784786,0.0,0.0,0.0,0.0,0.0019716036040335894,0.00046285506687127054,0.0017066217260435224,0.9998165965080261,0.0,0.0,0.0,0.30871710181236267,11.55809211730957,2.5760810375213623,-55.878414154052734,0
1977.2710000000006,-0.00011812343291239813,-0.0003540615434758365,-0.00019568153948057443,0.0,0.0,0.0,0.0,0.0011449489975348115,-0.004864285700023174,0.0019887436646968126,0.9992080926895142,0.0,0.0,0.0,0.30785906314849854,11.543827056884766,2.5647132396698,-55.72309875488281,0
1987.1730000000007,-8.199615695048124e-05,-0.00028971885330975056,-0.0002401772071607411,0.0,0.0,0.0,0.0,-0.001757503137923777,0.007796300575137138,-0.004141755867749453,0.9999699592590332,0.0,0.0,0.0,0.3205685019493103,11.571281433105469,2.5895614624023438,-58.023536682128906,0
1997.0430000000015,-0.00010292549995938316,-0.00037175114266574383,-0.00024725592811591923,0.0,0.0,0.0,0.0,0.0007436646847054362,-0.0067475032992661,0.0001447342219762504,0.9995184540748596,0.0,0.0,0.0,0.319026380777359,11.566027641296387,2.58119535446167,-57.744407653808594,0
2006.9390000000003,-7.477882172679529e-05,-0.00023747849627397954,-0.00024814135394990444,0.0,0.0,0.0,0.0,0.0013425333891063929,0.002373612718656659,-0.0006867906777188182,0.9973814487457275,0.0,0.0,0.0,0.3284866511821747,11.62226390838623,2.612757444381714,-59.45673751831055,0
2016.8190000000013,-8.944363071350381e-05,-0.00030833121854811907,-0.00025464806822128594,0.0,0.0,0.0,0.0,0.004051708150655031,0.002882226137444377,0.0021678139455616474,0.9989122152328491,0.0,0.0,0.0,0.32776549458503723,11.603699684143066,2.6049110889434814,-59.32620620727539,0
2026.7250000000004,-6.533694249810651e-05,-0.00023731865803711116,-0.0002636300341691822,0.0,0.0,0.0,0.0,0.0011049903696402907,0.0019340943545103073,-0.003713004058226943,1.0008634328842163,0.0,0.0,0.0,0.33987876772880554,11.634917259216309,2.6213111877441406,-61.518733978271484,0
2036.6000000000004,-7.531380833825096e-05,-0.00030469184275716543,-0.0002715244481805712,0.0,0.0,0.0,0.0,0.0005155933322384953,0.0005227774963714182,-0.0008482863195240498,0.9991492033004761,0.0,0.0,0.0,0.33854547142982483,11.613201141357422,2.612788200378418,-61.277400970458984,0
2046.4940000000006,-4.677048491430469e-05,-0.0002932425122708082,-0.00029563845600932837,0.0,0.0,0.0,0.0,0.00026128138415515423,0.0007957371417433023,0.0015821349807083607,0.998539388179779,0.0,0.0,0.0,0.35082653164863586,11.628862380981445,2.6263415813446045,-63.50029754638672,0
2056.370000000001,-5.0833303248509765e-05,-0.0003601096977945417,-0.0003046967904083431,0.0,0.0,0.0,0.0,-0.0028069971594959497,0.003374462015926838,-0.0006229904829524457,1.0003409385681152,0.0,0.0,0.0,0.3510590195655823,11.61595344543457,2.6278481483459473,-63.54237747192383,0
2066.2670000000016,-1.1820060535683297e-05,-0.00030432676430791616,-0.00030647910898551345,0.0,0.0,0.0,0.0,0.0024761194363236427,-0.003604068187996745,0.002507469616830349,1.0008630752563477,0.0,0.0,0.0,0.3644254803657532,11.65722942352295,2.6415510177612305,-65.96173858642578,0
2076.134,-1.0956875485135242e-05,-0.00036662668571807444,-0.00031439674785360694,0.0,0.0,0.0,0.0,0.0009963958291336894,-0.007342969533056021,-0.0008093571523204446,1.0004456043243408,0.0,0.0,0.0,0.363995224237442,11.642803192138672,2.6371469497680664,-65.88385772705078,0
2086.032000000001,5.9902220527874306e-05,-0.0003034623805433512,-0.00033236053423024714,0.0,0.0,0.0,0.0,0.0002587056078482419,0.0015820293920114636,-0.000381671852665022,0.9972525238990784,0.0,0.0,0.0,0.37722963094711304,11.685931205749512,2.6806135177612305,-68.27931213378906,0
2095.9140000000007,6.501145981019363e-05,-0.0003597620816435665,-0.00034022852196358144,0.0,0.0,0.0,0.0,3.2409298000857234e-05,-0.003220763523131609,0.00019780818547587842,0.9963694214820862,0.0,0.0,0.0,0.376262366771698,11.666218757629395,2.6732795238494873,-68.10424041748047,0
