timestamp,stateEstimate.x,stateEstimate.y,stateEstimate.z,controller.cmd_thrust,controller.cmd_roll,controller.cmd_pitch,controller.cmd_yaw,controller.r_roll,controller.r_pitch,controller.r_yaw,controller.accelz,controller.actuatorThrust,controller.roll,controller.pitch,controller.yaw,controller.rollRate,controller.pitchRate,controller.yawRate,controller.ctr_yaw
0.0,0.0065256571397185326,-0.013859309256076813,0.00026219672872684896,0.0,0.0,0.0,0.0,-0.003027717350050807,-0.002097964519634843,0.004166983067989349,1.0018718242645264,0.0,0.0,0.0,13.200288772583008,4.702057361602783,3.2267725467681885,-2389.2783203125,0
9.873999999999796,0.006578882224857807,-0.013760335743427277,0.000229248937102966,0.0,0.0,0.0,0.0,0.0003918935835827142,-0.0017061783000826836,0.0010571101447567344,1.0005916357040405,0.0,0.0,0.0,13.204670906066895,4.728177070617676,3.2539799213409424,-2390.071533203125,0
19.763999999999214,0.006576470099389553,-0.013791464269161224,0.00023705406056251377,0.0,0.0,0.0,0.0,0.001619144924916327,0.00223426497541368,0.0012720093363896012,0.998291015625,0.0,0.0,0.0,13.192071914672852,4.724236488342285,3.2609033584594727,-2387.791259765625,0
29.643999999998414,0.006606511306017637,-0.01371647696942091,0.0002261543704662472,0.0,0.0,0.0,0.0,0.0006829927442595363,-0.0031977694015949965,-0.00012024368334095925,0.9985118508338928,0.0,0.0,0.0,13.196107864379883,4.73931360244751,3.2819488048553467,-2388.52197265625,0
39.539999999999054,0.006552944425493479,-0.013743889518082142,0.00019307287584524602,0.0,0.0,0.0,0.0,-0.004625055473297834,-0.0024781622923910618,-0.0010952238226309419,1.0009340047836304,0.0,0.0,0.0,13.20065689086914,4.729728698730469,3.279064655303955,-2389.344970703125,0
49.414999999999054,0.006543770432472229,-0.013746624812483788,0.00021870560885872692,0.0,0.0,0.0,0.0,-0.00025335175450891256,0.002270176075398922,0.0003825201711151749,1.0017246007919312,0.0,0.0,0.0,13.206536293029785,4.735820293426514,3.276179313659668,-2390.409423828125,0
59.31399999999849,0.006622110493481159,-0.013796559534966946,0.0002369017747696489,0.0,0.0,0.0,0.0,-0.0024439245462417603,-0.0014006698038429022,0.0012112108524888754,0.9999234676361084,0.0,0.0,0.0,13.205803871154785,4.723258018493652,3.2765676975250244,-2390.27685546875,0
69.1929999999993,0.006614247336983681,-0.013792373239994049,0.0002704502549022436,0.0,0.0,0.0,0.0,0.00221265503205359,-0.000428064726293087,0.0009047986823134124,0.9991081953048706,0.0,0.0,0.0,13.212186813354492,4.7271246910095215,3.2725257873535156,-2391.43212890625,0
79.08299999999872,0.006617226637899876,-0.013821731321513653,0.00027874420629814267,0.0,0.0,0.0,0.0,0.0019067508401349187,-0.006592070683836937,0.005690514575690031,1.0005671977996826,0.0,0.0,0.0,13.199082374572754,4.719520092010498,3.264965772628784,-2389.060302734375,0
88.95999999999913,0.006612728349864483,-0.013805092312395573,0.00030820854590274394,0.0,0.0,0.0,0.0,-0.001172657124698162,-0.002981129800900817,0.0011361681390553713,0.9988304376602173,0.0,0.0,0.0,13.204082489013672,4.719542980194092,3.2770893573760986,-2389.96533203125,0
98.85899999999856,0.006613708566874266,-0.013837086036801338,0.00031764197046868503,0.0,0.0,0.0,0.0,-0.0018881141440942883,-0.006351517979055643,-0.0002729939005803317,1.001441240310669,0.0,0.0,0.0,13.191388130187988,4.717681407928467,3.287280559539795,-2387.667724609375,0
108.73799999999937,0.006620191968977451,-0.013754511252045631,0.0003479053557384759,0.0,0.0,0.0,0.0,-0.00027298994245938957,0.001216372475028038,0.0008525314624421299,1.0006235837936401,0.0,0.0,0.0,13.19863224029541,4.7432122230529785,3.3094863891601562,-2388.978759765625,0
118.64099999999962,0.006605394184589386,-0.013835662044584751,0.0003158909676130861,0.0,0.0,0.0,0.0,0.0029984773136675358,-0.003974504303187132,0.0026819610502570868,1.0017716884613037,0.0,0.0,0.0,13.201440811157227,4.723971843719482,3.2894747257232666,-2389.487060546875,0
128.50900000000001,0.006588115356862545,-0.013806788250803947,0.0003764717548619956,0.0,0.0,0.0,0.0,-0.0011396824847906828,-0.0010007718810811639,-0.0025509174447506666,1.0022951364517212,0.0,0.0,0.0,13.207767486572266,4.724534034729004,3.288367509841919,-2390.632080078125,0
138.40399999999863,0.006560245528817177,-0.013871469534933567,0.0003641732910182327,0.0,0.0,0.0,0.0,0.0014707976952195168,-0.0016696080565452576,0.003533656243234873,1.0007448196411133,0.0,0.0,0.0,13.203289985656738,4.71555757522583,3.2891159057617188,-2389.821533203125,0
148.28599999999824,0.006597856525331736,-0.013825650326907635,0.00035362248308956623,0.0,0.0,0.0,0.0,-0.001784695778042078,0.0021625105291604996,0.0003582737408578396,0.9985895752906799,0.0,0.0,0.0,13.20459270477295,4.7135329246521,3.289043664932251,-2390.057373046875,0
158.17399999999907,0.006581022869795561,-0.013868340291082859,0.0003562408091966063,0.0,0.0,0.0,0.0,-0.001559554017148912,-0.0003594762529246509,-0.0010259879054501653,0.9985483884811401,0.0,0.0,0.0,13.20038890838623,4.706439971923828,3.2774782180786133,-2389.296630859375,0
168.05499999999847,0.006585293915122747,-0.01382933184504509,0.000389445893233642,0.0,0.0,0.0,0.0,-0.0013263956643640995,0.00018682869267649949,0.0014195104595273733,0.9994723200798035,0.0,0.0,0.0,13.207902908325195,4.7136759757995605,3.2817890644073486,-2390.656494140625,0
177.9459999999999,0.00656177056953311,-0.01387691218405962,0.00038613000651821494,0.0,0.0,0.0,0.0,8.237265137722716e-05,-3.959874084102921e-05,-0.0016520175850018859,0.9993845820426941,0.0,0.0,0.0,13.203095436096191,4.706954002380371,3.277100086212158,-2389.786376953125,0
187.82799999999952,0.006605735048651695,-0.013830186799168587,0.00036995860864408314,0.0,0.0,0.0,0.0,0.0021794692147523165,-0.0007366931531578302,-0.0010314298560842872,0.9988652467727661,0.0,0.0,0.0,13.205530166625977,4.710207462310791,3.284961700439453,-2390.22705078125,0
197.72299999999996,0.0065505909733474255,-0.013832819648087025,0.00037227541906759143,0.0,0.0,0.0,0.0,0.0031179767102003098,0.0003602103388402611,-0.0010418591555207968,1.0008469820022583,0.0,0.0,0.0,13.200729370117188,4.709997177124023,3.2796432971954346,-2389.358154296875,0
207.60699999999997,0.006591251585632563,-0.013796775601804256,0.0003549044777173549,0.0,0.0,0.0,0.0,-0.0010781483724713326,-0.006550944875925779,0.0008186119375750422,1.0001349449157715,0.0,0.0,0.0,13.205641746520996,4.711174964904785,3.2850561141967773,-2390.24755859375,0
217.48899999999958,0.006543383467942476,-0.013808468356728554,0.00035385452792979777,0.0,0.0,0.0,0.0,-0.0003475058183539659,0.0017138976836577058,-0.0033742834348231554,0.9989686608314514,0.0,0.0,0.0,13.20146656036377,4.709086894989014,3.293898105621338,-2389.49169921875,0
227.36999999999898,0.006618950050324202,-0.013728562742471695,0.000301012973068282,0.0,0.0,0.0,0.0,0.00022402686590794474,-0.006262404844164848,-0.0018012607470154762,1.0002385377883911,0.0,0.0,0.0,13.202122688293457,4.7187933921813965,3.29811954498291,-2389.6103515625,0
237.2639999999992,0.006572382990270853,-0.013765525072813034,0.00028358091367408633,0.0,0.0,0.0,0.0,0.0011796869803220034,-5.653005064232275e-05,0.001378759858198464,1.0014561414718628,0.0,0.0,0.0,13.1954345703125,4.715043067932129,3.2985799312591553,-2388.39990234375,0
247.14699999999903,0.006584531627595425,-0.013760162517428398,0.00028928316896781325,0.0,0.0,0.0,0.0,-0.0014019312802702188,-0.0009364765137434006,-0.002468562452122569,0.9995834231376648,0.0,0.0,0.0,13.201570510864258,4.712825775146484,3.2940995693206787,-2389.510498046875,0
257.03899999999885,0.006551638245582581,-0.013785979710519314,0.0002794060274027288,0.0,0.0,0.0,0.0,-0.001748023321852088,0.006902174558490515,0.0019640799146145582,0.9992465972900391,0.0,0.0,0.0,13.197175979614258,4.708921909332275,3.282776355743408,-2388.715087890625,0
266.92299999999886,0.00661948649212718,-0.013709678314626217,0.00023516608052887022,0.0,0.0,0.0,0.0,0.001045338693074882,0.00021164985082577914,-0.0010188727173954248,1.0010859966278076,0.0,0.0,0.0,13.204157829284668,4.715214729309082,3.271329164505005,-2389.978759765625,0
276.8089999999993,0.006556112319231033,-0.013725914061069489,0.00021399828256107867,0.0,0.0,0.0,0.0,-0.0019771731458604336,-0.0007055361056700349,0.001982341054826975,1.0025720596313477,0.0,0.0,0.0,13.190691947937012,4.70863676071167,3.2690610885620117,-2387.541259765625,0
286.6949999999997,0.00660415505990386,-0.013671493157744408,0.00018998116138391197,0.0,0.0,0.0,0.0,-0.0022830457892268896,-0.00027323636459186673,-0.0009039441356435418,1.002070426940918,0.0,0.0,0.0,13.194500923156738,4.714774131774902,3.281163215637207,-2388.230712890625,0
296.5819999999985,0.006521899253129959,-0.013733803294599056,0.00014782670768909156,0.0,0.0,0.0,0.0,-0.0015734434127807617,-0.0030586516950279474,0.00011981745046796277,1.0008516311645508,0.0,0.0,0.0,13.19141674041748,4.708756446838379,3.2689578533172607,-2387.672607421875,0
306.46299999999974,0.006571438629180193,-0.013679957017302513,0.0001199215475935489,0.0,0.0,0.0,0.0,-0.0002688610111363232,-0.0011950803454965353,-0.0006714321789331734,0.9993765354156494,0.0,0.0,0.0,13.194920539855957,4.718694686889648,3.2801618576049805,-2388.306640625,0
316.35599999999977,0.006582492031157017,-0.01371068600565195,0.00011646412895061076,0.0,0.0,0.0,0.0,0.0015753279440104961,0.0029328125528991222,0.0008033532649278641,0.9994533061981201,0.0,0.0,0.0,13.181422233581543,4.71358585357666,3.2799971103668213,-2385.86376953125,0
326.2379999999994,0.006597346626222134,-0.013672737404704094,0.00012434851669240743,0.0,0.0,0.0,0.0,0.0006120139732956886,0.00021731594461016357,-0.0007279966375790536,0.9993993043899536,0.0,0.0,0.0,13.1863431930542,4.716368198394775,3.268364191055298,-2386.75439453125,0
336.1239999999998,0.006617294624447823,-0.013762052170932293,9.613801375962794e-05,0.0,0.0,0.0,0.0,-0.0032735420390963554,-0.00011789310519816354,-0.0018234648741781712,0.9993104338645935,0.0,0.0,0.0,13.183993339538574,4.697684288024902,3.259291887283325,-2386.3291015625,0
346.0079999999998,0.006582249887287617,-0.013798346742987633,0.0001531394082121551,0.0,0.0,0.0,0.0,0.0023265851195901632,0.0004102239036001265,0.0010968256974592805,1.0006181001663208,0.0,0.0,0.0,13.185364723205566,4.700047016143799,3.254265069961548,-2386.577392578125,0
355.896999999999,0.006606553681194782,-0.01385932695120573,0.00014588474004995078,0.0,0.0,0.0,0.0,0.003218401223421097,0.0038133393973112106,-0.0018218668410554528,0.9996166229248047,0.0,0.0,0.0,13.187161445617676,4.683663845062256,3.2552947998046875,-2386.902587890625,0
365.7779999999984,0.006564417853951454,-0.013851839117705822,0.00022257937234826386,0.0,0.0,0.0,0.0,-0.0016830882523208857,-0.0013409333769232035,-0.004049015697091818,1.0004750490188599,0.0,0.0,0.0,13.184277534484863,4.68260383605957,3.236875295639038,-2386.380615234375,0
375.67099999999846,0.00654514878988266,-0.013882569968700409,0.0002221403265139088,0.0,0.0,0.0,0.0,-0.000776117667555809,-0.0005329124978743494,-0.00028713583014905453,1.0019243955612183,0.0,0.0,0.0,13.186368942260742,4.680429458618164,3.2312400341033936,-2386.759033203125,0
385.55399999999827,0.006564741488546133,-0.013852865435183048,0.00022740043641533703,0.0,0.0,0.0,0.0,0.003643967444077134,-0.002140655182301998,0.002082055201753974,1.0011789798736572,0.0,0.0,0.0,13.190242767333984,4.691227912902832,3.2306759357452393,-2387.4599609375,0
395.4379999999983,0.006533240433782339,-0.013850062154233456,0.00024045511963777244,0.0,0.0,0.0,0.0,0.004401944112032652,0.0018106518546119332,0.002864504000172019,0.9991952180862427,0.0,0.0,0.0,13.193217277526855,4.687466144561768,3.2304487228393555,-2387.99853515625,0
405.3219999999983,0.006549813784658909,-0.013828757219016552,0.0002454447094351053,0.0,0.0,0.0,0.0,-0.0025908248499035835,0.00023755378788337111,-0.0029755118303000927,1.0015442371368408,0.0,0.0,0.0,13.199044227600098,4.686158180236816,3.2273242473602295,-2389.053466796875,0
415.21299999999974,0.006602253764867783,-0.013843201100826263,0.000275312049780041,0.0,0.0,0.0,0.0,-0.002031792188063264,-0.001605845638550818,-0.0005008875159546733,0.9985155463218689,0.0,0.0,0.0,13.193605422973633,4.691252708435059,3.237283706665039,-2388.06884765625,0
425.09499999999935,0.0066137854009866714,-0.013822650536894798,0.00028787818155251443,0.0,0.0,0.0,0.0,0.004022505134344101,-0.0015106794890016317,-0.003017513547092676,1.000505805015564,0.0,0.0,0.0,13.196566581726074,4.700119495391846,3.240669012069702,-2388.60498046875,0
434.98599999999897,0.006578325293958187,-0.013887695968151093,0.0002798482310026884,0.0,0.0,0.0,0.0,0.0010268030455335975,0.0028556636534631252,0.0022283922880887985,1.0006146430969238,0.0,0.0,0.0,13.197615623474121,4.6827263832092285,3.2350170612335205,-2388.794677734375,0
444.8689999999988,0.006601493339985609,-0.013857287354767323,0.0002821137895807624,0.0,0.0,0.0,0.0,-0.003799282945692539,0.0005503795109689236,0.0010577517095953226,1.001942753791809,0.0,0.0,0.0,13.198583602905273,4.68515157699585,3.229158639907837,-2388.9697265625,0
454.7549999999992,0.006602169014513493,-0.01390053890645504,0.00029312126571312547,0.0,0.0,0.0,0.0,0.00045841134851798415,-0.002986851381137967,-0.0016407995717599988,0.9997649192810059,0.0,0.0,0.0,13.18616771697998,4.685772895812988,3.225677967071533,-2386.722412109375,0
464.6439999999984,0.006578309461474419,-0.01386962365359068,0.000351067166775465,0.0,0.0,0.0,0.0,0.0016780947335064411,0.0044721513986587524,0.002681055339053273,0.9995436072349548,0.0,0.0,0.0,13.185798645019531,4.701630592346191,3.2323737144470215,-2386.65576171875,0
474.52399999999943,0.006575370207428932,-0.013914208859205246,0.0003609292907640338,0.0,0.0,0.0,0.0,0.0011581848375499249,0.004811682738363743,-0.0024146330542862415,0.9990873336791992,0.0,0.0,0.0,13.190311431884766,4.692600727081299,3.2213077545166016,-2387.472412109375,0
484.41399999999885,0.00661493930965662,-0.013870121911168098,0.0003503066545818001,0.0,0.0,0.0,0.0,0.0015684808604419231,-0.0002783834934234619,-9.816596866585314e-05,0.9998158812522888,0.0,0.0,0.0,13.190727233886719,4.700685024261475,3.2210628986358643,-2387.5478515625,0
494.3079999999991,0.006614240352064371,-0.013917566277086735,0.0003629267739597708,0.0,0.0,0.0,0.0,-0.0007600787794217467,-0.002311689779162407,0.0016141918022185564,0.9994843602180481,0.0,0.0,0.0,13.177785873413086,4.694775581359863,3.2187440395355225,-2385.205322265625,0
504.1989999999987,0.006633878685534,-0.01388503983616829,0.0003697695501614362,0.0,0.0,0.0,0.0,-0.0006324293208308518,0.0004508604761213064,-0.0009090126841329038,0.9999707341194153,0.0,0.0,0.0,13.180916786193848,4.710969924926758,3.2261524200439453,-2385.77197265625,0
514.0719999999983,0.006634690333157778,-0.01393230352550745,0.0003811180067714304,0.0,0.0,0.0,0.0,0.0024230023846030235,0.0010983237298205495,0.0037547131069004536,1.0000207424163818,0.0,0.0,0.0,13.167448043823242,4.708644390106201,3.2186496257781982,-2383.334228515625,0
523.9639999999999,0.00664588762447238,-0.01388873066753149,0.00040009940857999027,0.0,0.0,0.0,0.0,0.00209497706964612,0.0005176348495297134,0.0006656870828010142,1.0004156827926636,0.0,0.0,0.0,13.174026489257812,4.722390651702881,3.2303571701049805,-2384.52490234375,0
533.8449999999993,0.006646087858825922,-0.013933124020695686,0.0004118050273973495,0.0,0.0,0.0,0.0,0.0013409412931650877,-0.0012494049733504653,-9.381844574818388e-05,1.0004957914352417,0.0,0.0,0.0,13.161925315856934,4.711530685424805,3.22503399848938,-2382.334716796875,0
543.7339999999986,0.006704246159642935,-0.013844165951013565,0.00039052439387887716,0.0,0.0,0.0,0.0,-0.0013905770611017942,0.00025834771804511547,-0.00022375688422471285,0.9996553659439087,0.0,0.0,0.0,13.16748332977295,4.743707180023193,3.268235683441162,-2383.340576171875,0
553.6139999999996,0.006714151706546545,-0.013884125277400017,0.00039942708099260926,0.0,0.0,0.0,0.0,-0.0005059647373855114,-0.0014783126534894109,-0.0026413407176733017,0.9992380738258362,0.0,0.0,0.0,13.154364585876465,4.743638038635254,3.268949508666992,-2380.96630859375,0
563.5079999999998,0.006727111525833607,-0.01387377455830574,0.00042118108831346035,0.0,0.0,0.0,0.0,-0.000948463857639581,-0.001513805938884616,0.0017943495186045766,0.9997861385345459,0.0,0.0,0.0,13.162232398986816,4.756081581115723,3.282060146331787,-2382.39013671875,0
573.387999999999,0.006739834789186716,-0.01391161885112524,0.00043004879262298346,0.0,0.0,0.0,0.0,-0.0028377436101436615,-0.0005797549383714795,-0.002878920640796423,1.002332329750061,0.0,0.0,0.0,13.149883270263672,4.749351501464844,3.281572103500366,-2380.1552734375,0
583.2799999999988,0.00676175719127059,-0.013890137895941734,0.0004493995802477002,0.0,0.0,0.0,0.0,0.0011150895152240992,-0.001211153226904571,0.004177240189164877,0.9997923970222473,0.0,0.0,0.0,13.156538963317871,4.7667622566223145,3.2882134914398193,-2381.359619140625,0
593.1669999999995,0.006775164045393467,-0.01392498891800642,0.0004606684669852257,0.0,0.0,0.0,0.0,0.0032365473452955484,-0.003880836768075824,0.002601459389552474,1.000689148902893,0.0,0.0,0.0,13.144439697265625,4.762545108795166,3.2913472652435303,-2379.169921875,0
603.0549999999985,0.006751372013241053,-0.013890908099710941,0.0005262468475848436,0.0,0.0,0.0,0.0,-0.0014003284741193056,0.00565112940967083,0.0012855688109993935,0.9994410872459412,0.0,0.0,0.0,13.155379295349121,4.777785301208496,3.286104917526245,-2381.14990234375,0
612.9309999999987,0.006761453580111265,-0.013923898339271545,0.0005415614577941597,0.0,0.0,0.0,0.0,-0.0005302831414155662,-0.0028856731951236725,0.0006157606840133667,0.997596025466919,0.0,0.0,0.0,13.142448425292969,4.7723388671875,3.2732207775115967,-2378.8095703125,0
622.8289999999997,0.006753680761903524,-0.013892498798668385,0.0005921724368818104,0.0,0.0,0.0,0.0,0.003185481298714876,0.001916394685395062,0.00042342845699749887,0.9993286728858948,0.0,0.0,0.0,13.14869213104248,4.787247657775879,3.2735230922698975,-2379.939453125,0
632.7059999999983,0.0067628128454089165,-0.013921789824962616,0.000607794732786715,0.0,0.0,0.0,0.0,-0.0017399361822754145,0.002527793636545539,0.0024086725898087025,0.9992663860321045,0.0,0.0,0.0,13.135786056518555,4.776703834533691,3.264282703399658,-2377.603515625,0
642.5989999999983,0.006759784650057554,-0.013877825811505318,0.0006584470393136144,0.0,0.0,0.0,0.0,0.0009560766047798097,0.0010401763720437884,0.00030953381792642176,0.9989799857139587,0.0,0.0,0.0,13.14632797241211,4.801746845245361,3.258735418319702,-2379.511474609375,0
652.4759999999987,0.006769032217562199,-0.01390485092997551,0.0006750331376679242,0.0,0.0,0.0,0.0,0.0003424987371545285,0.00400964543223381,0.0009508378570899367,1.0009838342666626,0.0,0.0,0.0,13.134012222290039,4.798008918762207,3.2553248405456543,-2377.2822265625,0
662.369999999999,0.006821470335125923,-0.013872220180928707,0.0006852025981061161,0.0,0.0,0.0,0.0,-0.0019436819711700082,0.0018170905532315373,-0.0022549396380782127,0.9990934729576111,0.0,0.0,0.0,13.136651992797852,4.814861297607422,3.266266107559204,-2377.76025390625,0
672.2489999999998,0.0068344734609127045,-0.01390048861503601,0.0007009196560829878,0.0,0.0,0.0,0.0,-0.002998134819790721,-0.0020982769783586264,-0.0009948213119059801,0.9994127154350281,0.0,0.0,0.0,13.122690200805664,4.818547248840332,3.25651478767395,-2375.233154296875,0
682.1419999999998,0.006843182258307934,-0.013880535028874874,0.0007393552223220468,0.0,0.0,0.0,0.0,-0.0014803578378632665,-0.002521753776818514,-0.0014587707119062543,0.998319149017334,0.0,0.0,0.0,13.128170013427734,4.838895320892334,3.2641351222991943,-2376.224853515625,0
692.0259999999998,0.0068593877367675304,-0.013909717090427876,0.0007552509778179228,0.0,0.0,0.0,0.0,-0.0010325695620849729,-0.0005614456022158265,0.004927764646708965,0.9989562630653381,0.0,0.0,0.0,13.115326881408691,4.8395867347717285,3.2585763931274414,-2373.900146484375,0
701.914999999999,0.006875826045870781,-0.013940365985035896,0.0007700252463109791,0.0,0.0,0.0,0.0,0.0004172577173449099,0.001964263617992401,0.004192706663161516,0.9994992613792419,0.0,0.0,0.0,13.103626251220703,4.837629318237305,3.25186824798584,-2371.782470703125,0
711.7949999999983,0.006891053635627031,-0.013971474021673203,0.0007844666833989322,0.0,0.0,0.0,0.0,-0.0006521567120216787,0.006622441578656435,-0.0011959325056523085,0.9993863105773926,0.0,0.0,0.0,13.09229564666748,4.834099292755127,3.248684883117676,-2369.7314453125,0
721.6939999999995,0.006905318703502417,-0.014003239572048187,0.0007987042772583663,0.0,0.0,0.0,0.0,-0.0018915111431851983,0.0029836196918040514,0.0010753213427960873,0.9990155100822449,0.0,0.0,0.0,13.079240798950195,4.829683303833008,3.2325375080108643,-2367.368408203125,0
731.5679999999993,0.006447134539484978,-0.013911348767578602,0.0004100839141756296,0.0,0.0,0.0,0.0,0.002610344672575593,-0.0025107297115027905,-0.002351015107706189,1.001834750175476,0.0,0.0,0.0,13.086915969848633,4.862389087677002,3.1580066680908203,-2368.7578125,0
741.4619999999995,0.006443019490689039,-0.013940981589257717,0.00040979916229844093,0.0,0.0,0.0,0.0,-0.0018828414613381028,-0.0025681708939373493,0.0026729009114205837,1.0004724264144897,0.0,0.0,0.0,13.074153900146484,4.854686260223389,3.1613402366638184,-2366.44775390625,0
751.3399999999983,0.006440696772187948,-0.013968950137495995,0.00041059829527512193,0.0,0.0,0.0,0.0,0.0019124915124848485,0.0014064942952245474,-0.00169330183416605,1.0005446672439575,0.0,0.0,0.0,13.061775207519531,4.8529839515686035,3.166358709335327,-2364.207275390625,0
761.2429999999986,0.00643920386210084,-0.013996100053191185,0.00041178526589646935,0.0,0.0,0.0,0.0,0.0013888167450204492,0.0015934788389131427,0.0009375393274240196,0.9995810985565186,0.0,0.0,0.0,13.048284530639648,4.8445725440979,3.161221504211426,-2361.765625,0
771.1139999999996,0.006433522794395685,-0.013999936170876026,0.00042856548679992557,0.0,0.0,0.0,0.0,-0.0014765538508072495,-0.0032937773503363132,0.0004907340626232326,0.9996392130851746,0.0,0.0,0.0,13.060826301574707,4.842012882232666,3.1577606201171875,-2364.035400390625,0
781.0069999999996,0.006431931164115667,-0.014029089361429214,0.0004304214380681515,0.0,0.0,0.0,0.0,-0.0015398950781673193,0.0022562285885214806,0.002162700751796365,1.002027988433838,0.0,0.0,0.0,13.048276901245117,4.843648910522461,3.1603124141693115,-2361.763916015625,0
790.8859999999986,0.006460155360400677,-0.014000862836837769,0.00046574545558542013,0.0,0.0,0.0,0.0,-0.00010639226820785552,-0.00039402447873726487,-0.0003946497745346278,1.001962661743164,0.0,0.0,0.0,13.061487197875977,4.854339122772217,3.160268783569336,-2364.155029296875,0
800.7779999999984,0.006456317380070686,-0.014028267934918404,0.0004729680949822068,0.0,0.0,0.0,0.0,-0.004038051702082157,-0.0083333570510149,-0.0038039973005652428,0.9991865754127502,0.0,0.0,0.0,13.047788619995117,4.84503698348999,3.1598782539367676,-2361.675537109375,0
810.6569999999992,0.006451456807553768,-0.014056318439543247,0.00048110075294971466,0.0,0.0,0.0,0.0,-0.0037943331990391016,-0.003616238944232464,-0.0022625646088272333,0.9996603727340698,0.0,0.0,0.0,13.034353256225586,4.848876953125,3.176496982574463,-2359.243896484375,0
820.5539999999983,0.006446307059377432,-0.014085231348872185,0.000489088473841548,0.0,0.0,0.0,0.0,-0.002228841185569763,-6.11252398812212e-05,0.0016268675681203604,1.0006824731826782,0.0,0.0,0.0,13.021339416503906,4.85088586807251,3.1721277236938477,-2356.888427734375,0
830.4299999999985,0.006410331465303898,-0.01404985785484314,0.0005290686385706067,0.0,0.0,0.0,0.0,0.0013145700795575976,-0.00039344438118860126,-0.00033166923094540834,1.0014736652374268,0.0,0.0,0.0,13.0323486328125,4.874423027038574,3.168278455734253,-2358.881103515625,0
840.3299999999999,0.006405623164027929,-0.01407551858574152,0.0005404175608418882,0.0,0.0,0.0,0.0,-0.0007186774746514857,0.003494987962767482,0.00010885997471632436,1.000091791152954,0.0,0.0,0.0,13.019579887390137,4.866823196411133,3.1657207012176514,-2356.56982421875,0
850.2129999999997,0.006483083125203848,-0.014081249944865704,0.0005611706874333322,0.0,0.0,0.0,0.0,-0.0003854618698824197,-0.0007010266417637467,0.003214828437194228,1.0011100769042969,0.0,0.0,0.0,13.035927772521973,4.867952823638916,3.1731138229370117,-2359.52880859375,0
860.0949999999993,0.0064827026799321175,-0.014106796123087406,0.0005750458803959191,0.0,0.0,0.0,0.0,-0.00012480920122470707,-0.0006267915014177561,-0.0012191799469292164,0.9990389943122864,0.0,0.0,0.0,13.023554801940918,4.865422248840332,3.17671275138855,-2357.289306640625,0
869.9779999999992,0.006503245793282986,-0.014110532589256763,0.0005983973387628794,0.0,0.0,0.0,0.0,-0.005838111042976379,-0.0009616129682399333,-0.00013897469034418464,1.0002634525299072,0.0,0.0,0.0,13.035432815551758,4.86613655090332,3.1817400455474854,-2359.439453125,0
879.869999999999,0.006503127980977297,-0.014133265241980553,0.0006130548426881433,0.0,0.0,0.0,0.0,0.0006692084134556353,-0.006315284408628941,0.000662690494209528,0.9988428950309753,0.0,0.0,0.0,13.022367477416992,4.872727870941162,3.1802711486816406,-2357.07470703125,0
889.7479999999996,0.006501561962068081,-0.014154942706227303,0.0006274292827583849,0.0,0.0,0.0,0.0,-0.0005934603977948427,0.002839184831827879,-0.0020246533676981926,0.9995034337043762,0.0,0.0,0.0,13.010234832763672,4.865535259246826,3.1919939517974854,-2354.878662109375,0
899.6479999999992,0.006498605478554964,-0.014176150783896446,0.0006413130322471261,0.0,0.0,0.0,0.0,2.3915796191431582e-05,-0.0010331080993637443,0.0030270766001194715,1.0002775192260742,0.0,0.0,0.0,12.99631404876709,4.858508586883545,3.182448148727417,-2352.3583984375,0
909.530999999999,0.006510383449494839,-0.014155732467770576,0.0006769002065993845,0.0,0.0,0.0,0.0,-0.0010060109198093414,-0.002188965445384383,0.0008461459656246006,1.0009797811508179,0.0,0.0,0.0,13.01464557647705,4.868062496185303,3.1970417499542236,-2355.6767578125,0
919.4139999999989,0.006495335604995489,-0.014136557467281818,0.000713931571226567,0.0,0.0,0.0,0.0,-0.0024733408354222775,-0.004378458485007286,0.0011211307719349861,1.00005042552948,0.0,0.0,0.0,13.023459434509277,4.882623672485352,3.213792324066162,-2357.272216796875,0
929.2949999999983,0.006567648611962795,-0.01392335444688797,0.00034305028384551406,0.0,0.0,0.0,0.0,-0.0013403092743828893,-0.0043483916670084,0.00407623965293169,0.9987044930458069,0.0,0.0,0.0,13.041210174560547,4.927696228027344,3.2415428161621094,-2360.485107421875,0
939.1909999999989,0.006563523318618536,-0.013932778500020504,0.0003486100467853248,0.0,0.0,0.0,0.0,0.002607347909361124,0.0003905002085957676,-0.0007039349293336272,0.9995336532592773,0.0,0.0,0.0,13.029541969299316,4.923740386962891,3.2449724674224854,-2358.373046875,0
949.0709999999999,0.00655876100063324,-0.013852851465344429,0.00037572698784060776,0.0,0.0,0.0,0.0,-0.00033011112827807665,0.0021658185869455338,0.0006007163319736719,1.0016334056854248,0.0,0.0,0.0,13.047317504882812,4.930798530578613,3.2380523681640625,-2361.59033203125,0
958.9619999999995,0.006476988550275564,-0.013855003751814365,0.0003266024577897042,0.0,0.0,0.0,0.0,-0.0005977126420475543,-0.003981775138527155,-0.0010150145972147584,1.0014036893844604,0.0,0.0,0.0,13.06525707244873,4.927085876464844,3.2238330841064453,-2364.837646484375,0
968.8419999999987,0.006480901036411524,-0.013783629983663559,0.00034096697345376015,0.0,0.0,0.0,0.0,0.00071197614306584,-0.00032392606954090297,-0.002193239750340581,0.9986739158630371,0.0,0.0,0.0,13.085883140563965,4.933526039123535,3.2333245277404785,-2368.571044921875,0
978.7329999999984,0.006524953525513411,-0.013798635452985764,0.0003664436226245016,0.0,0.0,0.0,0.0,0.0004932904266752303,-0.001974733779206872,-0.0037025795318186283,0.998867392539978,0.0,0.0,0.0,13.088179588317871,4.92237663269043,3.2406585216522217,-2368.986328125,0
988.6149999999998,0.006561639718711376,-0.013691877946257591,0.0003488161601126194,0.0,0.0,0.0,0.0,-0.002801197348162532,-0.0009945774218067527,-0.0010483147343620658,1.000863790512085,0.0,0.0,0.0,13.09856128692627,4.925776958465576,3.2467293739318848,-2370.865478515625,0
998.5229999999992,0.0064791664481163025,-0.013766704127192497,0.0003007071209140122,0.0,0.0,0.0,0.0,0.003886875696480274,0.002910470589995384,-0.0018959881272166967,0.9988560080528259,0.0,0.0,0.0,13.103842735290527,4.925729751586914,3.233694553375244,-2371.821533203125,0
1008.3889999999992,0.006504221353679895,-0.013716939836740494,0.000281061657005921,0.0,0.0,0.0,0.0,0.0005879536038264632,-0.00587241817265749,-0.0031566203106194735,0.9982160329818726,0.0,0.0,0.0,13.114912986755371,4.918867588043213,3.2305562496185303,-2373.8251953125,0
1018.2819999999992,0.006524379830807447,-0.01374346949160099,0.00027971924282610416,0.0,0.0,0.0,0.0,-0.001560795702971518,9.571002919983584e-06,-0.0013920963974669576,0.9998742341995239,0.0,0.0,0.0,13.11383056640625,4.911135673522949,3.23868465423584,-2373.629150390625,0
1028.1579999999994,0.006568956188857555,-0.013668450526893139,0.00024348915030714124,0.0,0.0,0.0,0.0,0.001060868613421917,-0.002960412995889783,0.001394126215018332,0.9998900294303894,0.0,0.0,0.0,13.123115539550781,4.9140496253967285,3.24678373336792,-2375.310302734375,0
1038.0479999999989,0.0065535022877156734,-0.013708017766475677,0.00022503125364892185,0.0,0.0,0.0,0.0,0.001087862765416503,0.0016085990937426686,0.0008756028837524354,1.0017236471176147,0.0,0.0,0.0,13.130531311035156,4.9031572341918945,3.249379873275757,-2376.65234375,0
1047.9349999999995,0.006546280346810818,-0.013708948157727718,0.00023135443916544318,0.0,0.0,0.0,0.0,-0.0008841672097332776,-0.003339138114824891,0.005700976587831974,1.0000237226486206,0.0,0.0,0.0,13.138806343078613,4.895721435546875,3.2455027103424072,-2378.150146484375,0
1057.8239999999987,0.006605831440538168,-0.013750952668488026,0.00023623983724974096,0.0,0.0,0.0,0.0,0.0008774370653554797,-0.004582317546010017,0.0007424142677336931,1.002951979637146,0.0,0.0,0.0,13.139408111572266,4.89150333404541,3.2596921920776367,-2378.259033203125,0
1067.699999999999,0.006585534196346998,-0.013739068061113358,0.0002668908273335546,0.0,0.0,0.0,0.0,-0.0024802484549582005,-0.002064811997115612,0.001144891488365829,1.0017194747924805,0.0,0.0,0.0,13.143742561340332,4.887515544891357,3.2672119140625,-2379.043701171875,0
1077.5959999999995,0.006580805871635675,-0.013806444592773914,0.0002523154835216701,0.0,0.0,0.0,0.0,0.0009391855564899743,-0.0027959253638982773,0.00010934193414868787,1.0010918378829956,0.0,0.0,0.0,13.14379596710205,4.880335807800293,3.259305238723755,-2379.05322265625,0
1087.4719999999998,0.006590759847313166,-0.013774569146335125,0.0002546992909628898,0.0,0.0,0.0,0.0,-0.0012956740101799369,0.005438013467937708,-0.0028264010325074196,1.0010669231414795,0.0,0.0,0.0,13.151803016662598,4.880928039550781,3.2580976486206055,-2380.502685546875,0
1097.3649999999998,0.0064981356263160706,-0.013810652308166027,0.00022855606221128255,0.0,0.0,0.0,0.0,3.0155475542414933e-05,0.005207110662013292,0.0039035691879689693,1.0015473365783691,0.0,0.0,0.0,13.1549711227417,4.8833699226379395,3.2365684509277344,-2381.076171875,0
1107.2439999999988,0.0065590557642281055,-0.013706078752875328,0.00018360067042522132,0.0,0.0,0.0,0.0,0.0017748469254001975,0.0021826070733368397,-0.001771405222825706,1.0001704692840576,0.0,0.0,0.0,13.16616153717041,4.894454002380371,3.226595640182495,-2383.1015625,0
1117.1419999999998,0.006505821365863085,-0.013778118416666985,0.0001536327472422272,0.0,0.0,0.0,0.0,-0.0016936419997364283,-0.0038612158969044685,0.0017938633682206273,1.0009162425994873,0.0,0.0,0.0,13.169846534729004,4.8839521408081055,3.207418203353882,-2383.768310546875,0
1127.0179999999982,0.006503244396299124,-0.013754990883171558,0.00015883869491517544,0.0,0.0,0.0,0.0,0.0029321436304599047,0.003494430333375931,0.003277621464803815,0.9998825788497925,0.0,0.0,0.0,13.17441177368164,4.889158248901367,3.213576316833496,-2384.5947265625,0
1136.9119999999984,0.006550140213221312,-0.013822948560118675,0.0001593371416674927,0.0,0.0,0.0,0.0,0.0012005121679976583,0.0016820590244606137,-0.0012724691769108176,0.999620795249939,0.0,0.0,0.0,13.179847717285156,4.871030330657959,3.204634189605713,-2385.57861328125,0
1146.789999999999,0.006541556678712368,-0.013788939453661442,0.0001746220950735733,0.0,0.0,0.0,0.0,-0.0017697985749691725,-0.0009619584307074547,-0.0008241406176239252,0.9991366863250732,0.0,0.0,0.0,13.185006141662598,4.875871181488037,3.200028419494629,-2386.512451171875,0
1156.6839999999993,0.006529288832098246,-0.01381462812423706,0.0001760095328791067,0.0,0.0,0.0,0.0,0.0008191769011318684,0.0009289592271670699,0.002110700588673353,1.0005567073822021,0.0,0.0,0.0,13.172342300415039,4.872194290161133,3.1922945976257324,-2384.22021484375,0
1166.5629999999983,0.00655118003487587,-0.013775372877717018,0.0001529295986983925,0.0,0.0,0.0,0.0,-0.001428234507329762,0.004674916621297598,0.0020617570262402296,0.9998084306716919,0.0,0.0,0.0,13.177599906921387,4.87704610824585,3.211141347885132,-2385.171875,0
1176.4609999999993,0.006500910501927137,-0.013798728585243225,0.0001318093854933977,0.0,0.0,0.0,0.0,-0.00138211774174124,0.0004185081925243139,-0.0006302708643488586,0.9996680021286011,0.0,0.0,0.0,13.181222915649414,4.8738226890563965,3.196080207824707,-2385.82763671875,0
1186.3399999999983,0.0065003931522369385,-0.013766271062195301,0.00013578178186435252,0.0,0.0,0.0,0.0,0.0016919575864449143,-0.006284571718424559,-0.0002634165866766125,0.9999293684959412,0.0,0.0,0.0,13.186509132385254,4.8818464279174805,3.1982245445251465,-2386.784423828125,0
1196.232,0.00652267737314105,-0.013786720111966133,0.00014563280274160206,0.0,0.0,0.0,0.0,-0.0013192883925512433,-0.0041815536096692085,-0.001837235875427723,1.0001322031021118,0.0,0.0,0.0,13.188970565795898,4.873471736907959,3.2051358222961426,-2387.229736328125,0
1206.1189999999988,0.006497513502836227,-0.013780559413135052,0.00017244747141376138,0.0,0.0,0.0,0.0,-0.0005971856298856437,-0.0008932329947128892,0.0017921297112479806,1.0021430253982544,0.0,0.0,0.0,13.190150260925293,4.877090930938721,3.210481882095337,-2387.443359375,0
1216.0029999999988,0.006557199638336897,-0.0138442637398839,0.00018095385166816413,0.0,0.0,0.0,0.0,-0.0010696615790948272,-0.007236774079501629,0.0031974813900887966,1.0032342672348022,0.0,0.0,0.0,13.194205284118652,4.865924835205078,3.222627878189087,-2388.177490234375,0
1225.8909999999996,0.006551570724695921,-0.013819858431816101,0.00019928286201320589,0.0,0.0,0.0,0.0,0.0026315907016396523,-0.005167715717107058,0.0012355440994724631,1.0009620189666748,0.0,0.0,0.0,13.195960998535156,4.868093013763428,3.244635820388794,-2388.4951171875,0
1235.7799999999988,0.006542155519127846,-0.013850105926394463,0.00020830813446082175,0.0,0.0,0.0,0.0,0.0011762549402192235,0.0009123398922383785,0.00034626692649908364,1.001042366027832,0.0,0.0,0.0,13.183364868164062,4.86106538772583,3.246551036834717,-2386.215087890625,0
1245.6529999999984,0.00654792133718729,-0.013761956244707108,0.00023011497978586704,0.0,0.0,0.0,0.0,-0.0007275090902112424,-0.003298320574685931,0.0013733243104070425,1.001267910003662,0.0,0.0,0.0,13.186967849731445,4.874617576599121,3.253394365310669,-2386.867431640625,0
1255.5479999999989,0.006583814043551683,-0.01381918415427208,0.0002473774366080761,0.0,0.0,0.0,0.0,0.0022986391559243202,0.004713809583336115,-0.0019651255570352077,0.9994148015975952,0.0,0.0,0.0,13.18124771118164,4.863045692443848,3.2674920558929443,-2385.83203125,0
1265.4249999999993,0.006587237119674683,-0.013805944472551346,0.00026189922937192023,0.0,0.0,0.0,0.0,0.001068692421540618,-0.002148993546143174,-0.00035392725840210915,0.9989427328109741,0.0,0.0,0.0,13.186054229736328,4.853959083557129,3.2553329467773438,-2386.701904296875,0
1275.324999999999,0.006583884824067354,-0.013844910077750683,0.0002682517224457115,0.0,0.0,0.0,0.0,0.0033881745766848326,0.0024574382696300745,0.002463416662067175,1.0012421607971191,0.0,0.0,0.0,13.181690216064453,4.848011016845703,3.2429070472717285,-2385.912109375,0
1285.1989999999987,0.006587091833353043,-0.013816229067742825,0.0002856869250535965,0.0,0.0,0.0,0.0,-0.0010390493553131819,-0.001242371741682291,-0.0010595170315355062,1.0012791156768799,0.0,0.0,0.0,13.189457893371582,4.84970235824585,3.2419610023498535,-2387.318115234375,0
1295.092999999999,0.0065803504548966885,-0.01384446956217289,0.00029878830537199974,0.0,0.0,0.0,0.0,0.0013678992399945855,0.002106551779434085,0.0029408512637019157,1.0008680820465088,0.0,0.0,0.0,13.1760892868042,4.841792106628418,3.2359888553619385,-2384.8984375,0
1304.973,0.006593044381588697,-0.013746199198067188,0.0003187194524798542,0.0,0.0,0.0,0.0,0.00011693417036440223,0.0006840641144663095,-0.0009296116186305881,1.0004593133926392,0.0,0.0,0.0,13.180715560913086,4.863364219665527,3.241783380508423,-2385.735595703125,0
1314.8709999999992,0.006539378315210342,-0.013761921785771847,0.00031166631379164755,0.0,0.0,0.0,0.0,0.00020822958322241902,-0.0024781497195363045,0.003379815025255084,1.0011786222457886,0.0,0.0,0.0,13.18383502960205,4.8573431968688965,3.238663911819458,-2386.30029296875,0
1324.7429999999986,0.006535645108669996,-0.013750412501394749,0.0003327424346935004,0.0,0.0,0.0,0.0,-0.0019418656593188643,0.003328220685943961,-0.0017791388090699911,0.9993445873260498,0.0,0.0,0.0,13.191683769226074,4.859667778015137,3.2317965030670166,-2387.72119140625,0
1334.6489999999994,0.006519544869661331,-0.013790286146104336,0.00033757463097572327,0.0,0.0,0.0,0.0,-0.00039275927701964974,-0.0006461429293267429,0.00019520976638887078,1.0005030632019043,0.0,0.0,0.0,13.194035530090332,4.848129749298096,3.223339319229126,-2388.146728515625,0
1344.521999999999,0.006501433905214071,-0.013776382431387901,0.00038027175469323993,0.0,0.0,0.0,0.0,-0.0010906853713095188,0.0024801110848784447,-0.003365034470334649,1.002215027809143,0.0,0.0,0.0,13.194849014282227,4.857416152954102,3.2117321491241455,-2388.2939453125,0
1354.4229999999989,0.006586410105228424,-0.0138445058837533,0.000407354295020923,0.0,0.0,0.0,0.0,-0.0027284249663352966,0.003002014709636569,-0.0013333768583834171,1.0003308057785034,0.0,0.0,0.0,13.192387580871582,4.836187362670898,3.2102158069610596,-2387.848388671875,0
1364.2879999999986,0.006606092676520348,-0.01380405854433775,0.0004160639946348965,0.0,0.0,0.0,0.0,0.0008423891849815845,-0.0028063419740647078,-0.00013165561540517956,1.0004897117614746,0.0,0.0,0.0,13.193953514099121,4.8420305252075195,3.211606025695801,-2388.1318359375,0
1374.1889999999985,0.006471600383520126,-0.01385265588760376,0.0003901426389347762,0.0,0.0,0.0,0.0,-0.001417411956936121,0.004089336842298508,0.005474945064634085,0.9996525049209595,0.0,0.0,0.0,13.193499565124512,4.838720321655273,3.1928205490112305,-2388.049560546875,0
1384.065999999999,0.006513756699860096,-0.01380657684057951,0.0003646416880656034,0.0,0.0,0.0,0.0,0.003700640518218279,-0.0014795174356549978,-0.0004359385056886822,0.9986557960510254,0.0,0.0,0.0,13.194161415100098,4.843747615814209,3.1975693702697754,-2388.169677734375,0
1393.9599999999991,0.006501562427729368,-0.013820917345583439,0.000378715485567227,0.0,0.0,0.0,0.0,-0.0030920379795134068,-0.0013938192278146744,-0.0025366207119077444,1.00068199634552,0.0,0.0,0.0,13.191503524780273,4.835318088531494,3.1993494033813477,-2387.688232421875,0
1403.839,0.00653467234224081,-0.013782324269413948,0.0003619551716838032,0.0,0.0,0.0,0.0,0.0010606956202536821,0.0018104898044839501,-0.00017422178643755615,1.0008429288864136,0.0,0.0,0.0,13.193982124328613,4.84308385848999,3.2034084796905518,-2388.136962890625,0
1413.741,0.00653071328997612,-0.013810812495648861,0.00037388011696748435,0.0,0.0,0.0,0.0,0.00045712178689427674,0.0022964496165513992,0.0020853495225310326,0.9993051290512085,0.0,0.0,0.0,13.180352210998535,4.840803146362305,3.1964316368103027,-2385.669921875,0
1423.6089999999986,0.00655359448865056,-0.013784268870949745,0.00036558214924298227,0.0,0.0,0.0,0.0,0.0006377962999977171,-0.002277903025969863,-0.0006973515264689922,0.9989492893218994,0.0,0.0,0.0,13.181779861450195,4.845888137817383,3.2100305557250977,-2385.92822265625,0
1433.5069999999996,0.006553359795361757,-0.013811418786644936,0.00037515899748541415,0.0,0.0,0.0,0.0,-0.0009946703212335706,0.0005896769580431283,0.001690424745902419,0.9996078610420227,0.0,0.0,0.0,13.168499946594238,4.840206623077393,3.215284585952759,-2383.524658203125,0
1443.3799999999992,0.006539845373481512,-0.01377827301621437,0.00041944647091440856,0.0,0.0,0.0,0.0,0.00048698452883400023,-0.0010154347401112318,0.001454316545277834,0.9993476867675781,0.0,0.0,0.0,13.173110008239746,4.857126235961914,3.2204082012176514,-2384.359130859375,0
1453.2749999999996,0.006596835795789957,-0.013862017542123795,0.0004291486111469567,0.0,0.0,0.0,0.0,0.004176191054284573,0.0004033671284560114,0.0013718749396502972,0.9979682564735413,0.0,0.0,0.0,13.174171447753906,4.834453582763672,3.22795033454895,-2384.55126953125,0
1463.1509999999998,0.00660164887085557,-0.013818612322211266,0.0004638776299543679,0.0,0.0,0.0,0.0,-0.0029693853575736284,0.002403753576800227,0.000285299785900861,1.0008525848388672,0.0,0.0,0.0,13.178062438964844,4.835803508758545,3.225053548812866,-2385.25537109375,0
1473.0529999999999,0.006569198798388243,-0.013886770233511925,0.00044387634261511266,0.0,0.0,0.0,0.0,0.0018592458218336105,0.00014459106023423374,-0.000995919923298061,1.0004688501358032,0.0,0.0,0.0,13.180460929870605,4.828954696655273,3.2189884185791016,-2385.689697265625,0
1482.923999999999,0.006626180373132229,-0.01381899043917656,0.00040868931682780385,0.0,0.0,0.0,0.0,0.0012844691518694162,-0.00502449506893754,3.3169595553772524e-05,0.9980822801589966,0.0,0.0,0.0,13.18185806274414,4.835713863372803,3.217163562774658,-2385.9423828125,0
1492.8289999999997,0.006626231130212545,-0.013846861198544502,0.00041403010254725814,0.0,0.0,0.0,0.0,0.0017168069025501609,-0.001069459947757423,0.0040586781688034534,1.000103235244751,0.0,0.0,0.0,13.168853759765625,4.828994274139404,3.224973440170288,-2383.5888671875,0
1502.6979999999985,0.006641091778874397,-0.013813566416501999,0.0004113910545129329,0.0,0.0,0.0,0.0,-0.0007077079499140382,-0.0015015016542747617,-0.004243601579219103,0.9985247850418091,0.0,0.0,0.0,13.173678398132324,4.83994722366333,3.2427291870117188,-2384.4619140625,0
1512.5949999999993,0.00653265044093132,-0.013803988695144653,0.0003778248792514205,0.0,0.0,0.0,0.0,-0.0007232204079627991,-2.5019526219693944e-05,0.0016396475257351995,0.9980910420417786,0.0,0.0,0.0,13.166321754455566,4.848005294799805,3.2198500633239746,-2383.130615234375,0
1522.467999999999,0.006562527269124985,-0.013766767457127571,0.00035062304232269526,0.0,0.0,0.0,0.0,-0.0012529523810371757,0.0021720328368246555,0.003300965530797839,0.9986820816993713,0.0,0.0,0.0,13.172733306884766,4.858944416046143,3.2245705127716064,-2384.290771484375,0
1532.360999999999,0.00648860540241003,-0.013837361708283424,0.0003035286790691316,0.0,0.0,0.0,0.0,-0.0017007826827466488,0.0011268885573372245,0.0016181896207854152,0.9993892312049866,0.0,0.0,0.0,13.17328929901123,4.846254825592041,3.2121243476867676,-2384.3916015625,0
1542.2439999999988,0.006557183340191841,-0.013778583146631718,0.00022544256353285164,0.0,0.0,0.0,0.0,-0.002949496963992715,-0.0028217278886586428,-0.001096624881029129,0.9995898008346558,0.0,0.0,0.0,13.17868423461914,4.856903076171875,3.2187016010284424,-2385.367919921875,0
1552.1509999999998,0.006482368800789118,-0.013811923563480377,0.00018760615785140544,0.0,0.0,0.0,0.0,-0.0025125164538621902,-0.001828442676924169,0.0028018637094646692,0.9992114901542664,0.0,0.0,0.0,13.177102088928223,4.848498344421387,3.217381238937378,-2385.08154296875,0
1562.0279999999984,0.006487387232482433,-0.013783028349280357,0.0001772021787473932,0.0,0.0,0.0,0.0,-0.00022132812591735274,0.00011178358545294032,0.0020860445220023394,1.0000473260879517,0.0,0.0,0.0,13.179367065429688,4.859585285186768,3.213212490081787,-2385.49169921875,0
1571.9219999999987,0.006484098266810179,-0.013808704912662506,0.0001625154836801812,0.0,0.0,0.0,0.0,-6.710313027724624e-05,0.0038217036053538322,0.0024222969077527523,0.9996603727340698,0.0,0.0,0.0,13.16677474975586,4.848616600036621,3.203469753265381,-2383.212646484375,0
1581.7949999999983,0.006433447357267141,-0.013923956081271172,0.00018877643742598593,0.0,0.0,0.0,0.0,0.00013897630560677499,0.00611730245873332,-0.002019764157012105,0.9989293813705444,0.0,0.0,0.0,13.172986030578613,4.8258256912231445,3.1700937747955322,-2384.336669921875,0
1591.6789999999983,0.006628341507166624,-0.013966670259833336,0.0002599523577373475,0.0,0.0,0.0,0.0,-0.0007404670468531549,-0.00029753142734989524,0.001286818878725171,1.0001009702682495,0.0,0.0,0.0,13.170069694519043,4.809889793395996,3.1938817501068115,-2383.80908203125,0
1601.5649999999987,0.006649933289736509,-0.013902007602155209,0.00026135751977562904,0.0,0.0,0.0,0.0,-0.0016107683768495917,0.00016004634380806237,-0.004440159071236849,1.0005472898483276,0.0,0.0,0.0,13.174729347229004,4.820246696472168,3.213521957397461,-2384.652099609375,0
1611.464,0.006654027849435806,-0.013900362886488438,0.00026399202761240304,0.0,0.0,0.0,0.0,0.0022112715523689985,0.0047796075232326984,0.0027816882357001305,0.9992072582244873,0.0,0.0,0.0,13.169864654541016,4.820769786834717,3.199648141860962,-2383.77197265625,0
1621.342999999999,0.006677604746073484,-0.013933803886175156,0.00023748651437927037,0.0,0.0,0.0,0.0,-0.0025271570775657892,-0.002216142136603594,0.0010612693149596453,1.000778079032898,0.0,0.0,0.0,13.180440902709961,4.807641983032227,3.196540594100952,-2385.68603515625,0
1631.2289999999994,0.006673765834420919,-0.01392583642154932,0.00024166348157450557,0.0,0.0,0.0,0.0,-0.0025802720338106155,-0.006756870541721582,-0.0009102266631089151,0.9998186230659485,0.0,0.0,0.0,13.175710678100586,4.807680130004883,3.201643705368042,-2384.829833984375,0
1641.1099999999988,0.006698331795632839,-0.01379433460533619,0.0002556981926318258,0.0,0.0,0.0,0.0,-0.001587185892276466,0.003938441630452871,-0.0036262243520468473,0.9978892207145691,0.0,0.0,0.0,13.17844009399414,4.825997829437256,3.2028584480285645,-2385.32373046875,0
1650.9969999999994,0.0066473353654146194,-0.013809874653816223,0.00023450065054930747,0.0,0.0,0.0,0.0,-0.00013064054655842483,0.002026364905759692,-0.0016701740678399801,0.9978285431861877,0.0,0.0,0.0,13.177851676940918,4.824234962463379,3.2014822959899902,-2385.21728515625,0
1660.8899999999994,0.0067389593459665775,-0.01367579773068428,0.00016027461970224977,0.0,0.0,0.0,0.0,-0.0009052589302882552,-0.0029045077972114086,0.0018851120257750154,1.000024437904358,0.0,0.0,0.0,13.177077293395996,4.839183330535889,3.199069023132324,-2385.077392578125,0
1670.7769999999982,0.006674138363450766,-0.013729576021432877,0.0001123390975408256,0.0,0.0,0.0,0.0,0.0015059347497299314,0.0034072687849402428,0.0018300507217645645,1.000494360923767,0.0,0.0,0.0,13.17564868927002,4.82844352722168,3.1901140213012695,-2384.81884765625,0
1680.6599999999999,0.006656137760728598,-0.013649368658661842,0.0001543120015412569,0.0,0.0,0.0,0.0,0.00408978620544076,0.00045650757965631783,-0.0025881812907755375,1.0024652481079102,0.0,0.0,0.0,13.177010536193848,4.83944845199585,3.1838133335113525,-2385.06494140625,0
1690.5519999999997,0.00657358905300498,-0.013674484565854073,0.00012152382987551391,0.0,0.0,0.0,0.0,-0.0011816335609182715,-0.004901211708784103,0.0025346241891384125,1.0020900964736938,0.0,0.0,0.0,13.171346664428711,4.827683448791504,3.1821517944335938,-2384.039794921875,0
1700.4269999999997,0.006525502074509859,-0.013631118461489677,0.000193894054973498,0.0,0.0,0.0,0.0,0.0037362435832619667,0.001784317777492106,-0.0029409604612737894,1.0002392530441284,0.0,0.0,0.0,13.1781005859375,4.84263801574707,3.1845552921295166,-2385.262451171875,0
1710.3219999999983,0.006487737409770489,-0.013718540780246258,0.00015813416393939406,0.0,0.0,0.0,0.0,-0.001885574427433312,0.003777925856411457,0.0008090058690868318,0.9997572898864746,0.0,0.0,0.0,13.17469310760498,4.831421852111816,3.161633014678955,-2384.6455078125,0
1720.199999999999,0.006401036400347948,-0.01379876583814621,0.000251524819759652,0.0,0.0,0.0,0.0,0.00012151585542596877,-0.0009228860726580024,-0.0025003140326589346,0.9987320899963379,0.0,0.0,0.0,13.183923721313477,4.823515892028809,3.137760877609253,-2386.31640625,0
1730.0879999999997,0.006499099545180798,-0.013840686529874802,0.0002741110511124134,0.0,0.0,0.0,0.0,0.0026041409000754356,0.005784588400274515,-0.0010498297633603215,0.9993727207183838,0.0,0.0,0.0,13.184320449829102,4.813799858093262,3.139460563659668,-2386.38818359375,0
1739.9809999999998,0.006499504670500755,-0.013873506337404251,0.00027720577782019973,0.0,0.0,0.0,0.0,-0.0002674324787221849,0.00036597781581804156,0.0015771096805110574,0.9999802112579346,0.0,0.0,0.0,13.17006778717041,4.800893783569336,3.1261093616485596,-2383.80859375,0
1749.8529999999992,0.006499311421066523,-0.013906980864703655,0.0002808920689858496,0.0,0.0,0.0,0.0,0.0003442447050474584,0.0006814096122980118,-0.00038870773278176785,1.0025930404663086,0.0,0.0,0.0,13.155951499938965,4.796201229095459,3.114259958267212,-2381.253662109375,0
1759.7459999999992,0.006513569969683886,-0.013870937749743462,0.00030764867551624775,0.0,0.0,0.0,0.0,0.003736645681783557,0.0038050322327762842,-0.0007186253205873072,0.999582827091217,0.0,0.0,0.0,13.152802467346191,4.80898380279541,3.108057737350464,-2380.683349609375,0
1769.6279999999988,0.006513017695397139,-0.013903052546083927,0.0003148058895021677,0.0,0.0,0.0,0.0,-0.0007272032671608031,0.0006561375921592116,-0.004338408820331097,0.9975026845932007,0.0,0.0,0.0,13.140859603881836,4.7955546379089355,3.0984394550323486,-2378.52197265625,0
1779.5239999999994,0.006522574461996555,-0.013886394910514355,0.0003334863868076354,0.0,0.0,0.0,0.0,-0.001592438668012619,-0.00015902343147899956,0.0009360071271657944,0.9983780980110168,0.0,0.0,0.0,13.135367393493652,4.805939197540283,3.095083236694336,-2377.52783203125,0
1789.4009999999998,0.006521329283714294,-0.013917479664087296,0.0003389722260180861,0.0,0.0,0.0,0.0,0.001372014288790524,0.0073570432141423225,-0.0016956808976829052,0.9994327425956726,0.0,0.0,0.0,13.12272834777832,4.804264068603516,3.0870563983917236,-2375.239990234375,0
1799.298999999999,0.006564509589225054,-0.013924832455813885,0.0003505367203615606,0.0,0.0,0.0,0.0,0.002950941910967231,0.00019471513223834336,-0.001990552991628647,1.000471591949463,0.0,0.0,0.0,13.118924140930176,4.805288791656494,3.0727875232696533,-2374.55126953125,0
1809.1749999999993,0.006565472576767206,-0.013955899514257908,0.00035637756809592247,0.0,0.0,0.0,0.0,-0.002419424708932638,-0.005255976226180792,-0.0021426479797810316,0.9998561143875122,0.0,0.0,0.0,13.105437278747559,4.794546604156494,3.0786242485046387,-2372.110107421875,0
1819.0729999999985,0.006551929749548435,-0.013979622162878513,0.0003632954612839967,0.0,0.0,0.0,0.0,-0.0058047156780958176,-0.00133146729785949,0.0016893850406631827,0.9989721775054932,0.0,0.0,0.0,13.113920211791992,4.796270370483398,3.0788729190826416,-2373.645751953125,0
1828.9479999999985,0.006552798207849264,-0.014012357220053673,0.000368494977010414,0.0,0.0,0.0,0.0,-0.00014679046580567956,-0.0005411764141172171,0.0009574053110554814,1.0008792877197266,0.0,0.0,0.0,13.100862503051758,4.800022125244141,3.0903003215789795,-2371.2822265625,0
1838.8349999999991,0.006552544888108969,-0.01404624804854393,0.0003737645165529102,0.0,0.0,0.0,0.0,-0.0008445456624031067,0.002013084013015032,-0.0005057555390521884,0.9998060464859009,0.0,0.0,0.0,13.087708473205566,4.7977824211120605,3.098897695541382,-2368.9013671875,0
1848.7219999999998,0.006552544888108969,-0.01404624804854393,0.0003737645165529102,0.0,0.0,0.0,0.0,-0.0009177736355923116,-0.006357905920594931,0.0033441975247114897,1.0006343126296997,0.0,0.0,0.0,13.087708473205566,4.7977824211120605,3.098897695541382,-2368.9013671875,0
1858.6239999999998,0.0065655834041535854,-0.014010630548000336,0.0004045122186653316,0.0,0.0,0.0,0.0,-0.0039050772320479155,-0.004380715079605579,-0.0016211153706535697,1.00199556350708,0.0,0.0,0.0,13.099071502685547,4.822493076324463,3.1039395332336426,-2370.9580078125,0
1868.4959999999992,0.006545250304043293,-0.014013472944498062,0.00042178481817245483,0.0,0.0,0.0,0.0,0.0008587762131355703,0.0003884723992086947,0.0015738861402496696,0.9995977878570557,0.0,0.0,0.0,13.105528831481934,4.828552722930908,3.1204514503479004,-2372.126708984375,0
1878.3819999999996,0.006588511634618044,-0.013883456587791443,0.00030320463702082634,0.0,0.0,0.0,0.0,-0.0001503579696873203,0.0022342316806316376,-0.004558215849101543,0.9977519512176514,0.0,0.0,0.0,13.105964660644531,4.873838424682617,3.138986587524414,-2372.20556640625,0
1888.2759999999998,0.006556148175150156,-0.013888982124626637,0.0003000411088578403,0.0,0.0,0.0,0.0,-0.0006019591819494963,-0.0030707840342074633,-0.00018863831064663827,0.9990807175636292,0.0,0.0,0.0,13.112715721130371,4.875930309295654,3.1295857429504395,-2373.427490234375,0
1898.1579999999994,0.006581421010196209,-0.013877041637897491,0.0002631709212437272,0.0,0.0,0.0,0.0,-0.0007105536642484367,-0.0030467405449599028,0.0011308729881420732,1.0011061429977417,0.0,0.0,0.0,13.11771297454834,4.874044895172119,3.140427350997925,-2374.33203125,0
1908.0469999999987,0.00658247759565711,-0.013898354955017567,0.0002631298266351223,0.0,0.0,0.0,0.0,0.0023399631027132273,0.006935113109648228,0.0016086046816781163,1.0002670288085938,0.0,0.0,0.0,13.104373931884766,4.868309020996094,3.1348464488983154,-2371.91748046875,0
1917.9259999999995,0.006615391932427883,-0.013826301321387291,0.00022170688316691667,0.0,0.0,0.0,0.0,0.0033372940961271524,2.5481280317762867e-05,0.0016420671017840505,0.9996351003646851,0.0,0.0,0.0,13.109925270080566,4.873737335205078,3.1477484703063965,-2372.922607421875,0
1927.8319999999985,0.0065879118628799915,-0.013841025531291962,0.00021133733389433473,0.0,0.0,0.0,0.0,-0.0009398559341207147,0.001088254968635738,0.0006976159638725221,1.000229835510254,0.0,0.0,0.0,13.096358299255371,4.857168197631836,3.122788429260254,-2370.466796875,0
1937.7109999999993,0.006578210275620222,-0.013841057196259499,0.00022694630024489015,0.0,0.0,0.0,0.0,0.0019217298831790686,0.005668205209076405,0.0015976268332451582,0.9996464848518372,0.0,0.0,0.0,13.115436553955078,4.856164932250977,3.1222922801971436,-2373.919921875,0
1947.5989999999983,0.006516195833683014,-0.013822944834828377,0.00022344251920003444,0.0,0.0,0.0,0.0,0.0009626385290175676,-0.003617725567892194,0.0009237154736183584,0.9965193271636963,0.0,0.0,0.0,13.108562469482422,4.85392427444458,3.0742008686065674,-2372.67578125,0
1957.473,0.006507706828415394,-0.013841018080711365,0.00023089647584129125,0.0,0.0,0.0,0.0,-0.002388406777754426,0.006199709139764309,-0.0031954776495695114,0.998091995716095,0.0,0.0,0.0,13.132075309753418,4.850343227386475,3.074083089828491,-2376.931884765625,0
1967.3639999999996,0.006500443909317255,-0.013881104998290539,0.00022257505042944103,0.0,0.0,0.0,0.0,8.244640048360452e-05,-0.004775215871632099,-0.004617351572960615,0.9969702363014221,0.0,0.0,0.0,13.104707717895508,4.843634605407715,3.056824207305908,-2371.97802734375,0
1977.2519999999986,0.006472470238804817,-0.013857821002602577,0.00026446799165569246,0.0,0.0,0.0,0.0,-0.002536558546125889,-0.0003384432930033654,0.001891602878458798,0.998379111289978,0.0,0.0,0.0,13.11847972869873,4.847522735595703,3.0506324768066406,-2374.470947265625,0
1987.1319999999996,0.006472790613770485,-0.013870538212358952,0.0002672401024028659,0.0,0.0,0.0,0.0,0.0025127630215138197,-0.00029363553039729595,-0.0001005177473416552,1.0018608570098877,0.0,0.0,0.0,13.10909366607666,4.839733123779297,3.0453357696533203,-2372.77197265625,0
1997.0259999999998,0.006526709068566561,-0.013844963163137436,0.00020681157184299082,0.0,0.0,0.0,0.0,0.0009982974734157324,-0.0012828415492549539,0.004128874745219946,0.9995027184486389,0.0,0.0,0.0,13.128010749816895,4.839962005615234,3.054868698120117,-2376.196044921875,0
2006.9029999999984,0.00650909636169672,-0.01381784025579691,0.00020827737171202898,0.0,0.0,0.0,0.0,0.0004306671617086977,-0.0013834383571520448,0.002464169869199395,1.0007692575454712,0.0,0.0,0.0,13.11914348602295,4.836574554443359,3.0563254356384277,-2374.5908203125,0
2016.7879999999986,0.006525937933474779,-0.013761875219643116,0.00020363577641546726,0.0,0.0,0.0,0.0,0.0009395432425662875,0.00036634059506468475,-0.003114054212346673,1.0002790689468384,0.0,0.0,0.0,13.13943862915039,4.841482639312744,3.0604186058044434,-2378.2646484375,0
2026.687,0.0065224748104810715,-0.013802852481603622,0.00019150617299601436,0.0,0.0,0.0,0.0,-0.000523672322742641,0.0016807407373562455,-0.0012594283325597644,0.9979655146598816,0.0,0.0,0.0,13.113245010375977,4.82921838760376,3.0513079166412354,-2373.523193359375,0
2036.5629999999983,0.006524374242872,-0.013762627728283405,0.00019844359485432506,0.0,0.0,0.0,0.0,-0.000660980585962534,0.000200650654733181,0.0007888971013016999,0.9995259046554565,0.0,0.0,0.0,13.13669204711914,4.834587574005127,3.0550732612609863,-2377.767333984375,0
2046.4559999999983,0.0065720174461603165,-0.013830256648361683,0.00019824776973109692,0.0,0.0,0.0,0.0,-0.0010088441194966435,0.0010880064219236374,-0.003666591364890337,0.9977613687515259,0.0,0.0,0.0,13.12178897857666,4.820797920227051,3.0612633228302,-2375.06982421875,0
2056.3379999999997,0.006615777499973774,-0.013716522604227066,0.00017559048137627542,0.0,0.0,0.0,0.0,-0.002688788576051593,-0.0035828719846904278,-0.0036945168394595385,0.9997919797897339,0.0,0.0,0.0,13.142505645751953,4.834550857543945,3.071409225463867,-2378.819580078125,0
2066.223,0.006581462919712067,-0.013799941167235374,0.0001311589585384354,0.0,0.0,0.0,0.0,-0.0016594231128692627,-0.0008395184413529932,-0.0007245753658935428,1.0005894899368286,0.0,0.0,0.0,13.132421493530273,4.822356700897217,3.06618595123291,-2376.994384765625,0
2076.1059999999998,0.006625092588365078,-0.013661287724971771,0.00011456014181021601,0.0,0.0,0.0,0.0,-0.0008524777949787676,0.0016649698372930288,0.000875498226378113,1.0008811950683594,0.0,0.0,0.0,13.153135299682617,4.838344097137451,3.0753936767578125,-2380.74365234375,0
2086.008,0.006606778129935265,-0.01371152326464653,9.010227222461253e-05,0.0,0.0,0.0,0.0,0.0014670778764411807,-0.0020000110380351543,0.00026041679666377604,0.9981380701065063,0.0,0.0,0.0,13.12744140625,4.8407182693481445,3.0660059452056885,-2376.093017578125,0
2095.8899999999994,0.006608324125409126,-0.013651343993842602,0.0001030859857564792,0.0,0.0,0.0,0.0,-7.475394522771239e-05,0.002239752560853958,0.0010471154237166047,0.9990953207015991,0.0,0.0,0.0,13.149147987365723,4.8507256507873535,3.0706841945648193,-2380.02197265625,0
2105.776999999998,0.006585028022527695,-0.013699187897145748,7.901004573795944e-05,0.0,0.0,0.0,0.0,6.919238512637094e-05,-0.004892907105386257,9.151017729891464e-05,0.9995025396347046,0.0,0.0,0.0,13.123147010803223,4.83630895614624,3.0587732791900635,-2375.315673828125,0
2115.663999999999,0.006531352177262306,-0.013643893413245678,0.00017568119801580906,0.0,0.0,0.0,0.0,0.0015257905470207334,-0.00427358178421855,-0.0009593908907845616,1.0009018182754517,0.0,0.0,0.0,13.143226623535156,4.851550102233887,3.040907382965088,-2378.9501953125,0
2125.5499999999993,0.006556043401360512,-0.01374744065105915,0.00017718758317641914,0.0,0.0,0.0,0.0,0.0016446310328319669,-3.347599704284221e-05,0.0010196911171078682,1.002149224281311,0.0,0.0,0.0,13.12740707397461,4.817688941955566,3.0515995025634766,-2376.0869140625,0
2135.428,0.006517926696687937,-0.013693705201148987,0.0002513288345653564,0.0,0.0,0.0,0.0,-0.0014527109451591969,-0.006122777704149485,4.6688979637110606e-05,1.0016229152679443,0.0,0.0,0.0,13.148366928100586,4.826230049133301,3.047447443008423,-2379.880615234375,0
2145.3139999999985,0.00653162831440568,-0.013811744749546051,0.00024820485850796103,0.0,0.0,0.0,0.0,0.0017719755414873362,-0.0004492915468290448,0.0018130555981770158,0.9996705055236816,0.0,0.0,0.0,13.143211364746094,4.804384708404541,3.0610132217407227,-2378.947509765625,0
2155.2039999999997,0.006532665807753801,-0.013682782649993896,0.00028502463828772306,0.0,0.0,0.0,0.0,0.00019211565086152405,0.0007855494623072445,5.8844645536737517e-05,0.9991193413734436,0.0,0.0,0.0,13.166136741638184,4.821264743804932,3.0649421215057373,-2383.096923828125,0
