timestamp,stateEstimate.x,stateEstimate.y,stateEstimate.z,controller.cmd_thrust,controller.cmd_roll,controller.cmd_pitch,controller.cmd_yaw,controller.r_roll,controller.r_pitch,controller.r_yaw,controller.accelz,controller.actuatorThrust,controller.roll,controller.pitch,controller.yaw,controller.rollRate,controller.pitchRate,controller.yawRate,controller.ctr_yaw
0.0,-5.24437527928967e-05,-0.00020892234169878066,-6.225551624083892e-05,0.0,0.0,0.0,0.0,-0.0008897879743017256,-0.002754820045083761,0.0006583782378584146,0.9995377063751221,0.0,0.0,0.0,0.15867677330970764,3.891963481903076,1.9348533153533936,-28.72081184387207,0
9.899999999999636,-9.255656186724082e-05,-0.00020531483460217714,-2.9878698114771396e-05,0.0,0.0,0.0,0.0,-0.0013970400905236602,0.0036094123497605324,-0.0003363864670973271,1.0033857822418213,0.0,0.0,0.0,0.15931862592697144,3.886382579803467,1.9275782108306885,-28.83698844909668,0
19.76300000000083,-7.614007336087525e-05,-0.00020068470621481538,-2.9613620426971465e-05,0.0,0.0,0.0,0.0,-0.00026721725589595735,-0.001414894824847579,0.002468396909534931,1.0011097192764282,0.0,0.0,0.0,0.15936240553855896,3.892364740371704,1.9219838380813599,-28.844911575317383,0
29.662000000000262,-4.297989289625548e-05,-0.00024093411047942936,1.1438613910286222e-05,0.0,0.0,0.0,0.0,-0.0004958710051141679,-0.002099588979035616,-0.0002559320128057152,1.0022859573364258,0.0,0.0,0.0,0.15376468002796173,3.8978769779205322,1.9351180791854858,-27.831714630126953,0
39.53399999999965,-6.56047195661813e-05,-0.000287093804217875,5.661615068675019e-05,0.0,0.0,0.0,0.0,-0.0004941271618008614,-0.005867623724043369,0.002777284476906061,1.0035157203674316,0.0,0.0,0.0,0.15287309885025024,3.89263653755188,1.935890793800354,-27.670333862304688,0
49.43000000000029,-2.5562727387296036e-05,-0.0003032076347153634,0.00011995836393907666,0.0,0.0,0.0,0.0,0.0010257784742861986,-0.00388992577791214,0.001278076902963221,1.0008962154388428,0.0,0.0,0.0,0.1460668295621872,3.891889810562134,1.953721284866333,-26.438386917114258,0
59.310999999999694,3.7401016015792266e-05,-0.00025466104852966964,9.342043631477281e-05,0.0,0.0,0.0,0.0,-0.003073270432651043,-0.002338942838832736,-0.001141935819759965,0.9989185333251953,0.0,0.0,0.0,0.15421701967716217,3.905526638031006,1.9622795581817627,-27.91358757019043,0
69.20700000000033,2.7033669539378025e-05,-0.00033688219264149666,0.00011236766295041889,0.0,0.0,0.0,0.0,-0.0013589848531410098,0.0020142553839832544,0.0006884561153128743,0.9976374506950378,0.0,0.0,0.0,0.15417444705963135,3.9079878330230713,1.9732320308685303,-27.905881881713867,0
79.07899999999972,8.083094871835783e-05,-0.00028736647800542414,9.13467665668577e-05,0.0,0.0,0.0,0.0,0.001629839651286602,0.0005930091137997806,-0.0008470122702419758,0.9997923374176025,0.0,0.0,0.0,0.16061009466648102,3.9247803688049316,1.9656298160552979,-29.07074737548828,0
88.98300000000017,-1.254588187293848e-05,-0.0002910390612669289,0.00011326574167469516,0.0,0.0,0.0,0.0,-0.0002737587783485651,0.003809079062193632,-0.00160153245087713,1.002295732498169,0.0,0.0,0.0,0.1599828600883484,3.9175527095794678,1.9591829776763916,-28.957216262817383,0
98.85100000000057,6.437677802750841e-05,-0.00026166910538449883,5.569658605963923e-05,0.0,0.0,0.0,0.0,-0.002293943427503109,-0.0010592262260615826,0.004541789647191763,1.0000790357589722,0.0,0.0,0.0,0.15968506038188934,3.905427932739258,1.9487602710723877,-28.9033145904541,0
108.75400000000081,-1.7750964616425335e-05,-0.00027748470893129706,7.180406100815162e-05,0.0,0.0,0.0,0.0,-0.0004892853903584182,-0.0019490878330543637,-0.0013035540468990803,1.0000585317611694,0.0,0.0,0.0,0.1612052470445633,3.907843589782715,1.9484455585479736,-29.1784725189209,0
118.6239999999998,7.483200897695497e-05,-0.00018354537314735353,8.440464625891764e-06,0.0,0.0,0.0,0.0,-0.001672125537879765,0.0007759039872325957,-0.0013373484835028648,0.9999800324440002,0.0,0.0,0.0,0.16085976362228394,3.9049293994903564,1.953999638557434,-29.115938186645508,0
128.52200000000084,-3.143770300084725e-05,-0.00023491584579460323,-1.8503114915802144e-06,0.0,0.0,0.0,0.0,-0.0003899126604665071,0.0023379207123070955,-0.000235836036154069,0.9998207092285156,0.0,0.0,0.0,0.16087748110294342,3.9040284156799316,1.954613208770752,-29.119144439697266,0
138.39600000000064,2.3597876861458644e-05,-0.00023182231234386563,-4.7366280341520905e-05,0.0,0.0,0.0,0.0,0.0020853984169662,-0.0014389408752322197,0.0005735920858569443,1.0026886463165283,0.0,0.0,0.0,0.16050471365451813,3.8985283374786377,1.9516676664352417,-29.05167007446289,0
148.29000000000087,-1.3884897271054797e-05,-0.000253036996582523,-3.025037221959792e-05,0.0,0.0,0.0,0.0,-0.0009317025542259216,-0.0033888693433254957,0.004347084555774927,0.9993754029273987,0.0,0.0,0.0,0.16028299927711487,3.892852544784546,1.9602307081222534,-29.01154136657715,0
158.17799999999988,9.438030247110873e-06,-0.0002460830146446824,-3.8859652704559267e-05,0.0,0.0,0.0,0.0,-0.0012397733516991138,-0.0027105407789349556,0.0012256940826773643,0.9999791383743286,0.0,0.0,0.0,0.16743817925453186,3.9065639972686768,1.9612432718276978,-30.306644439697266,0
168.0589999999993,-8.091404743026942e-05,-0.00024645408848300576,-2.850324017344974e-05,0.0,0.0,0.0,0.0,0.0015383393038064241,-0.0011947909370064735,0.0025451229885220528,1.0016275644302368,0.0,0.0,0.0,0.16657115519046783,3.9093828201293945,1.962775468826294,-30.14971351623535,0
177.9410000000007,-4.749845538754016e-05,-0.00022478152823168784,-4.864443690166809e-05,0.0,0.0,0.0,0.0,0.0012315433705225587,0.0054422891698777676,0.0013202219270169735,1.0023938417434692,0.0,0.0,0.0,0.17339131236076355,3.9215006828308105,1.9702047109603882,-31.384174346923828,0
187.83400000000074,-0.00010403904161648825,-0.0002514320076443255,-3.6027078749611974e-05,0.0,0.0,0.0,0.0,0.0017277427250519395,-0.005591633729636669,-0.0002677433658391237,1.0023689270019531,0.0,0.0,0.0,0.17342863976955414,3.9188811779022217,1.9691067934036255,-31.390928268432617,0
197.71500000000015,-3.1217088690027595e-05,-0.00019604920817073435,-9.545601642457768e-05,0.0,0.0,0.0,0.0,0.00016267380851786584,-0.0076092686504125595,0.0026070326566696167,1.0012282133102417,0.0,0.0,0.0,0.17312517762184143,3.9132626056671143,1.982858419418335,-31.336002349853516,0
207.60100000000057,-1.5083178368513472e-05,-0.00023105976288206875,-6.644209497608244e-05,0.0,0.0,0.0,0.0,0.0034111395943909883,0.007578671909868717,-0.003127691801637411,1.0012598037719727,0.0,0.0,0.0,0.17329871654510498,3.906627893447876,2.0004360675811768,-31.367412567138672,0
217.4930000000004,3.279451993876137e-05,-0.0001843322825152427,-9.36572760110721e-05,0.0,0.0,0.0,0.0,0.001092078979127109,0.0014007508289068937,0.0025680859107524157,1.0012062788009644,0.0,0.0,0.0,0.17210040986537933,3.895282506942749,1.9852782487869263,-31.150516510009766,0
227.3819999999996,-2.2828386136097834e-05,-0.0002342083607800305,-9.09531518118456e-05,0.0,0.0,0.0,0.0,-5.8912482927553356e-05,-0.001658964203670621,0.0003644020762294531,0.998589277267456,0.0,0.0,0.0,0.17241059243679047,3.8864388465881348,1.9809435606002808,-31.206661224365234,0
237.2579999999998,6.84537099004956e-06,-0.00023166390019468963,-0.00011304725921945646,0.0,0.0,0.0,0.0,0.0017418647184967995,-0.0014163304585963488,0.001425893628038466,1.0016509294509888,0.0,0.0,0.0,0.1724548190832138,3.879574775695801,1.9721473455429077,-31.214664459228516,0
247.15300000000025,3.028060746146366e-06,-0.0002552497899159789,-8.998295379569754e-05,0.0,0.0,0.0,0.0,-0.0044034626334905624,-0.0007564318366348743,0.002155186841264367,1.0020637512207031,0.0,0.0,0.0,0.17265108227729797,3.876089334487915,1.975751280784607,-31.25018882751465,0
257.03600000000006,4.157941930316156e-06,-0.00025933212600648403,-7.593083137180656e-05,0.0,0.0,0.0,0.0,-0.002309613861143589,-0.002223565010353923,-0.0004738015995826572,0.9999545812606812,0.0,0.0,0.0,0.1794750690460205,3.890667200088501,1.9801130294799805,-32.48534393310547,0
266.9300000000003,2.427936669846531e-05,-0.0003070812381338328,-4.504696335061453e-05,0.0,0.0,0.0,0.0,0.00013739379937760532,0.006077616009861231,0.0014306592056527734,0.9987421631813049,0.0,0.0,0.0,0.17118754982948303,3.8978309631347656,1.9878523349761963,-30.98529052734375,0
276.8089999999993,4.348014044808224e-05,-0.00028985622338950634,-4.4047439587302506e-05,0.0,0.0,0.0,0.0,-0.0023235399276018143,0.0011287648230791092,0.003379859495908022,0.998250424861908,0.0,0.0,0.0,0.1774296760559082,3.912630081176758,1.9879316091537476,-32.1151237487793,0
286.6890000000003,-1.0404177373857237e-05,-0.0002925957378465682,-2.434795896988362e-05,0.0,0.0,0.0,0.0,-0.000778237241320312,-0.0036702679935842752,0.001677755848504603,1.0002055168151855,0.0,0.0,0.0,0.1781824827194214,3.9099371433258057,1.9873244762420654,-32.25138473510742,0
296.5779999999995,5.513093128683977e-06,-0.0002780929789878428,-2.6111534680239856e-05,0.0,0.0,0.0,0.0,0.0032245065085589886,0.005174317397177219,-0.001776267890818417,1.0017484426498413,0.0,0.0,0.0,0.17811699211597443,3.90388560295105,1.9855340719223022,-32.23952865600586,0
306.47999999999956,-4.0407194319413975e-05,-0.00027400231920182705,3.4113563742721453e-06,0.0,0.0,0.0,0.0,-0.0028160104993730783,-0.0007384618511423469,0.002321674022823572,1.0013447999954224,0.0,0.0,0.0,0.16829164326190948,3.9056241512298584,1.96968412399292,-30.461122512817383,0
316.34699999999975,-2.248473720101174e-05,-0.0002575299877207726,6.117079465184361e-08,0.0,0.0,0.0,0.0,0.0022453954443335533,0.0014672597171738744,0.0008549271151423454,1.0005810260772705,0.0,0.0,0.0,0.1688363403081894,3.9045674800872803,1.9731301069259644,-30.55971336364746,0
326.2350000000006,-6.218739144969732e-05,-0.00028027151711285114,2.54658571066102e-05,0.0,0.0,0.0,0.0,-0.0038100904785096645,9.046568266057875e-06,0.003084140829741955,0.9994789958000183,0.0,0.0,0.0,0.16843830049037933,3.8925528526306152,1.9635343551635742,-30.487668991088867,0
336.1290000000008,-7.918306437204592e-07,-0.0002465779834892601,-2.888855669880286e-05,0.0,0.0,0.0,0.0,0.0023372469004243612,-0.0041229636408388615,-0.004085694905370474,0.9986974000930786,0.0,0.0,0.0,0.16914202272891998,3.895268440246582,1.9638365507125854,-30.615041732788086,0
346.0059999999994,-6.3944018620532e-05,-0.00028216454666107893,-2.2821845050202683e-05,0.0,0.0,0.0,0.0,-0.0011940207332372665,-0.005228012800216675,0.001825753366574645,0.9992693662643433,0.0,0.0,0.0,0.16913948953151703,3.8927929401397705,1.976312279701233,-30.61458396911621,0
355.8919999999998,5.362857336876914e-06,-0.0002038045204244554,-8.297940075863153e-05,0.0,0.0,0.0,0.0,-0.0014713825657963753,-0.002147614024579525,0.0009459832217544317,0.9986034035682678,0.0,0.0,0.0,0.16900941729545593,3.8862738609313965,1.9881104230880737,-30.591041564941406,0
365.78100000000086,-1.317909118370153e-05,-0.00023605048772878945,-6.837237015133724e-05,0.0,0.0,0.0,0.0,0.0015277264174073935,0.00046895549166947603,0.0020331887062639,1.0026731491088867,0.0,0.0,0.0,0.16922351717948914,3.8877062797546387,1.989970088005066,-30.629793167114258,0
375.66899999999987,4.48252831120044e-05,-0.00016184087144210935,-0.00011313077993690968,0.0,0.0,0.0,0.0,-0.0005652542458847165,0.0018747271969914436,-0.0014159769052639604,1.0036062002182007,0.0,0.0,0.0,0.17573745548725128,3.904989242553711,1.9972336292266846,-31.808826446533203,0
385.5529999999999,6.173777364892885e-07,-0.00020220802980475128,-0.00010733579256338999,0.0,0.0,0.0,0.0,-0.001960243098437786,-0.0027273455634713173,-0.00042719574412330985,1.0012702941894531,0.0,0.0,0.0,0.1753149926662445,3.9045252799987793,1.9946905374526978,-31.732362747192383,0
395.4390000000003,2.1261777874315158e-05,-0.00021567363000940531,-0.000124537487863563,0.0,0.0,0.0,0.0,-0.001218387158587575,-0.0015539953019469976,-0.0004759397706948221,1.0005120038986206,0.0,0.0,0.0,0.17536920309066772,3.898501396179199,1.9975311756134033,-31.742176055908203,0
405.3240000000005,-4.310678195906803e-05,-0.0002444580022711307,-0.00011593211092986166,0.0,0.0,0.0,0.0,-0.0029190864879637957,-0.0005262644262984395,0.004853758029639721,1.0011402368545532,0.0,0.0,0.0,0.17481762170791626,3.8976738452911377,2.0071351528167725,-31.642337799072266,0
415.22099999999955,-3.54712174157612e-05,-0.0002396269846940413,-0.00011129352787975222,0.0,0.0,0.0,0.0,-9.405086166225374e-05,-0.0022410359233617783,-0.001967773772776127,1.0021132230758667,0.0,0.0,0.0,0.17562726140022278,3.896947145462036,2.0101194381713867,-31.78888511657715,0
425.10200000000077,-1.2661143955483567e-06,-0.000270218588411808,-7.537655619671568e-05,0.0,0.0,0.0,0.0,6.003525049891323e-05,-0.0006139014731161296,-1.97441954696842e-06,0.9998241662979126,0.0,0.0,0.0,0.17556262016296387,3.8934011459350586,2.019030809402466,-31.77718162536621,0
434.991,-3.8963142287684605e-05,-0.00028357867267914116,-1.4062354239285924e-05,0.0,0.0,0.0,0.0,0.0001732920209178701,0.00019494901061989367,0.0005622220342047513,0.9995212554931641,0.0,0.0,0.0,0.17573772370815277,3.893442392349243,2.0135443210601807,-31.80887794494629,0
444.8680000000004,-2.0069976017111912e-05,-0.0002956703247036785,3.6313456803327426e-05,0.0,0.0,0.0,0.0,-0.0019411226967349648,0.004032135475426912,0.001964717172086239,0.9997265934944153,0.0,0.0,0.0,0.16852961480617523,3.9032785892486572,2.014233112335205,-30.504194259643555,0
454.7559999999994,1.4902889233781025e-05,-0.00027739471988752484,2.1468480554176494e-05,0.0,0.0,0.0,0.0,0.0007136486819945276,-0.007826237007975578,-0.0011641386663541198,0.9999385476112366,0.0,0.0,0.0,0.16883431375026703,3.897455930709839,1.9968852996826172,-30.55934715270996,0
464.64300000000003,-3.955385182052851e-05,-0.00031719269463792443,3.9125319744925946e-05,0.0,0.0,0.0,0.0,-0.00034153865999542177,-0.0017129440093412995,0.0002340629871468991,1.000941276550293,0.0,0.0,0.0,0.16895242035388947,3.895294189453125,2.004683494567871,-30.58072280883789,0
474.52700000000004,-5.500575298356125e-06,-0.0002911230840254575,2.432274050079286e-05,0.0,0.0,0.0,0.0,-0.0011496759252622724,-0.0007369155646301806,-0.0011070549953728914,0.9990420341491699,0.0,0.0,0.0,0.16895627975463867,3.8904638290405273,2.010496139526367,-30.581422805786133,0
484.41599999999926,-4.0530281694373116e-05,-0.000305312656564638,5.675545253325254e-05,0.0,0.0,0.0,0.0,0.0012605712981894612,0.00141698878724128,-0.003043576143682003,0.9997300505638123,0.0,0.0,0.0,0.16875223815441132,3.8884103298187256,2.0162439346313477,-30.544490814208984,0
494.2990000000009,-6.133368515293114e-06,-0.00028409986407496035,4.1203180444426835e-05,0.0,0.0,0.0,0.0,3.452484088484198e-05,-0.0024984050542116165,-0.0012949839001521468,0.9990376234054565,0.0,0.0,0.0,0.16807083785533905,3.8853979110717773,2.017720937728882,-30.42115592956543,0
504.1859999999997,-4.379664096632041e-05,-0.000307640788378194,6.408586341422051e-05,0.0,0.0,0.0,0.0,0.001483600353822112,0.007826749235391617,0.0014658410800620914,0.9984345436096191,0.0,0.0,0.0,0.16704989969730377,3.88301420211792,2.020163059234619,-30.236366271972656,0
514.0789999999997,9.326306098955683e-06,-0.00026069546584039927,2.8013941118842922e-05,0.0,0.0,0.0,0.0,0.0009185636299662292,-0.0023537413217127323,0.0029895135667175055,1.0000907182693481,0.0,0.0,0.0,0.172066330909729,3.895374059677124,2.007053852081299,-31.14434814453125,0
523.9580000000005,2.120227691193577e-05,-0.00025023205671459436,7.474020821973681e-05,0.0,0.0,0.0,0.0,-0.004366233944892883,-0.003989105112850666,0.004106899723410606,1.0011872053146362,0.0,0.0,0.0,0.16535194218158722,3.90226674079895,2.0165371894836426,-29.929027557373047,0
533.8510000000006,5.6718039559200406e-05,-0.0002317579637747258,5.7228597142966464e-05,0.0,0.0,0.0,0.0,-0.002053934847936034,-1.6349014913430437e-05,-0.0032702344469726086,0.9996891617774963,0.0,0.0,0.0,0.17179882526397705,3.9197728633880615,2.0292584896087646,-31.095928192138672,0
543.732,-1.2230964784976095e-05,-0.0002491503255441785,7.100263610482216e-05,0.0,0.0,0.0,0.0,0.0010011049453169107,-0.005809923633933067,0.0019016186706721783,0.9995896816253662,0.0,0.0,0.0,0.1631680279970169,3.9275941848754883,2.0179989337921143,-29.533735275268555,0
553.6170000000002,4.982096652383916e-05,-0.00023669196525588632,1.7842317902250215e-05,0.0,0.0,0.0,0.0,-0.00015814202197361737,0.0028061496559530497,-0.0017507303273305297,1.0006158351898193,0.0,0.0,0.0,0.16435474157333374,3.921926498413086,2.0309300422668457,-29.74853515625,0
563.5040000000008,3.302572440588847e-05,-0.0002973050868604332,2.5956771423807368e-05,0.0,0.0,0.0,0.0,-0.000555001781322062,-0.006654735188931227,0.0009321863180957735,0.9995623826980591,0.0,0.0,0.0,0.15654197335243225,3.9181737899780273,2.0178377628326416,-28.33440589904785,0
573.3999999999996,4.955718031851575e-05,-0.0002874050405807793,2.7895668608834967e-05,0.0,0.0,0.0,0.0,-0.0025517980102449656,-0.0019502639770507812,-0.0020017269998788834,0.9965149760246277,0.0,0.0,0.0,0.15612450242042542,3.9147181510925293,2.027325391769409,-28.258846282958984,0
583.2749999999996,3.923577241948806e-05,-0.00033367794821970165,3.908699000021443e-05,0.0,0.0,0.0,0.0,0.0007415261352434754,-0.0012308184523135424,0.0022141558583825827,0.9973390698432922,0.0,0.0,0.0,0.1557774394750595,3.91375732421875,2.0284502506256104,-28.196025848388672,0
593.1720000000005,7.352529792115092e-05,-0.0003087289514951408,2.0378924091346562e-05,0.0,0.0,0.0,0.0,-0.0016905971569940448,0.004174737259745598,0.0023506442084908485,1.000228762626648,0.0,0.0,0.0,0.1559871882200241,3.9085447788238525,2.032923698425293,-28.233991622924805,0
603.0519999999997,-8.117593097267672e-06,-0.0002798918285407126,4.0380760765401646e-05,0.0,0.0,0.0,0.0,7.978341454872862e-05,-0.00276224035769701,-0.0006428936612792313,1.0007225275039673,0.0,0.0,0.0,0.14728522300720215,3.9201622009277344,2.0130808353424072,-26.658916473388672,0
612.9359999999997,6.478924478869885e-05,-0.00024160038447007537,-2.721459895838052e-05,0.0,0.0,0.0,0.0,0.0037465684581547976,-0.002040080027654767,-0.0010987785644829273,1.0017348527908325,0.0,0.0,0.0,0.1527854949235916,3.9338080883026123,2.0264170169830322,-27.65447998046875,0
622.8269999999993,4.986617568647489e-06,-0.000254094775300473,-2.295359445270151e-05,0.0,0.0,0.0,0.0,0.002336945151910186,-0.002881315303966403,0.001576991518959403,1.0007399320602417,0.0,0.0,0.0,0.15242578089237213,3.9256296157836914,2.031122922897339,-27.589370727539062,0
632.7080000000005,5.3242489229887724e-05,-0.0002559206332080066,-7.367085345322266e-05,0.0,0.0,0.0,0.0,7.169978925958276e-05,-0.004943788051605225,0.0010595418279990554,0.9981967210769653,0.0,0.0,0.0,0.15238571166992188,3.9190566539764404,2.0349724292755127,-27.58211898803711,0
642.6080000000002,-3.466969064902514e-05,-0.00023422742378897965,-6.595487502636388e-05,0.0,0.0,0.0,0.0,0.0036651245318353176,0.006861025933176279,-0.000694994640070945,0.9983309507369995,0.0,0.0,0.0,0.15237462520599365,3.91792368888855,2.0453319549560547,-27.580110549926758,0
652.4799999999996,-2.723503712331876e-05,-0.00023490734747610986,-7.114496838767081e-05,0.0,0.0,0.0,0.0,0.0009399483678862453,0.0007489300915040076,0.0013398615410551429,1.0001673698425293,0.0,0.0,0.0,0.15243731439113617,3.904841423034668,2.031717300415039,-27.591455459594727,0
662.3809999999994,-6.768413732061163e-05,-0.00021727450075559318,-5.0394814024912193e-05,0.0,0.0,0.0,0.0,-0.0018891931977123022,-0.004280373454093933,0.0014723159838467836,1.0021482706069946,0.0,0.0,0.0,0.15340541303157806,3.897855281829834,2.0265185832977295,-27.766687393188477,0
672.2559999999994,-4.6780121920164675e-05,-0.0002027501759584993,-6.713084439979866e-05,0.0,0.0,0.0,0.0,-0.0013518116902559996,-0.0017748737009242177,-0.0008789394050836563,1.0029246807098389,0.0,0.0,0.0,0.1526736468076706,3.8968186378479004,2.0379269123077393,-27.634235382080078,0
682.1489999999994,-6.228892743820325e-05,-0.00020261266035959125,-4.210442057228647e-05,0.0,0.0,0.0,0.0,0.0016597781796008348,3.432444646023214e-05,0.0012704824330285192,0.9993860721588135,0.0,0.0,0.0,0.15252192318439484,3.8920748233795166,2.045315742492676,-27.606769561767578,0
692.0259999999998,-4.180112591711804e-05,-0.00018929473299067467,-5.3547493735095486e-05,0.0,0.0,0.0,0.0,0.002995844930410385,0.007985401898622513,-0.00030210489057935774,0.9976456165313721,0.0,0.0,0.0,0.15977713465690613,3.900651454925537,2.046978712081909,-28.919979095458984,0
701.9240000000009,-8.179871656466275e-05,-0.00019645702559500933,-3.682124588522129e-05,0.0,0.0,0.0,0.0,-0.0011238042498007417,0.004263225011527538,-0.0008468017913401127,1.0017107725143433,0.0,0.0,0.0,0.15941759943962097,3.893655776977539,2.0251076221466064,-28.854900360107422,0
711.7980000000007,-5.6543052778579295e-05,-0.00018816947704181075,-5.920764306210913e-05,0.0,0.0,0.0,0.0,0.0013222695561125875,0.004296880215406418,0.0020113729406148195,1.0019928216934204,0.0,0.0,0.0,0.15910080075263977,3.8910646438598633,2.0090317726135254,-28.797563552856445,0
721.6910000000007,-7.353515684371814e-05,-0.0001973608450498432,-3.3795833587646484e-05,0.0,0.0,0.0,0.0,-0.0007383845513686538,5.536309981835075e-05,0.0043557509779930115,1.0004867315292358,0.0,0.0,0.0,0.15914113819599152,3.8811404705047607,1.9971803426742554,-28.80486297607422,0
731.5720000000001,-7.718025881331414e-05,-0.00025769625790417194,-3.4839911677408963e-05,0.0,0.0,0.0,0.0,0.0004977095522917807,0.006298860535025597,-0.0015710880979895592,0.9991824626922607,0.0,0.0,0.0,0.15934845805168152,3.8772668838500977,1.9911656379699707,-28.842388153076172,0
741.4650000000001,-4.810285827261396e-05,-0.0002741913194768131,3.3138867365778424e-06,0.0,0.0,0.0,0.0,-0.0017132196808233857,0.001542450045235455,-0.0018526335479691625,0.9996864199638367,0.0,0.0,0.0,0.15914534032344818,3.8685827255249023,1.9749852418899536,-28.80562400817871,0
751.3439999999991,-2.257945016026497e-05,-0.00026263436302542686,-1.283807068830356e-05,0.0,0.0,0.0,0.0,0.001290612854063511,-0.001048701349645853,-0.0021913654636591673,0.9996779561042786,0.0,0.0,0.0,0.15901055932044983,3.8680405616760254,1.9726589918136597,-28.78122901916504,0
761.2450000000008,-1.4965218724682927e-05,-0.0002799688372761011,1.8552838810137473e-05,0.0,0.0,0.0,0.0,0.0022273866925388575,0.003542262362316251,-0.0003430922224652022,0.998320460319519,0.0,0.0,0.0,0.1526050865650177,3.8733434677124023,1.9784350395202637,-27.621822357177734,0
771.1219999999994,9.987797966459766e-07,-0.0002687378437258303,1.6145469999173656e-05,0.0,0.0,0.0,0.0,-0.0012489239452406764,-0.0006906269118189812,-0.0011860686354339123,0.9994310736656189,0.0,0.0,0.0,0.15249234437942505,3.8640716075897217,1.965461015701294,-27.601417541503906,0
781.0120000000006,2.15228610613849e-05,-0.00031546701211482286,3.684196053654887e-05,0.0,0.0,0.0,0.0,-0.00021052296506240964,-0.00487144012004137,-0.00020471896277740598,0.9998863339424133,0.0,0.0,0.0,0.15167273581027985,3.8603150844573975,1.9621942043304443,-27.453065872192383,0
790.8860000000004,3.0695711757289246e-05,-0.00034937431337311864,3.210481008864008e-05,0.0,0.0,0.0,0.0,0.00025004849885590374,0.002430287189781666,2.3098913516150787e-05,1.0013527870178223,0.0,0.0,0.0,0.1521768867969513,3.8558568954467773,1.9644317626953125,-27.54431915283203,0
800.7819999999992,-2.806593147397507e-05,-0.00032713008113205433,6.0928348830202594e-05,0.0,0.0,0.0,0.0,-0.0005304595688357949,0.002433598507195711,0.0005387379787862301,1.001277208328247,0.0,0.0,0.0,0.15249598026275635,3.8536832332611084,1.9656822681427002,-27.602075576782227,0
810.6599999999999,4.452156281331554e-05,-0.0002778222842607647,-9.941418284142856e-07,0.0,0.0,0.0,0.0,-0.0005593363312073052,-0.004768523387610912,-0.001311441883444786,1.0017536878585815,0.0,0.0,0.0,0.15225951373577118,3.853445291519165,1.9642657041549683,-27.559274673461914,0
820.5699999999997,3.969058525399305e-06,-0.0002887988812290132,1.6407864677603357e-05,0.0,0.0,0.0,0.0,-0.002252470701932907,-0.0024229211267083883,0.0010045761009678245,1.0011180639266968,0.0,0.0,0.0,0.15194661915302277,3.8499579429626465,1.974428415298462,-27.502639770507812,0
830.4390000000003,5.610492735286243e-05,-0.0002670392859727144,-2.9538732633227482e-05,0.0,0.0,0.0,0.0,0.0015264301327988505,-0.007274982053786516,-0.00027993012918159366,0.9987697005271912,0.0,0.0,0.0,0.1518358737230301,3.8518776893615723,1.9847904443740845,-27.482593536376953,0
840.3269999999993,-1.0828687663888559e-05,-0.00030296907061710954,-2.887850860133767e-05,0.0,0.0,0.0,0.0,-9.331543697044253e-05,-0.00020593302906490862,0.0025439292658120394,0.9982919096946716,0.0,0.0,0.0,0.15164189040660858,3.8483898639678955,2.0002572536468506,-27.44748306274414,0
850.2029999999995,4.69536280434113e-05,-0.00023280656023416668,-7.542320963693783e-05,0.0,0.0,0.0,0.0,-0.0021998004522174597,0.008124277926981449,-0.0019737815018743277,0.9983542561531067,0.0,0.0,0.0,0.15240049362182617,3.844127655029297,1.9946935176849365,-27.584793090820312,0
860.1000000000004,2.3189608327811584e-05,-0.00025103247025981545,-6.506601494038478e-05,0.0,0.0,0.0,0.0,-0.0006130755646154284,0.0006841456633992493,0.002645191503688693,0.998537540435791,0.0,0.0,0.0,0.15194402635097504,3.8384408950805664,1.981667399406433,-27.50217056274414,0
869.982,9.569942631060258e-05,-0.00018228183034807444,-0.0001358616864308715,0.0,0.0,0.0,0.0,-0.0003393218503333628,0.0025913086719810963,-0.002631464274600148,0.999603271484375,0.0,0.0,0.0,0.1524868607521057,3.833317756652832,1.9720313549041748,-27.60042381286621,0
879.8760000000002,-2.0727913579321466e-05,-0.0002113468071911484,-0.0001585123682161793,0.0,0.0,0.0,0.0,-0.0009473221725784242,-0.0012089596129953861,0.0014766069361940026,1.000481128692627,0.0,0.0,0.0,0.1516409069299698,3.8266115188598633,1.9622745513916016,-27.44730567932129,0
889.7520000000004,-5.4048946367402095e-06,-0.00022113212617114186,-0.0001852012355811894,0.0,0.0,0.0,0.0,-0.0029789190739393234,-0.0051717376336455345,0.00128842331469059,0.9995821118354797,0.0,0.0,0.0,0.1524255871772766,3.821922540664673,1.9691718816757202,-27.58933448791504,0
899.6450000000004,-8.652672840980813e-05,-0.00020211064838804305,-0.000180697490577586,0.0,0.0,0.0,0.0,0.001532478374429047,-0.0008722556522116065,0.002398207550868392,1.0007612705230713,0.0,0.0,0.0,0.15291331708431244,3.82321834564209,1.9766343832015991,-27.677616119384766,0
909.5300000000007,-6.757707160431892e-05,-0.0002145066682714969,-0.00021340417151805013,0.0,0.0,0.0,0.0,0.0024086006451398134,0.004149725195020437,0.0008830211008898914,1.0006074905395508,0.0,0.0,0.0,0.1537553071975708,3.8147871494293213,1.971242070198059,-27.830015182495117,0
919.4150000000009,-4.343997352407314e-05,-0.00023929929011501372,-0.0001946826232597232,0.0,0.0,0.0,0.0,-0.00017598227714188397,-0.001388664124533534,0.0018300825031474233,0.9996255040168762,0.0,0.0,0.0,0.1535135954618454,3.8106088638305664,1.9588290452957153,-27.78626823425293,0
929.2929999999997,-6.313720950856805e-05,-0.00025725646992214024,-0.00017700137686915696,0.0,0.0,0.0,0.0,-0.0007313349051401019,0.001692140125669539,-0.000787590048275888,0.9998470544815063,0.0,0.0,0.0,0.15355852246284485,3.8095920085906982,1.961000680923462,-27.794397354125977,0
939.1949999999997,-4.689192064688541e-05,-0.0002709313412196934,-0.00015225492825265974,0.0,0.0,0.0,0.0,-0.0005157642299309373,0.004397179000079632,0.0006234692991711199,0.9991858601570129,0.0,0.0,0.0,0.15228043496608734,3.8074445724487305,1.959343671798706,-27.56306266784668,0
949.0779999999995,-0.00010012368875322863,-0.00032516883220523596,-0.00010266152094118297,0.0,0.0,0.0,0.0,-0.0006280263769440353,-0.0012445071479305625,0.0007903982186689973,0.9989736080169678,0.0,0.0,0.0,0.1524493545293808,3.8060202598571777,1.9488526582717896,-27.59363555908203,0
958.9590000000007,-7.043901132419705e-05,-0.00032972986809909344,-6.219295755727217e-05,0.0,0.0,0.0,0.0,0.004703917540609837,-0.00172302161809057,-0.0025973720476031303,0.9989758133888245,0.0,0.0,0.0,0.15320423245429993,3.8012914657592773,1.9466463327407837,-27.73027229309082,0
968.8389999999999,-9.421446884516627e-05,-0.00035619031405076385,-3.8892754673724994e-05,0.0,0.0,0.0,0.0,-0.0019117948831990361,0.0013703906442970037,-0.0008584093302488327,0.9974271655082703,0.0,0.0,0.0,0.15200765430927277,3.7897658348083496,1.9416306018829346,-27.513687133789062,0
978.7309999999998,-6.354560900945216e-05,-0.00033835673821158707,1.3812147699354682e-05,0.0,0.0,0.0,0.0,-0.0015533670084550977,-0.0007950833532959223,0.0008658874430693686,0.9980910420417786,0.0,0.0,0.0,0.14568904042243958,3.8090765476226807,1.9454697370529175,-26.370004653930664,0
988.6100000000006,-3.408826160011813e-05,-0.0003045828780159354,-1.298231836699415e-05,0.0,0.0,0.0,0.0,-0.00012960309686604887,-0.0028938651084899902,0.0004910883726552129,0.9984927773475647,0.0,0.0,0.0,0.14650024473667145,3.8146655559539795,1.949803352355957,-26.51683807373047,0
998.5110000000004,-2.7167287043994293e-05,-0.0003116677107755095,2.2634554625255987e-05,0.0,0.0,0.0,0.0,-0.0015011593932285905,-0.0008942169370129704,0.0013213763013482094,0.9986792206764221,0.0,0.0,0.0,0.14634765684604645,3.8078701496124268,1.950976848602295,-26.48921775817871,0
1008.3819999999996,4.2396652133902535e-05,-0.00026107116718776524,-4.711510700872168e-05,0.0,0.0,0.0,0.0,-0.00029539247043430805,-0.002165756653994322,0.002301667584106326,1.0002613067626953,0.0,0.0,0.0,0.14738675951957703,3.803157091140747,1.9482754468917847,-26.677297592163086,0
1018.2829999999994,3.0534709367202595e-05,-0.00031455009593628347,-4.405410072649829e-05,0.0,0.0,0.0,0.0,0.00017844451940618455,0.004160141572356224,0.00011418479698477313,0.9994189143180847,0.0,0.0,0.0,0.14766424894332886,3.7956409454345703,1.9512584209442139,-26.727523803710938,0
1028.1560000000009,9.384669829159975e-05,-0.00023282351321540773,-0.00010092959564644843,0.0,0.0,0.0,0.0,0.0008013685001060367,-0.0007608828600496054,-0.0020443156827241182,0.9995415806770325,0.0,0.0,0.0,0.1474388688802719,3.788933277130127,1.944091796875,-26.686729431152344,0
1038.0599999999995,-4.210611223243177e-06,-0.00022439660097006708,-9.999275062000379e-05,0.0,0.0,0.0,0.0,-0.002063741674646735,-0.004975588526576757,0.002395497402176261,1.0009928941726685,0.0,0.0,0.0,0.14029397070407867,3.7948825359344482,1.9308072328567505,-25.39348793029785,0
1047.9269999999997,3.291621396783739e-05,-0.00017967273015528917,-0.00013890668924432248,0.0,0.0,0.0,0.0,-0.0004048155969940126,-0.0006089668604545295,-0.0001396944426232949,1.0007468461990356,0.0,0.0,0.0,0.1406121402978897,3.7949063777923584,1.9370384216308594,-25.451078414916992,0
1057.8240000000005,-3.467834540060721e-05,-0.0002300787891726941,-0.00015436133253388107,0.0,0.0,0.0,0.0,-0.0016378273721784353,-0.004880099557340145,-0.001799538265913725,0.9962180852890015,0.0,0.0,0.0,0.14047080278396606,3.795524835586548,1.9432024955749512,-25.425493240356445,0
1067.7019999999993,3.4171061997767538e-06,-0.0001682819565758109,-0.00019385090854484588,0.0,0.0,0.0,0.0,0.0007050085114315152,-0.004492925014346838,0.000487208686536178,0.9987430572509766,0.0,0.0,0.0,0.1397659182548523,3.7932310104370117,1.9569509029388428,-25.297910690307617,0
1077.5949999999993,-3.339049726491794e-05,-0.00022012238332536072,-0.00020586168102454394,0.0,0.0,0.0,0.0,-0.000909876951482147,-0.0009068859508261085,8.137989425449632e-06,1.000056505203247,0.0,0.0,0.0,0.1398417055606842,3.7919423580169678,1.9661329984664917,-25.311628341674805,0
1087.4709999999995,-1.350156708213035e-05,-0.00019686577434185892,-0.0002370707516092807,0.0,0.0,0.0,0.0,0.0007568377768620849,0.004044050816446543,-0.0014877370558679104,1.0008928775787354,0.0,0.0,0.0,0.1405869871377945,3.790315628051758,1.9657583236694336,-25.446521759033203,0
1097.366,-1.3283450243761763e-05,-0.00020804967789445072,-0.00022663234267383814,0.0,0.0,0.0,0.0,0.0006834245868958533,-0.0026949916500598192,0.0014632816892117262,1.0002923011779785,0.0,0.0,0.0,0.13998599350452423,3.7841596603393555,1.9495444297790527,-25.337745666503906,0
1107.2450000000008,-5.262496051727794e-05,-0.00024861586280167103,-0.00019756540132220834,0.0,0.0,0.0,0.0,-0.0016344500472769141,-0.0041757929138839245,-0.0008109862101264298,0.9999262094497681,0.0,0.0,0.0,0.14006109535694122,3.777886152267456,1.9525421857833862,-25.351337432861328,0
1117.1389999999992,-4.869025724474341e-05,-0.0002601976157166064,-0.00017496409418527037,0.0,0.0,0.0,0.0,-0.00016280949057545513,-0.006106719374656677,0.00014874970656819642,1.0018588304519653,0.0,0.0,0.0,0.13971371948719025,3.776806354522705,1.9542924165725708,-25.288461685180664,0
1127.0229999999992,-5.542346480069682e-05,-0.00025821372400969267,-0.0001736688573146239,0.0,0.0,0.0,0.0,-0.0029453171882778406,-0.001922212541103363,0.0022110878489911556,1.0005428791046143,0.0,0.0,0.0,0.1400492787361145,3.776691198348999,1.959350347518921,-25.349197387695312,0
1136.9099999999999,-3.193759766872972e-05,-0.0002656548749655485,-0.0001377124572172761,0.0,0.0,0.0,0.0,0.0032414838206022978,-0.0034300019033253193,-0.00022812762472312897,1.0006877183914185,0.0,0.0,0.0,0.13417641818523407,3.7937560081481934,1.9707834720611572,-24.28619956970215,0
1146.7929999999997,-4.955424810759723e-05,-0.0002775216707959771,-0.00011845236440422013,0.0,0.0,0.0,0.0,0.00013749451318290085,-0.0012858463451266289,-0.0002374691393924877,0.9988099336624146,0.0,0.0,0.0,0.13354496657848358,3.7873456478118896,1.9805939197540283,-24.171905517578125,0
1156.687,-4.6668839786434546e-05,-0.0003066259669139981,-9.146392403636128e-05,0.0,0.0,0.0,0.0,-0.00042842543916776776,-0.0014193919487297535,-0.00017845840193331242,0.998302698135376,0.0,0.0,0.0,0.13299068808555603,3.7868571281433105,1.984205722808838,-24.071578979492188,0
1166.562,-8.63253662828356e-05,-0.0003520075115375221,-5.1490638725226745e-05,0.0,0.0,0.0,0.0,-0.0008466351428069174,0.0009333912166766822,0.0009323871927335858,0.9991534352302551,0.0,0.0,0.0,0.13290010392665863,3.789372444152832,1.9885588884353638,-24.05518341064453,0
1176.4590000000007,-7.320127770071849e-05,-0.00037548859836533666,-1.4564997400157154e-05,0.0,0.0,0.0,0.0,5.131499347044155e-05,0.004739189054816961,0.0024301218800246716,0.9997076392173767,0.0,0.0,0.0,0.13273178040981293,3.785673141479492,1.9809246063232422,-24.024717330932617,0
1186.3340000000007,-8.368725684704259e-05,-0.0003899581788573414,1.4895517779223155e-06,0.0,0.0,0.0,0.0,0.0028023160994052887,-0.0003767592424992472,-0.00035755534190684557,0.9991394877433777,0.0,0.0,0.0,0.13426342606544495,3.780857563018799,1.9667326211929321,-24.30194664001465,0
1196.2289999999994,-0.0001299017749261111,-0.0003412664227653295,5.177752245799638e-05,0.0,0.0,0.0,0.0,0.0005665341159328818,-0.003031123662367463,-0.000655807030852884,1.0005322694778442,0.0,0.0,0.0,0.1343957930803299,3.770867347717285,1.9647926092147827,-24.32590675354004,0
1206.1129999999994,-8.196829003281891e-05,-0.0002997394767589867,1.4493842172669247e-05,0.0,0.0,0.0,0.0,-0.0012816471280530095,-0.008004184812307358,0.0032791306730359793,0.9982348084449768,0.0,0.0,0.0,0.1338634192943573,3.766714096069336,1.9640473127365112,-24.22954559326172,0
1216.009,-5.383382085710764e-05,-0.0003175013407599181,5.593827154370956e-05,0.0,0.0,0.0,0.0,-0.0007761503220535815,0.003304446814581752,0.0004627787275239825,0.9977498054504395,0.0,0.0,0.0,0.1342921108007431,3.7622928619384766,1.9698610305786133,-24.307138442993164,0
1225.8860000000004,-3.7061722650832962e-06,-0.00028447993099689484,1.435645481251413e-05,0.0,0.0,0.0,0.0,0.0028117909096181393,0.003344205440953374,0.0006524776690639555,1.0002620220184326,0.0,0.0,0.0,0.1343950480222702,3.7571780681610107,1.954901099205017,-24.325769424438477,0
1235.7729999999992,-6.600406777579337e-05,-0.0002891621843446046,3.1637642678106204e-05,0.0,0.0,0.0,0.0,-0.0006278069340623915,-0.00036548144998960197,0.00039831589674577117,1.0002977848052979,0.0,0.0,0.0,0.13444387912750244,3.7463719844818115,1.952614426612854,-24.334609985351562,0
1245.6630000000005,5.957960638625082e-06,-0.0002619408187456429,-4.0258550143335015e-05,0.0,0.0,0.0,0.0,-0.0006839934503659606,0.0022456799633800983,0.0022340554278343916,1.0000048875808716,0.0,0.0,0.0,0.13466346263885498,3.7427072525024414,1.9589887857437134,-24.374353408813477,0
1255.545,-3.413586091483012e-05,-0.00027285199030302465,-2.4325803678948432e-05,0.0,0.0,0.0,0.0,0.0002876288490369916,-0.004441922064870596,0.0035318275913596153,1.000733494758606,0.0,0.0,0.0,0.13435135781764984,3.7438600063323975,1.9517569541931152,-24.31786346435547,0
1265.4300000000003,1.810340108931996e-05,-0.00026834465097635984,-8.485402213409543e-05,0.0,0.0,0.0,0.0,0.003347064135596156,0.00626353221014142,-0.003943960648030043,1.0009162425994873,0.0,0.0,0.0,0.13595153391361237,3.741170883178711,1.9587996006011963,-24.607498168945312,0
1275.3230000000003,-2.6631245418684557e-05,-0.00027127948123961687,-6.816140376031399e-05,0.0,0.0,0.0,0.0,0.00037658409564755857,-0.0002942285791505128,0.0013017372693866491,0.9985268115997314,0.0,0.0,0.0,0.13431087136268616,3.7317447662353516,1.9360430240631104,-24.310535430908203,0
1285.1990000000005,2.0799248886760324e-05,-0.0002520419948268682,-0.000118722949991934,0.0,0.0,0.0,0.0,0.001460063154809177,0.00759131321683526,-0.003031844040378928,0.9991568326950073,0.0,0.0,0.0,0.1348770260810852,3.722217321395874,1.936324954032898,-24.413007736206055,0
1295.0969999999998,-2.256326115457341e-05,-0.00025242133415304124,-0.00010465317609487101,0.0,0.0,0.0,0.0,0.002659371355548501,0.0028233483899384737,0.005244935862720013,1.0040944814682007,0.0,0.0,0.0,0.1333632916212082,3.7147390842437744,1.9184595346450806,-24.139020919799805,0
1304.9740000000002,5.836620402988046e-06,-0.00025291781639680266,-0.0001370925165247172,0.0,0.0,0.0,0.0,-0.000419863557908684,-0.006154329515993595,0.0008715300355106592,1.0024948120117188,0.0,0.0,0.0,0.135357066988945,3.7110486030578613,1.9164659976959229,-24.499897003173828,0
1314.8619999999992,-1.8691131117520854e-05,-0.0002574186073616147,-0.00011518016981426626,0.0,0.0,0.0,0.0,-0.0005399374640546739,-3.917920184903778e-05,-0.0008308524847961962,1.000140905380249,0.0,0.0,0.0,0.13539187610149384,3.708897352218628,1.9312222003936768,-24.506200790405273,0
1324.7520000000004,-1.6970217984635383e-05,-0.00025667695445008576,-0.00010900205961661413,0.0,0.0,0.0,0.0,-0.0005454653291963041,0.0027413598727434874,-0.0024782309774309397,0.9999104142189026,0.0,0.0,0.0,0.13535411655902863,3.712007522583008,1.928375244140625,-24.499364852905273,0
1334.6479999999992,-1.341226561635267e-05,-0.00026788798277266324,-7.619817915838212e-05,0.0,0.0,0.0,0.0,-0.0004635054210666567,0.00281179859302938,9.011991642182693e-05,0.9986406564712524,0.0,0.0,0.0,0.13473443686962128,3.7096025943756104,1.9237871170043945,-24.3872013092041,0
1344.5229999999992,-1.4719075807079207e-05,-0.00033147583599202335,-7.528721471317112e-05,0.0,0.0,0.0,0.0,0.004212533589452505,0.003043840639293194,0.00280320318415761,1.0003470182418823,0.0,0.0,0.0,0.13472361862659454,3.7033262252807617,1.9184077978134155,-24.385244369506836,0
1354.4120000000003,-4.027249087812379e-05,-0.0003060632152482867,-3.609437044360675e-05,0.0,0.0,0.0,0.0,-0.0033085509203374386,0.0016704810550436378,9.538479935145006e-05,1.001227617263794,0.0,0.0,0.0,0.13596591353416443,3.6901280879974365,1.9073362350463867,-24.610103607177734,0
1364.2909999999993,-1.1428355719544925e-05,-0.000288519193418324,-4.6567416575271636e-05,0.0,0.0,0.0,0.0,0.0009906989289447665,0.0013135840417817235,0.0005802985979244113,1.001746416091919,0.0,0.0,0.0,0.13613715767860413,3.6935346126556396,1.9045974016189575,-24.641094207763672,0
1374.1890000000003,-8.982507279142737e-05,-0.0002653147967066616,-1.945822441484779e-05,0.0,0.0,0.0,0.0,0.0015466511249542236,-0.0032694062683731318,-0.0017525827279314399,0.9993036985397339,0.0,0.0,0.0,0.13622137904167175,3.6890907287597656,1.9055370092391968,-24.656339645385742,0
1384.0609999999997,-2.8367125196382403e-05,-0.00024739501532167196,-6.758324161637574e-05,0.0,0.0,0.0,0.0,-6.540305184898898e-05,0.005509382579475641,0.00038996824878267944,0.9998442530632019,0.0,0.0,0.0,0.13521502912044525,3.685178518295288,1.909691333770752,-24.474191665649414,0
1393.9580000000005,-9.404568845639005e-05,-0.00024940690491348505,-4.865445225732401e-05,0.0,0.0,0.0,0.0,-3.123100395896472e-05,0.0018002971773967147,0.0032607796601951122,1.0003710985183716,0.0,0.0,0.0,0.13464346528053284,3.6835265159606934,1.899053931236267,-24.37073516845703,0
1403.83,-3.242007369408384e-05,-0.0002429377636872232,-0.00010452955757500604,0.0,0.0,0.0,0.0,0.0006827082834206522,0.006353219039738178,0.0009849793277680874,0.9993991255760193,0.0,0.0,0.0,0.13581553101539612,3.6806507110595703,1.8936944007873535,-24.5828800201416,0
1413.7250000000004,-7.912853470770642e-05,-0.00021848319738637656,-7.257853576447815e-05,0.0,0.0,0.0,0.0,0.0018070910591632128,-0.001235453994013369,-0.0029045958071947098,1.001301884651184,0.0,0.0,0.0,0.1357296258211136,3.672157049179077,1.8818528652191162,-24.56732940673828,0
1423.6049999999996,-5.770782445324585e-05,-0.0002266182709718123,-8.678714948473498e-05,0.0,0.0,0.0,0.0,0.0008311399142257869,0.004181909374892712,0.0009345234138891101,1.0004664659500122,0.0,0.0,0.0,0.1414734274148941,3.6779892444610596,1.8932287693023682,-25.606971740722656,0
1433.5020000000004,-6.166446110000834e-05,-0.0002836599014699459,-6.892567034810781e-05,0.0,0.0,0.0,0.0,-0.001456562546081841,-0.004305434413254261,0.0023855376057326794,1.0014127492904663,0.0,0.0,0.0,0.1423087865114212,3.6714439392089844,1.8859976530075073,-25.7581729888916,0
1443.3880000000008,-3.5719203879125416e-05,-0.0002793062012642622,-8.448585140286013e-05,0.0,0.0,0.0,0.0,-0.002706783125177026,-0.0019737337715923786,-0.0016427346272394061,1.0012497901916504,0.0,0.0,0.0,0.14311227202415466,3.665083408355713,1.8906116485595703,-25.90360450744629,0
1453.2870000000003,-5.2164912631269544e-05,-0.00033058790722861886,-6.422542355721816e-05,0.0,0.0,0.0,0.0,0.0004188306338619441,-0.0010973638854920864,0.002287989016622305,0.9995940327644348,0.0,0.0,0.0,0.14271698892116547,3.660653829574585,1.8901190757751465,-25.832059860229492,0
1463.1530000000002,-2.3795148081262596e-05,-0.00031673043849878013,-7.879366603447124e-05,0.0,0.0,0.0,0.0,0.0009144724463112652,-0.0002674878342077136,-0.001942021888680756,0.999061644077301,0.0,0.0,0.0,0.14241880178451538,3.6543307304382324,1.8835729360580444,-25.778085708618164,0
1473.0460000000003,-4.8869489546632394e-05,-0.0003375295491423458,-5.095114465802908e-05,0.0,0.0,0.0,0.0,-0.003040619194507599,-0.0006774071371182799,-0.0008440357050858438,0.9987667202949524,0.0,0.0,0.0,0.1415555328130722,3.6485917568206787,1.8809646368026733,-25.6218318939209,0
1482.9259999999995,-7.652610656805336e-05,-0.0003798894176725298,-1.4905053831171244e-05,0.0,0.0,0.0,0.0,-0.00015811932098586112,-0.0017316305311396718,0.001429266994819045,0.9997225403785706,0.0,0.0,0.0,0.14790000021457672,3.654672861099243,1.8721281290054321,-26.770193099975586,0
1492.8269999999993,-5.1332826842553914e-05,-0.0003692550235427916,4.349739901954308e-05,0.0,0.0,0.0,0.0,-0.0003514568379614502,-0.005512081552296877,0.0032736524008214474,0.9988647699356079,0.0,0.0,0.0,0.14811073243618011,3.6492691040039062,1.8687009811401367,-26.808334350585938,0
1502.6990000000005,3.0810570024186745e-06,-0.0003289792512077838,2.3888669602456503e-06,0.0,0.0,0.0,0.0,0.005936501082032919,0.005390238016843796,-0.00023017521016299725,1.0009044408798218,0.0,0.0,0.0,0.1483689695596695,3.644221544265747,1.8756932020187378,-26.855077743530273,0
1512.5949999999993,1.5336492651840672e-05,-0.00037892110412940383,3.176540121785365e-05,0.0,0.0,0.0,0.0,-0.00036313722375780344,-0.0003721383400261402,0.00040143809746950865,0.9999098777770996,0.0,0.0,0.0,0.1481865495443344,3.6338624954223633,1.8630112409591675,-26.822059631347656,0
1522.4709999999995,9.051884262589738e-05,-0.0003256915370002389,-3.344241849845275e-05,0.0,0.0,0.0,0.0,0.0008265279466286302,0.0013071445282548666,0.002375685842707753,0.9996582865715027,0.0,0.0,0.0,0.14840048551559448,3.631706953048706,1.8606687784194946,-26.86078453063965,0
1532.3619999999992,-3.198526428604964e-06,-0.00032815898885019124,-2.106504143739585e-05,0.0,0.0,0.0,0.0,-0.0012136221630498767,-0.0016484915977343917,-0.0007951506413519382,1.0021973848342896,0.0,0.0,0.0,0.14839154481887817,3.624812602996826,1.8482457399368286,-26.85916519165039,0
1542.2450000000008,6.236507033463567e-05,-0.00023978886019904166,-7.240659033413976e-05,0.0,0.0,0.0,0.0,0.0021099981386214495,0.00590926967561245,0.0044157011434435844,1.0001085996627808,0.0,0.0,0.0,0.14764592051506042,3.619824171066284,1.8441604375839233,-26.724206924438477,0
1552.134,-1.028625774779357e-06,-0.000262184243183583,-5.9872851124964654e-05,0.0,0.0,0.0,0.0,-0.003648646641522646,-0.00010185091377934441,-0.0005323442746885121,0.9984863996505737,0.0,0.0,0.0,0.14823655784130096,3.6118967533111572,1.8320525884628296,-26.831111907958984,0
1562.0190000000002,8.440564852207899e-05,-0.00017945075524039567,-0.00014367306721396744,0.0,0.0,0.0,0.0,5.575989780481905e-05,-0.00020143679284956306,0.005446295253932476,0.9994401931762695,0.0,0.0,0.0,0.15428997576236725,3.641831874847412,1.8467261791229248,-27.92679214477539,0
1571.9089999999997,-1.953205355675891e-06,-0.00020581320859491825,-0.0001424477231921628,0.0,0.0,0.0,0.0,0.00022192888718564063,-0.0006025044131092727,0.0008107682806439698,1.0005896091461182,0.0,0.0,0.0,0.1489863395690918,3.6528146266937256,1.839367151260376,-26.96682357788086,0
1581.7900000000009,1.185366818390321e-05,-0.00018990816897712648,-0.00016393473197240382,0.0,0.0,0.0,0.0,0.0010023295180872083,0.004274066537618637,0.002474637934938073,0.9995676279067993,0.0,0.0,0.0,0.1482657939195633,3.648914098739624,1.8367321491241455,-26.83640480041504,0
1591.6839999999993,-2.028348171734251e-05,-0.0002166653284803033,-0.00014845753321424127,0.0,0.0,0.0,0.0,0.0010764128528535366,5.028229134040885e-05,-0.0031083612702786922,1.0009928941726685,0.0,0.0,0.0,0.14946620166301727,3.641476631164551,1.82069730758667,-27.053682327270508,0
1601.562,-8.582945156376809e-06,-0.0002334717573830858,-0.00017635336553212255,0.0,0.0,0.0,0.0,0.003100542351603508,-0.001181547762826085,0.002636497374624014,1.0007550716400146,0.0,0.0,0.0,0.1483800709247589,3.636151075363159,1.8230959177017212,-26.857088088989258,0
1611.4490000000005,-2.3969570975168608e-05,-0.00024268441484309733,-0.00014728409587405622,0.0,0.0,0.0,0.0,-0.0017372533911839128,-0.0033822855912148952,0.004144538193941116,1.0021052360534668,0.0,0.0,0.0,0.14863093197345734,3.6294069290161133,1.822213053703308,-26.90249252319336,0
1621.3340000000007,-4.542915485217236e-05,-0.00026735381106846035,-0.00013124346151016653,0.0,0.0,0.0,0.0,-0.0012402341235429049,0.0002131408400600776,0.001336163142696023,1.0003901720046997,0.0,0.0,0.0,0.14980192482471466,3.628908395767212,1.8263424634933472,-27.114444732666016,0
1631.2240000000002,-3.752166230697185e-05,-0.0002828641445375979,-9.165994561044499e-05,0.0,0.0,0.0,0.0,0.0009654658497311175,-2.1169591946090804e-06,0.0005787936388514936,0.9996931552886963,0.0,0.0,0.0,0.15032269060611725,3.627271890640259,1.8239551782608032,-27.20870590209961,0
1641.1180000000004,-8.9197805209551e-05,-0.00034853752003982663,-4.7883338993415236e-05,0.0,0.0,0.0,0.0,-0.000307411071844399,-0.0009014785173349082,-0.0008403452229686081,1.0006390810012817,0.0,0.0,0.0,0.14964501559734344,3.620551824569702,1.8346933126449585,-27.08604621887207,0
1651.0030000000006,-6.666019180556759e-05,-0.00034647496067918837,1.1556870049389545e-05,0.0,0.0,0.0,0.0,-0.0006815452361479402,-0.00439362321048975,-0.000996910035610199,1.0009154081344604,0.0,0.0,0.0,0.1423732191324234,3.6336071491241455,1.8432828187942505,-25.769834518432617,0
1660.8780000000006,-8.216263813665137e-05,-0.0003719832166098058,2.7095280529465526e-05,0.0,0.0,0.0,0.0,0.002190687693655491,0.0009194246376864612,0.002569186268374324,1.000900149345398,0.0,0.0,0.0,0.14708834886550903,3.6432385444641113,1.848929524421692,-26.6232852935791,0
1670.7710000000006,-7.602142432006076e-05,-0.00039417570224031806,7.62471099733375e-05,0.0,0.0,0.0,0.0,0.001711562741547823,-0.00047857052413746715,0.0020845639519393444,1.0028868913650513,0.0,0.0,0.0,0.14743423461914062,3.634749174118042,1.8441293239593506,-26.68589210510254,0
1680.6550000000007,-2.041032348643057e-05,-0.0003267256252001971,3.4449927625246346e-05,0.0,0.0,0.0,0.0,0.001924907322973013,-0.0029594176448881626,0.0005840336089022458,1.0022614002227783,0.0,0.0,0.0,0.14824900031089783,3.628265142440796,1.8478282690048218,-26.833362579345703,0
1690.5419999999995,-3.413060767343268e-05,-0.00033155636629089713,8.43895977595821e-05,0.0,0.0,0.0,0.0,-0.0008462092955596745,-0.004242259543389082,0.0015695185866206884,0.9997590780258179,0.0,0.0,0.0,0.14789175987243652,3.6219730377197266,1.8538333177566528,-26.768701553344727,0
1700.4300000000003,4.468230690690689e-05,-0.00024387272424064577,2.0216763005009852e-05,0.0,0.0,0.0,0.0,0.0013279655249789357,0.0020110171753913164,0.00017308496171608567,1.0001356601715088,0.0,0.0,0.0,0.14902593195438385,3.6201891899108887,1.8648204803466797,-26.973989486694336,0
1710.3189999999995,-5.175073602003977e-05,-0.00029989739414304495,2.829337063303683e-05,0.0,0.0,0.0,0.0,-0.0005670146783813834,-0.005956408567726612,0.003292948007583618,1.0012253522872925,0.0,0.0,0.0,0.14894592761993408,3.6129939556121826,1.8592830896377563,-26.959508895874023,0
1720.2039999999997,1.7455426132073626e-05,-0.0002216885332018137,-3.426831972319633e-05,0.0,0.0,0.0,0.0,-0.0005294852307997644,-0.001766446279361844,0.003155576530843973,0.9996707439422607,0.0,0.0,0.0,0.1498263031244278,3.608612537384033,1.873827338218689,-27.118858337402344,0
1730.0859999999993,-4.5404907723423094e-05,-0.00028377037961035967,-2.2996817278908566e-05,0.0,0.0,0.0,0.0,0.004098398610949516,0.004239825997501612,0.000704560661688447,1.0004422664642334,0.0,0.0,0.0,0.15013694763183594,3.602668046951294,1.8769558668136597,-27.175086975097656,0
1739.9699999999993,8.76582635100931e-06,-0.00022222346160560846,-7.138602086342871e-05,0.0,0.0,0.0,0.0,0.0034222532995045185,-0.0015513284597545862,-5.7085337175522e-05,0.9994816780090332,0.0,0.0,0.0,0.14972135424613953,3.5903162956237793,1.861589789390564,-27.099863052368164,0
1749.8559999999998,-5.199358565732837e-05,-0.0002759735216386616,-6.374011718435213e-05,0.0,0.0,0.0,0.0,-0.0005586178158409894,-0.0012668162817135453,0.0007097228663042188,1.00174081325531,0.0,0.0,0.0,0.14983199536800385,3.5830819606781006,1.8717589378356934,-27.119888305664062,0
1759.7479999999996,1.1810780051746406e-06,-0.0002232395636383444,-0.00010743825987447053,0.0,0.0,0.0,0.0,-0.0005100548733025789,0.000244716095039621,0.0036130170337855816,1.0000320672988892,0.0,0.0,0.0,0.1496278941631317,3.579503297805786,1.8776003122329712,-27.08294677734375,0
1769.6280000000006,-3.246968481107615e-05,-0.00027680641505867243,-9.341274562757462e-05,0.0,0.0,0.0,0.0,-0.0012995811412110925,0.003396393032744527,0.0025917126331478357,1.0013437271118164,0.0,0.0,0.0,0.15051603317260742,3.5744688510894775,1.8740206956863403,-27.243701934814453,0
1779.5159999999996,-3.4993005101569e-05,-0.00028351927176117897,-8.232535765273497e-05,0.0,0.0,0.0,0.0,-0.002645753789693117,-0.005345811601728201,-0.0029188201297074556,0.9987832903862,0.0,0.0,0.0,0.15116223692893982,3.5694997310638428,1.8667951822280884,-27.360666275024414,0
1789.4060000000009,-2.8116392059018835e-05,-0.0003025889163836837,-4.400302350404672e-05,0.0,0.0,0.0,0.0,-0.0012359473621472716,-0.0021533153485506773,-0.0020966746378690004,1.0008071660995483,0.0,0.0,0.0,0.15085440874099731,3.570281982421875,1.8739557266235352,-27.304946899414062,0
1799.286,-2.870661046472378e-05,-0.0003460814186837524,-3.8679125282214954e-05,0.0,0.0,0.0,0.0,-0.0008774001034907997,-0.0027225881349295378,0.0014147971523925662,0.9999748468399048,0.0,0.0,0.0,0.15558555722236633,3.5746734142303467,1.876400113105774,-28.161296844482422,0
1809.1810000000005,-4.205516597721726e-05,-0.0004401994519867003,-2.848091025953181e-05,0.0,0.0,0.0,0.0,-0.0006113433046266437,0.0008701905608177185,0.0007885927916504443,0.9981786608695984,0.0,0.0,0.0,0.15626202523708344,3.572675943374634,1.8806328773498535,-28.28373908996582,0
1819.058000000001,-1.9009938114322722e-05,-0.00038368854438886046,-2.801807931973599e-05,0.0,0.0,0.0,0.0,-0.00012866560427937657,0.006639972794800997,-0.0011736246524378657,0.9999428987503052,0.0,0.0,0.0,0.15316325426101685,3.6017565727233887,1.8845319747924805,-27.722856521606445,0
1828.946,-3.076787470490672e-05,-0.00047457910841330886,-2.0069299353053793e-05,0.0,0.0,0.0,0.0,0.002551926299929619,0.0021476068068295717,0.0008718744502402842,1.0000191926956177,0.0,0.0,0.0,0.15224047005176544,3.596951961517334,1.8645671606063843,-27.555828094482422,0
1838.8310000000001,2.7445124942460097e-05,-0.0003425407921895385,-4.1451206925557926e-05,0.0,0.0,0.0,0.0,-0.0018644836964085698,0.00025542278308421373,0.0017813737504184246,0.9977174997329712,0.0,0.0,0.0,0.15726609528064728,3.6536507606506348,1.8875876665115356,-28.46547508239746,0
1848.7240000000002,2.3470245650969446e-05,-0.000424989964812994,-3.7056004657642916e-05,0.0,0.0,0.0,0.0,0.0017287275986745954,-0.004670926835387945,-0.00034852788667194545,1.000117301940918,0.0,0.0,0.0,0.15881922841072083,3.653007984161377,1.8920739889144897,-28.74659538269043,0
1858.6119999999992,7.059253402985632e-05,-0.0003219767240807414,-3.933120387955569e-05,0.0,0.0,0.0,0.0,0.0013426573714241385,0.005479814950376749,-0.0014091311022639275,1.0006098747253418,0.0,0.0,0.0,0.15795324742794037,3.710712194442749,1.9204277992248535,-28.589853286743164,0
1868.4920000000002,7.22458862583153e-05,-0.00039767607813701034,-3.592611392377876e-05,0.0,0.0,0.0,0.0,0.00036963741877116263,0.004336485173553228,-0.00028663373086601496,0.9990732669830322,0.0,0.0,0.0,0.15808841586112976,3.7046751976013184,1.9049949645996094,-28.61431884765625,0
1878.3809999999994,0.0001217084500240162,-0.00031732916249893606,-3.3723194064805284e-05,0.0,0.0,0.0,0.0,0.003951582126319408,-0.010556992143392563,0.004215272609144449,1.0005007982254028,0.0,0.0,0.0,0.1580483764410019,3.75573992729187,1.9260588884353638,-28.607070922851562,0
1888.2690000000002,0.00012920069275423884,-0.0003883241442963481,-3.075501081184484e-05,0.0,0.0,0.0,0.0,0.001120906788855791,0.001463038264773786,-0.0040006255730986595,1.002353310585022,0.0,0.0,0.0,0.15932448208332062,3.7519028186798096,1.9501906633377075,-28.838048934936523,0
1898.1589999999997,0.00016514815797563642,-0.0003595100133679807,-1.853097819548566e-05,0.0,0.0,0.0,0.0,-0.004165968392044306,0.0026540420949459076,-0.0006586581584997475,1.0010251998901367,0.0,0.0,0.0,0.1591854989528656,3.7831673622131348,1.9611555337905884,-28.812891006469727,0
1908.0460000000003,0.00017908176232594997,-0.00042792398016899824,-1.2203863661852665e-05,0.0,0.0,0.0,0.0,-0.0005984616582281888,-0.0008938137325458229,0.0030947388149797916,1.0010433197021484,0.0,0.0,0.0,0.15884201228618622,3.7851972579956055,1.9528626203536987,-28.750722885131836,0
1917.9210000000003,0.000217457753024064,-0.00039257065509445965,9.941291864379309e-06,0.0,0.0,0.0,0.0,0.004754000809043646,-0.0006622701766900718,0.001336870715022087,1.001062273979187,0.0,0.0,0.0,0.1598530113697052,3.8178131580352783,1.9600249528884888,-28.933712005615234,0
1927.8189999999995,0.0002343340020161122,-0.0004588969168253243,1.916179280669894e-05,0.0,0.0,0.0,0.0,0.0011655775597319007,0.0022105195093899965,-0.0023712385445833206,1.0007261037826538,0.0,0.0,0.0,0.1605057269334793,3.8018367290496826,1.9599250555038452,-29.051855087280273,0
1937.700999999999,0.00023787056852597743,-0.00045836518984287977,5.862007674295455e-05,0.0,0.0,0.0,0.0,0.0002377234777668491,0.0019883448258042336,0.0007839157478883862,1.000240445137024,0.0,0.0,0.0,0.16736508905887604,3.816960096359253,1.9463518857955933,-30.293413162231445,0
1947.5869999999995,0.0002543456794228405,-0.0005240375176072121,7.118833309505135e-05,0.0,0.0,0.0,0.0,0.000365470681572333,1.347919578620349e-06,-0.002236719476059079,1.0013446807861328,0.0,0.0,0.0,0.16811910271644592,3.8143186569213867,1.9414273500442505,-30.42989158630371,0
1957.4660000000003,0.00026484113186597824,-0.0004548022407107055,0.00012963067274540663,0.0,0.0,0.0,0.0,0.0013154270127415657,0.0033900653943419456,0.0004894361482001841,1.0003334283828735,0.0,0.0,0.0,0.16672153770923615,3.861248016357422,1.9399052858352661,-30.176931381225586,0
1967.3580000000002,0.00028055018628947437,-0.0005160961882211268,0.00014678732259199023,0.0,0.0,0.0,0.0,-0.0014797033509239554,-0.0039033538196235895,-0.0026721181347966194,1.0020390748977661,0.0,0.0,0.0,0.1668674200773239,3.8550262451171875,1.9310320615768433,-30.203336715698242,0
1977.2379999999994,0.00029661733424291015,-0.00045886714360676706,0.0002009540912695229,0.0,0.0,0.0,0.0,0.00047376385191455483,0.002123417565599084,0.0006309765740297735,1.0014396905899048,0.0,0.0,0.0,0.16332873702049255,3.893028736114502,1.9363585710525513,-29.562828063964844,0
1987.1229999999996,0.0003118289168924093,-0.0005198444123379886,0.00022320612333714962,0.0,0.0,0.0,0.0,-0.0008913968922570348,-0.002774318912997842,-0.0016001133481040597,0.9991476535797119,0.0,0.0,0.0,0.1631380170583725,3.8815746307373047,1.927661418914795,-29.52830696105957,0
1997.0159999999996,0.00032634593662805855,-0.0005847516586072743,0.0002455994253978133,0.0,0.0,0.0,0.0,-0.003683089977130294,0.003958759363740683,-0.0003033575776498765,0.9986527562141418,0.0,0.0,0.0,0.1623319536447525,3.880923271179199,1.9368895292282104,-29.382404327392578,0
2006.8899999999994,0.0003417150001041591,-0.000652582326438278,0.0002669478999450803,0.0,0.0,0.0,0.0,0.0007781260064803064,-0.0026346214581280947,0.0005487549351528287,0.9994361400604248,0.0,0.0,0.0,0.1624794751405716,3.88338565826416,1.936962366104126,-29.40910530090332,0
2016.7919999999995,0.0003583504003472626,-0.0007239117985591292,0.0002875782665796578,0.0,0.0,0.0,0.0,0.000453849759651348,0.0027062196750193834,-0.0006522391340695322,1.0010350942611694,0.0,0.0,0.0,0.1624155193567276,3.8744254112243652,1.9403642416000366,-29.397531509399414,0
2026.6730000000007,0.0003747825394384563,-0.0007990323938429356,0.00030856329249218106,0.0,0.0,0.0,0.0,-0.0011013756738975644,-0.004912784323096275,-0.002291278913617134,1.0001300573349,0.0,0.0,0.0,0.16246303915977478,3.8698623180389404,1.9321949481964111,-29.4061336517334,0
2036.558000000001,0.00039007089799270034,-0.0008767367689870298,0.00033009995240718126,0.0,0.0,0.0,0.0,0.0008296733140014112,0.005089242942631245,0.000950246409047395,1.000138521194458,0.0,0.0,0.0,0.16189706325531006,3.867253303527832,1.9364413022994995,-29.30368995666504,0
2046.4490000000005,1.7615018350625178e-06,-0.0005660887691192329,0.0002457855152897537,0.0,0.0,0.0,0.0,-0.002565416507422924,-0.0005585956387221813,-8.677053119754419e-05,1.000726342201233,0.0,0.0,0.0,0.16053104400634766,3.953089952468872,1.862547516822815,-29.056438446044922,0
2056.3369999999995,-3.949415258830413e-06,-0.0006255425978451967,0.00026886805426329374,0.0,0.0,0.0,0.0,0.0022214825730770826,-0.004577472805976868,0.0015888045309111476,1.0012767314910889,0.0,0.0,0.0,0.15991832315921783,3.9552907943725586,1.8639075756072998,-28.945537567138672,0
2066.2180000000008,-8.726573287276551e-05,-0.0005291230045258999,0.0003828965127468109,0.0,0.0,0.0,0.0,0.0009317516814917326,0.0058377934619784355,0.0012692930176854134,1.000138759613037,0.0,0.0,0.0,0.1520688235759735,3.988079786300659,1.8629225492477417,-27.52475929260254,0
2076.1039999999994,-9.636670438339934e-05,-0.0005853749462403357,0.00041306018829345703,0.0,0.0,0.0,0.0,0.00027763762045651674,0.0008782382938079536,0.0014034782070666552,1.0000531673431396,0.0,0.0,0.0,0.15174339711666107,3.984269142150879,1.8511297702789307,-27.465856552124023,0
2085.986999999999,-0.00012616388266906142,-0.0005484947469085455,0.0004961863160133362,0.0,0.0,0.0,0.0,-0.0014758907491341233,-0.003015045775100589,0.0006922264583408833,0.9991008639335632,0.0,0.0,0.0,0.1515045017004013,3.9827728271484375,1.852542757987976,-27.422616958618164,0
2095.8729999999996,-0.0001338634901912883,-0.0006067067151889205,0.0005293507711030543,0.0,0.0,0.0,0.0,-0.0024753801990300417,-0.0006886358023621142,-0.0015359974931925535,0.9998410940170288,0.0,0.0,0.0,0.15156936645507812,3.976569414138794,1.8668895959854126,-27.434358596801758,0
