timestamp,stateEstimate.x,stateEstimate.y,stateEstimate.z,controller.cmd_thrust,controller.cmd_roll,controller.cmd_pitch,controller.cmd_yaw,controller.r_roll,controller.r_pitch,controller.r_yaw,controller.accelz,controller.actuatorThrust,controller.roll,controller.pitch,controller.yaw,controller.rollRate,controller.pitchRate,controller.yawRate,controller.ctr_yaw
0.0,3.8051795854698867e-05,0.0004401146143209189,-0.00011154163075843826,0.0,0.0,0.0,0.0,-0.00040210841689258814,0.00037939101457595825,-0.0006878009880892932,1.0017956495285034,0.0,0.0,0.0,-0.007263406179845333,4.034812927246094,1.7193821668624878,1.3146909475326538,0
9.872999999999593,4.498014095588587e-05,0.0005029977182857692,-0.0001288774365093559,0.0,0.0,0.0,0.0,-0.001128865173086524,0.0009468347998335958,0.0003690349403768778,0.9998376369476318,0.0,0.0,0.0,-0.00781111279502511,4.028444290161133,1.7174286842346191,1.4138269424438477,0
19.782999999999447,1.8862039723899215e-05,0.0004704559105448425,-0.00010601237590890378,0.0,0.0,0.0,0.0,0.0011499205138534307,-0.0005631248350255191,-0.001598265254870057,1.000099778175354,0.0,0.0,0.0,-0.00697732251137495,4.026823043823242,1.7125678062438965,1.262909173965454,0
29.655000000000655,2.0598592527676374e-05,0.0005170764052309096,-0.00012186243839096278,0.0,0.0,0.0,0.0,-0.0009450172074139118,-0.005251430440694094,2.8759690394508652e-05,1.0009795427322388,0.0,0.0,0.0,-0.007982907816767693,4.0178446769714355,1.7062495946884155,1.4449222087860107,0
39.54500000000007,7.014072616584599e-05,0.00047445556265302,-7.814946729922667e-05,0.0,0.0,0.0,0.0,0.0019161889795213938,-0.001549457898363471,0.0017458089860156178,1.0014069080352783,0.0,0.0,0.0,-0.007656961679458618,4.016395092010498,1.7097777128219604,1.38592529296875,0
49.42500000000109,3.26076042256318e-05,0.00047198450192809105,-5.314649024512619e-05,0.0,0.0,0.0,0.0,0.00035721471067517996,-0.0008569214260205626,-0.0027532721869647503,1.0000786781311035,0.0,0.0,0.0,-0.0008244180935434997,4.021475315093994,1.7096766233444214,0.14922133088111877,0
59.31700000000092,3.388656477909535e-05,0.00040232419269159436,-2.4145243514794856e-05,0.0,0.0,0.0,0.0,-0.00012881957809440792,-0.0031314606312662363,0.00010163031402043998,0.998741865158081,0.0,0.0,0.0,-0.0069065578281879425,4.019825458526611,1.715586543083191,1.2501007318496704,0
69.19100000000071,4.9202291847905144e-05,0.00043965817894786596,-4.975773845217191e-05,0.0,0.0,0.0,0.0,-0.0010460395133122802,-0.0013638773234561086,0.0008851279271766543,1.0010877847671509,0.0,0.0,0.0,2.06663717108313e-05,4.035236358642578,1.7254602909088135,-0.0037406543269753456,0
79.09799999999996,7.563918188679963e-05,0.000415841001085937,-7.521248335251585e-08,0.0,0.0,0.0,0.0,-0.00080588721903041,0.005234513897448778,-0.001973214792087674,0.9993031620979309,0.0,0.0,0.0,-0.0070623550564050674,4.0400800704956055,1.7309203147888184,1.2783002853393555,0
88.96500000000015,9.980933100450784e-05,0.00045949206105433404,-3.221313818357885e-05,0.0,0.0,0.0,0.0,0.00119872041977942,0.004574964288622141,-0.0005986482719890773,1.0002059936523438,0.0,0.0,0.0,-0.007479863706976175,4.032214641571045,1.7114850282669067,1.353870153427124,0
98.86100000000079,9.587997919879854e-05,0.00042360828956589103,-1.0713720257626846e-06,0.0,0.0,0.0,0.0,-0.0013822411419823766,-0.0048601385205984116,0.004313171375542879,1.000672459602356,0.0,0.0,0.0,-0.008091744966804981,4.02075719833374,1.6934492588043213,1.464621901512146,0
108.73600000000079,9.552598203299567e-05,0.00042704871157184243,-1.3467983080772683e-05,0.0,0.0,0.0,0.0,-0.001126173883676529,-0.003033831249922514,0.0017601471627131104,0.9997451901435852,0.0,0.0,0.0,-0.007234334014356136,4.018829822540283,1.6993435621261597,1.3094288110733032,0
118.6309999999994,6.036673585185781e-05,0.0003744347777683288,6.0275015130173415e-06,0.0,0.0,0.0,0.0,-0.00020032410975545645,0.000598638434894383,-0.003096966305747628,1.0022310018539429,0.0,0.0,0.0,-0.012674514204263687,4.016798496246338,1.7058850526809692,2.29411244392395,0
128.50900000000001,8.748260006541386e-05,0.00043524630018509924,-2.6861151127377525e-05,0.0,0.0,0.0,0.0,0.0023892747703939676,0.003917200490832329,-0.0013125857803970575,0.999834418296814,0.0,0.0,0.0,-0.012938383966684341,4.011159896850586,1.7015608549118042,2.3418731689453125,0
138.40700000000106,4.2756997572723776e-05,0.000375953852199018,-1.2442951629054733e-05,0.0,0.0,0.0,0.0,-0.004096719436347485,-0.002272963058203459,-0.0008281816262751818,0.9998906254768372,0.0,0.0,0.0,-0.012858116067945957,4.005066394805908,1.6985162496566772,2.3273446559906006,0
148.28100000000086,6.576975283678621e-05,0.0004216360975988209,-4.6857188863214105e-05,0.0,0.0,0.0,0.0,-0.001345716300420463,0.003031873144209385,0.0012785092694684863,1.0011839866638184,0.0,0.0,0.0,-0.012741726823151112,4.011819839477539,1.7066893577575684,2.3062777519226074,0
158.1810000000005,2.7892958314623684e-05,0.00035397231113165617,-3.847260813927278e-05,0.0,0.0,0.0,0.0,0.0007229981129057705,0.0039529879577457905,0.00012705061817541718,1.0001587867736816,0.0,0.0,0.0,-0.012421736493706703,4.011277198791504,1.6987190246582031,2.248358964920044,0
168.0550000000003,3.5251505323685706e-05,0.0004137303913012147,-5.6676690292079e-05,0.0,0.0,0.0,0.0,-0.0014167233603075147,0.001258398056961596,-0.0012073976686224341,1.000878095626831,0.0,0.0,0.0,-0.011279966682195663,4.005671977996826,1.689898133277893,2.041696548461914,0
177.95200000000114,5.838953802594915e-05,0.0004110951558686793,1.3528760064218659e-05,0.0,0.0,0.0,0.0,0.002307338872924447,-0.0013210593024268746,-0.0011163847520947456,1.0013524293899536,0.0,0.0,0.0,-0.010907995514571667,4.004489898681641,1.6821922063827515,1.974368929862976,0
187.82600000000093,0.0001197034289361909,0.0004983143880963326,-5.82652137381956e-05,0.0,0.0,0.0,0.0,0.0029752440750598907,0.003046399913728237,-0.00048712294665165246,1.0015586614608765,0.0,0.0,0.0,-0.01062395703047514,3.9985594749450684,1.6757842302322388,1.9229573011398315,0
197.72400000000016,9.32452967390418e-05,0.00046138191828504205,-3.6005672882311046e-05,0.0,0.0,0.0,0.0,-0.0002816061896737665,-0.004350803326815367,0.0020363135263323784,0.9989291429519653,0.0,0.0,0.0,-0.016676435247063637,3.994878053665161,1.6650080680847168,3.018467664718628,0
207.60200000000077,8.438617805950344e-05,0.00047768536023795605,-4.472538421396166e-05,0.0,0.0,0.0,0.0,-5.1340532081667334e-05,-0.0014883092371746898,-0.000544409966096282,0.9992916584014893,0.0,0.0,0.0,-0.01562037505209446,3.989811897277832,1.6693296432495117,2.8273191452026367,0
217.4950000000008,9.509843948762864e-05,0.0004337160207796842,-1.5147878002608195e-05,0.0,0.0,0.0,0.0,-0.0026595923118293285,0.004099332727491856,-0.00042331271106377244,0.9991102814674377,0.0,0.0,0.0,-0.015733951702713966,3.9879045486450195,1.6707708835601807,2.84787654876709,0
227.371000000001,5.8574565628077835e-05,0.00037388739292509854,-6.058169674361125e-06,0.0,0.0,0.0,0.0,0.0012369020842015743,1.1852132047351915e-05,0.00014536574599333107,0.998742938041687,0.0,0.0,0.0,-0.016210556030273438,3.989955186843872,1.661930799484253,2.93414306640625,0
237.26499999999942,8.520866686012596e-05,0.00044411385897547007,-4.855179213336669e-05,0.0,0.0,0.0,0.0,-0.0013837508158758283,0.00575645687058568,-0.003690226236358285,0.9995089769363403,0.0,0.0,0.0,-0.016413137316703796,3.9804062843322754,1.660590648651123,2.970810651779175,0
247.14400000000023,4.991538662579842e-05,0.0003870415675919503,-4.4406649976735935e-05,0.0,0.0,0.0,0.0,0.0004288922355044633,0.0009979602182283998,-0.001640469883568585,0.9992427825927734,0.0,0.0,0.0,-0.01685957796871662,3.9761195182800293,1.6531288623809814,3.051616907119751,0
257.0519999999997,8.985132444649935e-05,0.00047997781075537205,-9.977117588277906e-05,0.0,0.0,0.0,0.0,0.0007123257382772863,0.0030738338828086853,-0.003070160048082471,0.9998276829719543,0.0,0.0,0.0,-0.009783891029655933,4.009036540985107,1.6780338287353516,1.7709037065505981,0
266.91799999999967,5.887840598006733e-05,0.00042644195491448045,-0.00010036076128017157,0.0,0.0,0.0,0.0,-0.0019237876404076815,-0.005778634920716286,0.002151194494217634,0.9992615580558777,0.0,0.0,0.0,-0.01007760874927044,4.003334999084473,1.6711770296096802,1.824067234992981,0
276.8130000000001,4.299302236177027e-05,0.0004646731831599027,-9.589085675543174e-05,0.0,0.0,0.0,0.0,-0.002000310691073537,0.001964671304449439,-0.0004437914176378399,0.998595654964447,0.0,0.0,0.0,-0.003585571888834238,4.033903121948242,1.6910592317581177,0.6489956378936768,0
286.6900000000005,1.3700402632821351e-05,0.00041293224785476923,-9.753621270647272e-05,0.0,0.0,0.0,0.0,-0.0007749345386400819,0.0034988545812666416,0.0004229307232890278,0.9985082745552063,0.0,0.0,0.0,-0.004152339417487383,4.035145282745361,1.6899174451828003,0.7515817284584045,0
296.59699999999975,1.617354246263858e-05,0.0005063444841653109,-9.635856258682907e-05,0.0,0.0,0.0,0.0,-0.00199927412904799,0.0007018377655185759,0.0019774131942540407,0.9994064569473267,0.0,0.0,0.0,0.0029893594328314066,4.074930191040039,1.7010982036590576,-0.5410799980163574,0
306.46299999999974,-1.2583213901962154e-05,0.0004606397124007344,-9.999528992921114e-05,0.0,0.0,0.0,0.0,0.0010662083514034748,0.001676119863986969,-0.0030254614539444447,0.9998100399971008,0.0,0.0,0.0,0.0035848431289196014,4.0742597579956055,1.696578860282898,-0.6488637328147888,0
316.3580000000002,-1.1464300769148394e-05,0.000486554839881137,-0.00011365051614120603,0.0,0.0,0.0,0.0,-0.00250536622479558,-0.003695001360028982,0.0003208137350156903,1.00132155418396,0.0,0.0,0.0,0.0022836828138679266,4.066361427307129,1.6847050189971924,-0.4133511483669281,0
326.2399999999998,-4.1799023165367544e-05,0.0004400023026391864,-0.00011786411050707102,0.0,0.0,0.0,0.0,0.0020213343668729067,-0.0010372602846473455,-0.001382510527037084,0.9996572136878967,0.0,0.0,0.0,0.0022733863443136215,4.064888000488281,1.6840126514434814,-0.4114874601364136,0
336.134,7.564893167000264e-06,0.000509113073348999,-0.00015440092829521745,0.0,0.0,0.0,0.0,-0.002452380023896694,-0.002327863359823823,-0.0020382788497954607,0.9994192123413086,0.0,0.0,0.0,0.007218240760266781,4.098021507263184,1.7153773307800293,-1.3065159320831299,0
346.0159999999996,-1.8898004782386124e-05,0.00046570744598284364,-0.00016193003102671355,0.0,0.0,0.0,0.0,-0.002041478641331196,-0.00262907100841403,-0.0007114007603377104,1.0004891157150269,0.0,0.0,0.0,0.006432279944419861,4.096508502960205,1.7083500623703003,-1.1642553806304932,0
355.9160000000011,1.4208015272743069e-05,0.0005348491831682622,-0.00017817207844927907,0.0,0.0,0.0,0.0,0.0018765031127259135,0.0016798564465716481,-0.0037681821268051863,1.000610589981079,0.0,0.0,0.0,0.015402771532535553,4.143477916717529,1.7304801940917969,-2.7879321575164795,0
365.78499999999985,-1.2010055797873065e-05,0.0004921713843941689,-0.0001866745005827397,0.0,0.0,0.0,0.0,0.0014511754270642996,0.003430753480643034,0.003079008311033249,0.9992994070053101,0.0,0.0,0.0,0.014208685606718063,4.139129638671875,1.723132848739624,-2.5718002319335938,0
375.6759999999995,1.0546433259150945e-05,0.0005040974938310683,-0.00021285958064254373,0.0,0.0,0.0,0.0,0.002496525412425399,-0.005783977452665567,0.0030049635097384453,1.0007485151290894,0.0,0.0,0.0,0.015114516019821167,4.133569717407227,1.7148231267929077,-2.735757350921631,0
385.5529999999999,-1.2632979633053765e-05,0.00046128506073728204,-0.00022339473071042448,0.0,0.0,0.0,0.0,-0.0020628764759749174,0.0005497373058460653,-0.0005243956693448126,0.9984602332115173,0.0,0.0,0.0,0.015298120677471161,4.125329494476318,1.7270777225494385,-2.7689902782440186,0
395.4459999999999,-2.6150983103434555e-05,0.0005390833830460906,-0.00019945249368902296,0.0,0.0,0.0,0.0,-0.0038282028399407864,0.00826882291585207,0.0005882722907699645,0.9993056654930115,0.0,0.0,0.0,0.020916063338518143,4.16549825668335,1.7292876243591309,-3.78584885597229,0
405.32700000000114,-4.741077282233164e-05,0.0005013871123082936,-0.00020944686548318714,0.0,0.0,0.0,0.0,-0.00029036912019364536,-0.001044160802848637,0.00041825257358141243,1.0002082586288452,0.0,0.0,0.0,0.02138279192149639,4.164882183074951,1.708272099494934,-3.870327949523926,0
415.21700000000055,-1.551307286717929e-05,0.0005667443037964404,-0.00022303976584225893,0.0,0.0,0.0,0.0,0.0032787909731268883,0.0050893924199044704,-0.0029622490983456373,1.0020283460617065,0.0,0.0,0.0,0.02588152140378952,4.198835849761963,1.7247121334075928,-4.684607028961182,0
425.10200000000077,-3.705925337271765e-05,0.0005341422511264682,-0.00023323012283071876,0.0,0.0,0.0,0.0,-0.0018071286613121629,0.0013762961607426405,0.0021080467849969864,0.9999794363975525,0.0,0.0,0.0,0.025210462510585785,4.187246799468994,1.7161893844604492,-4.563143730163574,0
434.9940000000006,-6.042447785148397e-05,0.0004993877955712378,-0.0002424541162326932,0.0,0.0,0.0,0.0,-0.0033480236306786537,0.001432501245290041,0.00029574037762358785,0.9995736479759216,0.0,0.0,0.0,0.02498966082930565,4.180633068084717,1.7156660556793213,-4.523178577423096,0
444.8790000000008,-8.521261042915285e-05,0.00046167089021764696,-0.0002519031404517591,0.0,0.0,0.0,0.0,0.0002636211575008929,0.003491733456030488,-3.290813401690684e-05,0.9996774196624756,0.0,0.0,0.0,0.025081520900130272,4.179921627044678,1.7109897136688232,-4.5398054122924805,0
454.7669999999998,-0.00011113928485428914,0.0004206959856674075,-0.0002617343270685524,0.0,0.0,0.0,0.0,0.00072333007119596,0.002035762881860137,-0.0024164514616131783,1.001696228981018,0.0,0.0,0.0,0.025003712624311447,4.174877166748047,1.7047317028045654,-4.525722026824951,0
464.64400000000023,-0.00013794189726468176,0.0003765028086490929,-0.0002709214168135077,0.0,0.0,0.0,0.0,-0.00037775846431031823,-0.004073994234204292,0.0011771004647016525,1.000769019126892,0.0,0.0,0.0,0.02469470165669918,4.168092250823975,1.7008202075958252,-4.469789981842041,0
474.5400000000009,8.936115045798942e-05,0.0003295511705800891,-1.2019663699902594e-05,0.0,0.0,0.0,0.0,-0.0015394449001178145,-0.001970902783796191,0.00048817621427588165,1.0020725727081299,0.0,0.0,0.0,0.014901317656040192,4.168023586273193,1.7426464557647705,-2.6971681118011475,0
484.4210000000003,7.122814713511616e-05,0.00028070627013221383,-7.41153780836612e-06,0.0,0.0,0.0,0.0,0.002294952282682061,0.003216800279915333,8.471887667838018e-06,1.0005334615707397,0.0,0.0,0.0,0.014880383387207985,4.165522575378418,1.7497445344924927,-2.6933789253234863,0
494.3130000000001,8.420800440944731e-05,0.0003272299072705209,7.505131361540407e-05,0.0,0.0,0.0,0.0,-0.00012129324022680521,-0.002189792925491929,0.002728676190599799,1.000333309173584,0.0,0.0,0.0,0.005929098930209875,4.185318946838379,1.7494233846664429,-1.0731786489486694,0
504.1869999999999,6.581022898899391e-05,0.00027985297492705286,8.601030276622623e-05,0.0,0.0,0.0,0.0,-0.00039207914960570633,0.003626141231507063,0.0007716460968367755,1.0003283023834229,0.0,0.0,0.0,0.007229941431432962,4.181256294250488,1.7540743350982666,-1.3086336851119995,0
514.0840000000007,8.305806841235608e-05,0.00026404482196085155,0.00011747105600079522,0.0,0.0,0.0,0.0,0.0031666914001107216,-0.0017171611543744802,0.003718329593539238,1.0002962350845337,0.0,0.0,0.0,0.001238382188603282,4.1894683837890625,1.7490297555923462,-0.2241496443748474,0
523.9670000000006,6.261400994844735e-05,0.00021544306946452707,0.0001307773927692324,0.0,0.0,0.0,0.0,0.0003197194018866867,-0.002142423065379262,-0.0029824792873114347,1.003051519393921,0.0,0.0,0.0,0.0023735424038022757,4.180412292480469,1.7586538791656494,-0.42961588501930237,0
533.857,6.287743599386886e-05,0.0002456679940223694,0.0001865090016508475,0.0,0.0,0.0,0.0,-0.0018041182775050402,0.0014154427917674184,-0.0008857105858623981,1.0022116899490356,0.0,0.0,0.0,-0.005655564833432436,4.195000648498535,1.766231656074524,1.0236685276031494,0
543.7340000000004,3.8693386159138754e-05,0.00019847349904011935,0.00020693342958111316,0.0,0.0,0.0,0.0,0.0022257789969444275,0.007490995805710554,0.0003333509375806898,0.998476505279541,0.0,0.0,0.0,-0.0061001162976026535,4.192609786987305,1.7550773620605469,1.104133129119873,0
553.6319999999996,4.024221561849117e-05,0.00018385816656518728,0.00024623985518701375,0.0,0.0,0.0,0.0,-0.0007321214070543647,0.0013663845602422953,0.0006405471358448267,0.9999449253082275,0.0,0.0,0.0,-0.016414010897278786,4.191735744476318,1.739325761795044,2.970968723297119,0
563.505000000001,1.521907324786298e-05,0.00013428564125206321,0.0002680106845218688,0.0,0.0,0.0,0.0,0.001224448555149138,0.0012963776243850589,0.002234368585050106,0.9987186193466187,0.0,0.0,0.0,-0.016458215191960335,4.188064098358154,1.7357127666473389,2.9789695739746094,0
573.4070000000011,2.314629455213435e-05,0.0001648002362344414,0.00033503127633593976,0.0,0.0,0.0,0.0,0.000943468592595309,-0.0011249709641560912,-0.002256067469716072,1.0015722513198853,0.0,0.0,0.0,-0.01624390482902527,4.183253765106201,1.7287938594818115,2.940178871154785,0
583.2829999999994,-4.574909326038323e-06,0.00011586146138142794,0.0003608287952374667,0.0,0.0,0.0,0.0,-1.2286953278817236e-05,0.003014887683093548,0.0004647480382118374,1.0015456676483154,0.0,0.0,0.0,-0.01762869395315647,4.17880392074585,1.7231364250183105,3.190828800201416,0
593.1779999999999,-3.661429218482226e-05,0.00012824099394492805,0.00042747569386847317,0.0,0.0,0.0,0.0,0.0019579706713557243,0.002964972984045744,-0.001087593613192439,1.0005922317504883,0.0,0.0,0.0,-0.016911471262574196,4.176384925842285,1.7086894512176514,3.0610098838806152,0
603.0509999999995,-7.032210123725235e-05,7.966025441419333e-05,0.00045969089842401445,0.0,0.0,0.0,0.0,-0.002129384083673358,0.003461234737187624,-0.0012148325331509113,0.9987121224403381,0.0,0.0,0.0,-0.01749759167432785,4.166264533996582,1.6963998079299927,3.1670989990234375,0
612.9529999999995,-8.40862121549435e-05,0.00011789808922912925,0.0005448672454804182,0.0,0.0,0.0,0.0,0.00029980149702169,-0.003916250541806221,-0.0006460135919041932,0.999778687953949,0.0,0.0,0.0,-0.02336413413286209,4.198540687561035,1.6896953582763672,4.228954792022705,0
622.8279999999995,-0.00011949882173212245,7.463032670784742e-05,0.0005815318436361849,0.0,0.0,0.0,0.0,0.0029065082781016827,0.0049242665991187096,0.00493955984711647,0.9993903040885925,0.0,0.0,0.0,-0.023563524708151817,4.197545051574707,1.7006428241729736,4.265045166015625,0
632.7200000000012,-5.8754296333063394e-05,0.0001011902786558494,0.0006598205072805285,0.0,0.0,0.0,0.0,0.002264184644445777,0.0018661043141037226,-0.0012057622661814094,1.00004243850708,0.0,0.0,0.0,-0.029687298461794853,4.219000816345215,1.699078917503357,5.37346076965332,0
642.5950000000012,-9.669020801084116e-05,6.228389975149184e-05,0.0007000920595601201,0.0,0.0,0.0,0.0,0.0014273213455453515,0.006718399003148079,-0.003932176623493433,0.999415934085846,0.0,0.0,0.0,-0.029560033231973648,4.211377143859863,1.6912891864776611,5.350424766540527,0
652.5010000000002,-4.69331607746426e-05,5.5875607358757406e-05,0.0007570195593871176,0.0,0.0,0.0,0.0,-0.0024171441327780485,0.00011426341370679438,0.0006474153487943113,0.9996772408485413,0.0,0.0,0.0,-0.030193746089935303,4.208171844482422,1.6748791933059692,5.465127944946289,0
662.3680000000004,-6.20376958977431e-05,5.2541719924192876e-05,0.0008212478714995086,0.0,0.0,0.0,0.0,-0.0022840762976557016,-0.0014907126314938068,0.0009917003335431218,1.001044511795044,0.0,0.0,0.0,-0.030180273577570915,4.206829071044922,1.6731511354446411,5.4626898765563965,0
672.2749999999996,9.022429003380239e-05,0.0004870543780270964,-0.000282006076304242,0.0,0.0,0.0,0.0,-0.0005895072245039046,0.0028813988901674747,-0.0014240980381146073,1.00092351436615,0.0,0.0,0.0,-0.022182656452059746,4.292230606079102,1.6964542865753174,4.0151047706604,0
682.1550000000007,4.668174005928449e-05,0.0005162715679034591,-0.0002507783065084368,0.0,0.0,0.0,0.0,0.0006808520411141217,-0.0011130269849672914,0.000137247538077645,0.9974943995475769,0.0,0.0,0.0,-0.022566789761185646,4.286603927612305,1.6944761276245117,4.084634304046631,0
692.0390000000007,6.959773600101471e-06,0.000541923800483346,-0.00022761661966796964,0.0,0.0,0.0,0.0,-0.000402639911044389,-0.001494108815677464,0.000572069373447448,0.9988294243812561,0.0,0.0,0.0,-0.022474315017461777,4.281925678253174,1.6994905471801758,4.067895412445068,0
701.9179999999997,-3.007783743669279e-05,0.0005172726814635098,-0.00022287572210188955,0.0,0.0,0.0,0.0,-0.0005530150956474245,-0.0003724251000676304,0.0009505519992671907,1.0022238492965698,0.0,0.0,0.0,-0.02220698446035385,4.281443119049072,1.7067416906356812,4.019508361816406,0
711.8060000000005,-5.664864875143394e-05,0.0005560643621720374,-0.00022258746321313083,0.0,0.0,0.0,0.0,-0.0005250273970887065,-0.0009460112196393311,0.002473321743309498,1.0016368627548218,0.0,0.0,0.0,-0.01649331860244274,4.287928104400635,1.7071765661239624,2.985323429107666,0
721.6890000000003,-9.459603461436927e-05,0.0005280782352201641,-0.0002155738475266844,0.0,0.0,0.0,0.0,-0.001015102956444025,0.003526650369167328,-0.00035870991996489465,0.9989834427833557,0.0,0.0,0.0,-0.016464238986372948,4.280629634857178,1.700121283531189,2.98006010055542,0
731.5750000000007,-0.00011577867553569376,0.000575167709030211,-0.0002280584303662181,0.0,0.0,0.0,0.0,0.00124917842913419,0.0003676118503790349,0.0006954282871447504,0.9989231824874878,0.0,0.0,0.0,-0.010080685839056969,4.287228584289551,1.6992493867874146,1.8246243000030518,0
741.4700000000012,-0.00015627421089448035,0.0005453047924675047,-0.00022266042651608586,0.0,0.0,0.0,0.0,0.0006800910923629999,0.004078824073076248,0.0014844650868326426,1.001047968864441,0.0,0.0,0.0,-0.010038549080491066,4.280188083648682,1.6979352235794067,1.8169972896575928,0
751.3500000000004,-0.00017678731819614768,0.0006213623564690351,-0.00022571023146156222,0.0,0.0,0.0,0.0,-0.0033888041507452726,-0.0016480120830237865,0.00202785967849195,0.9996424317359924,0.0,0.0,0.0,-0.009196290746331215,4.275031089782715,1.683146357536316,1.6645467281341553,0
761.2479999999996,-0.00021709066641051322,0.0005920988623984158,-0.00022083580552134663,0.0,0.0,0.0,0.0,0.0015665346290916204,0.005662430077791214,0.004141248296946287,0.9972871541976929,0.0,0.0,0.0,-0.008918462321162224,4.275568962097168,1.6881293058395386,1.6142594814300537,0
771.1180000000004,-0.00020553491776809096,0.0006293900078162551,-0.00028161652153357863,0.0,0.0,0.0,0.0,-0.00043190873111598194,-0.0011827083071693778,0.001143482862971723,1.0008680820465088,0.0,0.0,0.0,-0.008085329085588455,4.270535469055176,1.6795190572738647,1.4634608030319214,0
781.0110000000004,-0.00024090174701996148,0.0005993577651679516,-0.0002838210784830153,0.0,0.0,0.0,0.0,0.004337805323302746,-0.0018595781875774264,0.0022406745702028275,0.998931884765625,0.0,0.0,0.0,-0.007697730325162411,4.261395454406738,1.6793211698532104,1.393304467201233,0
790.8909999999996,-0.0002473972272127867,0.0006345810834318399,-0.0003016953414771706,0.0,0.0,0.0,0.0,-0.0018662122311070561,0.0024157848674803972,-0.0010274209780618548,0.9987839460372925,0.0,0.0,0.0,-0.0005161836743354797,4.2665300369262695,1.6997144222259521,0.0934302806854248,0
800.7860000000001,-0.00028280296828597784,0.0006023693713359535,-0.0003066620556637645,0.0,0.0,0.0,0.0,0.0032255651894956827,0.0025547391269356012,0.0005475274519994855,1.000748634338379,0.0,0.0,0.0,-0.00119425926823169,4.267557621002197,1.6919893026351929,0.2161632925271988,0
810.6679999999997,-0.00028567767003551126,0.0006258295616135001,-0.0003294776252005249,0.0,0.0,0.0,0.0,0.001515357755124569,-0.0006236013141460717,-0.0009135350701399148,0.9997478127479553,0.0,0.0,0.0,-0.0016801340971142054,4.263556480407715,1.685302972793579,0.3041076362133026,0
820.5590000000011,-0.0003230555448681116,0.000592054333537817,-0.00033594181877560914,0.0,0.0,0.0,0.0,-0.00040725115104578435,0.0068779150024056435,0.0002875224454328418,1.0002650022506714,0.0,0.0,0.0,-0.0025013484992086887,4.258773326873779,1.683030366897583,0.4527490735054016,0
830.4380000000001,-0.0003177672333549708,0.0006507493671961129,-0.000346328888554126,0.0,0.0,0.0,0.0,-0.00428008520975709,-0.0008465460850857198,0.0013249593321233988,1.001025676727295,0.0,0.0,0.0,-0.0030433679930865765,4.255298137664795,1.6654506921768188,0.5508556365966797,0
840.3299999999999,-0.00035574648063629866,0.0006209237035363913,-0.00035358601599000394,0.0,0.0,0.0,0.0,-9.322609548689798e-05,-0.003000898053869605,0.005027692764997482,0.9987807869911194,0.0,0.0,0.0,-0.003234719857573509,4.2582879066467285,1.670785903930664,0.5854907631874084,0
850.2090000000007,-0.0003465823538135737,0.0006477911374531686,-0.00037711727782152593,0.0,0.0,0.0,0.0,0.0013777578715234995,-0.003394084982573986,0.001132061006501317,1.000167727470398,0.0,0.0,0.0,-0.0016648601740598679,4.255031585693359,1.6807044744491577,0.30134302377700806,0
860.1110000000008,-0.000382126570912078,0.0006173650617711246,-0.0003869775973726064,0.0,0.0,0.0,0.0,0.0016384482150897384,-0.004439357202500105,-0.00122250325512141,1.0025466680526733,0.0,0.0,0.0,-0.0012001452269032598,4.246899127960205,1.6886438131332397,0.21722866594791412,0
869.9809999999998,-0.0003693272883538157,0.0006698046927340329,-0.0003895779955200851,0.0,0.0,0.0,0.0,0.0007666926248930395,0.0031323733273893595,0.0031459645833820105,1.000041127204895,0.0,0.0,0.0,0.006170358043164015,4.276175022125244,1.7141581773757935,-1.116847038269043,0
879.8739999999998,-0.0004041549691464752,0.0006409902125597,-0.0003976546577177942,0.0,0.0,0.0,0.0,0.0005759889609180391,-0.003846315434202552,-0.0011580130085349083,0.9989224672317505,0.0,0.0,0.0,0.00750353280454874,4.270833969116211,1.7015398740768433,-1.358154296875,0
889.755000000001,-0.0003934196138288826,0.0006808327161706984,-0.0004033634322695434,0.0,0.0,0.0,0.0,-0.0011667306534945965,0.002057308331131935,0.0024427096359431744,1.0000208616256714,0.0,0.0,0.0,0.007281411439180374,4.265648365020752,1.7020795345306396,-1.317949891090393,0
899.6470000000008,-0.0004300701548345387,0.0006533093401230872,-0.000413494068197906,0.0,0.0,0.0,0.0,-0.000433976820204407,-0.0011404326651245356,-0.0006212288280948997,0.9999682307243347,0.0,0.0,0.0,0.007589427754282951,4.26324987411499,1.695083498954773,-1.3737014532089233,0
909.5249999999996,-0.00046881719026714563,0.0006227896083146334,-0.0004238062247168273,0.0,0.0,0.0,0.0,-0.002599019557237625,-0.0007446347153745592,-0.0016418391605839133,1.0012495517730713,0.0,0.0,0.0,0.006885737180709839,4.264359474182129,1.6968457698822021,-1.2463321685791016,0
919.4189999999999,-0.0005097270477563143,0.0005898477393202484,-0.0004333872930146754,0.0,0.0,0.0,0.0,0.0009720869129523635,-0.0022256504744291306,-0.0008450134191662073,1.0016480684280396,0.0,0.0,0.0,0.006833597552031279,4.2666168212890625,1.6973752975463867,-1.2368947267532349,0
929.3070000000007,-0.0005541174905374646,0.0005542708095163107,-0.00044138936209492385,0.0,0.0,0.0,0.0,-0.0005323748919181526,-0.0011356798931956291,-0.0006871923105791211,1.0002269744873047,0.0,0.0,0.0,0.0063548325560987,4.261665344238281,1.696876049041748,-1.1502373218536377,0
939.1930000000011,5.857743235537782e-05,0.00033820344833657146,0.00010191158071393147,0.0,0.0,0.0,0.0,0.0008971546194516122,-0.0011402657255530357,0.004596649203449488,0.9979033470153809,0.0,0.0,0.0,0.0010491531575098634,4.236201763153076,1.80789315700531,-0.1898988038301468,0
949.0750000000007,3.583965735742822e-05,0.00029129337053745985,0.00011343896767357364,0.0,0.0,0.0,0.0,0.001959092915058136,0.00222306651994586,0.0018635105807334185,0.999604344367981,0.0,0.0,0.0,0.002286815783008933,4.230709075927734,1.8111076354980469,-0.4139181971549988,0
958.9650000000001,2.185458470194135e-05,0.00029178758268244565,0.00015994715795386583,0.0,0.0,0.0,0.0,-0.0001667520118644461,0.0007270441274158657,-0.0008980962447822094,0.9994571208953857,0.0,0.0,0.0,-0.0038409840781241655,4.234279632568359,1.8084067106246948,0.6952257752418518,0
968.844000000001,-1.752247044350952e-06,0.00024326684069819748,0.0001718488783808425,0.0,0.0,0.0,0.0,-0.001545820734463632,-0.006564638111740351,0.001437793718650937,1.0007336139678955,0.0,0.0,0.0,-0.0030520139262080193,4.229405403137207,1.8077799081802368,0.5524206161499023,0
978.7379999999994,-3.495389682939276e-05,0.0002645022177603096,0.00021807353186886758,0.0,0.0,0.0,0.0,-5.008889638702385e-05,0.0063511584885418415,0.0023968485184013844,0.9991516470909119,0.0,0.0,0.0,-0.008385582827031612,4.245267868041992,1.8228431940078735,1.517807126045227,0
988.6219999999994,-5.894541754969396e-05,0.00021595718862954527,0.000232322359806858,0.0,0.0,0.0,0.0,0.0006300205714069307,0.0005268215900287032,0.0035199776757508516,1.0004956722259521,0.0,0.0,0.0,-0.008055206388235092,4.241071701049805,1.8082438707351685,1.4580084085464478,0
998.514000000001,-6.989303074078634e-05,0.0002479933900758624,0.0002822319802362472,0.0,0.0,0.0,0.0,-0.0005293582798913121,-0.0027553546242415905,-0.004916694015264511,0.9992662072181702,0.0,0.0,0.0,-0.008035973645746708,4.235533714294434,1.8057148456573486,1.4545272588729858,0
1008.389000000001,-9.45632200455293e-05,0.00020093933562748134,0.0002989449130836874,0.0,0.0,0.0,0.0,-0.0014672663528472185,-0.006612453609704971,-0.0026086282450705767,1.0005037784576416,0.0,0.0,0.0,-0.00899852067232132,4.231827735900879,1.8084303140640259,1.6287500858306885,0
1018.2890000000007,-4.91317332489416e-05,0.00022066864767111838,0.0003487697395030409,0.0,0.0,0.0,0.0,0.0005894103669561446,-0.0006375732482410967,0.0019985344260931015,1.0023727416992188,0.0,0.0,0.0,-0.009348665364086628,4.231774806976318,1.8189067840576172,1.6921271085739136,0
1028.161,-7.416506559820846e-05,0.0001710071665002033,0.00037013451219536364,0.0,0.0,0.0,0.0,0.0011644251644611359,-0.004357381258159876,-7.299563003471121e-05,1.0029795169830322,0.0,0.0,0.0,-0.008432755246758461,4.229737281799316,1.8168578147888184,1.5263452529907227,0
1038.0660000000007,-6.865243631182238e-05,0.00018675783940125257,0.00042796882917173207,0.0,0.0,0.0,0.0,0.0013315295800566673,0.007052180357277393,0.0007982691749930382,1.0024532079696655,0.0,0.0,0.0,-0.016288762912154198,4.249155044555664,1.8266021013259888,2.948298692703247,0
1047.934000000001,-9.280833910452202e-05,0.00013634131755679846,0.0004577474610414356,0.0,0.0,0.0,0.0,0.0018497069831937551,0.0008947926689870656,-0.0008389314753003418,0.9995266795158386,0.0,0.0,0.0,-0.015758005902171135,4.246643543243408,1.8123964071273804,2.8522303104400635,0
1057.83,-2.2840558813186362e-05,0.0001384944625897333,0.0005188686773180962,0.0,0.0,0.0,0.0,0.001014592475257814,-0.0017036112258210778,-0.0010540467919781804,1.000594139099121,0.0,0.0,0.0,-0.02718503773212433,4.262797832489014,1.818656086921692,4.92054557800293,0
1067.7129999999997,2.1667809050995857e-05,0.00014972542703617364,0.0005880448734387755,0.0,0.0,0.0,0.0,0.0008891487377695739,0.0002331407886231318,-0.0004786404606420547,1.0002050399780273,0.0,0.0,0.0,-0.027399128302931786,4.257615089416504,1.8217283487319946,4.959296703338623,0
1077.6149999999998,-4.067745976499282e-06,0.00010516211477806792,0.0006262126844376326,0.0,0.0,0.0,0.0,0.0026472427416592836,0.007054100278764963,-0.0003035028639715165,1.0007600784301758,0.0,0.0,0.0,-0.027441054582595825,4.249208927154541,1.818686842918396,4.966885089874268,0
1087.4789999999994,-3.188528717146255e-05,6.13542360952124e-05,0.000664910301566124,0.0,0.0,0.0,0.0,0.0028037552256137133,0.0026559322141110897,0.002733399625867605,0.9995428919792175,0.0,0.0,0.0,-0.027902305126190186,4.238426208496094,1.7947213649749756,5.05037260055542,0
1097.3770000000004,1.0093048331327736e-05,4.039498890051618e-05,0.0007195159560069442,0.0,0.0,0.0,0.0,-0.004750263411551714,-0.004283670336008072,0.0019441996701061726,0.9995220303535461,0.0,0.0,0.0,-0.035574380308389664,4.234039783477783,1.7901360988616943,6.439033508300781,0
1107.2540000000008,-1.8419099433231167e-05,-2.850199962267652e-06,0.000759824353735894,0.0,0.0,0.0,0.0,-0.0001553319743834436,0.0036915456876158714,0.00014310807455331087,0.9994363784790039,0.0,0.0,0.0,-0.035260848701000214,4.240323066711426,1.8018795251846313,6.3822832107543945,0
1117.1540000000005,2.8048762032995e-06,-2.1134554117452353e-05,0.0008173242094926536,0.0,0.0,0.0,0.0,0.0004464457160793245,-0.005020506680011749,0.0010599540546536446,1.0005240440368652,0.0,0.0,0.0,-0.0413263700902462,4.250576019287109,1.7975890636444092,7.480154514312744,0
1127.0280000000002,-5.004251306672813e-06,-2.11699225474149e-05,0.000884777051396668,0.0,0.0,0.0,0.0,0.0006081972387619317,0.0009405667660757899,-0.0008402608218602836,1.0010433197021484,0.0,0.0,0.0,-0.040962234139442444,4.2441253662109375,1.8064370155334473,7.41424560546875,0
1136.9210000000003,-3.36624143528752e-05,-6.678789213765413e-05,0.0009308079024776816,0.0,0.0,0.0,0.0,-1.9324583263369277e-05,0.0008834116742946208,-0.00026793102733790874,0.9996330738067627,0.0,0.0,0.0,-0.04096432775259018,4.237658500671387,1.8078384399414062,7.41462516784668,0
1146.8029999999999,0.00010935295722447336,0.00041385937947779894,-3.244370600441471e-05,0.0,0.0,0.0,0.0,-0.0006213090382516384,-0.0018459741258993745,-0.0006438637501560152,0.9996115565299988,0.0,0.0,0.0,-0.032530900090932846,4.32054328918457,1.8193663358688354,5.888157367706299,0
1156.6910000000007,8.206032362068072e-05,0.00038885738467797637,-2.133221278199926e-05,0.0,0.0,0.0,0.0,-0.002830306999385357,0.0001752276293700561,0.003174424171447754,1.0004775524139404,0.0,0.0,0.0,-0.032703012228012085,4.315835952758789,1.8135344982147217,5.919310092926025,0
1166.5689999999995,0.00013045209925621748,0.0005203206092119217,-0.00015644925588276237,0.0,0.0,0.0,0.0,0.00017135977395810187,0.0015669189160689712,-0.004428238607943058,0.9997289180755615,0.0,0.0,0.0,-0.02207127772271633,4.335948467254639,1.8148332834243774,3.9949452877044678,0
1176.464,0.00010859068424906582,0.0005272623966448009,-0.00013359010335989296,0.0,0.0,0.0,0.0,-0.0002256361476611346,0.00382805522531271,0.0011661831522360444,1.0010994672775269,0.0,0.0,0.0,-0.030368009582161903,4.340842247009277,1.8092641830444336,5.496669769287109,0
1186.3420000000006,0.00011683000775519758,0.0005642582545988262,-0.00017353116709273309,0.0,0.0,0.0,0.0,0.002009265124797821,-0.0015645265812054276,-0.001496913144364953,1.0013335943222046,0.0,0.0,0.0,-0.022110020741820335,4.34608793258667,1.79899263381958,4.001957893371582,0
1196.246000000001,8.60548170749098e-05,0.0005398415960371494,-0.00016654432693030685,0.0,0.0,0.0,0.0,0.002035117242485285,-0.0012367565650492907,-0.0008597449050284922,1.0001630783081055,0.0,0.0,0.0,-0.022392060607671738,4.340662002563477,1.795594573020935,4.05300760269165,0
1206.116,5.694715946447104e-05,0.0005577746196649969,-0.00012697796046268195,0.0,0.0,0.0,0.0,0.0014707526424899697,0.005206368397921324,0.0031389251817017794,0.9982357621192932,0.0,0.0,0.0,-0.022521695122122765,4.3305983543396,1.791359782218933,4.076471328735352,0
1216.0110000000004,2.233582199551165e-05,0.000528760370798409,-0.00011782422370743006,0.0,0.0,0.0,0.0,0.0016088791890069842,0.0033981569577008486,-0.0011916400399059057,0.9985976815223694,0.0,0.0,0.0,-0.021865004673600197,4.319737434387207,1.7775300741195679,3.957609176635742,0
1225.8919999999998,7.222027488751337e-05,0.0005830521695315838,-0.00016771911759860814,0.0,0.0,0.0,0.0,-0.0010621777037158608,-0.0028694686479866505,0.0032998472452163696,1.0002206563949585,0.0,0.0,0.0,-0.022499894723296165,4.31212043762207,1.7699365615844727,4.072525501251221,0
1235.7839999999997,3.484587068669498e-05,0.0005524177104234695,-0.0001639271795284003,0.0,0.0,0.0,0.0,-0.0006699879886582494,0.0033713611774146557,-0.0003167281684000045,0.999701201915741,0.0,0.0,0.0,-0.02159208618104458,4.306552886962891,1.7683178186416626,3.908210515975952,0
1245.661,4.3856489355675876e-05,0.0006014137179590762,-0.00014896663196850568,0.0,0.0,0.0,0.0,-0.0034215201158076525,0.004001548979431391,-0.0016241008415818214,0.9983705282211304,0.0,0.0,0.0,-0.021259212866425514,4.307408332824707,1.762951135635376,3.8479599952697754,0
1255.562,6.447626219596714e-06,0.0005680440808646381,-0.00014463499246630818,0.0,0.0,0.0,0.0,-0.0006749698659405112,0.0027837466914206743,-0.003556156763806939,0.9990172386169434,0.0,0.0,0.0,-0.021830787882208824,4.307597637176514,1.7543244361877441,3.951416254043579,0
1265.4320000000007,7.593450573040172e-05,0.0005842390237376094,-0.00013547981507144868,0.0,0.0,0.0,0.0,-0.0004199911199975759,-0.0033794385381042957,3.466326597845182e-05,0.999350905418396,0.0,0.0,0.0,-0.015722446143627167,4.312490463256836,1.7478171586990356,2.8457939624786377,0
1275.3310000000001,3.949710662709549e-05,0.0005493163480423391,-0.00013224032591097057,0.0,0.0,0.0,0.0,0.0017763858195394278,-0.0006434086244553328,0.00165914639364928,1.0015002489089966,0.0,0.0,0.0,-0.015831032767891884,4.304890155792236,1.7529364824295044,2.865448474884033,0
1285.205,5.7607405324233696e-05,0.0006128710228949785,-0.00018017535330727696,0.0,0.0,0.0,0.0,0.0006325323483906686,0.00035188416950404644,0.00435783714056015,1.001165747642517,0.0,0.0,0.0,-0.015346896834671497,4.310790061950684,1.7578990459442139,2.7778189182281494,0
1295.1020000000008,1.966631316463463e-05,0.0005739968037232757,-0.0001788957742974162,0.0,0.0,0.0,0.0,0.000775230408180505,-0.0005926577723585069,-0.0014212012756615877,0.9998503923416138,0.0,0.0,0.0,-0.013553816825151443,4.309848308563232,1.7604392766952515,2.453267812728882,0
1304.9789999999994,9.202534420182928e-05,0.0005314128356985748,-0.00014432442549150437,0.0,0.0,0.0,0.0,-0.0003506935609038919,0.0005896242219023407,0.0044164396822452545,0.9999030828475952,0.0,0.0,0.0,-0.013790328055620193,4.310375690460205,1.7652837038040161,2.496076822280884,0
1314.8829999999998,4.97746113978792e-05,0.00048718773177824914,-0.00013975361071061343,0.0,0.0,0.0,0.0,-0.0005144044989719987,0.0007785328198224306,-0.003255098592489958,0.9985251426696777,0.0,0.0,0.0,-0.012506694532930851,4.31082010269165,1.7638453245162964,2.2637364864349365,0
1324.75,0.00011904242273885757,0.0005239454912953079,-0.00011602901213336736,0.0,0.0,0.0,0.0,-0.002099621342495084,-0.0073639280162751675,-4.2015890358015895e-05,1.0003540515899658,0.0,0.0,0.0,-0.013112974353134632,4.308051586151123,1.7601255178451538,2.373474597930908,0
1334.6460000000006,7.779737643431872e-05,0.00047840169281698763,-0.00011049910972360522,0.0,0.0,0.0,0.0,0.0013701838906854391,0.0038371067494153976,-0.0021340197417885065,0.9980244040489197,0.0,0.0,0.0,-0.012780996039509773,4.3087334632873535,1.7717516422271729,2.313385486602783,0
1344.5329999999994,0.00012087446521036327,0.0004734597459901124,-9.386007877765223e-05,0.0,0.0,0.0,0.0,-0.0001503169914940372,-0.0005296544404700398,-0.001134458347223699,1.0001230239868164,0.0,0.0,0.0,-0.013161422684788704,4.309900760650635,1.7744338512420654,2.3822436332702637,0
1354.4210000000003,7.780102168908343e-05,0.00042687240056693554,-8.878763037500903e-05,0.0,0.0,0.0,0.0,-0.0014828848652541637,0.0017725517973303795,0.0011138488771393895,1.000799298286438,0.0,0.0,0.0,-0.013507576659321785,4.307035446166992,1.7755259275436401,2.4448981285095215,0
1364.295,0.0001498066121712327,0.0004073052550666034,-3.5699708860192914e-06,0.0,0.0,0.0,0.0,0.00265531986951828,0.006288707256317139,0.0016359732253476977,1.0003929138183594,0.0,0.0,0.0,-0.01626542955636978,4.308314800262451,1.7826427221298218,2.944074869155884,0
1374.1890000000003,0.0001083334645954892,0.0003565459046512842,9.599396435078233e-06,0.0,0.0,0.0,0.0,0.0023286456707865,0.0016508091939613223,0.0005862067337147892,0.9976601004600525,0.0,0.0,0.0,-0.016577791422605515,4.295392036437988,1.772682547569275,3.0006134510040283,0
1384.0680000000011,0.00016381476598326117,0.0004120327939745039,8.608992175140884e-06,0.0,0.0,0.0,0.0,0.00035977250081487,0.006452529225498438,-0.0005407536518760026,0.999111533164978,0.0,0.0,0.0,-0.01600985787808895,4.300927639007568,1.779210090637207,2.8978159427642822,0
1393.9670000000006,0.00012118615268263966,0.0003623589873313904,1.8696671759244055e-05,0.0,0.0,0.0,0.0,0.0009244033717550337,0.00035351645783521235,-0.0015036967815831304,0.9999315738677979,0.0,0.0,0.0,-0.0165890883654356,4.292587757110596,1.7606639862060547,3.0026581287384033,0
1403.8400000000001,0.00017417353228665888,0.00044560301466844976,2.5164563339785673e-06,0.0,0.0,0.0,0.0,-0.00028943593497388065,0.002092532580718398,-0.0009452223894186318,1.0010863542556763,0.0,0.0,0.0,-0.015947401523590088,4.302174091339111,1.7688790559768677,2.8865113258361816,0
1413.7360000000008,0.0001301653974223882,0.0003964070638176054,1.1033692317141686e-05,0.0,0.0,0.0,0.0,0.003629665356129408,0.0020462023094296455,-0.000890586874447763,0.998833954334259,0.0,0.0,0.0,-0.01614280231297016,4.293815612792969,1.761242151260376,2.921879291534424,0
1423.6139999999996,0.00014563831791747361,0.0005270543624646962,-5.400240479502827e-05,0.0,0.0,0.0,0.0,0.0007630659965798259,0.005276294890791178,-0.0017086317529901862,0.9993218183517456,0.0,0.0,0.0,-0.022037403658032417,4.286572456359863,1.7555333375930786,3.988813877105713,0
1433.5069999999996,9.932275861501694e-05,0.00047722284216433764,-5.191793025005609e-05,0.0,0.0,0.0,0.0,-0.0016211181646212935,-0.003333080792799592,0.0008195708505809307,0.9983635544776917,0.0,0.0,0.0,-0.021958591416478157,4.277888298034668,1.7454241514205933,3.974548578262329,0
1443.393,9.083605982596055e-05,0.0005221863393671811,-0.00010237883543595672,0.0,0.0,0.0,0.0,-0.00023562346177641302,-0.0003014059620909393,-9.666441474109888e-05,1.0003836154937744,0.0,0.0,0.0,-0.02197207696735859,4.274321556091309,1.7488205432891846,3.976989507675171,0
1453.2839999999997,4.359398371889256e-05,0.0004712159279733896,-0.0001055578759405762,0.0,0.0,0.0,0.0,-0.002608837326988578,-0.00019428617088124156,0.0004962508101016283,1.001270055770874,0.0,0.0,0.0,-0.022088780999183655,4.270602226257324,1.738308072090149,3.9981131553649902,0
1463.1589999999997,5.571965084527619e-05,0.0005384604446589947,-0.00015880682622082531,0.0,0.0,0.0,0.0,-0.0017570542404428124,0.007351752836257219,-0.0025127967819571495,1.0010610818862915,0.0,0.0,0.0,-0.02180313691496849,4.2715983390808105,1.7287360429763794,3.946411371231079,0
1473.0609999999997,6.629019480897114e-06,0.0004905848763883114,-0.00016386661445721984,0.0,0.0,0.0,0.0,0.0012014800449833274,-0.005817333701997995,-0.0010995317716151476,1.0010783672332764,0.0,0.0,0.0,-0.0221419595181942,4.269800662994385,1.7168471813201904,4.0077385902404785,0
1482.942000000001,0.00010197554365731776,0.0005454654456116259,-0.00019472236454021186,0.0,0.0,0.0,0.0,0.0012366848532110453,0.0045076413080096245,0.0017748211976140738,1.0004116296768188,0.0,0.0,0.0,-0.029604729264974594,4.266129016876221,1.7346700429916382,5.35851526260376,0
1492.8379999999997,5.6535260227974504e-05,0.0004970314330421388,-0.00020012671302538365,0.0,0.0,0.0,0.0,0.0011184103786945343,0.002182163530960679,-0.004905542824417353,0.9986081719398499,0.0,0.0,0.0,-0.02864188700914383,4.256333827972412,1.7170225381851196,5.184238433837891,0
1502.705,0.00015456063556484878,0.0005489668692462146,-0.00021614496654365212,0.0,0.0,0.0,0.0,-2.8445927455322817e-05,0.0024852773640304804,-0.0018634016159921885,1.00030517578125,0.0,0.0,0.0,-0.022117827087640762,4.267236709594727,1.7196166515350342,4.003370761871338,0
1512.6020000000008,0.00011152838123962283,0.0005010328604839742,-0.00022341949807014316,0.0,0.0,0.0,0.0,0.001413260237313807,0.001664254697971046,-0.0025617985520511866,0.9990627765655518,0.0,0.0,0.0,-0.02216498553752899,4.262951850891113,1.7170813083648682,4.011906623840332,0
1522.4760000000006,0.00011585628089960665,0.0004815752326976508,-0.00011158850975334644,0.0,0.0,0.0,0.0,0.0017642889870330691,0.0006580566405318677,-1.9421844626776874e-05,1.000510334968567,0.0,0.0,0.0,-0.022357989102602005,4.255041122436523,1.7137062549591064,4.046840667724609,0
1532.3739999999998,7.026118692010641e-05,0.0004291293735150248,-0.00010968366404995322,0.0,0.0,0.0,0.0,-0.0008191355736926198,-0.0005667278310284019,0.0005259613390080631,1.0009000301361084,0.0,0.0,0.0,-0.021655995398759842,4.246866226196289,1.713974952697754,3.919778347015381,0
1542.2579999999998,0.00012812729983124882,0.0005289942491799593,-9.067734936252236e-05,0.0,0.0,0.0,0.0,-0.0005594699177891016,0.0065644122660160065,0.0008998803677968681,1.001218557357788,0.0,0.0,0.0,-0.0217903982847929,4.2731757164001465,1.7334871292114258,3.944105386734009,0
1552.148000000001,8.232227992266417e-05,0.0004808325320482254,-8.531531784683466e-05,0.0,0.0,0.0,0.0,-0.000774652580730617,-0.00606317725032568,0.0017549421172589064,1.0000654458999634,0.0,0.0,0.0,-0.02143455669283867,4.2700300216674805,1.7257897853851318,3.879697322845459,0
1562.0210000000006,7.624371210113168e-05,0.00048160870210267603,-8.70039511937648e-05,0.0,0.0,0.0,0.0,-1.5830302800168283e-05,0.00444623501971364,-0.0010068786796182394,1.0005607604980469,0.0,0.0,0.0,-0.020989608019590378,4.264347076416016,1.7386671304702759,3.7991607189178467,0
1571.92,2.6966274162987247e-05,0.00043126195669174194,-8.132177754305303e-05,0.0,0.0,0.0,0.0,-0.0013493761653080583,0.0005495261284522712,-0.001529077417217195,0.999309778213501,0.0,0.0,0.0,-0.021335700526833534,4.258310794830322,1.7343640327453613,3.861804246902466,0
1581.7939999999999,0.0001327950449194759,0.0005284564103931189,-0.00011686285870382562,0.0,0.0,0.0,0.0,-0.00015403880388475955,-0.0021869910415261984,9.110179962590337e-05,0.9989519715309143,0.0,0.0,0.0,-0.019799083471298218,4.279487133026123,1.7587206363677979,3.5836732387542725,0
1591.6910000000007,8.533064101357013e-05,0.0004795646818820387,-0.00011472535697976127,0.0,0.0,0.0,0.0,-0.0006276877247728407,2.5628939965827158e-06,-0.0023688850924372673,1.000110149383545,0.0,0.0,0.0,-0.019728006795048714,4.272975921630859,1.7593636512756348,3.5708086490631104,0
1601.5680000000011,0.0001450512500014156,0.0005043523851782084,-0.00015421811258420348,0.0,0.0,0.0,0.0,0.0037889257073402405,0.005244828294962645,-0.0014182720333337784,1.000797152519226,0.0,0.0,0.0,-0.013876723125576973,4.286288261413574,1.7704691886901855,2.511714220046997,0
1611.4629999999997,9.988612146116793e-05,0.0004540364898275584,-0.00015513692051172256,0.0,0.0,0.0,0.0,-0.0020685475319623947,-0.0021018136758357286,-0.0030389041639864445,0.9981298446655273,0.0,0.0,0.0,-0.013412694446742535,4.276118755340576,1.762526512145996,2.427724599838257,0
1621.3420000000006,0.00012655003229156137,0.00046819468843750656,-0.0001394067076034844,0.0,0.0,0.0,0.0,0.000837984262034297,0.001994970953091979,0.0036617747973650694,0.9977031350135803,0.0,0.0,0.0,-0.020022092387080193,4.27376651763916,1.772233009338379,3.6240384578704834,0
1631.2389999999996,8.550132042728364e-05,0.00041627881000749767,-0.00014117645332589746,0.0,0.0,0.0,0.0,0.0017332418356090784,0.001985182985663414,0.0018040835857391357,0.9992426037788391,0.0,0.0,0.0,-0.018658703193068504,4.266012191772461,1.7643970251083374,3.377262592315674,0
1641.1190000000006,0.00010953313176287338,0.0004544237453956157,-0.00012885930482298136,0.0,0.0,0.0,0.0,-0.0019023629138246179,2.7782465622294694e-05,-0.0015224349917843938,1.0006142854690552,0.0,0.0,0.0,-0.01833501271903515,4.258944988250732,1.7580300569534302,3.318674087524414,0
1651.0210000000006,6.737446528859437e-05,0.00040432275272905827,-0.00013037171447649598,0.0,0.0,0.0,0.0,0.00036049241316504776,0.005889210384339094,-0.0004406225634738803,1.0005992650985718,0.0,0.0,0.0,-0.01909242570400238,4.257312297821045,1.763036847114563,3.4557669162750244,0
1660.889000000001,0.00020807409600820392,0.0004576075589284301,-0.00010412461415398866,0.0,0.0,0.0,0.0,-0.0027345793787389994,0.00023272405087482184,0.00171251455321908,0.9982760548591614,0.0,0.0,0.0,-0.02696177363395691,4.252810955047607,1.768269658088684,4.8801350593566895,0
1670.782000000001,0.00017222954193130136,0.00040687841828912497,-0.00010294317326042801,0.0,0.0,0.0,0.0,0.0014187878696247935,0.0048066978342831135,0.0008659417508170009,0.9989574551582336,0.0,0.0,0.0,-0.02639574185013771,4.254773139953613,1.7640846967697144,4.777681827545166,0
1680.6599999999999,0.00012865794997196645,0.0005152327357791364,-0.00014825855032540858,0.0,0.0,0.0,0.0,-0.0006539304740726948,-0.001838214579038322,-0.0011751959100365639,0.9999192953109741,0.0,0.0,0.0,-0.020132053643465042,4.26374626159668,1.7561601400375366,3.643941879272461,0
1690.5560000000005,9.238901839125901e-05,0.00046621207729913294,-0.0001517949567642063,0.0,0.0,0.0,0.0,0.004460146650671959,0.00022185227135196328,-0.003753113094717264,0.9999871850013733,0.0,0.0,0.0,-0.020121214911341667,4.257387638092041,1.7516292333602905,3.641979932785034,0
1700.4320000000007,0.00012887541379313916,0.0005256570875644684,-0.00012762339611072093,0.0,0.0,0.0,0.0,-0.002479005139321089,0.0006716823554597795,0.0040346249006688595,1.0001857280731201,0.0,0.0,0.0,-0.020123187452554703,4.266541004180908,1.751936435699463,3.6423370838165283,0
1710.3289999999997,9.229045099345967e-05,0.00047740049194544554,-0.00012818498362321407,0.0,0.0,0.0,0.0,0.005522571504116058,0.0014775339514017105,0.0004480155184864998,0.9989803433418274,0.0,0.0,0.0,-0.01791837066411972,4.270059108734131,1.7556430101394653,3.243260622024536,0
1720.205,0.00011015028576366603,0.0005374471074901521,-0.00011900988465640694,0.0,0.0,0.0,0.0,-0.0004392922855913639,0.0039357831701636314,0.0004543876275420189,0.999055802822113,0.0,0.0,0.0,-0.017656711861491203,4.254945755004883,1.755779504776001,3.1959002017974854,0
1730.098,7.10038366378285e-05,0.0004899055929854512,-0.00011938805982936174,0.0,0.0,0.0,0.0,0.0032986521255224943,-0.0031654711347073317,-0.0030747530981898308,0.9999763369560242,0.0,0.0,0.0,-0.01822180487215519,4.24932336807251,1.7420105934143066,3.298182964324951,0
1739.978000000001,0.00011522589193191379,0.0004961011582054198,-0.00011699507740559056,0.0,0.0,0.0,0.0,0.0008007007418200374,4.409757093526423e-05,0.0010003785137087107,0.9994080066680908,0.0,0.0,0.0,-0.018672576174139977,4.24068021774292,1.7426528930664062,3.3797736167907715,0
1749.8760000000002,7.515995821449906e-05,0.0004452877037692815,-0.00011731388076441363,0.0,0.0,0.0,0.0,-0.0024326287675648928,-0.0012040004367008805,0.0005356695619411767,1.0000898838043213,0.0,0.0,0.0,-0.01845390722155571,4.2334513664245605,1.7407279014587402,3.3401942253112793,0
1759.7579999999998,0.00011936231749132276,0.0005054048961028457,-9.076928108697757e-05,0.0,0.0,0.0,0.0,0.0013296646066009998,0.005165928043425083,-0.0011526040034368634,1.0011824369430542,0.0,0.0,0.0,-0.020525585860013962,4.249470233917236,1.7537035942077637,3.7151718139648438,0
1769.648000000001,7.740005821688101e-05,0.0004552241589408368,-8.747920946916565e-05,0.0,0.0,0.0,0.0,-0.0035847558174282312,0.0013756051193922758,0.000684944330714643,1.0005998611450195,0.0,0.0,0.0,-0.02090129442512989,4.242889881134033,1.7420302629470825,3.7831757068634033,0
1779.5220000000008,4.920743594993837e-05,0.0005159417632967234,-9.764096466824412e-05,0.0,0.0,0.0,0.0,0.0024010506458580494,-0.0024613230489194393,0.0005754853482358158,0.9996692538261414,0.0,0.0,0.0,-0.021006621420383453,4.245251655578613,1.7356616258621216,3.8022401332855225,0
1789.4189999999999,4.680998245021328e-06,0.00046710812603123486,-9.432598017156124e-05,0.0,0.0,0.0,0.0,0.0020804202649742365,0.006275061517953873,-0.003030095249414444,0.9992814064025879,0.0,0.0,0.0,-0.021780021488666534,4.238620281219482,1.7415683269500732,3.9422271251678467,0
1799.3009999999995,5.829869405715726e-05,0.0005036172806285322,-8.896469080355018e-05,0.0,0.0,0.0,0.0,-0.0009603028884157538,0.0015263835666701198,0.0016976561164483428,1.0001194477081299,0.0,0.0,0.0,-0.014323736540973186,4.242291450500488,1.725103735923767,2.5926249027252197,0
1809.188,1.5216581232380122e-05,0.0004538699286058545,-8.592834637966007e-05,0.0,0.0,0.0,0.0,0.0013381702592596412,-0.0002935839584097266,-0.0047665927559137344,0.9997056722640991,0.0,0.0,0.0,-0.013125929050147533,4.237174034118652,1.7168079614639282,2.375819444656372,0
1819.0699999999997,0.00010929599375231192,0.0005193810793571174,-8.19437118479982e-05,0.0,0.0,0.0,0.0,-0.0023429887369275093,0.0009161842754110694,0.0018960789311677217,1.0003769397735596,0.0,0.0,0.0,-0.013721919618546963,4.227574825286865,1.713079810142517,2.483694553375244,0
1828.973,6.839013076387346e-05,0.00046960340114310384,-7.792266842443496e-05,0.0,0.0,0.0,0.0,-0.00028917918098159134,-0.0009356247610412538,0.0016539935022592545,0.9994938969612122,0.0,0.0,0.0,-0.012569941580295563,4.225208759307861,1.71367347240448,2.275184154510498,0
1838.8420000000006,0.00011130898928968236,0.00045734914601780474,-9.160138870356604e-05,0.0,0.0,0.0,0.0,0.000990626635029912,0.0035285158082842827,-0.0055303433910012245,0.9989085793495178,0.0,0.0,0.0,-0.005626743659377098,4.2313032150268555,1.7209467887878418,1.0184516906738281,0
1848.7340000000004,6.867676711408421e-05,0.00040507077937945724,-8.949118637247011e-05,0.0,0.0,0.0,0.0,0.00030346453422680497,-0.004350374452769756,0.0024413978680968285,0.9997580051422119,0.0,0.0,0.0,-0.007008255459368229,4.223649978637695,1.706009030342102,1.2685081958770752,0
1858.6139999999996,0.00017306745576206595,0.0004837507731281221,-6.400842539733276e-05,0.0,0.0,0.0,0.0,-0.0003216428158339113,-0.006062823347747326,-0.0019752623047679663,1.0009100437164307,0.0,0.0,0.0,-0.012044104747474194,4.2232232093811035,1.726844310760498,2.180006980895996,0
1868.5059999999994,0.0001316698908340186,0.00043754250509664416,-6.001083966111764e-05,0.0,0.0,0.0,0.0,0.0022374955005943775,0.00015858205733820796,-0.0037226048298180103,0.9988137483596802,0.0,0.0,0.0,-0.012499029748141766,4.2188215255737305,1.73898446559906,2.2623491287231445,0
1878.3860000000004,0.00017155378009192646,0.00045567331835627556,-6.230856524780393e-05,0.0,0.0,0.0,0.0,0.0008643738692626357,0.004017459694296122,-0.004919067490845919,0.9982138872146606,0.0,0.0,0.0,-0.012726848013699055,4.211844444274902,1.7328400611877441,2.3035850524902344,0
1888.2790000000005,0.00013109907740727067,0.00041031884029507637,-5.987798795104027e-05,0.0,0.0,0.0,0.0,-0.0017193135572597384,-0.004215390887111425,-0.0014430659357458353,0.9985025525093079,0.0,0.0,0.0,-0.012998540885746479,4.2066969871521,1.7214643955230713,2.352761745452881,0
1898.161,0.00012825177691411227,0.00046421177103184164,-6.226388359209523e-05,0.0,0.0,0.0,0.0,0.0025750601198524237,0.0006583922659046948,0.00206315191462636,1.0014382600784302,0.0,0.0,0.0,-0.020557833835482597,4.203951835632324,1.731072187423706,3.721008777618408,0
1908.050000000001,8.933946082834154e-05,0.00042128923814743757,-6.143232894828543e-05,0.0,0.0,0.0,0.0,-0.0007271093199960887,-0.0019144380930811167,-0.00017282951739616692,1.0012474060058594,0.0,0.0,0.0,-0.0200739037245512,4.196083068847656,1.7289165258407593,3.633416175842285,0
1917.9310000000005,0.0001445452362531796,0.0005365223623812199,-0.00010617655789246783,0.0,0.0,0.0,0.0,-0.001585011137649417,-0.0018929964862763882,-0.0012632490834221244,1.0019432306289673,0.0,0.0,0.0,-0.025907371193170547,4.201124668121338,1.7382246255874634,4.689285755157471,0
1927.8230000000003,0.0001099492292269133,0.0004940847284160554,-0.00010564063995843753,0.0,0.0,0.0,0.0,-0.004374424461275339,-6.0047499573556706e-05,-0.003569224616512656,0.9995587468147278,0.0,0.0,0.0,-0.025622978806495667,4.197932243347168,1.7414244413375854,4.637810230255127,0
1937.7129999999997,0.000119983364129439,0.0004948373534716666,-0.00010057965118903667,0.0,0.0,0.0,0.0,-0.0007976765627972782,4.603755951393396e-05,0.002408458385616541,0.9990912675857544,0.0,0.0,0.0,-0.02616143971681595,4.209131240844727,1.7437920570373535,4.735272407531738,0
1947.6000000000004,8.393096504732966e-05,0.00044889506534673274,-9.929099178407341e-05,0.0,0.0,0.0,0.0,0.0012833746150135994,0.0015334297204390168,-0.0011980116833001375,0.9996523857116699,0.0,0.0,0.0,-0.024522067978978157,4.204977512359619,1.7415446043014526,4.43854284286499,0
1957.4799999999996,0.00013679161202162504,0.0005096219829283655,-0.00015191080456133932,0.0,0.0,0.0,0.0,-0.001914854976348579,0.0019436979200690985,0.0001781838363967836,1.000394582748413,0.0,0.0,0.0,-0.018321968615055084,4.221006870269775,1.7450850009918213,3.316312789916992,0
1967.375,0.00010051621939055622,0.00046620878856629133,-0.00015483253810089082,0.0,0.0,0.0,0.0,-0.002972409361973405,0.0027064229361712933,-0.001800993108190596,1.0009901523590088,0.0,0.0,0.0,-0.018248984590172768,4.221776485443115,1.7360409498214722,3.303102493286133,0
1977.2469999999994,0.0001385294453939423,0.0005636118585243821,-0.0001779971644282341,0.0,0.0,0.0,0.0,0.002548258751630783,-0.0058944313786923885,0.0011825745459645987,1.000327706336975,0.0,0.0,0.0,-0.018810629844665527,4.220750331878662,1.7267767190933228,3.404761552810669,0
1987.152,0.00010443857900099829,0.0005207584472373128,-0.00018071968224830925,0.0,0.0,0.0,0.0,-0.0014761731727048755,0.0025014698039740324,-0.0023547280579805374,0.9983814358711243,0.0,0.0,0.0,-0.01848008669912815,4.210396766662598,1.7330645322799683,3.3449325561523438,0
1997.0190000000002,0.0001042336443788372,0.0005734869628213346,-0.0002037184895016253,0.0,0.0,0.0,0.0,0.0023696536663919687,0.00816711038351059,-0.0030219401232898235,0.9998723864555359,0.0,0.0,0.0,-0.019621791318058968,4.2119269371032715,1.7303386926651,3.5515832901000977,0
2006.9210000000003,6.785026926081628e-05,0.0005278790486045182,-0.00020880234660580754,0.0,0.0,0.0,0.0,-0.0017207709606736898,-0.007397062610834837,-0.0003820464189630002,0.9993353486061096,0.0,0.0,0.0,-0.019898707047104836,4.203806400299072,1.7150192260742188,3.601705551147461,0
2016.7960000000003,8.33857266115956e-05,0.0005533810472115874,-0.00024310237495228648,0.0,0.0,0.0,0.0,0.001584565849043429,0.009022807702422142,-0.0035790307447314262,1.000055193901062,0.0,0.0,0.0,-0.012791823595762253,4.213979244232178,1.7307205200195312,2.315345525741577,0
2026.6939999999995,4.653709038393572e-05,0.0005038155359216034,-0.0002506999298930168,0.0,0.0,0.0,0.0,0.0004135344934184104,-0.005554159637540579,0.0008921426488086581,0.9988799095153809,0.0,0.0,0.0,-0.01328478753566742,4.2022786140441895,1.7121267318725586,2.4045729637145996,0
2036.5680000000011,0.00010073275188915431,0.0005163052119314671,-0.00020159388077445328,0.0,0.0,0.0,0.0,0.0007677109679207206,0.00037181450170464814,-0.001732502831146121,0.9976098537445068,0.0,0.0,0.0,-0.015291363932192326,4.211881637573242,1.7328333854675293,2.7677671909332275,0
2046.4830000000002,7.087619451340288e-05,0.0005183120956644416,-0.0001995964121306315,0.0,0.0,0.0,0.0,0.0013640462420880795,0.00010467027459526435,-0.0011846156558021903,0.9987037181854248,0.0,0.0,0.0,-0.016009731218218803,4.205949783325195,1.7264869213104248,2.8977932929992676,0
2056.3459999999995,0.00012110610259696841,0.0004627837042789906,-0.00018280470976606011,0.0,0.0,0.0,0.0,5.058769602328539e-05,0.0040023718029260635,0.002083662897348404,0.9993606805801392,0.0,0.0,0.0,-0.01650262251496315,4.196701526641846,1.7206828594207764,2.9870076179504395,0
2066.236000000001,9.893580136122182e-05,0.0004932951997034252,-0.00018329145677853376,0.0,0.0,0.0,0.0,0.0004039634659420699,-0.0012179164914414287,-0.0007123448303900659,1.000935435295105,0.0,0.0,0.0,-0.016122015193104744,4.1905694007873535,1.7080758810043335,2.918116807937622,0
2076.1100000000006,0.00013934816524852067,0.00047107343561947346,-0.00015477894339710474,0.0,0.0,0.0,0.0,6.64671606500633e-05,0.0020627370104193687,0.0038493804167956114,0.9990689754486084,0.0,0.0,0.0,-0.016664110124111176,4.187732696533203,1.7118250131607056,3.016237258911133,0
2086.0069999999996,0.00012643802620004863,0.0005268021486699581,-0.00015971125685609877,0.0,0.0,0.0,0.0,-0.0019292555516585708,0.0012895246036350727,-0.0003990792029071599,0.9994672536849976,0.0,0.0,0.0,-0.01574200764298439,4.183187484741211,1.7081307172775269,2.849334955215454,0
2095.8819999999996,0.00010871162521652877,0.000495976535603404,-0.00014857634960208088,0.0,0.0,0.0,0.0,3.1989509352570167e-06,-0.002545315772294998,0.0028918269090354443,0.9983674883842468,0.0,0.0,0.0,-0.016378233209252357,4.1838531494140625,1.7019423246383667,2.9644927978515625,0
2105.791000000001,8.671181421959773e-05,0.0005210930830799043,-0.00015041002188809216,0.0,0.0,0.0,0.0,-0.0010984333930537105,-0.0009256668854504824,0.0025807886850088835,0.9990556836128235,0.0,0.0,0.0,-0.015422829426825047,4.18078088760376,1.7088738679885864,2.791562557220459,0
