timestamp,stateEstimate.x,stateEstimate.y,stateEstimate.z,controller.cmd_thrust,controller.cmd_roll,controller.cmd_pitch,controller.cmd_yaw,controller.r_roll,controller.r_pitch,controller.r_yaw,controller.accelz,controller.actuatorThrust,controller.roll,controller.pitch,controller.yaw,controller.rollRate,controller.pitchRate,controller.yawRate,controller.ctr_yaw
0.0,-0.015362408012151718,-0.010193110443651676,2.3462969693355262e-05,0.0,0.0,0.0,0.0,-0.0010485395323485136,-0.00010007848322857171,-0.0016579352086409926,1.0007966756820679,0.0,0.0,0.0,-6.024904251098633,0.7632970213890076,4.717273235321045,1090.5196533203125,0
9.918000000001484,-0.015407509170472622,-0.010183097794651985,2.7092344680568203e-05,0.0,0.0,0.0,0.0,-0.002325246576219797,-0.006171893794089556,0.0010128600988537073,0.9992745518684387,0.0,0.0,0.0,-6.0202789306640625,0.7657480239868164,4.709403038024902,1089.6826171875,0
19.819000000001324,-0.015419323928654194,-0.01019691675901413,-2.0667370336013846e-05,0.0,0.0,0.0,0.0,0.0014264490455389023,-0.00019785301992669702,0.002954044844955206,0.9996211528778076,0.0,0.0,0.0,-6.020552158355713,0.7662518620491028,4.720151901245117,1089.73193359375,0
29.73700000000099,-0.015396127477288246,-0.010160676203668118,2.5459985408815555e-05,0.0,0.0,0.0,0.0,0.0013041377533227205,-0.0013107426930218935,-0.00044799267197959125,1.0000935792922974,0.0,0.0,0.0,-6.018869876861572,0.7752903699874878,4.728804588317871,1089.4273681640625,0
39.642000000001644,-0.015405085869133472,-0.010180884972214699,-2.9959344828967005e-05,0.0,0.0,0.0,0.0,-0.0019870256073772907,-0.0031184444669634104,0.001760228187777102,0.9992436766624451,0.0,0.0,0.0,-6.027123928070068,0.7740746736526489,4.734229564666748,1090.92138671875,0
49.55500000000029,-0.015446186065673828,-0.010165363550186157,-2.22900889639277e-05,0.0,0.0,0.0,0.0,-0.000798750901594758,0.00033592895488254726,-9.029899229062721e-05,0.9990708231925964,0.0,0.0,0.0,-6.028801441192627,0.7800743579864502,4.738008499145508,1091.22509765625,0
59.46800000000076,-0.015490719117224216,-0.01019572839140892,-3.998525789938867e-05,0.0,0.0,0.0,0.0,-0.0012729748850688338,-0.002806262345984578,-0.004006871487945318,1.0016919374465942,0.0,0.0,0.0,-6.036510944366455,0.7720267176628113,4.7368621826171875,1092.62060546875,0
69.38000000000102,-0.01553121767938137,-0.01019489485770464,-4.785836790688336e-05,0.0,0.0,0.0,0.0,-0.00022792066738475114,0.0018780595855787396,0.0001857071038102731,1.0009427070617676,0.0,0.0,0.0,-6.0313801765441895,0.7734329104423523,4.7454657554626465,1091.6917724609375,0
79.29600000000028,-0.015515797771513462,-0.010160628706216812,-0.00011301237100269645,0.0,0.0,0.0,0.0,-0.0019505482632666826,0.002807790646329522,-0.0012249588035047054,0.9977461695671082,0.0,0.0,0.0,-6.041382789611816,0.7853726744651794,4.750823497772217,1093.5023193359375,0
89.20200000000114,-0.01538150291889906,-0.01014282088726759,5.955126653134357e-06,0.0,0.0,0.0,0.0,-0.0037087586242705584,0.004002120811492205,-0.0002640747115947306,0.9985079169273376,0.0,0.0,0.0,-6.041228294372559,0.7980170845985413,4.779574394226074,1093.4742431640625,0
99.10800000000017,-0.015400233678519726,-0.010177215561270714,-2.9680857551284134e-05,0.0,0.0,0.0,0.0,-0.001074836472980678,-0.002637016586959362,0.001093776198104024,1.0021520853042603,0.0,0.0,0.0,-6.035623550415039,0.801519513130188,4.772810459136963,1092.4598388671875,0
109.02700000000004,-0.015418453142046928,-0.010153938084840775,-9.252225936506875e-06,0.0,0.0,0.0,0.0,0.00327292294241488,0.005088422913104296,0.00012591831909958273,1.002911925315857,0.0,0.0,0.0,-6.0301513671875,0.7997444272041321,4.770925521850586,1091.4693603515625,0
118.94200000000092,-0.015433010645210743,-0.010179088450968266,-4.705318497144617e-05,0.0,0.0,0.0,0.0,-0.0016998369246721268,0.0009560196776874363,0.0019194702617824078,0.9996199607849121,0.0,0.0,0.0,-6.0243988037109375,0.7897419929504395,4.758114814758301,1090.4281005859375,0
128.85200000000077,-0.015471570193767548,-0.01011667586863041,-6.787301572330762e-06,0.0,0.0,0.0,0.0,0.002727388869971037,0.005790919065475464,-0.002773153828456998,0.9988031387329102,0.0,0.0,0.0,-6.024571895599365,0.8033865690231323,4.7525811195373535,1090.4595947265625,0
138.75900000000001,-0.015471679158508778,-0.010093449614942074,-4.408839231473394e-05,0.0,0.0,0.0,0.0,0.00011330953566357493,-0.001878239680081606,-0.0008406855049543083,0.9993760585784912,0.0,0.0,0.0,-6.019314289093018,0.7967681288719177,4.737690448760986,1089.5078125,0
148.6850000000013,-0.015392715111374855,-0.010071361437439919,1.0167504115088377e-05,0.0,0.0,0.0,0.0,5.5441796575905755e-06,-0.0013196547515690327,-0.00011055605136789382,0.9997073411941528,0.0,0.0,0.0,-6.013786792755127,0.7937895059585571,4.736189365386963,1088.5074462890625,0
158.59000000000015,-0.015414930880069733,-0.010076968930661678,-6.662812666036189e-06,0.0,0.0,0.0,0.0,-0.0029317790176719427,0.00044340448221191764,-0.0006404066225513816,0.9992023706436157,0.0,0.0,0.0,-6.013124942779541,0.7905740737915039,4.73799991607666,1088.3875732421875,0
168.4950000000008,-0.015425355173647404,-0.010085556656122208,-2.642944764374988e-06,0.0,0.0,0.0,0.0,0.0016219320241361856,0.002070907037705183,0.0008068733150139451,0.9991392493247986,0.0,0.0,0.0,-6.013505458831787,0.7909888029098511,4.736968040466309,1088.45654296875,0
178.41300000000047,-0.015437854453921318,-0.010130082257091999,-4.9737900553736836e-05,0.0,0.0,0.0,0.0,0.0006227365229278803,0.000760429713409394,-0.0006526206852868199,0.9998486638069153,0.0,0.0,0.0,-6.020757675170898,0.7798386216163635,4.734431743621826,1089.7691650390625,0
188.32000000000153,-0.01536803599447012,-0.01011265441775322,-1.7086006209865445e-06,0.0,0.0,0.0,0.0,0.001126450253650546,-0.0014770124107599258,-0.0010879745241254568,1.0008354187011719,0.0,0.0,0.0,-6.021539688110352,0.7838878035545349,4.740895748138428,1089.9107666015625,0
198.2440000000006,-0.015388133935630322,-0.010176391340792179,4.028823968837969e-05,0.0,0.0,0.0,0.0,-0.0020009230356663465,-0.004822722170501947,0.003133524674922228,1.0013526678085327,0.0,0.0,0.0,-6.02947998046875,0.7749643921852112,4.736428260803223,1091.347900390625,0
208.14500000000044,-0.01541668176651001,-0.010177009738981724,4.349856681074016e-05,0.0,0.0,0.0,0.0,-0.0005240262253209949,-0.001227667205967009,0.0009639105992391706,1.0006103515625,0.0,0.0,0.0,-6.0222673416137695,0.7784002423286438,4.736081600189209,1090.0423583984375,0
218.0619999999999,-0.015335931442677975,-0.010211667977273464,8.750795677769929e-05,0.0,0.0,0.0,0.0,-0.0009350993204861879,0.0005743145593442023,-0.004736701026558876,0.9990681409835815,0.0,0.0,0.0,-6.030909061431885,0.7732350826263428,4.757737159729004,1091.6065673828125,0
227.97299999999996,-0.01536423061043024,-0.010212969034910202,9.498542931396514e-05,0.0,0.0,0.0,0.0,-0.0016794324619695544,0.001940669841133058,-0.0018635010346770287,1.000810146331787,0.0,0.0,0.0,-6.025993347167969,0.7737614512443542,4.756255149841309,1090.7169189453125,0
237.88700000000063,-0.015363683924078941,-0.010210036300122738,0.00013627692533191293,0.0,0.0,0.0,0.0,0.002075712662190199,-0.00016445244546048343,0.0016104970127344131,1.000210165977478,0.0,0.0,0.0,-6.034790992736816,0.7787875533103943,4.759200572967529,1092.3092041015625,0
247.8020000000015,-0.015392153523862362,-0.010209907777607441,0.00014735273725818843,0.0,0.0,0.0,0.0,-0.0006845655734650791,-0.0024765306152403355,-0.0017450981540605426,0.9980111122131348,0.0,0.0,0.0,-6.028618335723877,0.769790768623352,4.755016803741455,1091.1920166015625,0
257.71399999999994,-0.015370561741292477,-0.010210685431957245,0.00015892861119937152,0.0,0.0,0.0,0.0,0.00024675342137925327,-0.0027105535846203566,3.7498975871130824e-05,0.9996901154518127,0.0,0.0,0.0,-6.046138286590576,0.772323489189148,4.763731002807617,1094.3631591796875,0
267.6230000000014,-0.015395835041999817,-0.010225717909634113,0.00015421998978126794,0.0,0.0,0.0,0.0,0.0010495579335838556,-0.001525627332739532,0.0020314364228397608,1.000667691230774,0.0,0.0,0.0,-6.039717197418213,0.7700907588005066,4.766495704650879,1093.2008056640625,0
277.53200000000106,-0.01536361500620842,-0.010198661126196384,0.00021020081476308405,0.0,0.0,0.0,0.0,-0.001421805121935904,0.0013803159818053246,-0.0007822434417903423,1.0014225244522095,0.0,0.0,0.0,-6.032906532287598,0.7685218453407288,4.766939163208008,1091.968017578125,0
287.46300000000156,-0.015335503965616226,-0.010151916183531284,0.000157517206389457,0.0,0.0,0.0,0.0,0.0017853797180578113,-0.002112911781296134,0.0008195884875021875,1.0000394582748413,0.0,0.0,0.0,-6.02766227722168,0.7709760665893555,4.7614922523498535,1091.0189208984375,0
297.3580000000002,-0.015328658744692802,-0.010141748003661633,0.00018947830540128052,0.0,0.0,0.0,0.0,0.0034625139087438583,-0.0032109569292515516,0.0015887130284681916,1.0006688833236694,0.0,0.0,0.0,-6.021903991699219,0.7681779265403748,4.763702869415283,1089.9766845703125,0
307.27100000000064,-0.015332686714828014,-0.010167502798140049,0.00014938805543351918,0.0,0.0,0.0,0.0,0.00044797707232646644,-0.0007415603613480926,-0.000730998523067683,1.0001790523529053,0.0,0.0,0.0,-6.016236782073975,0.7605686783790588,4.762895107269287,1088.9508056640625,0
317.1820000000007,-0.01539178192615509,-0.010164566338062286,0.0001518601056886837,0.0,0.0,0.0,0.0,0.0022751111537218094,0.004402582533657551,-0.0028259686660021544,1.0011365413665771,0.0,0.0,0.0,-6.009622097015381,0.758427619934082,4.767124176025391,1087.75341796875,0
327.09400000000096,-0.015374790877103806,-0.010128175839781761,0.00010385012137703598,0.0,0.0,0.0,0.0,0.0015140441246330738,0.00156884896568954,-0.0014520060503855348,1.00065279006958,0.0,0.0,0.0,-6.01125955581665,0.7611276507377625,4.762750625610352,1088.0498046875,0
337.0060000000012,-0.015411105938255787,-0.010128186084330082,0.00010952834418276325,0.0,0.0,0.0,0.0,0.0005745853413827717,0.0006463239551521838,-0.0013461400521919131,0.9979604482650757,0.0,0.0,0.0,-6.013207912445068,0.758914053440094,4.759509563446045,1088.402587890625,0
346.9180000000015,-0.015400093048810959,-0.010099331848323345,6.18627600488253e-05,0.0,0.0,0.0,0.0,0.001098386012017727,-0.0008559788693673909,0.0014351751888170838,0.9966278076171875,0.0,0.0,0.0,-6.013782501220703,0.7656238079071045,4.768231391906738,1088.506591796875,0
356.83100000000013,-0.015458921901881695,-0.010067717172205448,7.342899334616959e-05,0.0,0.0,0.0,0.0,-0.00045841740211471915,-0.0006374329095706344,-0.00013284468150231987,0.9991164207458496,0.0,0.0,0.0,-6.015829086303711,0.7674751877784729,4.764537334442139,1088.8770751953125,0
366.7430000000004,-0.015465847216546535,-0.010103097185492516,1.4448554793489166e-05,0.0,0.0,0.0,0.0,-0.004635860212147236,-0.0025690672919154167,0.0011989398626610637,0.9998926520347595,0.0,0.0,0.0,-6.010256290435791,0.7689365744590759,4.7596001625061035,1087.8682861328125,0
376.65600000000086,-0.015396792441606522,-0.01009355392307043,5.493023854796775e-05,0.0,0.0,0.0,0.0,-0.0008982943254522979,-0.0002955340314656496,-0.0014716335572302341,1.0020004510879517,0.0,0.0,0.0,-6.010107517242432,0.7817305326461792,4.773201942443848,1087.8414306640625,0
386.5680000000011,-0.01539840828627348,-0.010091885924339294,1.0080547326651867e-05,0.0,0.0,0.0,0.0,-0.0006311952602118254,-0.002280670451000333,-0.001726828864775598,1.0019513368606567,0.0,0.0,0.0,-6.011641025543213,0.781745195388794,4.771765232086182,1088.118896484375,0
396.48199999999997,-0.01540072076022625,-0.010097984224557877,1.4699086932523642e-05,0.0,0.0,0.0,0.0,0.001132280332967639,-0.006500555202364922,0.0023024415131658316,1.000335693359375,0.0,0.0,0.0,-6.005985260009766,0.7823554873466492,4.765833854675293,1087.09521484375,0
406.39800000000105,-0.015410171821713448,-0.01009290013462305,-1.7015910998452455e-05,0.0,0.0,0.0,0.0,-0.002643622225150466,0.005873309448361397,-0.0009795138612389565,0.9993398189544678,0.0,0.0,0.0,-5.998598575592041,0.7794808149337769,4.7752909660339355,1085.7581787109375,0
416.3090000000011,-0.015390667133033276,-0.010096084326505661,-2.9734387680946384e-06,0.0,0.0,0.0,0.0,-0.0010414508869871497,0.0015812796773388982,0.0024891081266105175,0.9978669285774231,0.0,0.0,0.0,-5.993045330047607,0.7846071720123291,4.756858825683594,1084.7530517578125,0
426.21700000000055,-0.015398720279335976,-0.010085616260766983,-3.9190479583339766e-05,0.0,0.0,0.0,0.0,-0.0032030041329562664,0.0013922028010711074,0.0013479308690875769,1.0006349086761475,0.0,0.0,0.0,-5.987176418304443,0.7853391170501709,4.749190330505371,1083.69091796875,0
436.13800000000083,-0.015393104404211044,-0.01008741743862629,-2.973838127218187e-05,0.0,0.0,0.0,0.0,-0.0005207661306485534,-0.0026815144810825586,-0.003164763795211911,0.9986719489097595,0.0,0.0,0.0,-5.986536026000977,0.7931927442550659,4.752541542053223,1083.5748291015625,0
446.0420000000013,-0.015374154783785343,-0.010070065967738628,-9.981472976505756e-05,0.0,0.0,0.0,0.0,-0.0030015455558896065,0.004547042306512594,-0.0060174246318638325,0.9975289106369019,0.0,0.0,0.0,-5.987386703491211,0.8014912009239197,4.763985633850098,1083.7288818359375,0
455.96200000000135,-0.015406209044158459,-0.010066144168376923,-0.00011429277947172523,0.0,0.0,0.0,0.0,0.002167690312489867,-0.0013199681416153908,0.0017762037459760904,0.9977355003356934,0.0,0.0,0.0,-5.982450485229492,0.805200457572937,4.745331287384033,1082.8353271484375,0
465.8670000000002,-0.015403932891786098,-0.010061845183372498,-0.00017504303832538426,0.0,0.0,0.0,0.0,0.0014730504481121898,-0.003425927134230733,0.003991346340626478,0.9981927871704102,0.0,0.0,0.0,-5.984574317932129,0.801099419593811,4.751800537109375,1083.2198486328125,0
495.6100000000006,-0.015337566845119,-0.010032354854047298,-0.0001296811387874186,0.0,0.0,0.0,0.0,-0.00020698114531114697,-0.0018480954458937049,0.0034339178819209337,1.0008442401885986,0.0,0.0,0.0,-5.995611667633057,0.8183447122573853,4.78201961517334,1085.217529296875,0
505.51900000000023,-0.015393925830721855,-0.01006786897778511,-0.000127892752061598,0.0,0.0,0.0,0.0,0.0025557733606547117,-9.448038326809183e-05,-0.0028641647659242153,0.9995183944702148,0.0,0.0,0.0,-5.995218753814697,0.804118812084198,4.773226261138916,1085.146484375,0
515.4320000000007,-0.015311713330447674,-0.010073985904455185,-0.00010381460742792115,0.0,0.0,0.0,0.0,0.0007177360821515322,0.008662412874400616,-0.002624205080792308,1.0004138946533203,0.0,0.0,0.0,-6.0014214515686035,0.7928470373153687,4.7809343338012695,1086.269287109375,0
525.3410000000003,-0.015399235300719738,-0.010153228417038918,-7.380432361969724e-05,0.0,0.0,0.0,0.0,0.0013155603082850575,-0.004512067884206772,-0.0003222560917492956,0.9992026686668396,0.0,0.0,0.0,-6.012476444244385,0.7745054364204407,4.748758792877197,1088.270263671875,0
535.2530000000006,-0.015347122214734554,-0.010110241360962391,-2.1988031221553683e-05,0.0,0.0,0.0,0.0,0.0008464016136713326,0.0036429890897125006,-0.0040390524081885815,0.9995944499969482,0.0,0.0,0.0,-6.006191253662109,0.7700371742248535,4.752357006072998,1087.1324462890625,0
545.1689999999999,-0.015354773961007595,-0.010103771463036537,-5.448125011753291e-05,0.0,0.0,0.0,0.0,-0.0018661788199096918,0.0025307044852524996,-0.00014245523198042065,1.0001391172409058,0.0,0.0,0.0,-6.01416540145874,0.7720732092857361,4.743520259857178,1088.575927734375,0
555.0880000000016,-0.015438929200172424,-0.010046449489891529,-4.412075213622302e-05,0.0,0.0,0.0,0.0,0.003729631192982197,-0.0002472291816957295,-0.0005018675001338124,0.9991902709007263,0.0,0.0,0.0,-6.014861583709717,0.7871161699295044,4.721126556396484,1088.701904296875,0
564.9940000000006,-0.015464064665138721,-0.01004820503294468,-6.83901525917463e-05,0.0,0.0,0.0,0.0,-0.0006564217037521303,0.00695262523368001,-0.0038836048915982246,0.9986498951911926,0.0,0.0,0.0,-6.008483409881592,0.780596911907196,4.7173638343811035,1087.54736328125,0
574.9050000000007,-0.015452456660568714,-0.010023780167102814,-4.2423795093782246e-05,0.0,0.0,0.0,0.0,0.00022989383433014154,-0.004446342121809721,0.004270331934094429,0.9988422989845276,0.0,0.0,0.0,-6.003680229187012,0.7821844816207886,4.696495056152344,1086.6781005859375,0
584.8209999999999,-0.015513750724494457,-0.010084015317261219,-4.742612873087637e-05,0.0,0.0,0.0,0.0,-0.0004813038103748113,0.003930293954908848,-0.0016891785198822618,0.9980303049087524,0.0,0.0,0.0,-6.011003494262695,0.7697308659553528,4.695313453674316,1088.0035400390625,0
594.7360000000008,-0.01541313249617815,-0.010091971606016159,-7.609710792166879e-06,0.0,0.0,0.0,0.0,-6.206742546055466e-05,0.002490710699930787,-0.005390784237533808,0.9995287656784058,0.0,0.0,0.0,-6.011239528656006,0.7651764750480652,4.699798107147217,1088.046142578125,0
604.6420000000016,-0.01546958927065134,-0.010141918435692787,-1.0100494364451151e-05,0.0,0.0,0.0,0.0,-0.001545880688354373,0.004227899480611086,0.002507750876247883,1.0002142190933228,0.0,0.0,0.0,-6.021531581878662,0.7524744272232056,4.691329002380371,1089.9091796875,0
614.5560000000005,-0.01545526273548603,-0.010114237666130066,2.3075237550074235e-05,0.0,0.0,0.0,0.0,-0.0026765496004372835,0.003054589033126831,-0.001575925387442112,0.99937504529953,0.0,0.0,0.0,-6.014675140380859,0.7529356479644775,4.679934501647949,1088.668212890625,0
624.4660000000003,-0.015499350614845753,-0.010146459564566612,1.3177510481909849e-05,0.0,0.0,0.0,0.0,0.003124997718259692,0.002969010965898633,-0.0008859264198690653,0.9976261258125305,0.0,0.0,0.0,-6.016088008880615,0.7522386908531189,4.670576572418213,1088.9239501953125,0
634.3790000000008,-0.015409711748361588,-0.010143336839973927,6.355075311148539e-05,0.0,0.0,0.0,0.0,-0.000195609507500194,0.001082689268514514,-0.00038052027230151,0.9996607899665833,0.0,0.0,0.0,-6.01865816116333,0.7507146000862122,4.678796768188477,1089.38916015625,0
644.2920000000013,-0.01545141264796257,-0.010178969241678715,5.559957935474813e-05,0.0,0.0,0.0,0.0,-0.0008488580933772027,-0.0007497055921703577,0.003130335360765457,1.000909686088562,0.0,0.0,0.0,-6.019667148590088,0.7431083917617798,4.67436408996582,1089.57177734375,0
654.2030000000013,-0.015434686094522476,-0.010180645622313023,7.630592881469056e-05,0.0,0.0,0.0,0.0,-0.004415803588926792,-0.000539023254532367,2.4042859877226874e-05,0.9994906187057495,0.0,0.0,0.0,-6.0204925537109375,0.7413621544837952,4.678801536560059,1089.7210693359375,0
664.1140000000014,-0.015420989133417606,-0.010140505619347095,2.8317535907262936e-05,0.0,0.0,0.0,0.0,0.0007144095725379884,-0.00014460031525231898,-0.002898607635870576,1.0000485181808472,0.0,0.0,0.0,-6.020863056182861,0.7577300071716309,4.67981481552124,1089.7882080078125,0
674.0280000000002,-0.015402832068502903,-0.010147073306143284,4.361566971056163e-05,0.0,0.0,0.0,0.0,0.0012853239895775914,-0.0010952058946713805,-0.00197124807164073,0.9984250664710999,0.0,0.0,0.0,-6.022577285766602,0.7587305903434753,4.683335304260254,1090.0985107421875,0
683.9390000000003,-0.015411214902997017,-0.010164124891161919,-1.3188559933041688e-06,0.0,0.0,0.0,0.0,-0.00046107714297249913,0.0016078968765214086,-0.003961498383432627,0.9972614645957947,0.0,0.0,0.0,-6.017064571380615,0.7577908635139465,4.679381370544434,1089.1007080078125,0
693.8520000000008,-0.015413091517984867,-0.01015719585120678,1.1073029781982768e-05,0.0,0.0,0.0,0.0,0.00018408375035505742,-0.003596728900447488,0.00047510856529697776,1.0001866817474365,0.0,0.0,0.0,-6.019613742828369,0.7571234703063965,4.676943302154541,1089.56201171875,0
703.768,-0.015411808155477047,-0.01013270951807499,-3.4911434340756387e-05,0.0,0.0,0.0,0.0,0.000604453613050282,-0.005981215741485357,0.0017166134202852845,1.0019276142120361,0.0,0.0,0.0,-6.013711452484131,0.7543872594833374,4.680102825164795,1088.4937744140625,0
713.6760000000013,-0.015303200110793114,-0.01012840773910284,1.0786086932057515e-05,0.0,0.0,0.0,0.0,0.001735713449306786,-0.0009373195352964103,-0.0013188731390982866,0.9985883235931396,0.0,0.0,0.0,-6.016127586364746,0.75836181640625,4.708762168884277,1088.93115234375,0
723.5950000000012,-0.015327329747378826,-0.010130302049219608,-6.221239345904905e-06,0.0,0.0,0.0,0.0,-0.0021165458019822836,0.003596373600885272,-0.0025098812766373158,0.9989535808563232,0.0,0.0,0.0,-6.010769844055176,0.7587916254997253,4.704570293426514,1087.961181640625,0
733.505000000001,-0.015373185276985168,-0.010111254639923573,-6.537483841384528e-06,0.0,0.0,0.0,0.0,0.0005844156839884818,-0.0035094486083835363,0.0023011842276901007,1.0012617111206055,0.0,0.0,0.0,-6.006235122680664,0.7638896703720093,4.693419456481934,1087.140380859375,0
743.4170000000013,-0.015423484146595001,-0.010160884819924831,-1.3161165043129586e-05,0.0,0.0,0.0,0.0,0.0020664650946855545,-0.0007161136018112302,0.0010998755460605025,0.9996187090873718,0.0,0.0,0.0,-6.0154876708984375,0.7497657537460327,4.693406581878662,1088.815185546875,0
753.3260000000009,-0.015361243858933449,-0.010138897225260735,2.917636993515771e-05,0.0,0.0,0.0,0.0,-0.0035262752790004015,-0.0017164635937660933,0.002741563366726041,0.9983378052711487,0.0,0.0,0.0,-6.010318279266357,0.7422287464141846,4.683345794677734,1087.8795166015625,0
763.2420000000002,-0.015415085479617119,-0.01018174085766077,3.489151640678756e-05,0.0,0.0,0.0,0.0,0.00284907640889287,-0.0006086598732508719,-0.0011385981924831867,0.9983823895454407,0.0,0.0,0.0,-6.013928413391113,0.7367439270019531,4.676791667938232,1088.5330810546875,0
773.1510000000017,-0.015338772907853127,-0.010181093588471413,7.001846097409725e-05,0.0,0.0,0.0,0.0,0.0013522166991606355,0.003390428377315402,0.0011460002278909087,1.0004327297210693,0.0,0.0,0.0,-6.017065525054932,0.7382652163505554,4.683684825897217,1089.1009521484375,0
783.0630000000001,-0.015383806079626083,-0.010218966752290726,6.768438470317051e-05,0.0,0.0,0.0,0.0,0.0033447379246354103,-0.0019344415049999952,0.0039418525993824005,0.9979886412620544,0.0,0.0,0.0,-6.024943828582764,0.7323446273803711,4.670191287994385,1090.52685546875,0
792.9800000000014,-0.01542610488831997,-0.010201718658208847,7.258800906129181e-05,0.0,0.0,0.0,0.0,0.0006818565307185054,-0.0015310413436964154,0.0011682938784360886,0.9973447322845459,0.0,0.0,0.0,-6.018693447113037,0.7280020117759705,4.670017242431641,1089.3956298828125,0
802.8910000000014,-0.015411172062158585,-0.010205056518316269,1.3185954230721109e-06,0.0,0.0,0.0,0.0,-0.0004944300162605941,0.0006134837749414146,0.0008886278374120593,0.998744010925293,0.0,0.0,0.0,-6.028722286224365,0.7304664254188538,4.678250312805176,1091.2108154296875,0
812.8000000000011,-0.0153995081782341,-0.010178307071328163,2.1218280380708165e-05,0.0,0.0,0.0,0.0,0.0007597632938995957,-0.0016242300625890493,-0.0015587621601298451,1.0008846521377563,0.0,0.0,0.0,-6.022519111633301,0.7295230627059937,4.667080879211426,1090.0880126953125,0
822.7300000000014,-0.01536471676081419,-0.010128508321940899,-5.937454625382088e-05,0.0,0.0,0.0,0.0,0.0035838098265230656,0.004710359498858452,0.0021300155203789473,0.9993586540222168,0.0,0.0,0.0,-6.02252721786499,0.7432337999343872,4.669192790985107,1090.08935546875,0
832.6330000000016,-0.01549397874623537,-0.010078076273202896,-7.669314072700217e-05,0.0,0.0,0.0,0.0,-0.0004879821790382266,-0.0021649275440722704,0.003006075508892536,0.9990596771240234,0.0,0.0,0.0,-6.016097545623779,0.738638162612915,4.671462059020996,1088.9256591796875,0
842.5460000000003,-0.015507115051150322,-0.010055516846477985,-0.00011916567746084183,0.0,0.0,0.0,0.0,0.0038573138881474733,0.0025512150023132563,0.002175605623051524,1.000504732131958,0.0,0.0,0.0,-6.016322612762451,0.7363977432250977,4.676666736602783,1088.96630859375,0
852.4570000000003,-0.015459088608622551,-0.010046346113085747,-9.825701272347942e-05,0.0,0.0,0.0,0.0,-5.233470437815413e-05,-0.0013404773781076074,0.0027091188821941614,1.0003159046173096,0.0,0.0,0.0,-6.018813610076904,0.7350891828536987,4.670017242431641,1089.4173583984375,0
862.371000000001,-0.015536051243543625,-0.010111481882631779,-9.412665531272069e-05,0.0,0.0,0.0,0.0,0.0009281944949179888,0.0020269351080060005,0.0005677962326444685,0.9985237121582031,0.0,0.0,0.0,-6.027193546295166,0.7202513217926025,4.665098667144775,1090.93408203125,0
872.2780000000002,-0.015500184148550034,-0.010114616714417934,-8.283789793495089e-05,0.0,0.0,0.0,0.0,0.0003708354488480836,-0.005092600826174021,-0.0027363288681954145,0.9970749616622925,0.0,0.0,0.0,-6.021244525909424,0.7170843482017517,4.65679931640625,1089.857177734375,0
882.1990000000005,-0.015513458289206028,-0.010082283988595009,-0.00012286391574889421,0.0,0.0,0.0,0.0,-0.0006700775702483952,-0.003186604008078575,0.000871786498464644,0.9985383152961731,0.0,0.0,0.0,-6.020947456359863,0.7244117259979248,4.664325714111328,1089.8035888671875,0
892.1130000000012,-0.01546418759971857,-0.010059680789709091,-9.175780724035576e-05,0.0,0.0,0.0,0.0,-0.0026866733096539974,0.005890442058444023,0.003970410209149122,0.9993888735771179,0.0,0.0,0.0,-6.022693157196045,0.7302539348602295,4.6822075843811035,1090.119384765625,0
902.0350000000017,-0.01553402654826641,-0.010108510963618755,-9.123121708398685e-05,0.0,0.0,0.0,0.0,0.0022043250501155853,0.0029555910732597113,0.00011251517571508884,0.9990613460540771,0.0,0.0,0.0,-6.015125274658203,0.7329253554344177,4.662009239196777,1088.7496337890625,0
911.9240000000009,-0.015458186157047749,-0.010101178660988808,-5.2646519179688767e-05,0.0,0.0,0.0,0.0,0.0021260965149849653,-0.00010457547614350915,0.0025497479364275932,1.0003747940063477,0.0,0.0,0.0,-6.014547348022461,0.7326176762580872,4.669004917144775,1088.64501953125,0
921.8500000000004,-0.0155204888433218,-0.01015610620379448,-5.71132950426545e-05,0.0,0.0,0.0,0.0,0.001831762958317995,0.0012923779431730509,0.0005558757111430168,0.9978888034820557,0.0,0.0,0.0,-6.0220046043396,0.7202339172363281,4.6602582931518555,1089.994873046875,0
931.7490000000016,-0.01546503696590662,-0.010158493183553219,-2.662066981429234e-05,0.0,0.0,0.0,0.0,0.0004956157645210624,0.0027553050313144922,0.003214665688574314,0.9993928670883179,0.0,0.0,0.0,-6.023291110992432,0.7179626226425171,4.675670623779297,1090.227783203125,0
941.6710000000003,-0.015480841509997845,-0.010170919820666313,-7.52083578845486e-05,0.0,0.0,0.0,0.0,-0.0016564162215217948,-0.0007971841841936111,0.0015658611664548516,0.9998296499252319,0.0,0.0,0.0,-6.016036510467529,0.7152757048606873,4.6702728271484375,1088.91455078125,0
951.5740000000005,-0.015443624928593636,-0.010153910145163536,-4.0837003325577825e-05,0.0,0.0,0.0,0.0,5.972776125418022e-05,-0.0006164403166621923,-0.001659517060033977,0.9992889165878296,0.0,0.0,0.0,-6.016870021820068,0.723023533821106,4.676283836364746,1089.0654296875,0
961.4990000000016,-0.015503349713981152,-0.010205063037574291,-4.706981053459458e-05,0.0,0.0,0.0,0.0,0.0012458774726837873,0.0013570156879723072,0.004277566447854042,0.9983556270599365,0.0,0.0,0.0,-6.025632381439209,0.713570237159729,4.666500568389893,1090.6514892578125,0
971.4000000000015,-0.015545911155641079,-0.010202771052718163,-5.615055488306098e-05,0.0,0.0,0.0,0.0,0.00032746538636274636,0.002694912487640977,0.0014449883019551635,0.9984884858131409,0.0,0.0,0.0,-6.018488883972168,0.7091618776321411,4.6661787033081055,1089.3585205078125,0
981.3220000000001,-0.015567077323794365,-0.010201966390013695,-9.975060675060377e-05,0.0,0.0,0.0,0.0,-0.0025139686185866594,-0.0010445539373904467,-0.0013417716836556792,1.0002903938293457,0.0,0.0,0.0,-6.028410911560059,0.7062088251113892,4.660418510437012,1091.154296875,0
991.2240000000002,-0.01537302229553461,-0.01023562066257,2.7480287826620042e-05,0.0,0.0,0.0,0.0,0.002652024617418647,0.00018121642642654479,0.0018053296953439713,0.9995979070663452,0.0,0.0,0.0,-6.028422832489014,0.7136937379837036,4.714223384857178,1091.156494140625,0
1001.148000000001,-0.015375328250229359,-0.010246256366372108,-2.647025030455552e-05,0.0,0.0,0.0,0.0,7.3355381573492195e-06,0.0018646324751898646,-0.00238366168923676,0.9999982118606567,0.0,0.0,0.0,-6.03554630279541,0.7145185470581055,4.720655918121338,1092.44580078125,0
1011.0490000000009,-0.015310815535485744,-0.010237706825137138,2.5654966520960443e-05,0.0,0.0,0.0,0.0,-0.0005344136734493077,0.0034086345694959164,-0.000595962512306869,0.9983791708946228,0.0,0.0,0.0,-6.029441833496094,0.7117812633514404,4.7160444259643555,1091.3409423828125,0
1020.969000000001,-0.015355180948972702,-0.010280693881213665,2.4407661840086803e-05,0.0,0.0,0.0,0.0,0.0008455257629975677,-0.0033831235487014055,0.0020025018602609634,0.9987110495567322,0.0,0.0,0.0,-6.036942005157471,0.7041354179382324,4.700826644897461,1092.6986083984375,0
1030.875,-0.015401373617351055,-0.010241366922855377,4.550376979750581e-05,0.0,0.0,0.0,0.0,0.0019778632558882236,0.0063709113746881485,-0.002899276092648506,1.0005192756652832,0.0,0.0,0.0,-6.029829025268555,0.7038249969482422,4.700370788574219,1091.4110107421875,0
1040.8010000000013,-0.015428869985044003,-0.010259768925607204,2.520441557862796e-05,0.0,0.0,0.0,0.0,0.0018395769875496626,0.0038543210830539465,-0.00022858369629830122,0.9998683333396912,0.0,0.0,0.0,-6.0398054122924805,0.6978440880775452,4.677682399749756,1093.2169189453125,0
1050.6980000000003,-0.015449249185621738,-0.010232994332909584,4.871976125286892e-05,0.0,0.0,0.0,0.0,-0.0012267882702872157,0.0006687980494461954,-0.0017980667762458324,0.9998409748077393,0.0,0.0,0.0,-6.040179252624512,0.7028639316558838,4.663158416748047,1093.2845458984375,0
1060.6190000000006,-0.015465786680579185,-0.010233732871711254,2.002865403483156e-05,0.0,0.0,0.0,0.0,0.0002052858762908727,-0.00014460846432484686,0.0005164823960512877,0.9989381432533264,0.0,0.0,0.0,-6.050961017608643,0.7032899260520935,4.66198205947876,1095.2359619140625,0
1070.5240000000013,-0.015493936836719513,-0.010166680440306664,6.495907291537151e-05,0.0,0.0,0.0,0.0,0.0012015312677249312,-0.0025739402044564486,-0.003958412446081638,0.9993665814399719,0.0,0.0,0.0,-6.0439252853393555,0.7006555795669556,4.664028644561768,1093.96240234375,0
1080.4490000000005,-0.015475972555577755,-0.010177412070333958,-1.480687569710426e-05,0.0,0.0,0.0,0.0,0.0011868816800415516,-0.0015919896541163325,-0.003933836705982685,1.0006415843963623,0.0,0.0,0.0,-6.057462692260742,0.698946475982666,4.6681389808654785,1096.4127197265625,0
1090.3590000000004,-0.015492072328925133,-0.01013940665870905,1.1716394510585815e-05,0.0,0.0,0.0,0.0,-0.0003433584643062204,-0.0014057009248062968,0.00018346008437220007,1.0009772777557373,0.0,0.0,0.0,-6.052366256713867,0.6979508399963379,4.664567947387695,1095.4903564453125,0
1100.2670000000016,-0.015447993762791157,-0.01009468361735344,-8.303769573103637e-05,0.0,0.0,0.0,0.0,0.0012969854287803173,-0.0035880792420357466,0.003980051260441542,0.9998796582221985,0.0,0.0,0.0,-6.052525043487549,0.7081516981124878,4.6774163246154785,1095.5191650390625,0
1110.183000000001,-0.015485984273254871,-0.010051843710243702,-6.821908755227923e-05,0.0,0.0,0.0,0.0,0.002334804506972432,-0.0017483955016359687,0.004535876214504242,0.9992146492004395,0.0,0.0,0.0,-6.046011924743652,0.7066263556480408,4.678617000579834,1094.3402099609375,0
1120.0970000000016,-0.015498780645430088,-0.010052177123725414,-0.00011454272316768765,0.0,0.0,0.0,0.0,-0.0011073194909840822,-0.0017856670310720801,-0.0024358334485441446,0.9971722960472107,0.0,0.0,0.0,-6.0495429039001465,0.7022333145141602,4.678897380828857,1094.979248046875,0
1129.9980000000014,-0.015458519570529461,-0.010046884417533875,-9.671608859207481e-05,0.0,0.0,0.0,0.0,8.244662603829056e-05,0.0008416963391937315,0.0033207822125405073,0.9981762766838074,0.0,0.0,0.0,-6.051178455352783,0.7030797004699707,4.6855788230896,1095.275390625,0
1139.916000000001,-0.01547756977379322,-0.010052002035081387,-0.00013611227041110396,0.0,0.0,0.0,0.0,0.00025341741275042295,7.436025771312416e-05,0.0015015017706900835,1.0013067722320557,0.0,0.0,0.0,-6.056221008300781,0.7081940174102783,4.686850547790527,1096.18798828125,0
1149.8220000000001,-0.015437029302120209,-0.01004390325397253,-0.000118720177852083,0.0,0.0,0.0,0.0,-0.00027059140847995877,0.001149605493992567,-0.002034500241279602,0.9993404746055603,0.0,0.0,0.0,-6.049994945526123,0.7090968489646912,4.674014091491699,1095.06103515625,0
1159.7540000000008,-0.01547105610370636,-0.010093634948134422,-0.00015290042210835963,0.0,0.0,0.0,0.0,-0.0034675528295338154,0.0048114531673491,0.0007607584120705724,1.0006160736083984,0.0,0.0,0.0,-6.056050777435303,0.6944774389266968,4.661679267883301,1096.1572265625,0
1169.6460000000006,-0.01543106697499752,-0.01009034737944603,-0.00013458359171636403,0.0,0.0,0.0,0.0,0.0009205504320561886,-0.0018101816531270742,0.0022739546839147806,1.001389980316162,0.0,0.0,0.0,-6.049694061279297,0.6952154040336609,4.645721912384033,1095.0067138671875,0
1179.5690000000013,-0.01554745715111494,-0.01020702626556158,-8.307937969220802e-05,0.0,0.0,0.0,0.0,0.002202739706262946,-0.0003933300613425672,-0.001541957724839449,0.9999960064888,0.0,0.0,0.0,-6.0556488037109375,0.6698622107505798,4.638883113861084,1096.0843505859375,0
1189.4770000000008,-0.015386505983769894,-0.010202967561781406,-7.559601726825349e-06,0.0,0.0,0.0,0.0,-0.0016229385510087013,6.602136272704229e-05,-0.0011156818363815546,0.9999134540557861,0.0,0.0,0.0,-6.056852340698242,0.6666773557662964,4.668026924133301,1096.30224609375,0
1199.3910000000014,-0.015432975254952908,-0.010223432444036007,4.016610546386801e-06,0.0,0.0,0.0,0.0,0.0020572147332131863,0.0012905339244753122,-0.0028351638466119766,1.0000066757202148,0.0,0.0,0.0,-6.050808429718018,0.6683573126792908,4.662275314331055,1095.208251953125,0
1209.3029999999999,-0.015349659137427807,-0.010202116332948208,6.970333197386935e-05,0.0,0.0,0.0,0.0,4.5893433707533404e-05,-0.0006263437680900097,-0.003718835534527898,0.9987333416938782,0.0,0.0,0.0,-6.052319526672363,0.6744317412376404,4.679436683654785,1095.48193359375,0
1219.2130000000016,-0.015395000576972961,-0.01023039035499096,8.10378696769476e-05,0.0,0.0,0.0,0.0,0.0020268363878130913,-0.0011055327486246824,0.0035443599335849285,0.9973659515380859,0.0,0.0,0.0,-6.047426700592041,0.6784699559211731,4.680330276489258,1094.59619140625,0
1229.1360000000004,-0.015348568558692932,-0.010229932144284248,0.00011905912833753973,0.0,0.0,0.0,0.0,-0.0030817065853625536,0.00039528051274828613,0.0006442501908168197,0.9966844916343689,0.0,0.0,0.0,-6.046210765838623,0.6754522919654846,4.692472457885742,1094.3760986328125,0
1239.045,-0.01538333110511303,-0.010252756997942924,0.00011543429718585685,0.0,0.0,0.0,0.0,-0.0015120048774406314,-0.0009953402914106846,0.0020545637235045433,0.9983994364738464,0.0,0.0,0.0,-6.0476202964782715,0.6757501363754272,4.683063983917236,1094.63134765625,0
1248.9560000000001,-0.01535387709736824,-0.010239134542644024,0.00015334569616243243,0.0,0.0,0.0,0.0,0.0027199552860111,0.0023206069599837065,0.001575454487465322,0.999455451965332,0.0,0.0,0.0,-6.048803329467773,0.6846556067466736,4.6862263679504395,1094.845458984375,0
1258.8590000000004,-0.015335772186517715,-0.010189071297645569,0.00010463869693921879,0.0,0.0,0.0,0.0,0.000610116811003536,-0.0019773186650127172,-0.00017953250790014863,1.000287413597107,0.0,0.0,0.0,-6.042156219482422,0.680659830570221,4.677341938018799,1093.6422119140625,0
1268.777,-0.015313232317566872,-0.010165232233703136,0.0001410744880558923,0.0,0.0,0.0,0.0,-0.0006075963610783219,-0.000138601622893475,-0.0031331300269812346,0.9991958141326904,0.0,0.0,0.0,-6.043656349182129,0.684583306312561,4.691483974456787,1093.913818359375,0
1278.6850000000013,-0.015358314849436283,-0.010207387618720531,0.00013520536595024168,0.0,0.0,0.0,0.0,0.0014805198879912496,-0.0014431093586608768,0.0015705720288679004,0.9997378587722778,0.0,0.0,0.0,-6.054693698883057,0.6795872449874878,4.687288284301758,1095.9114990234375,0
1288.6170000000002,-0.015431626699864864,-0.010194877162575722,0.00013228140596766025,0.0,0.0,0.0,0.0,0.001513608847744763,-8.173427340807393e-05,-0.0005562878795899451,1.0007950067520142,0.0,0.0,0.0,-6.047831058502197,0.6779230833053589,4.688161849975586,1094.66943359375,0
1298.5160000000014,-0.015410687774419785,-0.010188101790845394,5.41674489795696e-05,0.0,0.0,0.0,0.0,-0.002069876529276371,0.0010879648616537452,0.002721430966630578,1.001373052597046,0.0,0.0,0.0,-6.053826332092285,0.679836630821228,4.691155433654785,1095.754638671875,0
1308.4310000000005,-0.015457576140761375,-0.010175888426601887,6.0061662225052714e-05,0.0,0.0,0.0,0.0,0.0007640568073838949,-0.0034569846466183662,0.0007918060873635113,1.002446174621582,0.0,0.0,0.0,-6.0541229248046875,0.6902477145195007,4.680891990661621,1095.8082275390625,0
1318.3330000000005,-0.015441439114511013,-0.01013215258717537,5.751198841608129e-07,0.0,0.0,0.0,0.0,0.0023328526876866817,0.0016108355484902859,-0.0008042770205065608,1.0003379583358765,0.0,0.0,0.0,-6.054014682769775,0.6979866623878479,4.688179016113281,1095.7886962890625,0
1328.2520000000004,-0.0155446482822299,-0.01010048482567072,-5.708611752197612e-06,0.0,0.0,0.0,0.0,0.001989931333810091,0.0011796734761446714,0.001086138072423637,0.9997273087501526,0.0,0.0,0.0,-6.055551052093506,0.6950088739395142,4.669727325439453,1096.066650390625,0
1338.1689999999999,-0.015535635873675346,-0.01006283424794674,-6.598893378395587e-05,0.0,0.0,0.0,0.0,-0.0013928350526839495,-0.003824098501354456,0.003506266977638006,0.9995326399803162,0.0,0.0,0.0,-6.049236297607422,0.6890105605125427,4.663415908813477,1094.9237060546875,0
1348.0770000000011,-0.015471802093088627,-0.010079641826450825,-4.315921978559345e-05,0.0,0.0,0.0,0.0,5.001847239327617e-05,0.0029720154125243425,0.0007439207402057946,1.0004669427871704,0.0,0.0,0.0,-6.048984050750732,0.6918179392814636,4.690446376800537,1094.878173828125,0
1357.9860000000008,-0.015476823784410954,-0.010072234086692333,-9.86004524747841e-05,0.0,0.0,0.0,0.0,-0.0005747299292124808,-0.0024845916777849197,0.0016288984334096313,1.0007562637329102,0.0,0.0,0.0,-6.055161952972412,0.6923694610595703,4.689464092254639,1095.996337890625,0
1367.898000000001,-0.015437840484082699,-0.010073072277009487,-7.588764856336638e-05,0.0,0.0,0.0,0.0,-0.00045336029143072665,0.00016192503971979022,-0.0015158465830609202,1.0009487867355347,0.0,0.0,0.0,-6.049061298370361,0.6949266195297241,4.690597057342529,1094.89208984375,0
1377.8070000000007,-0.01551034301519394,-0.010143531486392021,-7.405675569316372e-05,0.0,0.0,0.0,0.0,-0.00016665594012010843,-3.9627546357223764e-05,-0.0023759431205689907,0.9996030330657959,0.0,0.0,0.0,-6.056596755981445,0.6837722659111023,4.680983066558838,1096.256103515625,0
1387.7220000000016,-0.01547450851649046,-0.0101467901840806,-4.507452831603587e-05,0.0,0.0,0.0,0.0,0.00022914097644388676,0.0027121405582875013,-0.003909448627382517,0.9975242018699646,0.0,0.0,0.0,-6.050849914550781,0.6791649460792542,4.6768903732299805,1095.2158203125,0
1397.6310000000012,-0.015533193945884705,-0.010173498652875423,-4.5986838813405484e-05,0.0,0.0,0.0,0.0,-0.000999567098915577,-0.0011310315458104014,-0.0011057507945224643,0.998113751411438,0.0,0.0,0.0,-6.046400547027588,0.6780762076377869,4.6698737144470215,1094.4105224609375,0
1407.5520000000015,-0.0154768917709589,-0.010178088210523129,-6.581700745300623e-06,0.0,0.0,0.0,0.0,-0.00020521832630038261,0.0010651648044586182,0.0019452435662969947,0.9966258406639099,0.0,0.0,0.0,-6.047014236450195,0.677953839302063,4.685956001281738,1094.5216064453125,0
1417.4630000000016,-0.01552531123161316,-0.010209811851382256,-2.3127788153942674e-05,0.0,0.0,0.0,0.0,0.002849132753908634,0.003864075057208538,-0.0021058127749711275,0.9971145987510681,0.0,0.0,0.0,-6.055789470672607,0.6697289943695068,4.6765875816345215,1096.10986328125,0
1427.3760000000002,-0.015475810505449772,-0.010208911262452602,1.6296375179081224e-05,0.0,0.0,0.0,0.0,-0.00011407749843783677,-0.0024413762148469687,0.0036245444789528847,0.9989461898803711,0.0,0.0,0.0,-6.0509843826293945,0.663911759853363,4.66694974899292,1095.2401123046875,0
1437.2890000000007,-0.015515916049480438,-0.010231871157884598,-7.700456990278326e-06,0.0,0.0,0.0,0.0,-0.0017682828474789858,-0.0008665067725814879,-0.0015917913988232613,1.0027849674224854,0.0,0.0,0.0,-6.058355331420898,0.6601821184158325,4.672829627990723,1096.5743408203125,0
1447.1940000000013,-0.015437090769410133,-0.010214291512966156,5.453360790852457e-05,0.0,0.0,0.0,0.0,-0.0006837659166194499,-0.004349424038082361,0.0013760868459939957,1.0005996227264404,0.0,0.0,0.0,-6.0529704093933105,0.6634820103645325,4.667740821838379,1095.5997314453125,0
1457.1100000000006,-0.015441943891346455,-0.010212437249720097,1.453822278563166e-06,0.0,0.0,0.0,0.0,-0.0006459071883000433,0.001157107064500451,-0.0034257194492965937,0.9987080693244934,0.0,0.0,0.0,-6.046090602874756,0.6632789373397827,4.678332805633545,1094.3543701171875,0
1467.0260000000017,-0.015446730889379978,-0.010204014368355274,2.6650224754121155e-05,0.0,0.0,0.0,0.0,0.0008201238815672696,0.003166322596371174,-0.0028369000647217035,0.9982221126556396,0.0,0.0,0.0,-6.039981842041016,0.665101945400238,4.669828414916992,1093.2486572265625,0
1476.934000000001,-0.015495591796934605,-0.01021514367312193,1.8161346815759316e-05,0.0,0.0,0.0,0.0,0.000650346337351948,0.003362923627719283,-0.004049733746796846,0.9989194869995117,0.0,0.0,0.0,-6.033761501312256,0.6629202961921692,4.654424667358398,1092.122802734375,0
1486.8600000000006,-0.015453347004950047,-0.010196077637374401,6.86702987877652e-05,0.0,0.0,0.0,0.0,-0.0012895985273644328,0.0011581159196794033,-0.001794225536286831,0.9982918500900269,0.0,0.0,0.0,-6.028052806854248,0.6591426730155945,4.642119884490967,1091.089599609375,0
1496.7560000000012,-0.015454343520104885,-0.010202877223491669,-3.258614924561698e-07,0.0,0.0,0.0,0.0,0.0007122706738300622,0.002054550452157855,-0.0025598155334591866,0.9992805123329163,0.0,0.0,0.0,-6.036771774291992,0.6645233631134033,4.642449378967285,1092.6676025390625,0
1506.675000000001,-0.015385906212031841,-0.010199821554124355,4.464386074687354e-05,0.0,0.0,0.0,0.0,0.0023154793307185173,-0.005332170054316521,0.000409921194659546,0.9979402422904968,0.0,0.0,0.0,-6.038568019866943,0.6664875149726868,4.652978897094727,1092.992919921875,0
1516.585000000001,-0.0153976920992136,-0.01017397828400135,4.139970769756474e-06,0.0,0.0,0.0,0.0,0.00345822935923934,0.0008338253246620297,0.003685060190036893,0.9987208843231201,0.0,0.0,0.0,-6.033086776733398,0.6628687381744385,4.653336048126221,1092.000732421875,0
1526.5080000000016,-0.0154344467446208,-0.010159537196159363,1.3525987014872953e-05,0.0,0.0,0.0,0.0,0.0009653212619014084,0.004991583526134491,-0.00030942013836465776,0.9978857040405273,0.0,0.0,0.0,-6.025225639343262,0.6551178693771362,4.6396708488464355,1090.577880859375,0
1536.4080000000013,-0.015445176512002945,-0.010179738514125347,-5.6277087423950434e-05,0.0,0.0,0.0,0.0,0.0018433636287227273,0.0006170514971017838,-0.00013154455518815666,0.9988946318626404,0.0,0.0,0.0,-6.033628940582275,0.6520883440971375,4.63032865524292,1092.098876953125,0
1546.33,-0.015455679036676884,-0.010163125582039356,-4.0687769796932116e-05,0.0,0.0,0.0,0.0,0.0003372822829987854,-0.0009710220037959516,-0.0011850271839648485,1.0006558895111084,0.0,0.0,0.0,-6.034934997558594,0.6507540941238403,4.6314167976379395,1092.335205078125,0
1556.232,-0.015471549704670906,-0.0101777957752347,-0.0001077834313036874,0.0,0.0,0.0,0.0,0.00195993366651237,0.0011218643048778176,0.0033612726256251335,1.00162935256958,0.0,0.0,0.0,-6.042704105377197,0.6463190913200378,4.631608486175537,1093.741455078125,0
1566.161,-0.015470809303224087,-0.01016498263925314,-8.843832620186731e-05,0.0,0.0,0.0,0.0,0.0035889882128685713,-0.004006007220596075,-0.0019843089394271374,0.9986169934272766,0.0,0.0,0.0,-6.044760704040527,0.6508973240852356,4.629918098449707,1094.1136474609375,0
1576.0550000000003,-0.015537215396761894,-0.010193522088229656,-9.271833550883457e-05,0.0,0.0,0.0,0.0,-0.001120774308219552,0.0020932031329721212,-0.0018851922359317541,0.9983459115028381,0.0,0.0,0.0,-6.047123908996582,0.6460925340652466,4.629055023193359,1094.5413818359375,0
1585.9750000000004,-0.01545078493654728,-0.010158905759453773,-2.0267489162506536e-05,0.0,0.0,0.0,0.0,-0.0003450346121098846,0.002234574407339096,-0.0042789694853127,0.9999606609344482,0.0,0.0,0.0,-6.048546314239502,0.6605075597763062,4.642070770263672,1094.798828125,0
1595.880000000001,-0.015509202145040035,-0.010181201621890068,-2.5748962798388675e-05,0.0,0.0,0.0,0.0,0.0024779844097793102,0.003025318728759885,0.0007869179244153202,0.9990054965019226,0.0,0.0,0.0,-6.043877124786377,0.6602411270141602,4.623380661010742,1093.953857421875,0
1605.8050000000003,-0.015479943715035915,-0.010177026502788067,7.740640285192057e-06,0.0,0.0,0.0,0.0,0.0011135120876133442,0.003656023647636175,-0.0016090479912236333,0.999133825302124,0.0,0.0,0.0,-6.04535436630249,0.66157066822052,4.621894359588623,1094.2210693359375,0
1615.7040000000015,-0.015515806153416634,-0.010166872292757034,-1.3547080015996471e-05,0.0,0.0,0.0,0.0,-0.0012967092916369438,0.0028374348767101765,-0.0009751414763741195,0.9991847276687622,0.0,0.0,0.0,-6.054347515106201,0.6637324094772339,4.613855361938477,1095.848876953125,0
1625.6270000000004,-0.015409974381327629,-0.010149700567126274,5.84178305871319e-05,0.0,0.0,0.0,0.0,0.0015589429531246424,-0.0055592842400074005,0.0032801623456180096,1.0000194311141968,0.0,0.0,0.0,-6.048693656921387,0.6650835275650024,4.601589679718018,1094.8255615234375,0
1635.532000000001,-0.015465963631868362,-0.010199576616287231,4.5814300392521545e-05,0.0,0.0,0.0,0.0,0.001097874017432332,-0.000484610500279814,-0.004282980691641569,1.0007469654083252,0.0,0.0,0.0,-6.058579921722412,0.654366672039032,4.607778549194336,1096.614990234375,0
1645.4540000000015,-0.015483807772397995,-0.01018553040921688,7.061999349389225e-05,0.0,0.0,0.0,0.0,-0.0021920918952673674,0.0013348344946280122,-0.000479123234981671,1.001499056816101,0.0,0.0,0.0,-6.061417579650879,0.6540163159370422,4.609694480895996,1097.128662109375,0
1655.3600000000006,-0.01551537774503231,-0.01018432155251503,4.076219192938879e-05,0.0,0.0,0.0,0.0,0.0005506923189386725,0.0035587556194514036,0.004421633202582598,1.0013484954833984,0.0,0.0,0.0,-6.055006504058838,0.6591551899909973,4.60109806060791,1095.96826171875,0
1665.2750000000015,-0.015491662546992302,-0.010183197446167469,7.394170825136825e-05,0.0,0.0,0.0,0.0,-0.002081426326185465,0.0010871815029531717,0.001633065054193139,0.998334527015686,0.0,0.0,0.0,-6.053715229034424,0.6540002226829529,4.605465412139893,1095.734375,0
1675.179,-0.015536431223154068,-0.010240348055958748,3.988885146100074e-05,0.0,0.0,0.0,0.0,0.003470411989837885,-0.0018467844929546118,0.0020198391284793615,0.9992245435714722,0.0,0.0,0.0,-6.06361722946167,0.6434105038642883,4.6015825271606445,1097.5267333984375,0
1685.1100000000006,-0.01548530999571085,-0.01023873034864664,8.530439663445577e-05,0.0,0.0,0.0,0.0,0.00010424926585983485,0.0016631718026474118,-0.0010401757899671793,0.999240517616272,0.0,0.0,0.0,-6.057881832122803,0.6348332166671753,4.595094203948975,1096.4886474609375,0
1695.014000000001,-0.015512269921600819,-0.0102215725928545,5.7973607908934355e-05,0.0,0.0,0.0,0.0,0.0021226871758699417,-0.005867760628461838,5.59771251573693e-05,0.9998835325241089,0.0,0.0,0.0,-6.052173137664795,0.63284832239151,4.584035396575928,1095.455322265625,0
1704.929,-0.015487190335988998,-0.01021185889840126,9.646042599342763e-05,0.0,0.0,0.0,0.0,0.0013108059065416455,0.00440539326518774,-0.0009197096223942935,0.9996626973152161,0.0,0.0,0.0,-6.046500205993652,0.6260184049606323,4.589207172393799,1094.4285888671875,0
1714.8340000000007,-0.015511722303926945,-0.010211421176791191,6.110320100560784e-05,0.0,0.0,0.0,0.0,0.0010970219736918807,-0.0002923281863331795,0.0011686726938933134,0.9995221495628357,0.0,0.0,0.0,-6.047369480133057,0.6239768862724304,4.576057434082031,1094.5858154296875,0
1724.7540000000008,-0.01547032967209816,-0.010220879688858986,9.501058957539499e-05,0.0,0.0,0.0,0.0,0.002988693304359913,-0.000665578234475106,0.002597249113023281,0.9991277456283569,0.0,0.0,0.0,-6.0419182777404785,0.62431800365448,4.5661516189575195,1093.59912109375,0
1734.6540000000005,-0.015493487007915974,-0.010227043181657791,5.6187109294114634e-05,0.0,0.0,0.0,0.0,0.00043485156493261456,-0.0019425764912739396,-0.0008422132232226431,0.9972345232963562,0.0,0.0,0.0,-6.048632621765137,0.6189458966255188,4.560432434082031,1094.814453125,0
1744.5730000000003,-0.015544707886874676,-0.010229756124317646,5.2049621444894e-05,0.0,0.0,0.0,0.0,0.0008631403325125575,8.744754450162873e-05,-0.0028245234861969948,1.0001057386398315,0.0,0.0,0.0,-6.041996479034424,0.6159294843673706,4.554191589355469,1093.61328125,0
1754.4890000000014,-0.015515581704676151,-0.01015319861471653,-2.55196682701353e-05,0.0,0.0,0.0,0.0,0.0014557224931195378,-0.0009774394566193223,-0.0006928183138370514,0.9992178082466125,0.0,0.0,0.0,-6.0423126220703125,0.6431244015693665,4.578548431396484,1093.670654296875,0
1764.4030000000002,-0.01556420885026455,-0.01015093456953764,-3.696742714964785e-05,0.0,0.0,0.0,0.0,-0.0007541094673797488,-0.0021654705051332712,0.0036391662433743477,0.9997366070747375,0.0,0.0,0.0,-6.036636829376221,0.6415112018585205,4.574705600738525,1092.643310546875,0
1774.3029999999999,-0.015515295788645744,-0.010111256502568722,-0.0001538045034976676,0.0,0.0,0.0,0.0,0.0033596998546272516,0.0045760627835989,-0.0069940476678311825,0.9993770122528076,0.0,0.0,0.0,-6.042392730712891,0.6642839312553406,4.61692476272583,1093.6851806640625,0
1784.2240000000002,-0.015556646510958672,-0.010105274617671967,-0.00017461982497479767,0.0,0.0,0.0,0.0,-0.0017350149573758245,0.005903183948248625,-0.0003326373116578907,0.9985153675079346,0.0,0.0,0.0,-6.038370609283447,0.662575900554657,4.608697891235352,1092.95703125,0
1794.1270000000004,-0.015523700043559074,-0.010080910287797451,-0.00026860483922064304,0.0,0.0,0.0,0.0,0.002200145972892642,-0.0027403789572417736,0.0018860051641240716,1.001732349395752,0.0,0.0,0.0,-6.04302978515625,0.6759404540061951,4.63075590133667,1093.8004150390625,0
1804.0610000000015,-0.015555670484900475,-0.010071828030049801,-0.00029583211289718747,0.0,0.0,0.0,0.0,-0.002261689631268382,-0.0011611448135226965,0.0008932824130170047,1.0012857913970947,0.0,0.0,0.0,-6.036994934082031,0.6672431826591492,4.633547306060791,1092.7080078125,0
1813.9530000000013,-0.015571816824376583,-0.010047982446849346,-0.00032960265525616705,0.0,0.0,0.0,0.0,-0.002832383383065462,0.0023671716917306185,-0.00036164108314551413,0.997366726398468,0.0,0.0,0.0,-6.041297912597656,0.6766198873519897,4.641019344329834,1093.4869384765625,0
1823.8720000000012,-0.015604212880134583,-0.010038555599749088,-0.00035641351132653654,0.0,0.0,0.0,0.0,8.672814146848395e-05,0.001064015319570899,-0.0029363331850618124,0.998043954372406,0.0,0.0,0.0,-6.03547477722168,0.6804437041282654,4.631547927856445,1092.4329833984375,0
1833.7780000000002,-0.01567624695599079,-0.010054047219455242,-0.00037781315040774643,0.0,0.0,0.0,0.0,0.001921237213537097,-0.0008832114981487393,0.004882320761680603,0.9991870522499084,0.0,0.0,0.0,-6.048154830932617,0.6656308174133301,4.611672401428223,1094.7281494140625,0
1843.7090000000007,-0.015716534107923508,-0.010049962438642979,-0.0004069305141456425,0.0,0.0,0.0,0.0,-0.0019130008295178413,-0.0015181112103164196,0.004042673856019974,0.9989783763885498,0.0,0.0,0.0,-6.041207313537598,0.6635957360267639,4.613288402557373,1093.470458984375,0
1853.6040000000012,-0.01577719859778881,-0.01006704568862915,-0.0004374035925138742,0.0,0.0,0.0,0.0,-0.004144643433392048,0.0013610892929136753,-0.0005103612784296274,0.9961290955543518,0.0,0.0,0.0,-6.050192832946777,0.6583617329597473,4.611855506896973,1095.096923828125,0
1863.5250000000015,-0.015820885077118874,-0.010066132992506027,-0.00046929196105338633,0.0,0.0,0.0,0.0,-0.0020562419667840004,0.0006072928663343191,0.0016104776877909899,0.9982967376708984,0.0,0.0,0.0,-6.044628620147705,0.6635546088218689,4.60797119140625,1094.08984375,0
1873.4279999999999,-0.0158657506108284,-0.01006539911031723,-0.0005035686772316694,0.0,0.0,0.0,0.0,-0.0005423754337243736,0.0045071071945130825,0.00030437170062214136,0.9990718960762024,0.0,0.0,0.0,-6.037985801696777,0.6638097167015076,4.604677677154541,1092.887451171875,0
1883.348,-0.01591137796640396,-0.010064713656902313,-0.0005390184232965112,0.0,0.0,0.0,0.0,-0.000949048378970474,0.00027103981119580567,0.000641621183604002,0.9995322823524475,0.0,0.0,0.0,-6.032614707946777,0.6633416414260864,4.598419189453125,1091.915283203125,0
1893.2560000000012,-0.01594208925962448,-0.010050173848867416,-0.0005819048383273184,0.0,0.0,0.0,0.0,0.0017865807749330997,0.0010441738413646817,0.0011995340464636683,1.0000660419464111,0.0,0.0,0.0,-6.050573825836182,0.6679319739341736,4.604223251342773,1095.1658935546875,0
1903.1710000000003,-0.015990786254405975,-0.01004637312144041,-0.0006189441774040461,0.0,0.0,0.0,0.0,0.00048614267143420875,-0.0015761875547468662,0.0014402983943000436,1.0000871419906616,0.0,0.0,0.0,-6.04478645324707,0.6621615886688232,4.603961944580078,1094.1182861328125,0
1913.0820000000003,-0.0159838255494833,-0.00998453889042139,-0.0006604299414902925,0.0,0.0,0.0,0.0,0.003359430469572544,-0.0003957680892199278,0.0011005208361893892,1.000306487083435,0.0,0.0,0.0,-6.044448375701904,0.6846004724502563,4.621434688568115,1094.0572509765625,0
1922.9970000000012,-0.016034450381994247,-0.009976052679121494,-0.0006981673650443554,0.0,0.0,0.0,0.0,0.00218623923137784,0.0019197722431272268,8.449802407994866e-05,0.9980723261833191,0.0,0.0,0.0,-6.039148807525635,0.6826558113098145,4.6139702796936035,1093.097900390625,0
1932.9010000000017,-0.016027919948101044,-0.00992645975202322,-0.0007564151892438531,0.0,0.0,0.0,0.0,0.0006071767420507967,0.0030975632835179567,0.003389319870620966,0.9998130798339844,0.0,0.0,0.0,-6.050254821777344,0.699380099773407,4.622323036193848,1095.108154296875,0
1942.8140000000003,-0.016078660264611244,-0.009912459179759026,-0.0007981531671248376,0.0,0.0,0.0,0.0,-0.0020335018634796143,0.0021922364830970764,0.0008128813933581114,0.9979655742645264,0.0,0.0,0.0,-6.044096946716309,0.6970205307006836,4.611164569854736,1093.9935302734375,0
1952.728000000001,-0.016130955889821053,-0.009897582232952118,-0.0008409514557570219,0.0,0.0,0.0,0.0,0.002863761270418763,0.0047941976226866245,0.00263866875320673,1.0004615783691406,0.0,0.0,0.0,-6.038327217102051,0.7010102272033691,4.604637622833252,1092.9493408203125,0
1962.6490000000013,-0.016185440123081207,-0.00988180935382843,-0.000884553708601743,0.0,0.0,0.0,0.0,0.0008669765666127205,0.002415972063317895,0.0012932909885421395,0.9999057650566101,0.0,0.0,0.0,-6.032585620880127,0.6976967453956604,4.5897321701049805,1091.9100341796875,0
1972.5560000000005,-0.016242148354649544,-0.009866329841315746,-0.0009281192906200886,0.0,0.0,0.0,0.0,0.0005235799471847713,-0.0006466376362368464,0.0038530610036104918,1.0000865459442139,0.0,0.0,0.0,-6.02559232711792,0.6947273015975952,4.582327365875244,1090.6441650390625,0
1982.4790000000012,-0.015451483428478241,-0.010181923396885395,-0.00012813706416636705,0.0,0.0,0.0,0.0,-0.001761007122695446,-0.0003645602846518159,7.841143815312535e-05,0.9988769888877869,0.0,0.0,0.0,-6.02731466293335,0.6719303131103516,4.711450576782227,1090.9560546875,0
1992.375,-0.01547638513147831,-0.010176059789955616,-0.00013905687956139445,0.0,0.0,0.0,0.0,-0.001476332196034491,-0.0018849184270948172,-0.003718484425917268,1.0004374980926514,0.0,0.0,0.0,-6.0209269523620605,0.6782662868499756,4.711167335510254,1089.7998046875,0
2002.3029999999999,-0.015398841351270676,-0.010145872831344604,-3.6627745430450886e-05,0.0,0.0,0.0,0.0,0.0009431444341316819,-0.0038639709819108248,0.000709808780811727,1.000692367553711,0.0,0.0,0.0,-6.026920795440674,0.6961899399757385,4.726200103759766,1090.8846435546875,0
2012.2000000000007,-0.015425761230289936,-0.01013803482055664,-4.1182815039064735e-05,0.0,0.0,0.0,0.0,-0.0035789920948445797,0.004051698371767998,0.003948849625885487,0.9979046583175659,0.0,0.0,0.0,-6.020121097564697,0.6920849680900574,4.728085994720459,1089.6539306640625,0
2022.1350000000002,-0.015454265289008617,-0.010131608694791794,-4.611146141542122e-05,0.0,0.0,0.0,0.0,-0.0015020406572148204,-0.0028167441487312317,-0.0031955621670931578,0.9979742169380188,0.0,0.0,0.0,-6.012819290161133,0.6980879306793213,4.717051982879639,1088.332275390625,0
2032.0260000000017,-0.015483671799302101,-0.010126090608537197,-5.263121420284733e-05,0.0,0.0,0.0,0.0,-0.0037701264955103397,0.0021740682423114777,-0.0011016628704965115,1.0000245571136475,0.0,0.0,0.0,-6.007506370544434,0.7013761401176453,4.717768669128418,1087.3704833984375,0
2041.9480000000003,-0.015433014370501041,-0.010117950849235058,-3.455077967373654e-05,0.0,0.0,0.0,0.0,0.0018115401035174727,-0.0013928398257121444,0.0004403468919917941,0.9996418952941895,0.0,0.0,0.0,-6.008296966552734,0.7072080969810486,4.719931602478027,1087.513671875,0
2051.857,-0.015463580377399921,-0.010111900046467781,-4.01304496335797e-05,0.0,0.0,0.0,0.0,-0.0011272466508671641,0.0007462622597813606,-0.0010959673672914505,0.9998052716255188,0.0,0.0,0.0,-6.001959323883057,0.7003676891326904,4.715630531311035,1086.366455078125,0
2061.7800000000007,-0.015400074422359467,-0.010076073929667473,-9.526130497761187e-07,0.0,0.0,0.0,0.0,0.0014596275286749005,-0.0017634062096476555,-0.0014945315197110176,0.9991486668586731,0.0,0.0,0.0,-6.005744457244873,0.7158012390136719,4.726494312286377,1087.0516357421875,0
2071.6860000000015,-0.01543031819164753,-0.010068361647427082,-3.82326925318921e-06,0.0,0.0,0.0,0.0,0.0027090164367109537,-0.004675916396081448,-0.0013011638075113297,0.9997237324714661,0.0,0.0,0.0,-6.000583171844482,0.7143720388412476,4.727509498596191,1086.1175537109375,0
2081.594000000001,-0.015407786704599857,-0.010042250156402588,1.4132008800515905e-05,0.0,0.0,0.0,0.0,-0.002515331609174609,-0.0037422922905534506,0.00019427620281931013,0.9998753070831299,0.0,0.0,0.0,-6.0059380531311035,0.7174418568611145,4.7384772300720215,1087.0867919921875,0
2091.504000000001,-0.015438723377883434,-0.010031082667410374,1.2424545275280252e-05,0.0,0.0,0.0,0.0,-0.0005521567072719336,0.003476223675534129,0.0017837478080764413,0.999069333076477,0.0,0.0,0.0,-5.99918794631958,0.7238723039627075,4.734694004058838,1085.8648681640625,0
2101.42,-0.01535717025399208,-0.01002808753401041,2.515047981432872e-06,0.0,0.0,0.0,0.0,-9.159830369753763e-05,0.0004164401034358889,-0.0013115982292219996,1.0003892183303833,0.0,0.0,0.0,-6.004088878631592,0.7221343517303467,4.739906311035156,1086.751953125,0
2111.3240000000005,-0.015389633364975452,-0.010015912353992462,-3.456398189882748e-08,0.0,0.0,0.0,0.0,0.0014349513221532106,0.002070617862045765,-0.00028763519367203116,0.9997187852859497,0.0,0.0,0.0,-5.998955249786377,0.7218932509422302,4.730973243713379,1085.8228759765625,0
2121.251,-0.015425723977386951,-0.010003299452364445,-2.513686467864318e-06,0.0,0.0,0.0,0.0,-0.0005148480995558202,0.002010464435443282,0.0002077635726891458,0.9987069964408875,0.0,0.0,0.0,-5.992993354797363,0.7219932079315186,4.718296051025391,1084.7437744140625,0
2131.1500000000015,-0.01546522043645382,-0.00999052356928587,-5.5145242185972165e-06,0.0,0.0,0.0,0.0,0.0003546053485479206,0.004166423808783293,0.003087619785219431,0.9975789785385132,0.0,0.0,0.0,-5.986680507659912,0.7217017412185669,4.71135139465332,1083.60107421875,0
2141.0690000000013,-0.015455960296094418,-0.009997282177209854,-2.79190771834692e-05,0.0,0.0,0.0,0.0,0.00032631572685204446,0.002330297138541937,-0.001411812729202211,0.999214768409729,0.0,0.0,0.0,-5.991674423217773,0.7118907570838928,4.71549654006958,1084.5050048828125,0
2150.9800000000014,-0.015494322404265404,-0.009989574551582336,-3.5010722058359534e-05,0.0,0.0,0.0,0.0,0.0008658825536258519,-0.0029002742376178503,0.0017399934586137533,0.9996514320373535,0.0,0.0,0.0,-5.985741138458252,0.7119514346122742,4.712290287017822,1083.4310302734375,0
2160.8960000000006,-0.01544332318007946,-0.009984088130295277,-4.07937441195827e-05,0.0,0.0,0.0,0.0,2.9305625503184274e-05,-8.615633851150051e-05,-0.003955676220357418,0.9980428814888,0.0,0.0,0.0,-5.985867977142334,0.7102728486061096,4.735131740570068,1083.4539794921875,0
