timestamp,stateEstimate.x,stateEstimate.y,stateEstimate.z,controller.cmd_thrust,controller.cmd_roll,controller.cmd_pitch,controller.cmd_yaw,controller.r_roll,controller.r_pitch,controller.r_yaw,controller.accelz,controller.actuatorThrust,controller.roll,controller.pitch,controller.yaw,controller.rollRate,controller.pitchRate,controller.yawRate,controller.ctr_yaw
0.0,-0.000553117657545954,-0.0031798877753317356,-0.0001459433842683211,0.0,0.0,0.0,0.0,-0.0003922934120055288,0.0016577454516664147,-0.0004243532894179225,1.000474214553833,0.0,0.0,0.0,0.42739856243133545,1.472011923789978,4.578535556793213,-77.3599853515625,0
9.90899999999965,-0.0005191524978727102,-0.0032065827399492264,-0.000134533824166283,0.0,0.0,0.0,0.0,0.0015610080445185304,-0.003378315595909953,-0.0004076695186085999,0.9980002045631409,0.0,0.0,0.0,0.427109032869339,1.4668753147125244,4.570728302001953,-77.30757904052734,0
19.822000000000116,-0.000563140376470983,-0.0032230170909315348,-0.0001301416486967355,0.0,0.0,0.0,0.0,0.001724702538922429,0.0031655277125537395,0.005016550421714783,1.0002336502075195,0.0,0.0,0.0,0.4265325367450714,1.461020588874817,4.5680975914001465,-77.20323944091797,0
29.726000000000568,-0.0005644437042064965,-0.0032256217673420906,-0.0001044472010107711,0.0,0.0,0.0,0.0,0.001622792799025774,0.0023263082839548588,-0.001126407296396792,1.0004342794418335,0.0,0.0,0.0,0.42678335309028625,1.461222529411316,4.559991836547852,-77.2486343383789,0
39.64900000000125,-0.0006101782200857997,-0.0032426035031676292,-9.919797594193369e-05,0.0,0.0,0.0,0.0,-0.00010279627895215526,0.003911222796887159,-0.0007333430694416165,0.9998703598976135,0.0,0.0,0.0,0.4261975586414337,1.4594440460205078,4.551136016845703,-77.14260864257812,0
49.548000000000684,-0.0005310429842211306,-0.0032442142255604267,-6.847497570561245e-05,0.0,0.0,0.0,0.0,-0.00036371065652929246,0.0005545708700083196,-0.0018691003788262606,0.9988242387771606,0.0,0.0,0.0,0.4325205981731415,1.4618616104125977,4.561446666717529,-78.2870864868164,0
59.46900000000096,-0.0005776495090685785,-0.003259356366470456,-6.088871305109933e-05,0.0,0.0,0.0,0.0,-0.0008947030873969197,-0.00043083232594653964,0.0029406649991869926,1.001715898513794,0.0,0.0,0.0,0.4300335943698883,1.4575499296188354,4.548602104187012,-77.8369369506836,0
69.37200000000121,-0.0005040346295572817,-0.003264198312535882,-3.5868037230102345e-05,0.0,0.0,0.0,0.0,0.0016714445082470775,-0.00043337178067304194,-0.0024148509837687016,0.9984567761421204,0.0,0.0,0.0,0.42960020899772644,1.4571229219436646,4.543405532836914,-77.75849151611328,0
79.29500000000007,-0.0005494648357853293,-0.003278580494225025,-2.6694684493122622e-05,0.0,0.0,0.0,0.0,0.0009055787231773138,-0.003358672372996807,0.0002627016219776124,0.9979775547981262,0.0,0.0,0.0,0.4300406277179718,1.454687237739563,4.543093681335449,-77.83821868896484,0
89.20399999999972,-0.0004522298986557871,-0.0032887705601751804,-4.656155851989752e-06,0.0,0.0,0.0,0.0,0.0021073773968964815,-0.0012253595050424337,-0.00022961055219639093,0.9995414614677429,0.0,0.0,0.0,0.4396497905254364,1.4494038820266724,4.569196701049805,-79.5774917602539,0
99.121000000001,-0.0004956345073878765,-0.003305751131847501,3.617422862589592e-06,0.0,0.0,0.0,0.0,-0.0004863152571488172,0.0001771575043676421,-0.0014095534570515156,0.9987806081771851,0.0,0.0,0.0,0.43995484709739685,1.4482636451721191,4.569803237915039,-79.63270568847656,0
109.02900000000045,-0.0005403844406828284,-0.003323923796415329,1.1049260137951933e-05,0.0,0.0,0.0,0.0,-0.0018270896980538964,-0.005022005178034306,0.0013516622129827738,0.9973214864730835,0.0,0.0,0.0,0.4389807879924774,1.445461392402649,4.571173667907715,-79.4563980102539,0
118.94400000000132,-0.0005864836275577545,-0.0033432708587497473,1.704488204268273e-05,0.0,0.0,0.0,0.0,-0.0008066592854447663,0.00791852455586195,0.0031419587321579456,1.0008653402328491,0.0,0.0,0.0,0.43817245960235596,1.440094232559204,4.577682018280029,-79.31008911132812,0
128.84300000000076,-0.0005930726183578372,-0.0033449672628194094,4.4968379370402545e-05,0.0,0.0,0.0,0.0,-0.0003563116188161075,-0.0013693654909729958,-0.0012448854977265,0.9994099736213684,0.0,0.0,0.0,0.4382387101650238,1.4366064071655273,4.573361873626709,-79.32207489013672,0
138.76699999999983,-0.0006384474691003561,-0.003363949479535222,5.09668534505181e-05,0.0,0.0,0.0,0.0,0.001982785062864423,0.0024243963416665792,-0.0030848709866404533,0.9989333748817444,0.0,0.0,0.0,0.43815767765045166,1.4372453689575195,4.551810264587402,-79.30741119384766,0
148.66700000000128,-0.0006211440777406096,-0.003373500658199191,7.274493691511452e-05,0.0,0.0,0.0,0.0,0.00051971833454445,-0.00267351558431983,0.0012412709183990955,0.9989957213401794,0.0,0.0,0.0,0.43698248267173767,1.4374140501022339,4.543224811553955,-79.0947036743164,0
158.59000000000015,-0.0006660132785327733,-0.0033938607666641474,7.865633233450353e-05,0.0,0.0,0.0,0.0,0.0009088460355997086,-0.0007110051810741425,-0.00030138573492877185,0.9999461770057678,0.0,0.0,0.0,0.43632715940475464,1.4293674230575562,4.537243366241455,-78.97608184814453,0
168.48999999999978,-0.0006358177051879466,-0.003356899367645383,0.000147738799569197,0.0,0.0,0.0,0.0,-0.0006551476544700563,0.0007331534288823605,-9.218739432981238e-05,1.001697301864624,0.0,0.0,0.0,0.4369058310985565,1.4220693111419678,4.536548137664795,-79.0808334350586,0
178.41500000000087,-0.0006803337018936872,-0.003375958651304245,0.00015790115867275745,0.0,0.0,0.0,0.0,-0.00023540410620626062,0.0002289504773216322,-0.0004058318445459008,1.0029302835464478,0.0,0.0,0.0,0.436798632144928,1.4176607131958008,4.527472972869873,-79.0614242553711,0
188.3160000000007,-0.0006353745120577514,-0.0033904246520251036,0.00018040274153463542,0.0,0.0,0.0,0.0,-0.00019244325812906027,0.0014921242836862803,0.0032590196933597326,1.002295732498169,0.0,0.0,0.0,0.4353645443916321,1.411563515663147,4.524137496948242,-78.80184936523438,0
198.23400000000038,-0.0007237498066388071,-0.00344112329185009,0.0002143826859537512,0.0,0.0,0.0,0.0,-0.0006503516924567521,0.0012720961822196841,0.0016677501844242215,1.0003608465194702,0.0,0.0,0.0,0.4373122751712799,1.3981653451919556,4.510519027709961,-79.15438842773438,0
208.13900000000103,-0.0006073692929930985,-0.003428718773648143,0.00023730413522571325,0.0,0.0,0.0,0.0,-0.0006163226207718253,0.001674189232289791,-0.0008418994839303195,1.0000195503234863,0.0,0.0,0.0,0.4373122751712799,1.3981653451919556,4.510519027709961,-79.15438842773438,0
218.0660000000007,-0.0006354867364279926,-0.003267238847911358,-4.518746936810203e-05,0.0,0.0,0.0,0.0,0.00011351299326634035,0.002398252487182617,0.0023678571451455355,0.9992238283157349,0.0,0.0,0.0,0.43675944209098816,1.3956363201141357,4.481791019439697,-79.05432891845703,0
227.96900000000096,-0.0005152783705852926,-0.003298813244327903,2.9170165362302214e-05,0.0,0.0,0.0,0.0,0.0037289506290107965,-0.00035070235026068985,-0.0010076535400003195,1.000278353691101,0.0,0.0,0.0,0.43675944209098816,1.3956363201141357,4.481791019439697,-79.05432891845703,0
237.89100000000144,-0.0006035382393747568,-0.00334092671982944,5.508666072273627e-05,0.0,0.0,0.0,0.0,-0.003284196136519313,0.0032942304387688637,0.0022889897227287292,1.0010948181152344,0.0,0.0,0.0,0.43497246503829956,1.3820792436599731,4.456470966339111,-78.73088073730469,0
247.78600000000006,-0.0005244825151748955,-0.003336599562317133,8.884160342859104e-05,0.0,0.0,0.0,0.0,0.0013565282570198178,-0.0008359075291082263,0.0027977880090475082,1.0001710653305054,0.0,0.0,0.0,0.43497246503829956,1.3820792436599731,4.456470966339111,-78.73088073730469,0
257.71200000000135,-0.0005721186753362417,-0.00335792382247746,0.00010670291521819308,0.0,0.0,0.0,0.0,0.00016882986528798938,0.00042153874528594315,-0.004220306873321533,0.9989306926727295,0.0,0.0,0.0,0.43531668186187744,1.3900394439697266,4.447290897369385,-78.79318237304688,0
267.612000000001,-0.0006023304886184633,-0.0033744685351848602,0.000129196050693281,0.0,0.0,0.0,0.0,0.0020411412697285414,0.001779285492375493,-0.0009926225757226348,0.9990522265434265,0.0,0.0,0.0,0.4356266260147095,1.387047529220581,4.444168567657471,-78.84928894042969,0
277.5470000000005,-0.0006479917792603374,-0.003393553663045168,0.00014567685138899833,0.0,0.0,0.0,0.0,-0.001523024053312838,-0.0006131267291493714,0.0017765297088772058,1.0001131296157837,0.0,0.0,0.0,0.4345753788948059,1.3824588060379028,4.442987442016602,-78.65900421142578,0
287.4430000000011,-0.0005779139464721084,-0.003401025664061308,0.00018781935796141624,0.0,0.0,0.0,0.0,-0.00034675534698180854,0.005898314528167248,-0.001662442460656166,1.0009533166885376,0.0,0.0,0.0,0.4339909553527832,1.3738168478012085,4.434080123901367,-78.55322265625,0
297.3540000000012,-0.0006239005597308278,-0.003420710563659668,0.00020598637638613582,0.0,0.0,0.0,0.0,0.002289382740855217,-0.002199204871430993,-0.0004995180643163621,0.9979889392852783,0.0,0.0,0.0,0.4333941340446472,1.3773611783981323,4.426826000213623,-78.44519805908203,0
307.259,-0.0005699292523786426,-0.00343068758957088,0.00024565213243477046,0.0,0.0,0.0,0.0,-0.0016282203141599894,-0.0024460111744701862,0.0024874138180166483,1.00002920627594,0.0,0.0,0.0,0.441238135099411,1.380994439125061,4.446506977081299,-79.864990234375,0
317.1830000000009,-0.0005070443148724735,-0.0032226501498371363,-5.287304156809114e-05,0.0,0.0,0.0,0.0,0.0004613250494003296,-0.003977249842137098,-0.0012140839826315641,1.0002734661102295,0.0,0.0,0.0,0.43578505516052246,1.4231784343719482,4.457733154296875,-78.87796020507812,0
327.08200000000033,-0.0005061374395154417,-0.003235188079997897,-1.2538826922536828e-05,0.0,0.0,0.0,0.0,-0.0005922326818108559,0.001639511319808662,0.0007164771086536348,0.9987158179283142,0.0,0.0,0.0,0.4418424069881439,1.4256792068481445,4.466854095458984,-79.97435760498047,0
337.0040000000008,-0.0005532829090952873,-0.0032442917581647635,-4.353549229563214e-06,0.0,0.0,0.0,0.0,0.0020684704650193453,0.005258007440716028,0.001623016782104969,1.0000927448272705,0.0,0.0,0.0,0.4410802125930786,1.4349095821380615,4.470043182373047,-79.8364028930664,0
346.90899999999965,-0.0005158709245733917,-0.0032580180559307337,2.340120954613667e-05,0.0,0.0,0.0,0.0,0.0004222494608256966,0.0011185167822986841,-0.0034000552259385586,1.0004936456680298,0.0,0.0,0.0,0.44845935702323914,1.4301549196243286,4.472537040710449,-81.17204284667969,0
356.82700000000114,-0.0005643023760057986,-0.0032689108047634363,3.222281520720571e-05,0.0,0.0,0.0,0.0,0.0012207349063828588,-0.0002725634549278766,-1.66471963893855e-05,1.0018362998962402,0.0,0.0,0.0,0.44695767760276794,1.432256817817688,4.463869094848633,-80.90022277832031,0
366.7330000000002,-0.0005210474482737482,-0.0032766491640359163,5.9474878071341664e-05,0.0,0.0,0.0,0.0,-0.0019202785333618522,-0.0014297651359811425,0.00035782737541012466,1.0012922286987305,0.0,0.0,0.0,0.453759104013443,1.433590054512024,4.479551315307617,-82.13130187988281,0
376.65999999999985,-0.0005715308361686766,-0.0032890255097299814,7.195547368610278e-05,0.0,0.0,0.0,0.0,-0.0059971800073981285,-0.004718977492302656,-0.002148123225197196,1.0021884441375732,0.0,0.0,0.0,0.4533346891403198,1.4273732900619507,4.470242977142334,-82.05448150634766,0
386.5550000000003,-0.0005054715438745916,-0.003277373732998967,0.00012475882249418646,0.0,0.0,0.0,0.0,0.0010731378570199013,-0.0009679969516582787,0.0030410769395530224,1.000342607498169,0.0,0.0,0.0,0.4536486566066742,1.4250147342681885,4.469457626342773,-82.1113052368164,0
396.47600000000057,-0.0005558115080930293,-0.003286925610154867,0.00014382060908246785,0.0,0.0,0.0,0.0,-0.0011265365174040198,0.0005015727365389466,3.4823333407985047e-05,0.9987474679946899,0.0,0.0,0.0,0.45298367738723755,1.4328986406326294,4.473790168762207,-81.9909439086914,0
406.3780000000006,-0.0005929819890297949,-0.0033009201288223267,0.00015867936599534005,0.0,0.0,0.0,0.0,-0.0002835150226019323,0.0003241004596929997,0.0007084564422257245,0.9985609650611877,0.0,0.0,0.0,0.45284977555274963,1.4335365295410156,4.467552185058594,-81.96672058105469,0
416.3070000000007,-0.0006462775636464357,-0.0033108405768871307,0.00017726646910887212,0.0,0.0,0.0,0.0,-0.0002566769253462553,0.0008140235440805554,-0.004000499844551086,1.0002962350845337,0.0,0.0,0.0,0.4523530602455139,1.430800437927246,4.464588165283203,-81.8768081665039,0
426.2039999999997,-0.0006237074267119169,-0.0033303534146398306,0.000186958845006302,0.0,0.0,0.0,0.0,0.0003397718828637153,0.0001990788005059585,0.001983421854674816,0.9985162019729614,0.0,0.0,0.0,0.45206746459007263,1.4343340396881104,4.455874919891357,-81.82511138916016,0
436.130000000001,-0.0006768610910512507,-0.0033414862118661404,0.00020321537158451974,0.0,0.0,0.0,0.0,0.0010139490477740765,7.89725745562464e-05,0.00013907387619838119,1.0009299516677856,0.0,0.0,0.0,0.45066124200820923,1.4331912994384766,4.457067966461182,-81.5705795288086,0
446.02599999999984,-0.0006355590303428471,-0.003371375147253275,0.0002006694849114865,0.0,0.0,0.0,0.0,0.004323839209973812,0.0028055456932634115,-0.002215052954852581,0.999165415763855,0.0,0.0,0.0,0.45141685009002686,1.4331756830215454,4.45511531829834,-81.70735168457031,0
455.9449999999997,-0.0006896992563270032,-0.0033846567384898663,0.00021533129620365798,0.0,0.0,0.0,0.0,0.0017771822167560458,-0.00139854964800179,0.0005574405076913536,0.9999759197235107,0.0,0.0,0.0,0.4513451159000397,1.427872896194458,4.446963310241699,-81.6943588256836,0
465.84900000000016,-0.0006801240378990769,-0.003392718266695738,0.0002453081833664328,0.0,0.0,0.0,0.0,-0.0002992093504872173,-0.0021517605055123568,0.0013627276057377458,1.0007967948913574,0.0,0.0,0.0,0.45187702775001526,1.422230839729309,4.442635536193848,-81.79064178466797,0
475.77100000000064,-0.0007356817368417978,-0.003409296041354537,0.0002609680232126266,0.0,0.0,0.0,0.0,-0.0010625679278746247,0.0014666105853393674,-0.002251698635518551,1.001118540763855,0.0,0.0,0.0,0.4508137106895447,1.4155040979385376,4.4394378662109375,-81.59817504882812,0
485.6750000000011,-0.0006246351404115558,-0.0034201284870505333,0.00030190954566933215,0.0,0.0,0.0,0.0,0.00048154237447306514,0.0012203638907521963,-0.0012959890300408006,0.9992395639419556,0.0,0.0,0.0,0.4507502019405365,1.4171781539916992,4.435097694396973,-81.58667755126953,0
495.59699999999975,-0.0006759061943739653,-0.0034394541289657354,0.00032126580481417477,0.0,0.0,0.0,0.0,0.000621784187387675,0.00023420603247359395,0.004845733754336834,0.9994571805000305,0.0,0.0,0.0,0.4489649534225464,1.4119842052459717,4.436575412750244,-81.2635498046875,0
505.4989999999998,-0.0005868456210009754,-0.003456802573055029,0.000357274868292734,0.0,0.0,0.0,0.0,-0.001699332962743938,-0.0037914200220257044,0.0016041833441704512,0.9972582459449768,0.0,0.0,0.0,0.4481538236141205,1.410024881362915,4.428207874298096,-81.11673736572266,0
515.4210000000003,-0.0006824175943620503,-0.0034995831083506346,0.0003949207894038409,0.0,0.0,0.0,0.0,0.002547703217715025,0.006628533359616995,-0.0019413594854995608,0.9989010691642761,0.0,0.0,0.0,0.4492933452129364,1.4038418531417847,4.4238080978393555,-81.322998046875,0
525.3209999999999,-0.0005721538327634335,-0.0035027991980314255,0.00040436084964312613,0.0,0.0,0.0,0.0,0.0026749055832624435,-0.004496104083955288,-0.0023793133441358805,0.9997866749763489,0.0,0.0,0.0,0.4492933452129364,1.4038418531417847,4.4238080978393555,-81.322998046875,0
535.2440000000006,-0.0006671264418400824,-0.003547359025105834,0.0004388032539281994,0.0,0.0,0.0,0.0,-0.0025455269496887922,0.007216132245957851,-0.0023721689358353615,1.0009902715682983,0.0,0.0,0.0,0.44855520129203796,1.3982970714569092,4.413729667663574,-81.18938446044922,0
545.1450000000004,-0.0005571746150963008,-0.003557604504749179,0.0004413758870214224,0.0,0.0,0.0,0.0,3.5673070669872686e-05,0.0012433127267286181,0.00150016276165843,1.0012178421020508,0.0,0.0,0.0,0.44855520129203796,1.3982970714569092,4.413729667663574,-81.18938446044922,0
555.0740000000005,-0.0006479071453213692,-0.0036050034686923027,0.00047841499326750636,0.0,0.0,0.0,0.0,-0.00043494845158420503,0.0002222362527390942,0.0006441701552830637,0.9990372061729431,0.0,0.0,0.0,0.4486923813819885,1.3976563215255737,4.387838840484619,-81.21421813964844,0
564.969000000001,-0.0005679165478795767,-0.0036065243184566498,0.0004856903397012502,0.0,0.0,0.0,0.0,0.0015392852947115898,-0.002509124344214797,-0.0021687308326363564,1.0002914667129517,0.0,0.0,0.0,0.4486923813819885,1.3976563215255737,4.387838840484619,-81.21421813964844,0
574.8900000000012,-0.0006599408807232976,-0.003653595456853509,0.0005244117928668857,0.0,0.0,0.0,0.0,-0.0011600060388445854,-0.0022806639317423105,-0.00012707152927760035,1.0013841390609741,0.0,0.0,0.0,0.447151243686676,1.3958159685134888,4.3809814453125,-80.93526458740234,0
584.8029999999999,-0.0006024604081176221,-0.003644209122285247,0.0005424167029559612,0.0,0.0,0.0,0.0,-0.003626939607784152,0.0005804665852338076,0.0006522150943055749,1.0002532005310059,0.0,0.0,0.0,0.45431363582611084,1.399159550666809,4.3965582847595215,-82.23167419433594,0
594.723,-0.0006514255073852837,-0.0036712863948196173,0.0005662859184667468,0.0,0.0,0.0,0.0,0.0009358265670016408,-0.0017056323122233152,-0.0010241897543892264,0.9999065399169922,0.0,0.0,0.0,0.4539678692817688,1.3982346057891846,4.393210411071777,-82.16908264160156,0
604.6190000000006,-0.0006385119631886482,-0.0036823228001594543,0.0006093633128330112,0.0,0.0,0.0,0.0,0.00015339822857640684,0.002055726246908307,-0.0022553831804543734,1.0009979009628296,0.0,0.0,0.0,0.45394250750541687,1.3936158418655396,4.383906841278076,-82.16449737548828,0
614.5400000000009,-0.0006819804548285902,-0.0037091923877596855,0.0006341277621686459,0.0,0.0,0.0,0.0,-0.0007691116188652813,-0.0010320417350158095,0.0023287341464310884,1.0009044408798218,0.0,0.0,0.0,0.4538905918598175,1.389704704284668,4.379518032073975,-82.15509796142578,0
624.4430000000011,-0.0006926326896063983,-0.0037450864911079407,0.000659178476780653,0.0,0.0,0.0,0.0,0.00040158280171453953,0.004356904421001673,-0.0004822302726097405,1.0013210773468018,0.0,0.0,0.0,0.45329344272613525,1.3825547695159912,4.372744560241699,-82.04701232910156,0
634.3690000000006,-0.0007381470641121268,-0.0037738352548331022,0.0006856921827420592,0.0,0.0,0.0,0.0,-0.00035919088986702263,0.0006721377139911056,0.0018486090702936053,1.000614047050476,0.0,0.0,0.0,0.45293691754341125,1.3777722120285034,4.36741304397583,-81.98248291015625,0
644.2660000000014,-0.0007007310632616282,-0.0037781333085149527,0.0007484721136279404,0.0,0.0,0.0,0.0,-0.00020423231762833893,0.0012944728368893266,0.0012257940834388137,0.9998846650123596,0.0,0.0,0.0,0.45102164149284363,1.3784596920013428,4.357783794403076,-81.63581085205078,0
654.1850000000013,-0.0005733945872634649,-0.003142679575830698,-0.00021264480892568827,0.0,0.0,0.0,0.0,-0.0017298317980021238,0.002703421050682664,0.0011175434337928891,0.9984942078590393,0.0,0.0,0.0,0.4410804510116577,1.4655035734176636,4.369822025299072,-79.8364486694336,0
664.0889999999999,-0.0005162825109437108,-0.0031706399749964476,-0.0001400340988766402,0.0,0.0,0.0,0.0,0.0036594115663319826,0.0035476868506520987,0.00044420931953936815,0.9982621669769287,0.0,0.0,0.0,0.4415654242038727,1.4597951173782349,4.347096920013428,-79.9242172241211,0
674.0120000000006,-0.0005560952122323215,-0.0031776672694832087,-0.00013538231723941863,0.0,0.0,0.0,0.0,0.0011156534310430288,-0.0029669071082025766,-0.005203855689615011,1.001142144203186,0.0,0.0,0.0,0.440502405166626,1.4599751234054565,4.34644079208374,-79.73180389404297,0
683.9130000000005,-0.0005316570168361068,-0.003184258472174406,-0.00010512932203710079,0.0,0.0,0.0,0.0,0.0008500369731336832,-0.005932806991040707,0.0014352991711348295,1.0011399984359741,0.0,0.0,0.0,0.4398030936717987,1.4555572271347046,4.327229022979736,-79.60523223876953,0
693.8330000000005,-0.0005763426888734102,-0.0031906887888908386,-9.948789374902844e-05,0.0,0.0,0.0,0.0,9.182489884551615e-05,0.002241343492642045,0.0054570152424275875,0.9996247291564941,0.0,0.0,0.0,0.43894249200820923,1.4510540962219238,4.32511043548584,-79.449462890625,0
703.737000000001,-0.0005271208938211203,-0.0031948830001056194,-7.392525003524497e-05,0.0,0.0,0.0,0.0,0.0019400998717173934,0.0015515255508944392,-0.0006290805176831782,0.9999396800994873,0.0,0.0,0.0,0.4392695724964142,1.45116126537323,4.3170084953308105,-79.5086669921875,0
713.6660000000011,-0.0005745664238929749,-0.003200546372681856,-6.57846758258529e-05,0.0,0.0,0.0,0.0,0.003429416799917817,-0.0003176442696712911,0.0008864855044521391,0.9989361763000488,0.0,0.0,0.0,0.438546746969223,1.4510374069213867,4.310697078704834,-79.3778305053711,0
723.5609999999997,-0.0005812571034766734,-0.003207384143024683,-5.4527026804862544e-05,0.0,0.0,0.0,0.0,-0.0019655318465083838,-0.0027013029903173447,-0.0018123099580407143,0.9998369812965393,0.0,0.0,0.0,0.4374694526195526,1.4497004747390747,4.304898738861084,-79.1828384399414,0
733.482,-0.000629693444352597,-0.003214027965441346,-4.6873301471350715e-05,0.0,0.0,0.0,0.0,0.0010964074172079563,-0.003498650621622801,-0.0015232033329084516,0.9989637732505798,0.0,0.0,0.0,0.4367506802082062,1.4446508884429932,4.298454284667969,-79.05274200439453,0
743.3870000000006,-0.0006066833739168942,-0.0032205069437623024,-3.2971238397294655e-05,0.0,0.0,0.0,0.0,-0.0004979862133041024,0.0001973270991584286,-0.0017346626846119761,0.9982240796089172,0.0,0.0,0.0,0.43675026297569275,1.441239833831787,4.2990593910217285,-79.05265808105469,0
753.3070000000007,-0.0006555304280482233,-0.0032281032763421535,-2.6187892217421904e-05,0.0,0.0,0.0,0.0,-0.002274191239848733,0.002898018341511488,-0.002380938967689872,1.0007206201553345,0.0,0.0,0.0,0.4357084631919861,1.4418492317199707,4.302165508270264,-78.86409759521484,0
763.219000000001,-0.0005395269836299121,-0.0032402672804892063,-1.0042199392046314e-05,0.0,0.0,0.0,0.0,0.0013487497344613075,0.006882425397634506,0.0003243717073928565,0.9985349178314209,0.0,0.0,0.0,0.435445636510849,1.443166732788086,4.289734363555908,-78.81652069091797,0
773.130000000001,-0.0005877840449102223,-0.0032504212576895952,-3.5130460673826747e-06,0.0,0.0,0.0,0.0,0.002142923651263118,-0.002797910012304783,-0.0019406706560403109,1.0012356042861938,0.0,0.0,0.0,0.4344805181026459,1.4391156435012817,4.281130313873291,-78.64183807373047,0
783.0380000000005,-0.0005480443360283971,-0.0032557344529777765,2.0308973034843802e-05,0.0,0.0,0.0,0.0,0.004529318772256374,0.0053835478611290455,0.0010900093475356698,1.0025511980056763,0.0,0.0,0.0,0.440544992685318,1.4402457475662231,4.283707141876221,-79.73951721191406,0
792.9520000000011,-0.0005803467356599867,-0.003219397272914648,-4.3525815272005275e-05,0.0,0.0,0.0,0.0,0.001428196206688881,-0.0009835758246481419,-0.000657907803542912,1.0012409687042236,0.0,0.0,0.0,0.4397392272949219,1.435012936592102,4.278861999511719,-79.59367370605469,0
802.862000000001,-0.0004920969367958605,-0.0032692800741642714,3.0214763683034107e-05,0.0,0.0,0.0,0.0,0.0009685124387033284,0.004931465722620487,0.0006342727574519813,0.9986469745635986,0.0,0.0,0.0,0.4401434659957886,1.4290745258331299,4.270905017852783,-79.66683959960938,0
812.7690000000002,-0.0005433663609437644,-0.0032842440996319056,4.2182084143860266e-05,0.0,0.0,0.0,0.0,-0.000287598988506943,-0.002160208998247981,-0.00014457220095209777,1.002114176750183,0.0,0.0,0.0,0.4393969178199768,1.4283981323242188,4.2640581130981445,-79.5317153930664,0
822.7000000000007,-0.00045489927288144827,-0.003309693420305848,8.529493061359972e-05,0.0,0.0,0.0,0.0,0.0023013560567051172,-0.0037923476193100214,0.0005697504384443164,1.0013277530670166,0.0,0.0,0.0,0.43966832756996155,1.4211920499801636,4.255614280700684,-79.58084106445312,0
832.6010000000006,-0.0005065142177045345,-0.0033272833097726107,0.00010020750050898641,0.0,0.0,0.0,0.0,-0.00044747674837708473,0.0015249258140102029,-0.0009958092123270035,0.9998586177825928,0.0,0.0,0.0,0.44007977843284607,1.4166640043258667,4.2509002685546875,-79.65531158447266,0
842.5130000000008,-0.0005596767296083272,-0.003346106968820095,0.00011644336336757988,0.0,0.0,0.0,0.0,0.003630207385867834,-0.001070575905032456,-0.0007528205751441419,0.9985436797142029,0.0,0.0,0.0,0.4390876889228821,1.410658359527588,4.253073215484619,-79.47574615478516,0
852.4240000000009,-0.000672288064379245,-0.0033905517775565386,0.00014804354577790946,0.0,0.0,0.0,0.0,-0.0016920866910368204,0.002758458023890853,-0.0003987835079897195,0.9994693994522095,0.0,0.0,0.0,0.43934163451194763,1.411710500717163,4.233004093170166,-79.5217056274414,0
862.3360000000011,-0.000672288064379245,-0.0033905517775565386,0.00014804354577790946,0.0,0.0,0.0,0.0,0.0017712241970002651,0.00024314236361533403,0.00018213957082480192,1.00010347366333,0.0,0.0,0.0,0.43934163451194763,1.411710500717163,4.233004093170166,-79.5217056274414,0
872.2480000000014,-0.00079886190360412,-0.0034426662605255842,0.0001779557642294094,0.0,0.0,0.0,0.0,-0.005146969109773636,-0.0061766174621880054,0.00523217162117362,0.9991012215614319,0.0,0.0,0.0,0.4382145404815674,1.4094890356063843,4.206945419311523,-79.31770324707031,0
882.1589999999997,-0.00079886190360412,-0.0034426662605255842,0.0001779557642294094,0.0,0.0,0.0,0.0,0.0009246360859833658,0.002995066810399294,-0.00031835498521104455,0.9989961981773376,0.0,0.0,0.0,0.4382145404815674,1.4094890356063843,4.206945419311523,-79.31770324707031,0
892.0770000000011,-0.000939194462262094,-0.0034986494574695826,0.00020586127357091755,0.0,0.0,0.0,0.0,0.002234324812889099,-0.0026698526926338673,0.0007228924077935517,1.0007708072662354,0.0,0.0,0.0,0.43839240074157715,1.410828948020935,4.198698997497559,-79.34989929199219,0
901.9850000000006,-0.000939194462262094,-0.0034986494574695826,0.00020586127357091755,0.0,0.0,0.0,0.0,-0.000657196098472923,-0.00334804505109787,-0.0008419656078331172,0.9999339580535889,0.0,0.0,0.0,0.43839240074157715,1.410828948020935,4.198698997497559,-79.34989929199219,0
911.9009999999998,-0.0010216367663815618,-0.003532267874106765,0.0002215083659393713,0.0,0.0,0.0,0.0,-0.0015762276016175747,-0.0006649879505857825,0.0024520193692296743,0.997976541519165,0.0,0.0,0.0,0.43859681487083435,1.4126461744308472,4.199983596801758,-79.38690185546875,0
921.8119999999999,-0.0010994881158694625,-0.0035653773229569197,0.00023582215362694114,0.0,0.0,0.0,0.0,-0.0021248930133879185,-0.004698282573372126,0.00035078474320471287,0.9975590705871582,0.0,0.0,0.0,0.4395628869533539,1.4124082326889038,4.197018146514893,-79.56175231933594,0
931.7180000000008,-0.0011800738284364343,-0.003600618802011013,0.00024881481658667326,0.0,0.0,0.0,0.0,-0.002010645577684045,0.0011369865387678146,0.0006020667497068644,1.000146508216858,0.0,0.0,0.0,0.43803682923316956,1.4115532636642456,4.1942138671875,-79.28553771972656,0
941.634,-0.001263422193005681,-0.003637081477791071,0.00026021519443020225,0.0,0.0,0.0,0.0,-0.0020731689874082804,-0.00802337471395731,-0.0009024915634654462,1.0003759860992432,0.0,0.0,0.0,0.4380033016204834,1.4157301187515259,4.192564964294434,-79.27947235107422,0
951.5500000000011,-0.0013495394960045815,-0.0036738028284162283,0.00027117686113342643,0.0,0.0,0.0,0.0,-0.0022695246152579784,-0.0017102622659876943,0.0011815241305157542,1.0006277561187744,0.0,0.0,0.0,0.4391716718673706,1.4228116273880005,4.187962532043457,-79.49095153808594,0
961.4629999999997,-0.0014382405206561089,-0.0037103304639458656,0.00028283160645514727,0.0,0.0,0.0,0.0,-0.00010908026160905138,-0.0008708953391760588,-0.0046388390474021435,0.9998761415481567,0.0,0.0,0.0,0.43958353996276855,1.4234968423843384,4.190194129943848,-79.56549835205078,0
971.3600000000006,-0.0015296473866328597,-0.003746962873265147,0.0002948921173810959,0.0,0.0,0.0,0.0,0.00318923220038414,-0.0018760542152449489,0.002164843725040555,0.9991100430488586,0.0,0.0,0.0,0.4396689236164093,1.425388216972351,4.199329853057861,-79.5809555053711,0
981.2790000000005,-0.0016247183084487915,-0.0037846637424081564,0.00030665943631902337,0.0,0.0,0.0,0.0,0.006167678162455559,0.001246357336640358,-0.0015511669917032123,1.0006738901138306,0.0,0.0,0.0,0.4380579888820648,1.4203722476959229,4.193661212921143,-79.28936767578125,0
991.1840000000011,-0.00172335933893919,-0.00382383749820292,0.00031815533293411136,0.0,0.0,0.0,0.0,0.0009499305742792785,0.003515059594064951,0.0004077282501384616,0.9999496936798096,0.0,0.0,0.0,0.4383973479270935,1.41851806640625,4.18951416015625,-79.35079956054688,0
1001.1140000000014,-0.001825121114961803,-0.0038644273299723864,0.00032974203350022435,0.0,0.0,0.0,0.0,-0.0007934950408525765,0.00200602482073009,-0.0006974370335228741,0.9989323019981384,0.0,0.0,0.0,0.43849292397499084,1.4082238674163818,4.184084892272949,-79.36808776855469,0
1011.0100000000002,-0.0011079631512984633,-0.003017073730006814,-0.0006461193552240729,0.0,0.0,0.0,0.0,0.0009895047405734658,-0.0022256693337112665,0.001140442444011569,0.9996273517608643,0.0,0.0,0.0,0.4113193452358246,1.5675865411758423,4.33795690536499,-74.44962310791016,0
1020.9279999999999,-0.001174038858152926,-0.0030213792342692614,-0.000670259993057698,0.0,0.0,0.0,0.0,0.00048782830708660185,-0.004787498153746128,0.0022449432872235775,1.001430869102478,0.0,0.0,0.0,0.4122081696987152,1.5679473876953125,4.344132423400879,-74.61050415039062,0
1030.835000000001,-0.001241936581209302,-0.003025126177817583,-0.0006945218774490058,0.0,0.0,0.0,0.0,-0.001816601026803255,-0.0015675738686695695,0.0004968657740391791,1.0006835460662842,0.0,0.0,0.0,0.41257068514823914,1.5627315044403076,4.343008995056152,-74.67611694335938,0
1040.7579999999998,-0.0013119274517521262,-0.0030275152530521154,-0.0007180506945587695,0.0,0.0,0.0,0.0,-0.006466567516326904,-0.0047316839918494225,0.0036169260274618864,1.0001312494277954,0.0,0.0,0.0,0.4137748181819916,1.5605850219726562,4.347282409667969,-74.8940658569336,0
1050.657000000001,-0.0013838347513228655,-0.003029264509677887,-0.00074092234717682,0.0,0.0,0.0,0.0,-3.5171036870451644e-05,-0.0004831394471693784,-0.0019286776660010219,1.001572608947754,0.0,0.0,0.0,0.4131564795970917,1.5624902248382568,4.348901271820068,-74.78214263916016,0
1060.5750000000007,-0.0014585315948352218,-0.0030310361180454493,-0.0007629785104654729,0.0,0.0,0.0,0.0,0.0007400303147733212,-0.0016548573039472103,0.002324718050658703,0.999610960483551,0.0,0.0,0.0,0.41232869029045105,1.5723809003829956,4.353158950805664,-74.63230895996094,0
1070.482,-0.0015368701424449682,-0.0030331281013786793,-0.0007839035242795944,0.0,0.0,0.0,0.0,-9.635651076678187e-05,-0.0007942129741422832,0.0032605440355837345,0.9995422959327698,0.0,0.0,0.0,0.4119263291358948,1.5677368640899658,4.341174602508545,-74.55948638916016,0
1080.4030000000002,-0.0016183133702725172,-0.00303596630692482,-0.0008047843584790826,0.0,0.0,0.0,0.0,-0.0007607327424921095,0.006382782012224197,0.001957711996510625,1.0006327629089355,0.0,0.0,0.0,0.4134053587913513,1.5683335065841675,4.340746879577637,-74.82718658447266,0
1090.304,-0.001702005509287119,-0.0030393286142498255,-0.0008260137401521206,0.0,0.0,0.0,0.0,-0.0019790339283645153,0.0026257559657096863,0.002079055644571781,1.0021001100540161,0.0,0.0,0.0,0.4132678210735321,1.5653300285339355,4.327627658843994,-74.80229187011719,0
1100.228000000001,-0.0017875046469271183,-0.003042896743863821,-0.0008465559221804142,0.0,0.0,0.0,0.0,-0.001962208654731512,0.001075748703442514,-0.004157029092311859,0.9987377524375916,0.0,0.0,0.0,0.4126541018486023,1.5592466592788696,4.311820030212402,-74.69120788574219,0
1110.134,-0.0018751986790448427,-0.0030462080612778664,-0.0008661019965074956,0.0,0.0,0.0,0.0,0.0004118091310374439,0.0006158041651360691,0.00043452525278553367,0.9979906678199768,0.0,0.0,0.0,0.4118203818798065,1.5659316778182983,4.299610137939453,-74.54031372070312,0
1120.0519999999997,-0.001965528354048729,-0.003049316816031933,-0.0008862897520884871,0.0,0.0,0.0,0.0,-0.0013965468388050795,0.0065547628328204155,-0.0028712847270071507,0.999991238117218,0.0,0.0,0.0,0.41193875670433044,1.5682373046875,4.308030605316162,-74.56173706054688,0
1129.9520000000011,-0.002058235928416252,-0.003052373416721821,-0.0009080698946490884,0.0,0.0,0.0,0.0,-0.003398055676370859,-0.002370902569964528,-0.000435938622104004,0.9974980354309082,0.0,0.0,0.0,0.4109085202217102,1.5666121244430542,4.2901506423950195,-74.3752670288086,0
1139.875,-0.002153951209038496,-0.0030547489877790213,-0.000930512323975563,0.0,0.0,0.0,0.0,0.003143754554912448,-0.008262859657406807,0.002782736672088504,0.9984894394874573,0.0,0.0,0.0,0.41054755449295044,1.5603389739990234,4.279109001159668,-74.30992889404297,0
1149.777,-0.0022531035356223583,-0.0030565555207431316,-0.0009544783970341086,0.0,0.0,0.0,0.0,-0.0009280412341468036,-0.0002924676227848977,-0.00033162444015033543,1.0004146099090576,0.0,0.0,0.0,0.410245805978775,1.560296654701233,4.277549743652344,-74.25531005859375,0
1159.6949999999997,-0.002354699419811368,-0.003058882663026452,-0.0009801227133721113,0.0,0.0,0.0,0.0,-0.0017857503844425082,-3.7785757740493864e-05,0.001464782515540719,1.0018349885940552,0.0,0.0,0.0,0.4095808267593384,1.5595731735229492,4.285854816436768,-74.13494110107422,0
1169.6000000000004,-0.0024591998662799597,-0.0030627252999693155,-0.0010052885627374053,0.0,0.0,0.0,0.0,-0.0015370139153674245,-0.004520211834460497,0.00789717398583889,0.9987102746963501,0.0,0.0,0.0,0.41002267599105835,1.557652473449707,4.292454242706299,-74.21491241455078,0
1179.5190000000002,-0.002567647723481059,-0.003068135352805257,-0.0010292669758200645,0.0,0.0,0.0,0.0,0.002582794986665249,-0.0005912297056056559,0.0010726004838943481,0.998680830001831,0.0,0.0,0.0,0.40832605957984924,1.5587798357009888,4.283541202545166,-73.90782928466797,0
1189.4300000000003,-0.002798277186229825,-0.0030831594485789537,-0.0010790771339088678,0.0,0.0,0.0,0.0,-0.0003028126957360655,0.008311783894896507,-0.001359032467007637,0.9999827742576599,0.0,0.0,0.0,0.4091569483280182,1.5623387098312378,4.266819953918457,-74.05821990966797,0
1199.3469999999998,-0.002798277186229825,-0.0030831594485789537,-0.0010790771339088678,0.0,0.0,0.0,0.0,0.0002773348242044449,0.001314573921263218,-0.00036027588066644967,1.0013457536697388,0.0,0.0,0.0,0.4091569483280182,1.5623387098312378,4.266819953918457,-74.05821990966797,0
1209.2470000000012,-0.003041666466742754,-0.003100863192230463,-0.0011294144205749035,0.0,0.0,0.0,0.0,-0.0014711545081809163,-0.00018445149180479348,-0.0025700400583446026,1.0003304481506348,0.0,0.0,0.0,0.4085482656955719,1.557313084602356,4.241400241851807,-73.94804382324219,0
1219.1650000000009,-0.003041666466742754,-0.003100863192230463,-0.0011294144205749035,0.0,0.0,0.0,0.0,0.001337961875833571,0.002552987542003393,-0.0005783896194770932,1.0008375644683838,0.0,0.0,0.0,0.4085482656955719,1.557313084602356,4.241400241851807,-73.94804382324219,0
1229.071,-0.0032944660633802414,-0.0031208305153995752,-0.0011760428315028548,0.0,0.0,0.0,0.0,0.001885838690213859,-0.004180879332125187,-0.004671641159802675,1.0019270181655884,0.0,0.0,0.0,0.4069991409778595,1.5534050464630127,4.223657131195068,-73.66765594482422,0
1238.991,-0.0006517637521028519,-0.003837541677057743,0.0006944490596652031,0.0,0.0,0.0,0.0,0.00028863828629255295,0.002671937458217144,0.000584000488743186,1.0016098022460938,0.0,0.0,0.0,0.404226154088974,1.5021919012069702,4.520366668701172,-73.16573333740234,0
1248.8970000000008,-0.0007025555241852999,-0.003865876467898488,0.0007204473367892206,0.0,0.0,0.0,0.0,-0.004454393871128559,-0.007898697629570961,-0.0008407732238993049,1.0005686283111572,0.0,0.0,0.0,0.40185123682022095,1.5007156133651733,4.512047290802002,-72.73587799072266,0
1258.8100000000013,-0.0007511817966587842,-0.003892411245033145,0.000745617609936744,0.0,0.0,0.0,0.0,0.0021835279185324907,0.0007776797865517437,0.0033545196056365967,0.9997124075889587,0.0,0.0,0.0,0.4018043577671051,1.4974908828735352,4.507915019989014,-72.72738647460938,0
1268.7260000000006,-0.0006894373800605536,-0.0038646243046969175,0.0008837481727823615,0.0,0.0,0.0,0.0,0.0027729193679988384,0.0005317411269061267,0.0008803963428363204,0.9981404542922974,0.0,0.0,0.0,0.4159030616283417,1.5113670825958252,4.533210754394531,-75.27928161621094,0
1278.6329999999998,-0.0007362333126366138,-0.0038925891276448965,0.0009136830922216177,0.0,0.0,0.0,0.0,-0.0003316692018415779,0.002297059167176485,-0.00024914563982747495,1.0009058713912964,0.0,0.0,0.0,0.4161830246448517,1.5075392723083496,4.527990341186523,-75.3299560546875,0
1288.5460000000003,-0.0007092618616297841,-0.003899520030245185,0.0009638683404773474,0.0,0.0,0.0,0.0,-0.0015065884217619896,0.0016791053349152207,-0.00292184273712337,1.0003913640975952,0.0,0.0,0.0,0.42715564370155334,1.5048446655273438,4.538453102111816,-77.3160171508789,0
1298.4570000000003,-0.0007575047784484923,-0.0039282310754060745,0.0009949184022843838,0.0,0.0,0.0,0.0,0.002365867607295513,-0.0018743452383205295,-0.0029527375008910894,1.0009169578552246,0.0,0.0,0.0,0.42560896277427673,1.4990403652191162,4.520565509796143,-77.03607177734375,0
1308.3730000000014,-0.0007227474707178771,-0.003922664560377598,0.0010312009835615754,0.0,0.0,0.0,0.0,-0.0010044389637187123,0.006072014570236206,-0.000788757111877203,0.9999597072601318,0.0,0.0,0.0,0.4333193302154541,1.5043786764144897,4.538244247436523,-78.4316635131836,0
1318.2800000000007,-0.0007730558281764388,-0.00394921051338315,0.001065960619598627,0.0,0.0,0.0,0.0,-0.001783679355867207,0.00030220390181057155,-0.0023760730400681496,0.9989467263221741,0.0,0.0,0.0,0.4316510558128357,1.5026147365570068,4.537662029266357,-78.12969970703125,0
1328.192000000001,-0.0007389654638245702,-0.003947343211621046,0.0010851764818653464,0.0,0.0,0.0,0.0,-0.003109033452346921,0.00040101289050653577,-0.0008441011887043715,1.0003269910812378,0.0,0.0,0.0,0.4410768449306488,1.5027878284454346,4.55989933013916,-79.83578491210938,0
1338.1050000000014,-0.0007877323660068214,-0.003974115010350943,0.0011207691859453917,0.0,0.0,0.0,0.0,-0.0013946646358817816,0.00539336446672678,-0.001131838303990662,0.9985041618347168,0.0,0.0,0.0,0.43990498781204224,1.507758617401123,4.554049015045166,-79.62367248535156,0
1348.0150000000012,-0.0007849223329685628,-0.0039764512330293655,0.0011365865357220173,0.0,0.0,0.0,0.0,-0.0016123929526656866,0.0006101673934608698,-0.0012084300396963954,1.0001468658447266,0.0,0.0,0.0,0.43914520740509033,1.512715220451355,4.536428451538086,-79.48615264892578,0
1357.9279999999999,-0.0008336452883668244,-0.00400294316932559,0.0011723421048372984,0.0,0.0,0.0,0.0,-0.00018087340868078172,-0.00021139520686119795,0.0006608502590097487,0.9996477365493774,0.0,0.0,0.0,0.4397020637989044,1.5144414901733398,4.52459192276001,-79.58695220947266,0
1367.844000000001,-0.0008108681649900973,-0.004002496134489775,0.0011684936471283436,0.0,0.0,0.0,0.0,-0.002486184239387512,0.0010152225149795413,0.0006336161750368774,0.9998436570167542,0.0,0.0,0.0,0.43908482789993286,1.5171728134155273,4.509390354156494,-79.47522735595703,0
1377.7520000000004,-0.000856830389238894,-0.004028347786515951,0.0012037863489240408,0.0,0.0,0.0,0.0,-0.0026780718471854925,-0.007698100991547108,0.003559918375685811,1.000091314315796,0.0,0.0,0.0,0.4395214915275574,1.5150060653686523,4.515592575073242,-79.55426788330078,0
1387.6630000000005,-0.0008398792706429958,-0.004029640927910805,0.0011988225160166621,0.0,0.0,0.0,0.0,0.004579054657369852,-0.002291690092533827,-0.002217088593170047,0.9998747706413269,0.0,0.0,0.0,0.43940380215644836,1.510591745376587,4.500634670257568,-79.532958984375,0
1397.5750000000007,-0.0008863054681569338,-0.004054157994687557,0.0012342252302914858,0.0,0.0,0.0,0.0,0.0012597583699971437,-0.003539635566994548,-0.0005005630082450807,1.0010755062103271,0.0,0.0,0.0,0.4391467273235321,1.5135085582733154,4.510026454925537,-79.4864273071289,0
1407.4899999999998,-0.0008643207256682217,-0.004044267814606428,0.0012297026114538312,0.0,0.0,0.0,0.0,-0.0020548333413898945,0.0010337006533518434,0.0037099425680935383,0.99957674741745,0.0,0.0,0.0,0.43624287843704224,1.5111631155014038,4.541132926940918,-78.96082305908203,0
1417.398000000001,-0.0009096015710383654,-0.004069244489073753,0.001266954350285232,0.0,0.0,0.0,0.0,0.0006287971627898514,0.0025752270594239235,0.00136203458532691,0.9990319013595581,0.0,0.0,0.0,0.4355300962924957,1.5080668926239014,4.544067859649658,-78.83181762695312,0
1427.3100000000013,-0.0008828783757053316,-0.004063623491674662,0.0012672495795413852,0.0,0.0,0.0,0.0,0.0016329644713550806,0.0010718597332015634,0.0032825826201587915,1.0002703666687012,0.0,0.0,0.0,0.4390747547149658,1.5041987895965576,4.561289310455322,-79.47340393066406,0
1437.2260000000006,-0.0009253710159100592,-0.0040879701264202595,0.0013047803658992052,0.0,0.0,0.0,0.0,0.0028668108861893415,0.00038465633406303823,0.0015637236647307873,1.0019128322601318,0.0,0.0,0.0,0.4393309950828552,1.4980896711349487,4.557343482971191,-79.51978302001953,0
1447.134,-0.0008417812059633434,-0.004062834661453962,0.0012854929082095623,0.0,0.0,0.0,0.0,0.0022218874655663967,0.005244673695415258,-0.0002781882358249277,1.0012006759643555,0.0,0.0,0.0,0.43738943338394165,1.4932851791381836,4.615281105041504,-79.1683578491211,0
1457.0470000000005,-0.0008783950470387936,-0.00408558826893568,0.0013262396678328514,0.0,0.0,0.0,0.0,0.003168160794302821,-0.003923129290342331,0.002263098955154419,0.9978503584861755,0.0,0.0,0.0,0.43713635206222534,1.4899704456329346,4.6055474281311035,-79.12255096435547,0
1466.964,-0.000844852183945477,-0.004120861645787954,0.0013343194732442498,0.0,0.0,0.0,0.0,-0.003646900411695242,-0.001881650649011135,0.002645311411470175,0.9984030723571777,0.0,0.0,0.0,0.4369151294231415,1.4718886613845825,4.629702568054199,-79.08251190185547,0
1476.8700000000008,-0.0008803250384517014,-0.004146447405219078,0.0013737427070736885,0.0,0.0,0.0,0.0,-0.0007481268839910626,0.000894270371645689,-9.392294305143878e-05,1.0004581212997437,0.0,0.0,0.0,0.4364974796772003,1.4685956239700317,4.623432159423828,-79.00691223144531,0
1486.7870000000003,-0.0008249436505138874,-0.004154701717197895,0.0013775944244116545,0.0,0.0,0.0,0.0,-0.0022536918986588717,0.0033594744745641947,-0.0004092689196113497,0.998852014541626,0.0,0.0,0.0,0.4427591860294342,1.4649841785430908,4.666479110717773,-80.14028930664062,0
1496.6949999999997,-0.0008575088577345014,-0.004180215299129486,0.0014161572325974703,0.0,0.0,0.0,0.0,0.0042878324165940285,0.0036499728448688984,-0.0010546796256676316,1.000072956085205,0.0,0.0,0.0,0.4419533908367157,1.4678618907928467,4.658298015594482,-79.99443817138672,0
1506.6059999999998,-0.0008224878692999482,-0.004174716304987669,0.0014354874147102237,0.0,0.0,0.0,0.0,0.00012002295989077538,0.002113359747454524,0.00393191771581769,1.0022261142730713,0.0,0.0,0.0,0.4481944739818573,1.473751187324524,4.670011043548584,-81.12408447265625,0
1516.518,-0.0008514973451383412,-0.004201526287943125,0.001475287601351738,0.0,0.0,0.0,0.0,0.001406299415975809,0.00033273742883466184,-0.001076399814337492,1.000472903251648,0.0,0.0,0.0,0.4475170075893402,1.4667472839355469,4.66688871383667,-81.00147247314453,0
1526.434000000001,-0.0008719910983927548,-0.004230729769915342,0.0015436233952641487,0.0,0.0,0.0,0.0,-0.00018921912123914808,-0.0019895604345947504,0.002790211234241724,0.9999381899833679,0.0,0.0,0.0,0.4467686712741852,1.454394817352295,4.649611949920654,-80.86601257324219,0
1536.3420000000006,-0.0008719910983927548,-0.004230729769915342,0.0015436233952641487,0.0,0.0,0.0,0.0,0.0004637851961888373,0.0007047520484775305,0.0021244939416646957,0.9987298846244812,0.0,0.0,0.0,0.4467686712741852,1.454394817352295,4.649611949920654,-80.86601257324219,0
1546.2540000000008,-0.0008674142300151289,-0.004271447658538818,0.0016230236506089568,0.0,0.0,0.0,0.0,-0.0001262545119971037,-0.0032921461388468742,-0.000599294900894165,1.0002979040145874,0.0,0.0,0.0,0.44595858454704285,1.457457423210144,4.644886016845703,-80.71939086914062,0
1556.166000000001,-0.0008674142300151289,-0.004271447658538818,0.0016230236506089568,0.0,0.0,0.0,0.0,0.0006327189621515572,-0.002060909755527973,-0.0020444595720618963,0.9993962645530701,0.0,0.0,0.0,0.44595858454704285,1.457457423210144,4.644886016845703,-80.71939086914062,0
1566.0780000000013,-0.0008622262976132333,-0.0042953514494001865,0.0016898834146559238,0.0,0.0,0.0,0.0,-6.633398879785091e-05,0.0021968912333250046,0.0010863780044019222,1.0009503364562988,0.0,0.0,0.0,0.4458235204219818,1.459976315498352,4.638997554779053,-80.6949462890625,0
1575.9899999999998,-0.0008622262976132333,-0.0042953514494001865,0.0016898834146559238,0.0,0.0,0.0,0.0,-0.0002850902092177421,0.0016394469421356916,0.0012892840895801783,0.9988569617271423,0.0,0.0,0.0,0.4458235204219818,1.459976315498352,4.638997554779053,-80.6949462890625,0
1585.911,-0.0008531693019904196,-0.004360721912235022,0.0017296134028583765,0.0,0.0,0.0,0.0,-7.736943371128291e-05,-0.0021409662440419197,0.001485042623244226,0.9994081258773804,0.0,0.0,0.0,0.4462306499481201,1.458464503288269,4.636763572692871,-80.76863098144531,0
1595.817000000001,-0.0008786084945313632,-0.004400808829814196,0.0017735216533765197,0.0,0.0,0.0,0.0,-0.000726658443454653,0.0026649250648915768,-0.0017009860603138804,1.0005810260772705,0.0,0.0,0.0,0.447086364030838,1.457533597946167,4.631002426147461,-80.92351531982422,0
1605.7380000000012,-0.0008596224943175912,-0.004455076530575752,0.0018024083692580462,0.0,0.0,0.0,0.0,-0.001962782582268119,0.0005803821259178221,-0.0013743180315941572,0.9990972876548767,0.0,0.0,0.0,0.4451146721839905,1.455951452255249,4.623043060302734,-80.56664276123047,0
1615.6400000000012,-0.0008838665671646595,-0.0044982824474573135,0.0018455700483173132,0.0,0.0,0.0,0.0,-0.0004086334374733269,-0.0008310737321153283,-0.0006425660103559494,0.9988617300987244,0.0,0.0,0.0,0.44382888078689575,1.4585487842559814,4.613512992858887,-80.33390808105469,0
1625.558000000001,-0.0008812801679596305,-0.0045049418695271015,0.0018630251288414001,0.0,0.0,0.0,0.0,0.004161039832979441,0.0028580871876329184,-0.0017243872862309217,0.9997269511222839,0.0,0.0,0.0,0.4434683620929718,1.453325629234314,4.606198310852051,-80.26866149902344,0
1635.4620000000014,-0.0009073895053006709,-0.004548332653939724,0.0019057255703955889,0.0,0.0,0.0,0.0,-0.0010659154504537582,0.004178257659077644,0.0012428831541910768,1.0001769065856934,0.0,0.0,0.0,0.44348838925361633,1.4557991027832031,4.603191375732422,-80.27227783203125,0
1645.3810000000012,-0.0008775757742114365,-0.004549998324364424,0.0019263563444837928,0.0,0.0,0.0,0.0,-0.0022355476394295692,0.0003903564647771418,0.0030479824636131525,1.0004737377166748,0.0,0.0,0.0,0.4498477578163147,1.458463191986084,4.615969181060791,-81.42334747314453,0
1655.2900000000009,-0.0009062302415259182,-0.00459571136161685,0.001970764948055148,0.0,0.0,0.0,0.0,0.0007135547930374742,0.0005070071201771498,0.0004470888525247574,1.0020222663879395,0.0,0.0,0.0,0.45000389218330383,1.4574062824249268,4.619042873382568,-81.45159912109375,0
1665.205,-0.0009112130501307547,-0.004598024766892195,0.001995995407924056,0.0,0.0,0.0,0.0,-0.002515766303986311,0.0024976278655231,0.0017071118345484138,0.9991202354431152,0.0,0.0,0.0,0.44965651631355286,1.4547336101531982,4.609711170196533,-81.38872528076172,0
1675.112000000001,-0.0009430469945073128,-0.004644752014428377,0.002043935004621744,0.0,0.0,0.0,0.0,0.001439242740161717,0.0004960580845363438,-0.0007696771644987166,1.000770092010498,0.0,0.0,0.0,0.45019641518592834,1.4487489461898804,4.596376895904541,-81.48644256591797,0
1685.0290000000005,-0.0009222854860126972,-0.004649810958653688,0.002084399340674281,0.0,0.0,0.0,0.0,-0.0027483876328915358,0.00021629214461427182,-0.0003677743370644748,0.9995863437652588,0.0,0.0,0.0,0.4511234164237976,1.4543750286102295,4.598323822021484,-81.65423583984375,0
1694.934000000001,-0.0006040156004019082,-0.003180001163855195,-0.00014143901353236288,0.0,0.0,0.0,0.0,0.0014340878697112203,-0.0010530289728194475,0.00289950636215508,0.9982286691665649,0.0,0.0,0.0,0.4301012456417084,1.557323932647705,4.613990306854248,-77.84918212890625,0
1704.8600000000006,-0.0005143617163412273,-0.003225520020350814,-5.7792451116256416e-05,0.0,0.0,0.0,0.0,-0.0036065576132386923,0.002752741565927863,0.0009021089063026011,1.0010099411010742,0.0,0.0,0.0,0.43716174364089966,1.5566462278366089,4.627684593200684,-79.12714385986328,0
1714.7610000000004,-0.0005396885680966079,-0.0032424565870314837,-4.726367478724569e-05,0.0,0.0,0.0,0.0,0.004707490559667349,0.0019457403104752302,-0.00022402254398912191,0.999098539352417,0.0,0.0,0.0,0.4382888078689575,1.5576634407043457,4.620479106903076,-79.33114624023438,0
1724.6850000000013,-0.0005674059502780437,-0.0032593924552202225,-3.659962385427207e-05,0.0,0.0,0.0,0.0,-0.0023248440120369196,0.0009514439152553678,-0.003913189750164747,0.9996933937072754,0.0,0.0,0.0,0.4374260902404785,1.5600414276123047,4.601539611816406,-79.17499542236328,0
1734.5810000000001,-0.0005967407487332821,-0.0032768354285508394,-2.6203037123195827e-05,0.0,0.0,0.0,0.0,-0.0008481382974423468,-0.0005966476164758205,0.00034060259349644184,1.0012394189834595,0.0,0.0,0.0,0.4361647963523865,1.554094910621643,4.594587326049805,-78.94669342041016,0
1744.5030000000006,-0.0005137091502547264,-0.003297487972304225,2.4415830921498127e-05,0.0,0.0,0.0,0.0,-0.001259815413504839,0.002594554563984275,-0.004586922470480204,0.999584436416626,0.0,0.0,0.0,0.4349197447299957,1.556282877922058,4.585501194000244,-78.72134399414062,0
1754.4060000000009,-0.0005442211986519396,-0.0033157120924443007,3.738449595402926e-05,0.0,0.0,0.0,0.0,0.0004316841368563473,-0.0005026825820095837,0.0024439527187496424,0.9990783929824829,0.0,0.0,0.0,0.43490782380104065,1.5583837032318115,4.581089973449707,-78.71917724609375,0
1764.3280000000013,-0.0005708704702556133,-0.003329135477542877,5.893017805647105e-05,0.0,0.0,0.0,0.0,-0.0016296610701829195,0.0013057320611551404,0.001438426086679101,0.9987608790397644,0.0,0.0,0.0,0.43251168727874756,1.5633243322372437,4.565667629241943,-78.28546905517578,0
1774.2290000000012,-0.0006048416835255921,-0.003346752841025591,7.175518840085715e-05,0.0,0.0,0.0,0.0,0.0016295954119414091,-0.001210614456795156,0.0015282310778275132,0.9984005689620972,0.0,0.0,0.0,0.43401312828063965,1.5630704164505005,4.558122634887695,-78.55724334716797,0
1784.1530000000002,-0.0005912392516620457,-0.0033525731414556503,0.00010237104288535193,0.0,0.0,0.0,0.0,-0.0006718666409142315,-0.0007010445115156472,-0.0007636138470843434,0.9978601932525635,0.0,0.0,0.0,0.4349803030490875,1.5639114379882812,4.562911510467529,-78.7322998046875,0
1794.054,-0.0006267551798373461,-0.0033682945650070906,0.00011399668437661603,0.0,0.0,0.0,0.0,0.001940461341291666,0.0014879652298986912,-0.004163296427577734,1.0010836124420166,0.0,0.0,0.0,0.43481218814849854,1.558761715888977,4.560867786407471,-78.70186614990234,0
1803.9719999999998,-0.000608771457336843,-0.003377864370122552,0.000134818532387726,0.0,0.0,0.0,0.0,-0.0016048795077949762,-0.0002076331147691235,0.0025895072612911463,1.0003312826156616,0.0,0.0,0.0,0.4339514374732971,1.5611728429794312,4.556764602661133,-78.54607391357422,0
1813.8770000000004,-0.0006490540108643472,-0.0033911613281816244,0.00014601500879507512,0.0,0.0,0.0,0.0,-0.0026474762707948685,0.001660935115069151,-0.0014448108850046992,0.9997559189796448,0.0,0.0,0.0,0.43363112211227417,1.5579516887664795,4.549354553222656,-78.48809814453125,0
1823.7939999999999,-0.0006216111942194402,-0.0033944128081202507,0.00017546990420669317,0.0,0.0,0.0,0.0,0.0034862211905419827,0.0005112983053550124,-0.00018592322885524482,0.9987720251083374,0.0,0.0,0.0,0.43339312076568604,1.5573614835739136,4.55597448348999,-78.44501495361328,0
1833.7020000000011,-0.0006668475107289851,-0.003407171228900552,0.00018901587463915348,0.0,0.0,0.0,0.0,0.0001972724567167461,-0.00018081064627040178,0.0029214622918516397,0.9975272417068481,0.0,0.0,0.0,0.4319555163383484,1.5579882860183716,4.5407328605651855,-78.18480682373047,0
1843.616,-0.0006804576842114329,-0.003421662375330925,0.00022928747057449073,0.0,0.0,0.0,0.0,0.0023625341709703207,0.001832679146900773,0.00045939558185636997,1.0002566576004028,0.0,0.0,0.0,0.4324702322483063,1.5476185083389282,4.533252239227295,-78.27796936035156,0
1853.5249999999996,-0.0006804576842114329,-0.003421662375330925,0.00022928747057449073,0.0,0.0,0.0,0.0,-0.0012855259701609612,0.001646153861656785,0.0017096295487135649,1.0007269382476807,0.0,0.0,0.0,0.4324702322483063,1.5476185083389282,4.533252239227295,-78.27796936035156,0
1863.4539999999997,-0.000707675761077553,-0.0034385966137051582,0.0002647633373271674,0.0,0.0,0.0,0.0,0.0011971790809184313,3.7935253203613684e-05,0.00036077419645152986,1.0004053115844727,0.0,0.0,0.0,0.4314243197441101,1.5396419763565063,4.524657726287842,-78.08866119384766,0
1873.3490000000002,-0.000707675761077553,-0.0034385966137051582,0.0002647633373271674,0.0,0.0,0.0,0.0,0.00034997137845493853,-0.0034660459496080875,-9.483466419624165e-05,1.0014704465866089,0.0,0.0,0.0,0.4314243197441101,1.5396419763565063,4.524657726287842,-78.08866119384766,0
1883.2700000000004,-0.0006763976998627186,-0.003450338961556554,0.0003148146206513047,0.0,0.0,0.0,0.0,0.002089344197884202,-0.00285811023786664,-0.0023778779432177544,1.0003043413162231,0.0,0.0,0.0,0.43715012073516846,1.5382224321365356,4.541672229766846,-79.12504577636719,0
1893.1779999999999,-0.0006763976998627186,-0.003450338961556554,0.0003148146206513047,0.0,0.0,0.0,0.0,0.0027980066370218992,0.0016130262520164251,-0.00028534355806186795,1.0008026361465454,0.0,0.0,0.0,0.43715012073516846,1.5382224321365356,4.541672229766846,-79.12504577636719,0
1903.0950000000012,-0.0006101137842051685,-0.003455570200458169,0.00035151003976352513,0.0,0.0,0.0,0.0,-0.0006023881142027676,-0.0030723128002136946,0.0007391965482383966,1.0005106925964355,0.0,0.0,0.0,0.43587952852249146,1.5364224910736084,4.543848037719727,-78.89506530761719,0
1913.0,-0.0005801360821351409,-0.0031951707787811756,-1.6488987967022695e-05,0.0,0.0,0.0,0.0,0.0026058009825646877,0.003413143800571561,-0.0023555767256766558,1.0006381273269653,0.0,0.0,0.0,0.4193991422653198,1.587066411972046,4.5459699630737305,-75.91207885742188,0
1922.9260000000013,-0.0005231802933849394,-0.003218358615413308,5.0059257773682475e-05,0.0,0.0,0.0,0.0,0.0013259743573144078,0.0007165315328165889,0.0013296219985932112,0.9983277320861816,0.0,0.0,0.0,0.4190010130405426,1.5845040082931519,4.539992809295654,-75.84001922607422,0
1932.8240000000005,-0.0005717453896068037,-0.003212898736819625,5.9195648645982146e-05,0.0,0.0,0.0,0.0,0.0009368994506075978,-0.002307457849383354,-0.0017651626840233803,0.9996442198753357,0.0,0.0,0.0,0.41834983229637146,1.5755987167358398,4.530159950256348,-75.72216033935547,0
1942.7440000000006,-0.0005083312280476093,-0.0032296187710016966,7.804148481227458e-05,0.0,0.0,0.0,0.0,0.0019396125571802258,-0.0028308560140430927,-0.0007221212727017701,0.9987251162528992,0.0,0.0,0.0,0.41852810978889465,1.573106050491333,4.528135299682617,-75.7544174194336,0
1952.648000000001,-0.0005569577915593982,-0.0032271118834614754,8.598671411164105e-05,0.0,0.0,0.0,0.0,0.0016380171291530132,0.00027139781741425395,0.0007575172930955887,1.0006979703903198,0.0,0.0,0.0,0.4171774387359619,1.5680710077285767,4.520467758178711,-75.50994873046875,0
1962.5820000000003,-0.0005718040047213435,-0.0032325610518455505,8.695101860212162e-05,0.0,0.0,0.0,0.0,0.0013407249934971333,-0.0011654564877972007,-0.0006763226119801402,0.9998892545700073,0.0,0.0,0.0,0.41685420274734497,1.5670980215072632,4.520562171936035,-75.4514389038086,0
1972.4750000000004,-0.0006222911179065704,-0.0032288162037730217,9.374973160447553e-05,0.0,0.0,0.0,0.0,-0.0022595026530325413,0.004385900683701038,0.0037160979118198156,1.0004314184188843,0.0,0.0,0.0,0.4170757532119751,1.5641109943389893,4.512688636779785,-75.49153900146484,0
1982.3970000000008,-0.0006007032352499664,-0.0032446475233882666,8.263739437097684e-05,0.0,0.0,0.0,0.0,0.0019056509481742978,-0.0017456081695854664,0.0025025191716849804,1.0007237195968628,0.0,0.0,0.0,0.4233035147190094,1.5511945486068726,4.517393112182617,-76.6187744140625,0
1992.3010000000013,-0.000650910020340234,-0.0032433236483484507,8.885193528840318e-05,0.0,0.0,0.0,0.0,-0.0007091490551829338,-0.0004420776094775647,-0.0038939081132411957,0.9996415376663208,0.0,0.0,0.0,0.42300063371658325,1.5503877401351929,4.510214328765869,-76.56395721435547,0
2002.214,-0.0005655096611008048,-0.0032471646554768085,9.876678814180195e-05,0.0,0.0,0.0,0.0,0.002266148803755641,0.0005065370933152735,-0.0031622513197362423,1.0006091594696045,0.0,0.0,0.0,0.4231501817703247,1.5487483739852905,4.505941390991211,-76.59102630615234,0
2012.1270000000004,-0.0006160626653581858,-0.0032474687322974205,0.0001059840724337846,0.0,0.0,0.0,0.0,-0.0019173590699210763,-0.0077574593015015125,0.0016812818357720971,0.9989559054374695,0.0,0.0,0.0,0.4219696819782257,1.5412533283233643,4.5035271644592285,-76.37734985351562,0
2022.0429999999997,-0.000552693905774504,-0.0032411161810159683,0.00013085882528685033,0.0,0.0,0.0,0.0,-0.001501561258919537,-0.0014398596249520779,0.002499321708455682,0.9974334239959717,0.0,0.0,0.0,0.4219081997871399,1.5414395332336426,4.5025434494018555,-76.36622619628906,0
2031.9490000000005,-0.0006018503336235881,-0.0032426139805465937,0.00013966127880848944,0.0,0.0,0.0,0.0,0.0005797385820187628,-0.0046852389350533485,0.0028692393098026514,0.9985410571098328,0.0,0.0,0.0,0.421272337436676,1.5439233779907227,4.5052809715271,-76.25112915039062,0
2041.8720000000012,-0.0005925432778894901,-0.0032532070763409138,0.00014026513963472098,0.0,0.0,0.0,0.0,0.0010396323632448912,-0.001230384805239737,-0.002838246524333954,1.0004432201385498,0.0,0.0,0.0,0.4195963144302368,1.5538957118988037,4.502103805541992,-75.94776916503906,0
2051.776,-0.0006011021323502064,-0.0031464400235563517,-1.86544239113573e-05,0.0,0.0,0.0,0.0,-0.0015504289185628295,0.00023711088579148054,-0.0009664776152931154,1.0004101991653442,0.0,0.0,0.0,0.40715569257736206,1.5800873041152954,4.511203289031982,-73.69599151611328,0
2061.6890000000003,-0.0005378961213864386,-0.0031793909147381783,3.311948967166245e-05,0.0,0.0,0.0,0.0,0.0001905571116367355,0.0022934877779334784,-2.1870935597689822e-05,0.9994049668312073,0.0,0.0,0.0,0.4124067723751068,1.5724116563796997,4.521546363830566,-74.64644622802734,0
2071.5960000000014,-0.0005869361339136958,-0.003180836094543338,3.376443055458367e-05,0.0,0.0,0.0,0.0,-0.0007805343484506011,0.00042901793494820595,-0.0014389731222763658,1.0001426935195923,0.0,0.0,0.0,0.4112602472305298,1.5698320865631104,4.516927242279053,-74.43891906738281,0
2081.51,-0.0005012836190871894,-0.00320236524567008,4.9258269427809864e-05,0.0,0.0,0.0,0.0,-0.0018002573633566499,0.0027851234190165997,0.003399730660021305,1.0001338720321655,0.0,0.0,0.0,0.4107159376144409,1.5625559091567993,4.511443614959717,-74.34040069580078,0
2091.4260000000013,-0.00055028434144333,-0.003201560815796256,5.087044701213017e-05,0.0,0.0,0.0,0.0,0.00018268173153046519,0.0010243305005133152,-0.0022499910555779934,1.001286268234253,0.0,0.0,0.0,0.41105765104293823,1.5596874952316284,4.497408866882324,-74.40225219726562,0
2101.3410000000003,-0.0006016298430040479,-0.0031989384442567825,5.301190685713664e-05,0.0,0.0,0.0,0.0,0.0004923979286104441,-0.004753471817821264,0.0029746703803539276,1.0003917217254639,0.0,0.0,0.0,0.4104248583316803,1.5518351793289185,4.481525897979736,-74.2877197265625,0
2111.2480000000014,-0.000654663541354239,-0.003195846686139703,5.6255936215166e-05,0.0,0.0,0.0,0.0,-0.0010556444758549333,0.00029279946465976536,-0.0009598164469935,0.9994118809700012,0.0,0.0,0.0,0.41059473156929016,1.5525628328323364,4.484923839569092,-74.31846618652344,0
2121.157000000001,-0.0005519179976545274,-0.0031990327406674623,7.862217171350494e-05,0.0,0.0,0.0,0.0,-0.002218585927039385,-0.0008070689509622753,0.0015037554549053311,1.0012853145599365,0.0,0.0,0.0,0.4147939085960388,1.5441890954971313,4.524747848510742,-75.07852172851562,0
2131.0740000000005,-0.0006011780351400375,-0.00319596566259861,8.40903157950379e-05,0.0,0.0,0.0,0.0,0.002503968309611082,-0.0009039341239258647,0.0018904092721641064,0.999891459941864,0.0,0.0,0.0,0.4142349064350128,1.5494043827056885,4.520443916320801,-74.97734832763672,0
