timestamp,stateEstimate.x,stateEstimate.y,stateEstimate.z,controller.cmd_thrust,controller.cmd_roll,controller.cmd_pitch,controller.cmd_yaw,controller.r_roll,controller.r_pitch,controller.r_yaw,controller.accelz,controller.actuatorThrust,controller.roll,controller.pitch,controller.yaw,controller.rollRate,controller.pitchRate,controller.yawRate,controller.ctr_yaw
0.0,-0.025585345923900604,-0.021438149735331535,1.8994564015883952e-05,0.0,0.0,0.0,0.0,-0.0015741633251309395,-0.0011101259151473641,-0.0008331964490935206,0.9987362027168274,0.0,0.0,0.0,1.559455156326294,0.7622203826904297,3.988109827041626,-282.26446533203125,0
9.92200000000048,-0.0256067905575037,-0.02143864333629608,1.8935897969640791e-06,0.0,0.0,0.0,0.0,0.00306334113702178,-0.00436792429536581,-0.0007987145218066871,0.9978870153427124,0.0,0.0,0.0,1.5565826892852783,0.7577513456344604,3.9833357334136963,-281.74456787109375,0
19.827000000001135,-0.025628412142395973,-0.021440189331769943,-1.6136262274812907e-05,0.0,0.0,0.0,0.0,-0.0007817375590093434,-0.00041186396265402436,0.0015628553228452802,0.9985861778259277,0.0,0.0,0.0,1.5545018911361694,0.7570893168449402,3.976029872894287,-281.367919921875,0
29.7450000000008,-0.02565097063779831,-0.021442729979753494,-3.5866360121872276e-05,0.0,0.0,0.0,0.0,-0.0005435272469185293,-0.001997796818614006,0.0012596998130902648,0.9995560050010681,0.0,0.0,0.0,1.553037405014038,0.75440913438797,3.970019578933716,-281.1028747558594,0
39.64400000000023,-0.025674661621451378,-0.02144554629921913,-5.670537211699411e-05,0.0,0.0,0.0,0.0,0.0027633944991976023,0.0028369359206408262,-0.0013567066052928567,0.9992420077323914,0.0,0.0,0.0,1.5513161420822144,0.7594005465507507,3.9684929847717285,-280.79132080078125,0
49.57099999999991,-0.02569962851703167,-0.021448438987135887,-7.848921086406335e-05,0.0,0.0,0.0,0.0,0.0008227424696087837,-0.00041918159695342183,0.0016987451817840338,1.000054121017456,0.0,0.0,0.0,1.549940824508667,0.7542517185211182,3.9531328678131104,-280.5423889160156,0
59.47099999999955,-0.025544576346874237,-0.021376732736825943,4.2821320676011965e-05,0.0,0.0,0.0,0.0,-0.0011509518371894956,0.0029995557852089405,0.0030138068832457066,1.0012508630752563,0.0,0.0,0.0,1.5648844242095947,0.7634250521659851,3.9823548793792725,-283.2472229003906,0
69.39099999999962,-0.025561487302184105,-0.021375972777605057,2.9174505471019074e-05,0.0,0.0,0.0,0.0,0.0019078993937000632,-0.0017036852659657598,-0.0016557668568566442,1.0008753538131714,0.0,0.0,0.0,1.5624927282333374,0.76197749376297,3.9770455360412598,-282.8143005371094,0
79.29299999999967,-0.02557922899723053,-0.02137615904211998,1.659064946579747e-05,0.0,0.0,0.0,0.0,0.002363605657592416,-0.005235256161540747,0.0016597434878349304,0.9990106821060181,0.0,0.0,0.0,1.5610692501068115,0.7670846581459045,3.9761314392089844,-282.556640625,0
89.21900000000096,-0.02559696137905121,-0.021376602351665497,4.7026660467963666e-06,0.0,0.0,0.0,0.0,-0.0003631944127846509,0.0010691593633964658,-0.002045204397290945,1.000255823135376,0.0,0.0,0.0,1.5592949390411377,0.7690618634223938,3.9770493507385254,-282.2355041503906,0
99.12800000000061,-0.025614982470870018,-0.02137625962495804,-7.244543667184189e-06,0.0,0.0,0.0,0.0,0.0009074058616533875,-0.0010000882903113961,0.0009146491647697985,0.9973097443580627,0.0,0.0,0.0,1.55662202835083,0.7602444887161255,3.977067470550537,-281.7516784667969,0
109.05299999999988,-0.025634512305259705,-0.021374600008130074,-1.9810297089861706e-05,0.0,0.0,0.0,0.0,0.0018917047418653965,0.0030410168692469597,0.0028626048006117344,0.9980695247650146,0.0,0.0,0.0,1.5549863576889038,0.7646229863166809,3.975754976272583,-281.45562744140625,0
118.95499999999993,-0.02565499022603035,-0.021370740607380867,-3.408136035432108e-05,0.0,0.0,0.0,0.0,0.0018961097812280059,0.003196682780981064,-0.0011881899554282427,0.9991971850395203,0.0,0.0,0.0,1.5546642541885376,0.768096387386322,3.977494239807129,-281.3973083496094,0
128.8739999999998,-0.025676226243376732,-0.0213643629103899,-5.013512054574676e-05,0.0,0.0,0.0,0.0,-0.000977786141447723,0.0021479192655533552,-0.004305747803300619,0.9988440275192261,0.0,0.0,0.0,1.552535891532898,0.7668858170509338,3.9663288593292236,-281.0120849609375,0
138.77700000000004,-0.02569855935871601,-0.021356908604502678,-6.697555363643914e-05,0.0,0.0,0.0,0.0,0.000409089436288923,-0.001534961862489581,-0.0020546121522784233,0.999165415763855,0.0,0.0,0.0,1.5501042604446411,0.7721456289291382,3.9612298011779785,-280.57196044921875,0
148.69700000000012,-0.0254562646150589,-0.021325740963220596,9.712351129564922e-06,0.0,0.0,0.0,0.0,0.002064464148133993,0.0031655305065214634,0.005486390553414822,1.0008518695831299,0.0,0.0,0.0,1.5699821710586548,0.7775335907936096,4.026542663574219,-284.1698913574219,0
158.60200000000077,-0.025464676320552826,-0.02131710946559906,-2.8311378628131934e-06,0.0,0.0,0.0,0.0,-0.000710588414222002,0.00034808312193490565,-0.001419967389665544,1.0011075735092163,0.0,0.0,0.0,1.569003701210022,0.7677921056747437,4.019062042236328,-283.9927978515625,0
168.53700000000026,-0.02540186233818531,-0.02130202017724514,3.794490112341009e-06,0.0,0.0,0.0,0.0,0.001620489521883428,-0.0012505055638030171,-0.0008871585596352816,0.9993916153907776,0.0,0.0,0.0,1.591305136680603,0.7635450959205627,4.025853633880615,-288.0293884277344,0
178.4320000000007,-0.02540859393775463,-0.021293113008141518,-6.441880032070912e-06,0.0,0.0,0.0,0.0,-0.0003737236256711185,0.004395375493913889,0.0021073573734611273,0.9993039965629578,0.0,0.0,0.0,1.5903280973434448,0.7577426433563232,4.021463394165039,-287.8525390625,0
188.34799999999996,-0.025416145101189613,-0.021284816786646843,-1.693803096713964e-05,0.0,0.0,0.0,0.0,-0.000652022659778595,0.001267897547222674,-0.0019127213163301349,0.999445915222168,0.0,0.0,0.0,1.5887901782989502,0.7608353495597839,4.005346298217773,-287.5741882324219,0
198.2450000000008,-0.025423292070627213,-0.021277382969856262,-2.7973417672910728e-05,0.0,0.0,0.0,0.0,-0.0008063869900070131,0.003069864818826318,-0.0029502788092941046,1.0023444890975952,0.0,0.0,0.0,1.58828604221344,0.7560197710990906,3.9971792697906494,-287.4829406738281,0
208.15899999999965,-0.02543022483587265,-0.02127130888402462,-3.886473859893158e-05,0.0,0.0,0.0,0.0,0.0003864576283376664,0.0006370063056237996,-0.00069480697857216,1.000551462173462,0.0,0.0,0.0,1.5870450735092163,0.7581563591957092,3.9995954036712646,-287.2583312988281,0
218.0640000000003,-0.02545647881925106,-0.02141520380973816,9.79570540948771e-06,0.0,0.0,0.0,0.0,-0.00030789460288360715,-0.0023483436089009047,0.0008714741561561823,1.0016069412231445,0.0,0.0,0.0,1.5717593431472778,0.7310655117034912,3.9819650650024414,-284.4915466308594,0
227.98899999999958,-0.02546575292944908,-0.021419601514935493,1.2990749382879585e-06,0.0,0.0,0.0,0.0,-0.0037848621141165495,-0.0027662436477839947,0.0022383909672498703,1.0010755062103271,0.0,0.0,0.0,1.5705699920654297,0.7255491018295288,3.987191677093506,-284.27630615234375,0
237.89700000000084,-0.025481514632701874,-0.021524567157030106,-2.4585897335782647e-05,0.0,0.0,0.0,0.0,0.0014792310539633036,-0.0017783489311113954,-0.001135057769715786,0.9979875683784485,0.0,0.0,0.0,1.5468316078186035,0.7013858556747437,3.9840142726898193,-279.9795837402344,0
247.8150000000005,-0.02549317479133606,-0.021535836160182953,-3.381419810466468e-05,0.0,0.0,0.0,0.0,0.000484639109345153,-0.001543251913972199,0.00024935041437856853,0.999374508857727,0.0,0.0,0.0,1.5449347496032715,0.695094883441925,3.970426559448242,-279.6362609863281,0
257.72600000000057,-0.025507338345050812,-0.02154788002371788,-4.373368574306369e-05,0.0,0.0,0.0,0.0,-0.0009080194868147373,0.004177231341600418,-0.005041449796408415,0.9983366131782532,0.0,0.0,0.0,1.5441871881484985,0.6940276622772217,3.9806790351867676,-279.5009765625,0
267.634,-0.025524277240037918,-0.021560247987508774,-5.4831005400046706e-05,0.0,0.0,0.0,0.0,0.002912270836532116,0.0008903760462999344,0.0012753212358802557,1.001118540763855,0.0,0.0,0.0,1.5426931381225586,0.6888052225112915,3.966291666030884,-279.23052978515625,0
277.54299999999967,-0.02554274909198284,-0.021572425961494446,-6.649020360782743e-05,0.0,0.0,0.0,0.0,0.0035409284755587578,-0.0003217880439478904,-0.0025656265206635,0.9989897012710571,0.0,0.0,0.0,1.5409730672836304,0.6902740597724915,3.9550161361694336,-278.9192199707031,0
287.46000000000095,-0.025560444220900536,-0.021583406254649162,-7.82540300861001e-05,0.0,0.0,0.0,0.0,0.0008735522860661149,0.0022454021964222193,-0.001690607168711722,0.9991579651832581,0.0,0.0,0.0,1.5397166013717651,0.6812992095947266,3.9511256217956543,-278.6917724609375,0
297.3630000000012,-0.02557705156505108,-0.021592924371361732,-9.065380436368287e-05,0.0,0.0,0.0,0.0,0.0010647298768162727,-0.005024726036936045,0.0014370622811838984,0.9999911785125732,0.0,0.0,0.0,1.5367337465286255,0.680119514465332,3.949420213699341,-278.15185546875,0
307.2900000000009,-0.02559395506978035,-0.02160176821053028,-0.00010376988211646676,0.0,0.0,0.0,0.0,-0.002454249421134591,-0.004463659133762121,-0.0006119190948083997,1.001319169998169,0.0,0.0,0.0,1.536828875541687,0.6798292398452759,3.9543344974517822,-278.1690979003906,0
317.1859999999997,-0.025611720979213715,-0.021610965952277184,-0.0001167039736174047,0.0,0.0,0.0,0.0,0.0018487325869500637,0.0004327627830207348,-0.0013283189618960023,0.9980130195617676,0.0,0.0,0.0,1.5364214181900024,0.6780385971069336,3.9580461978912354,-278.0953674316406,0
327.1100000000006,-0.025629999116063118,-0.02162073366343975,-0.0001293649256695062,0.0,0.0,0.0,0.0,0.0008305953233502805,-0.0009897226700559258,-0.002142398152500391,0.999997079372406,0.0,0.0,0.0,1.5350565910339355,0.6790052056312561,3.956719160079956,-277.8482971191406,0
337.01400000000103,-0.025648441165685654,-0.02163134515285492,-0.00014267140068113804,0.0,0.0,0.0,0.0,0.002601293846964836,-0.004078537225723267,0.0010504964739084244,1.0003786087036133,0.0,0.0,0.0,1.5343425273895264,0.6787221431732178,3.9610402584075928,-277.71905517578125,0
346.9320000000007,-0.02566711977124214,-0.02164321020245552,-0.0001561934477649629,0.0,0.0,0.0,0.0,0.002465837635099888,-0.0031425589695572853,0.0007573243929073215,1.0003591775894165,0.0,0.0,0.0,1.5318015813827515,0.6750410795211792,3.95540714263916,-277.25909423828125,0
356.83699999999953,-0.025685850530862808,-0.02165626734495163,-0.00016940804198384285,0.0,0.0,0.0,0.0,-8.157525007845834e-05,9.790596959646791e-05,-0.0013469008263200521,1.0000174045562744,0.0,0.0,0.0,1.5306743383407593,0.671656608581543,3.950819492340088,-277.05511474609375,0
366.7479999999996,-0.025704389438033104,-0.02167053148150444,-0.00018238232587464154,0.0,0.0,0.0,0.0,-0.0004680969868786633,-0.0009354056674055755,-0.0019905194640159607,0.9978993535041809,0.0,0.0,0.0,1.5293251276016235,0.6720879077911377,3.9490933418273926,-276.8109130859375,0
376.6660000000011,-0.02572261542081833,-0.021666713058948517,-0.00018020140123553574,0.0,0.0,0.0,0.0,0.0015380510594695807,-0.00772002013400197,-0.0012549808016046882,0.9998223781585693,0.0,0.0,0.0,1.5223357677459717,0.6740437150001526,3.941972255706787,-275.5458068847656,0
386.58500000000095,-0.02574116550385952,-0.02167884260416031,-0.00019369344227015972,0.0,0.0,0.0,0.0,0.0010004168143495917,0.004231434315443039,-0.0018358910456299782,0.998776912689209,0.0,0.0,0.0,1.521342158317566,0.6739227175712585,3.939894676208496,-275.365966796875,0
396.4899999999998,-0.025760266929864883,-0.021690981462597847,-0.00020804177620448172,0.0,0.0,0.0,0.0,0.0006416215328499675,-0.002078921301290393,0.0016990985022857785,0.9998102784156799,0.0,0.0,0.0,1.519604206085205,0.6731442809104919,3.940220355987549,-275.0513916015625,0
406.40600000000086,-0.02577909454703331,-0.021703246980905533,-0.00022310955682769418,0.0,0.0,0.0,0.0,-0.0032581097912043333,-0.004617797676473856,0.0005661298055201769,0.9998541474342346,0.0,0.0,0.0,1.5178773403167725,0.6792615056037903,3.934495449066162,-274.73883056640625,0
416.3130000000001,-0.025798140093684196,-0.021716078743338585,-0.00023843321832828224,0.0,0.0,0.0,0.0,0.0005009453161619604,0.002021495718508959,0.00031410923111252487,1.0007190704345703,0.0,0.0,0.0,1.5162912607192993,0.671649158000946,3.931929349899292,-274.45172119140625,0
426.22000000000116,-0.02581801451742649,-0.021729644387960434,-0.0002534884843043983,0.0,0.0,0.0,0.0,0.00013282640429679304,-0.0027793890330940485,-0.002764105796813965,0.9982099533081055,0.0,0.0,0.0,1.5151338577270508,0.6772727370262146,3.9270741939544678,-274.2422180175781,0
436.134,-0.025837814435362816,-0.021744387224316597,-0.00026866592816077173,0.0,0.0,0.0,0.0,-0.0012617810862138867,-0.0008763106889091432,-0.00220177392475307,0.9986090660095215,0.0,0.0,0.0,1.5128737688064575,0.6763638854026794,3.9202756881713867,-273.8331604003906,0
446.0480000000007,-0.02585725300014019,-0.021760137751698494,-0.00028469882090575993,0.0,0.0,0.0,0.0,-0.001275754300877452,0.006259134039282799,0.0033027224708348513,0.9995389580726624,0.0,0.0,0.0,1.5101639032363892,0.6789169311523438,3.927581548690796,-273.3426513671875,0
455.95600000000013,-0.025832409039139748,-0.02166794426739216,-0.0002617698337417096,0.0,0.0,0.0,0.0,0.0009387808386236429,0.0008884368580766022,-0.0026466497220098972,1.0011470317840576,0.0,0.0,0.0,1.497597098350525,0.7015554308891296,3.93100905418396,-271.06805419921875,0
465.8690000000006,-0.02585047483444214,-0.02168005332350731,-0.00027814277564175427,0.0,0.0,0.0,0.0,-0.0006985177751630545,0.000143448865856044,6.198266055434942e-05,0.9992730021476746,0.0,0.0,0.0,1.4962903261184692,0.7004947066307068,3.918677806854248,-270.83154296875,0
495.60499999999956,-0.02546519972383976,-0.02174678072333336,0.00030228003743104637,0.0,0.0,0.0,0.0,-0.0028150933794677258,0.00023379988851957023,0.00220491667278111,0.9988908767700195,0.0,0.0,0.0,1.518949270248413,0.7064030170440674,3.9660804271698,-274.932861328125,0
505.51800000000003,-0.025470390915870667,-0.0217585526406765,0.00031090437551029027,0.0,0.0,0.0,0.0,0.0017042245017364621,-0.002627975307404995,0.00445414986461401,0.9988759756088257,0.0,0.0,0.0,1.5165354013442993,0.7059494256973267,3.944836139678955,-274.49591064453125,0
515.4300000000003,-0.025477128103375435,-0.02177095226943493,0.00031926450901664793,0.0,0.0,0.0,0.0,-0.00037761780549772084,0.006814238615334034,-0.0050922418013215065,1.00014328956604,0.0,0.0,0.0,1.515109658241272,0.7085010409355164,3.9473018646240234,-274.23785400390625,0
525.3430000000008,-0.025427956134080887,-0.021728496998548508,0.00012648866686504334,0.0,0.0,0.0,0.0,-1.4138856840872904e-06,-0.0027697752229869366,0.0004754956753458828,0.9994019269943237,0.0,0.0,0.0,1.4941593408584595,0.7208664417266846,3.9712276458740234,-270.4458312988281,0
535.2649999999994,-0.0254319217056036,-0.02173791639506817,0.00012366696319077164,0.0,0.0,0.0,0.0,-0.0011897177901118994,0.0023437305353581905,-0.00012098052684450522,1.0019104480743408,0.0,0.0,0.0,1.4926559925079346,0.7205057144165039,3.968019962310791,-270.1737060546875,0
545.1710000000003,-0.025437114760279655,-0.021747782826423645,0.00012089706433471292,0.0,0.0,0.0,0.0,-0.0018483152380213141,-0.001362261245958507,0.0010163659462705255,0.9994516968727112,0.0,0.0,0.0,1.4905612468719482,0.7238959670066833,3.9549474716186523,-269.7945556640625,0
555.0779999999995,-0.02544347196817398,-0.02175719477236271,0.00011834998440463096,0.0,0.0,0.0,0.0,0.0004904188099317253,0.002810837933793664,0.0019060708582401276,0.9989275932312012,0.0,0.0,0.0,1.4910775423049927,0.7204601764678955,3.949877977371216,-269.8880310058594,0
564.991,-0.025455335155129433,-0.021770646795630455,0.00011246943904552609,0.0,0.0,0.0,0.0,0.0015406241873279214,-0.004383881110697985,0.00038241196307353675,1.0002440214157104,0.0,0.0,0.0,1.4885444641113281,0.7080225944519043,3.92083477973938,-269.4295349121094,0
574.9050000000007,-0.025455335155129433,-0.021770646795630455,0.00011246943904552609,0.0,0.0,0.0,0.0,-0.001650240272283554,0.003892910433933139,-0.004822332877665758,1.0006744861602783,0.0,0.0,0.0,1.4885444641113281,0.7080225944519043,3.92083477973938,-269.4295349121094,0
584.8209999999999,-0.025472505018115044,-0.021780995652079582,0.00010666179878171533,0.0,0.0,0.0,0.0,0.00010900721099460497,0.003434553509578109,-0.0009804057190194726,0.9996046423912048,0.0,0.0,0.0,1.483816146850586,0.7144442796707153,3.9096717834472656,-268.57366943359375,0
594.728000000001,-0.025472505018115044,-0.021780995652079582,0.00010666179878171533,0.0,0.0,0.0,0.0,-0.000775727559812367,0.0007897246978245676,0.0015749626327306032,0.9968810081481934,0.0,0.0,0.0,1.483816146850586,0.7144442796707153,3.9096717834472656,-268.57366943359375,0
604.6419999999998,-0.025499990209937096,-0.021791374310851097,9.777692321222275e-05,0.0,0.0,0.0,0.0,0.001139196683652699,0.0021948679350316525,-0.0054496414959430695,0.9969831109046936,0.0,0.0,0.0,1.4811465740203857,0.7123348712921143,3.8973302841186523,-268.0904541015625,0
614.5540000000001,-0.025499990209937096,-0.021791374310851097,9.777692321222275e-05,0.0,0.0,0.0,0.0,-0.0024756677448749542,0.00010730689973570406,-0.003930758219212294,0.9996317028999329,0.0,0.0,0.0,1.4811465740203857,0.7123348712921143,3.8973302841186523,-268.0904541015625,0
624.4670000000006,-0.025531964376568794,-0.021801002323627472,8.020306995604187e-05,0.0,0.0,0.0,0.0,-0.0010347366333007812,0.0015859894920140505,-0.000794802384916693,0.9988560080528259,0.0,0.0,0.0,1.4764835834503174,0.7143241167068481,3.883471965789795,-267.2464904785156,0
634.3780000000006,-0.025531964376568794,-0.021801002323627472,8.020306995604187e-05,0.0,0.0,0.0,0.0,-0.001717159291729331,0.0016746418550610542,0.001374486950226128,0.9986149668693542,0.0,0.0,0.0,1.4764835834503174,0.7143241167068481,3.883471965789795,-267.2464904785156,0
644.2880000000005,-0.02555128186941147,-0.021803125739097595,6.879634747747332e-05,0.0,0.0,0.0,0.0,-0.002906629117205739,0.004233453888446093,0.002912762574851513,1.0005935430526733,0.0,0.0,0.0,1.4754157066345215,0.7124679088592529,3.8755204677581787,-267.0531921386719,0
654.2020000000011,-0.025570666417479515,-0.021804258227348328,5.7683660998009145e-05,0.0,0.0,0.0,0.0,0.002661873586475849,-0.0006641536019742489,-0.0032318658195436,0.9997702836990356,0.0,0.0,0.0,1.4751933813095093,0.7061734199523926,3.8666515350341797,-267.0129699707031,0
664.1149999999998,-0.02559218928217888,-0.02180553786456585,4.6610701247118413e-05,0.0,0.0,0.0,0.0,0.0017122835852205753,0.004688404966145754,0.00013027277600485831,0.9998216032981873,0.0,0.0,0.0,1.4747251272201538,0.7068011164665222,3.857128620147705,-266.9281921386719,0
674.0280000000002,-0.025615442544221878,-0.02180652692914009,3.532059781718999e-05,0.0,0.0,0.0,0.0,0.00022511804127134383,0.0006638866034336388,-0.003909509629011154,0.9983033537864685,0.0,0.0,0.0,1.4727892875671387,0.7056707739830017,3.8548169136047363,-266.5777893066406,0
683.9400000000005,-0.025600681081414223,-0.021739786490797997,-3.983646092819981e-05,0.0,0.0,0.0,0.0,-0.001764778746291995,-0.0012564436765387654,-0.0009362050332129002,0.997288703918457,0.0,0.0,0.0,1.4709367752075195,0.6946514248847961,3.857761859893799,-266.2424621582031,0
693.8510000000006,-0.02562362514436245,-0.02173744887113571,-5.565931132878177e-05,0.0,0.0,0.0,0.0,0.0005242458428256214,-2.6305644951207796e-06,0.002124590100720525,0.9989743828773499,0.0,0.0,0.0,1.4684898853302002,0.6956223845481873,3.848302125930786,-265.7995910644531,0
703.7669999999998,-0.02563871070742607,-0.021709511056542397,-8.000904927030206e-05,0.0,0.0,0.0,0.0,0.0007134137558750808,0.00024421376292593777,0.0005671787075698376,1.0011883974075317,0.0,0.0,0.0,1.446567177772522,0.7026124000549316,3.845489263534546,-261.83154296875,0
713.6769999999997,-0.02566184476017952,-0.021706080064177513,-9.894272079691291e-05,0.0,0.0,0.0,0.0,-0.0012246713740751147,-0.0005033839261159301,0.0007955704932101071,0.9997761249542236,0.0,0.0,0.0,1.4444162845611572,0.6970566511154175,3.8449747562408447,-261.4422302246094,0
723.5910000000003,-0.02568403072655201,-0.021702466532588005,-0.00011748491670005023,0.0,0.0,0.0,0.0,-0.0016643381677567959,0.002883897628635168,0.0017600392457097769,0.9994144439697266,0.0,0.0,0.0,1.4439516067504883,0.6989284753799438,3.839359998703003,-261.3581237792969,0
733.4979999999996,-0.025706367567181587,-0.02169954963028431,-0.00013565109111368656,0.0,0.0,0.0,0.0,7.764192559989169e-05,-0.0014039507368579507,-0.00017292103439103812,0.9991397857666016,0.0,0.0,0.0,1.4424811601638794,0.7027600407600403,3.83142352104187,-261.09197998046875,0
743.4099999999999,-0.025730637833476067,-0.02169778198003769,-0.00015398909454233944,0.0,0.0,0.0,0.0,0.0018008031183853745,0.0015508445212617517,0.002307934919372201,1.0000187158584595,0.0,0.0,0.0,1.4408515691757202,0.6969248652458191,3.829483985900879,-260.7969665527344,0
753.3250000000007,-0.025757020339369774,-0.021696649491786957,-0.00017302378546446562,0.0,0.0,0.0,0.0,-0.002284462796524167,-0.00034402773599140346,0.0007448490359820426,1.000763177871704,0.0,0.0,0.0,1.438995361328125,0.6950892210006714,3.8271546363830566,-260.46099853515625,0
763.2389999999996,-0.02578519657254219,-0.021695327013731003,-0.0001924425596371293,0.0,0.0,0.0,0.0,-0.0033516979310661554,0.0027824619319289923,-0.003184213303029537,1.0008240938186646,0.0,0.0,0.0,1.438490867614746,0.6970459222793579,3.830042839050293,-260.3697204589844,0
773.1499999999996,-0.025814926251769066,-0.021694183349609375,-0.00021126453066244721,0.0,0.0,0.0,0.0,-6.392891464201966e-06,-0.0021784822456538677,0.0006246931734494865,0.9994888305664062,0.0,0.0,0.0,1.4371888637542725,0.7038931846618652,3.8292157649993896,-260.134033203125,0
783.0590000000011,-0.02584589645266533,-0.02169421873986721,-0.00022951388382352889,0.0,0.0,0.0,0.0,0.0010963419917970896,0.002242384711280465,-0.0024494873359799385,0.9994239211082458,0.0,0.0,0.0,1.4350208044052124,0.7056161165237427,3.823221445083618,-259.74163818359375,0
792.9719999999998,-0.025877954438328743,-0.02169579267501831,-0.00024787880829535425,0.0,0.0,0.0,0.0,0.000481280469102785,-0.0010748794302344322,0.0010491050779819489,1.0007572174072266,0.0,0.0,0.0,1.4331506490707397,0.7048991322517395,3.815786123275757,-259.40313720703125,0
802.884,-0.025911547243595123,-0.02169877663254738,-0.00026651527150534093,0.0,0.0,0.0,0.0,0.0023193052038550377,0.0037308803293854,0.0026335222646594048,0.9999380707740784,0.0,0.0,0.0,1.4309979677200317,0.698980450630188,3.8134796619415283,-259.01348876953125,0
812.7960000000003,-0.02594711072742939,-0.021702857688069344,-0.0002851249591913074,0.0,0.0,0.0,0.0,0.0027606224175542593,-0.0013628611341118813,0.001007186365313828,1.0000123977661133,0.0,0.0,0.0,1.4283628463745117,0.701673150062561,3.815136432647705,-258.5365295410156,0
822.7080000000005,-0.025983398780226707,-0.02170761115849018,-0.0003035504778381437,0.0,0.0,0.0,0.0,0.0047425092197954655,0.00028065877268090844,-0.001687818206846714,1.0008708238601685,0.0,0.0,0.0,1.4271948337554932,0.6993890404701233,3.8049123287200928,-258.32513427734375,0
832.634,-0.02601941116154194,-0.021712742745876312,-0.00032162180286832154,0.0,0.0,0.0,0.0,-0.0021777567453682423,-0.002484263852238655,0.003140790853649378,0.9988647103309631,0.0,0.0,0.0,1.4250632524490356,0.6955555081367493,3.791764736175537,-257.93927001953125,0
842.5329999999994,-0.026055850088596344,-0.021718362346291542,-0.00033945744507946074,0.0,0.0,0.0,0.0,0.002017902210354805,0.002075119176879525,-0.001535929855890572,1.0001013278961182,0.0,0.0,0.0,1.4233933687210083,0.688156008720398,3.786501407623291,-257.63702392578125,0
852.4439999999995,-0.02609322965145111,-0.021724889054894447,-0.0003575233859010041,0.0,0.0,0.0,0.0,-0.0019937893375754356,0.0008497873786836863,0.0003464134060777724,0.9978852272033691,0.0,0.0,0.0,1.4233835935592651,0.6898954510688782,3.790519952774048,-257.63525390625,0
862.3559999999998,-0.02613203413784504,-0.021733250468969345,-0.0003762018750421703,0.0,0.0,0.0,0.0,0.00028005929198116064,-0.003187676891684532,-0.0006085974164307117,1.0006245374679565,0.0,0.0,0.0,1.4217733144760132,0.6915116310119629,3.779691457748413,-257.3437805175781,0
872.2690000000002,-0.026171891018748283,-0.021744485944509506,-0.0003954692801926285,0.0,0.0,0.0,0.0,-0.0016761162551119924,-0.0063927932642400265,-0.0006026049377396703,0.9998365044593811,0.0,0.0,0.0,1.420688509941101,0.6946595311164856,3.7789244651794434,-257.1474609375,0
882.1810000000005,-0.026212185621261597,-0.02175765670835972,-0.0004147688450757414,0.0,0.0,0.0,0.0,0.00045778011553920805,0.001470366958528757,0.0005375909386202693,0.9991316795349121,0.0,0.0,0.0,1.4197584390640259,0.6926020383834839,3.7864580154418945,-256.9790954589844,0
892.1040000000012,-0.02625381201505661,-0.021770495921373367,-0.0004340625600889325,0.0,0.0,0.0,0.0,-0.0034519503824412823,0.0016598441870883107,-0.00047677056863904,1.0018131732940674,0.0,0.0,0.0,1.4191486835479736,0.6908328533172607,3.7812132835388184,-256.8687438964844,0
902.005000000001,-0.026297956705093384,-0.02178230509161949,-0.00045344315003603697,0.0,0.0,0.0,0.0,0.0005700308247469366,-0.0013450743863359094,0.002567955292761326,1.001175880432129,0.0,0.0,0.0,1.4166247844696045,0.6867386102676392,3.768690824508667,-256.41192626953125,0
911.9169999999995,-0.026344377547502518,-0.02179422415792942,-0.00047176063526421785,0.0,0.0,0.0,0.0,-0.0018359781242907047,0.00011617755080806091,0.0028135969769209623,1.0010215044021606,0.0,0.0,0.0,1.415338397026062,0.6852996349334717,3.7633163928985596,-256.1790771484375,0
921.8320000000003,-0.026439331471920013,-0.021824928000569344,-0.0005046576261520386,0.0,0.0,0.0,0.0,0.0016174318734556437,-0.004594818688929081,0.0022869310341775417,0.9991698265075684,0.0,0.0,0.0,1.4138507843017578,0.6905092000961304,3.7622323036193848,-255.90980529785156,0
931.7430000000004,-0.026439331471920013,-0.021824928000569344,-0.0005046576261520386,0.0,0.0,0.0,0.0,-0.0009458211134187877,0.0021175656002014875,0.0020727708470076323,0.9987258315086365,0.0,0.0,0.0,1.4138507843017578,0.6905092000961304,3.7622323036193848,-255.90980529785156,0
941.6540000000005,-0.026539044454693794,-0.021863950416445732,-0.0005384682444855571,0.0,0.0,0.0,0.0,0.001915454282425344,-0.0024753636680543423,-0.0023465831764042377,1.0010124444961548,0.0,0.0,0.0,1.4130744934082031,0.6853036880493164,3.753852367401123,-255.76930236816406,0
951.5709999999999,-0.026539044454693794,-0.021863950416445732,-0.0005384682444855571,0.0,0.0,0.0,0.0,0.0019996510818600655,0.0004601221007760614,0.005345023237168789,1.001376986503601,0.0,0.0,0.0,1.4130744934082031,0.6853036880493164,3.753852367401123,-255.76930236816406,0
961.4899999999998,-0.0265966709703207,-0.021885443478822708,-0.0005567266489379108,0.0,0.0,0.0,0.0,0.0014299540780484676,0.0008194849360734224,-0.00021643824584316462,1.0002435445785522,0.0,0.0,0.0,1.4113693237304688,0.6780394315719604,3.750905752182007,-255.46066284179688,0
971.4050000000007,-0.026651132851839066,-0.021904371678829193,-0.0005718772881664336,0.0,0.0,0.0,0.0,-0.00044647202594205737,0.001679452951066196,0.0024688728153705597,1.00169837474823,0.0,0.0,0.0,1.4103320837020874,0.6755246520042419,3.744269609451294,-255.27291870117188,0
981.3140000000003,-0.02670745924115181,-0.02192295715212822,-0.0005859401426278055,0.0,0.0,0.0,0.0,-0.0019220079993829131,0.001169430324807763,0.004793364088982344,0.9979587197303772,0.0,0.0,0.0,1.4078280925750732,0.6791301369667053,3.737072706222534,-254.81968688964844,0
991.2180000000008,-0.02676423452794552,-0.02194223552942276,-0.0005995616083964705,0.0,0.0,0.0,0.0,0.00023467594292014837,0.0030308295972645283,0.0024702216032892466,0.9995526671409607,0.0,0.0,0.0,1.4067044258117676,0.6728232502937317,3.7354159355163574,-254.61630249023438,0
1001.148000000001,-0.02682066150009632,-0.021963052451610565,-0.0006139711476862431,0.0,0.0,0.0,0.0,-0.00036381406243890524,0.005042145494371653,0.0009433581144548953,0.999200165271759,0.0,0.0,0.0,1.4051556587219238,0.677467405796051,3.719155788421631,-254.3359832763672,0
1011.0429999999997,-0.026876753196120262,-0.021985404193401337,-0.0006292895413935184,0.0,0.0,0.0,0.0,0.0008061393164098263,0.003339014947414398,-0.0009524292545393109,1.0000014305114746,0.0,0.0,0.0,1.4039181470870972,0.6773272752761841,3.7108724117279053,-254.1119842529297,0
1020.9750000000004,-0.02693321369588375,-0.02200854942202568,-0.0006450182991102338,0.0,0.0,0.0,0.0,0.0017825306858867407,-0.0005250014364719391,-0.0020233942195773125,1.0014375448226929,0.0,0.0,0.0,1.402133822441101,0.6757376194000244,3.709723949432373,-253.7890167236328,0
1030.8649999999998,-0.025609109550714493,-0.021846745163202286,0.0009880485013127327,0.0,0.0,0.0,0.0,0.001784670865163207,-0.002163694938644767,0.0009956841822713614,1.0024884939193726,0.0,0.0,0.0,1.447608470916748,0.7217091917991638,3.832777976989746,-262.02001953125,0
1040.7880000000005,-0.025631392374634743,-0.02185743674635887,0.0010131944436579943,0.0,0.0,0.0,0.0,-0.002161528216674924,-0.00382688594982028,-0.0013960556825622916,0.9997283220291138,0.0,0.0,0.0,1.4456437826156616,0.7218414545059204,3.8328499794006348,-261.6643981933594,0
1050.6949999999997,-0.0256552342325449,-0.021866803988814354,0.001040079747326672,0.0,0.0,0.0,0.0,-0.002523042494431138,0.002709239488467574,0.0002663715567905456,0.9999033212661743,0.0,0.0,0.0,1.4448373317718506,0.7189163565635681,3.8338992595672607,-261.5184631347656,0
1060.6090000000004,-0.025679761543869972,-0.021876242011785507,0.001067710341885686,0.0,0.0,0.0,0.0,0.0013484803494066,-0.0024325596168637276,0.0030356445349752903,0.999187707901001,0.0,0.0,0.0,1.4434528350830078,0.7188037037849426,3.833984136581421,-261.2678527832031,0
1070.5210000000006,-0.02570447139441967,-0.02188633196055889,0.0010946628171950579,0.0,0.0,0.0,0.0,-0.0004644487053155899,0.001931271399371326,8.307596726808697e-05,0.9998621344566345,0.0,0.0,0.0,1.442273497581482,0.720637321472168,3.8263370990753174,-261.05438232421875,0
1080.4390000000003,-0.02572951838374138,-0.02189624309539795,0.001121103297919035,0.0,0.0,0.0,0.0,0.0014791261637583375,0.002589671639725566,-0.0034485491923987865,0.9992182850837708,0.0,0.0,0.0,1.440319538116455,0.7182428240776062,3.827120542526245,-260.70068359375,0
1090.339,-0.02575475163757801,-0.02190607599914074,0.0011472522746771574,0.0,0.0,0.0,0.0,0.00010028641554526985,5.7670466048875824e-05,0.0005400403751991689,0.9977046251296997,0.0,0.0,0.0,1.437619686126709,0.7228248119354248,3.8099942207336426,-260.2120361328125,0
1100.264000000001,-0.02578049898147583,-0.021916892379522324,0.0011725800577551126,0.0,0.0,0.0,0.0,0.0009691816521808505,-0.0004931279690936208,0.0021139991004019976,0.99880450963974,0.0,0.0,0.0,1.4351481199264526,0.7179856300354004,3.7955005168914795,-259.7646789550781,0
1110.1650000000009,-0.025807656347751617,-0.021928390488028526,0.0011963765136897564,0.0,0.0,0.0,0.0,0.0022070114500820637,0.0008653646218590438,-6.741467223037034e-05,1.0015407800674438,0.0,0.0,0.0,1.4333148002624512,0.7185240983963013,3.793431043624878,-259.4328308105469,0
1120.0910000000003,-0.025836627930402756,-0.02193993330001831,0.0012189557310193777,0.0,0.0,0.0,0.0,-0.0013388387160375714,0.008079538121819496,2.8638312869588844e-05,1.0013034343719482,0.0,0.0,0.0,1.4321247339248657,0.7169957160949707,3.7937207221984863,-259.2174377441406,0
1129.987000000001,-0.025867734104394913,-0.02195133827626705,0.001242525177076459,0.0,0.0,0.0,0.0,-0.004174790345132351,-0.0030809263698756695,0.0023019968066364527,0.9993424415588379,0.0,0.0,0.0,1.4296015501022339,0.7140985131263733,3.776299238204956,-258.7607421875,0
1139.9089999999997,-0.025901127606630325,-0.021961862221360207,0.0012673339806497097,0.0,0.0,0.0,0.0,0.0017879449296742678,-0.003123285947367549,0.0011154675157740712,0.9967365860939026,0.0,0.0,0.0,1.4267668724060059,0.7170775532722473,3.764963150024414,-258.2476501464844,0
1149.8140000000003,-0.02593667060136795,-0.021970972418785095,0.001291503431275487,0.0,0.0,0.0,0.0,4.210874976706691e-05,0.001731781056150794,-0.002501187613233924,0.9965856671333313,0.0,0.0,0.0,1.42716383934021,0.7214650511741638,3.7686800956726074,-258.31951904296875,0
1159.7340000000004,-0.025974363088607788,-0.021978817880153656,0.0013129564467817545,0.0,0.0,0.0,0.0,-0.0031920731998980045,0.0009120489121414721,0.00023664342006668448,1.0012297630310059,0.0,0.0,0.0,1.4251668453216553,0.7191339135169983,3.760650634765625,-257.9580078125,0
1169.6360000000004,-0.026014499366283417,-0.02198672480881214,0.0013320904690772295,0.0,0.0,0.0,0.0,-0.002295921789482236,0.0009242199594154954,0.0009274473413825035,1.0003893375396729,0.0,0.0,0.0,1.4230283498764038,0.7231433987617493,3.7661635875701904,-257.5709533691406,0
1179.5609999999997,-0.026057139039039612,-0.0219961516559124,0.0013516079634428024,0.0,0.0,0.0,0.0,0.0015513509279116988,-0.0017431521555408835,-0.00019164133118465543,0.9975710511207581,0.0,0.0,0.0,1.4207762479782104,0.7264996767044067,3.752185821533203,-257.1632995605469,0
1189.460000000001,-0.026102149859070778,-0.022007044404745102,0.0013713536318391562,0.0,0.0,0.0,0.0,0.0007627514423802495,0.0022913620341569185,0.0005640137824229896,0.9970496892929077,0.0,0.0,0.0,1.419664978981018,0.728108286857605,3.749715566635132,-256.9621887207031,0
1199.3790000000008,-0.026149503886699677,-0.022019296884536743,0.0013893463183194399,0.0,0.0,0.0,0.0,-0.0007683741860091686,0.0038301635067909956,-0.0024858051910996437,0.9995184540748596,0.0,0.0,0.0,1.4173964262008667,0.7271921634674072,3.727806568145752,-256.55157470703125,0
1209.2849999999999,-0.026199042797088623,-0.02203262411057949,0.0014051299076527357,0.0,0.0,0.0,0.0,0.0023710548412054777,0.0006216017645783722,-0.0022059371694922447,1.0005214214324951,0.0,0.0,0.0,1.4167473316192627,0.7138054370880127,3.72166109085083,-256.43408203125,0
1219.2090000000007,-0.0262500811368227,-0.02204643189907074,0.0014198736753314734,0.0,0.0,0.0,0.0,-0.004300801083445549,0.0017986061284318566,-0.0007164071430452168,0.9989566206932068,0.0,0.0,0.0,1.4143861532211304,0.7176198959350586,3.70845103263855,-256.0067138671875,0
1229.1090000000004,-0.025675464421510696,-0.021901139989495277,0.0013118407223373652,0.0,0.0,0.0,0.0,0.0019106093095615506,-0.001569087035022676,0.0011150139616802335,1.00029718875885,0.0,0.0,0.0,1.4584864377975464,0.7156065702438354,3.8396241664886475,-263.98895263671875,0
1239.0290000000005,-0.025722308084368706,-0.02192382700741291,0.0013470419216901064,0.0,0.0,0.0,0.0,-0.0007841503247618675,0.002747985301539302,0.0017032257746905088,0.9996132254600525,0.0,0.0,0.0,1.4547181129455566,0.7191790342330933,3.831251621246338,-263.3068542480469,0
1248.938,-0.025722308084368706,-0.02192382700741291,0.0013470419216901064,0.0,0.0,0.0,0.0,-0.0008691542316228151,-0.0056544942781329155,-0.0017206297488883138,0.9987083673477173,0.0,0.0,0.0,1.4547181129455566,0.7191790342330933,3.831251621246338,-263.3068542480469,0
1258.8670000000002,-0.02577522024512291,-0.021949462592601776,0.0013810178497806191,0.0,0.0,0.0,0.0,0.002052605152130127,-0.0030355651397258043,0.002428048523142934,0.9974639415740967,0.0,0.0,0.0,1.4520862102508545,0.7180388569831848,3.8301351070404053,-262.83050537109375,0
1268.7579999999998,-0.02577522024512291,-0.021949462592601776,0.0013810178497806191,0.0,0.0,0.0,0.0,-2.3929972030600766e-06,-0.0024569283705204725,-0.004174949135631323,0.9969099164009094,0.0,0.0,0.0,1.4520862102508545,0.7180388569831848,3.8301351070404053,-262.83050537109375,0
1278.6800000000003,-0.02565852925181389,-0.02149544470012188,0.00024743747781030834,0.0,0.0,0.0,0.0,0.0020814912859350443,0.00033118564169853926,-0.0036276120226830244,0.9986889362335205,0.0,0.0,0.0,1.4388892650604248,0.7347576022148132,3.849672317504883,-260.4418029785156,0
1288.5820000000003,-0.02565852925181389,-0.02149544470012188,0.00024743747781030834,0.0,0.0,0.0,0.0,0.0012943923939019442,-0.0005565707688219845,-0.0026941343676298857,0.9992865920066833,0.0,0.0,0.0,1.4388892650604248,0.7347576022148132,3.849672317504883,-260.4418029785156,0
1298.5100000000002,-0.025671573355793953,-0.02155498042702675,0.00011704630742315203,0.0,0.0,0.0,0.0,-0.00032189866760745645,-0.0026124229189008474,0.003932353109121323,0.998852014541626,0.0,0.0,0.0,1.4368062019348145,0.7318829894065857,3.848919630050659,-260.0647888183594,0
1308.4089999999997,-0.02569695934653282,-0.021565493196249008,9.273605246562511e-05,0.0,0.0,0.0,0.0,-0.001876268070191145,-0.002497980836778879,-0.00378692289814353,0.9981454014778137,0.0,0.0,0.0,1.4358841180801392,0.7265443205833435,3.8439958095550537,-259.89788818359375,0
1318.3360000000011,-0.02572355978190899,-0.02157673053443432,6.752774061169475e-05,0.0,0.0,0.0,0.0,0.0013645426370203495,0.002699862699955702,0.002498812973499298,0.9995636343955994,0.0,0.0,0.0,1.4340487718582153,0.7256605625152588,3.8438448905944824,-259.565673828125,0
1328.2340000000004,-0.0254898052662611,-0.021633543074131012,0.00031656105420552194,0.0,0.0,0.0,0.0,-0.0029421928338706493,0.0015611089766025543,-0.0024280173238366842,0.9984799027442932,0.0,0.0,0.0,1.474057674407959,0.7292108535766602,3.9118568897247314,-266.8074035644531,0
1338.1579999999994,-0.02549254149198532,-0.021665453910827637,0.00025022102636285126,0.0,0.0,0.0,0.0,0.0007226627785712481,0.0007521719671785831,0.0018371455371379852,0.9982286691665649,0.0,0.0,0.0,1.4595874547958374,0.7245071530342102,3.914893627166748,-264.1882629394531,0
1348.062,-0.0255086999386549,-0.021679431200027466,0.00023022168898023665,0.0,0.0,0.0,0.0,0.002691384870558977,-0.0009571542032063007,-0.004527671728283167,0.9986203908920288,0.0,0.0,0.0,1.4582408666610718,0.7257218956947327,3.910839796066284,-263.94451904296875,0
1357.9750000000004,-0.025517158210277557,-0.021710984408855438,0.0001687284529907629,0.0,0.0,0.0,0.0,-0.0001321132731391117,2.044600705630728e-06,-0.0029440794605761766,0.9997032880783081,0.0,0.0,0.0,1.4616574048995972,0.7225005030632019,3.905348777770996,-264.56292724609375,0
1367.880000000001,-0.02553713321685791,-0.021728701889514923,0.0001430431002518162,0.0,0.0,0.0,0.0,0.0021585673093795776,0.00375568144954741,-0.0012855754466727376,1.000735878944397,0.0,0.0,0.0,1.4596654176712036,0.7145395278930664,3.901628017425537,-264.2023620605469,0
1377.8050000000003,-0.025559036061167717,-0.021748309955000877,0.00011700911272782832,0.0,0.0,0.0,0.0,-3.6220979382051155e-05,-0.005926214624196291,0.003009352833032608,0.9985005855560303,0.0,0.0,0.0,1.457976222038269,0.7074828743934631,3.9003875255584717,-263.8966064453125,0
1387.7039999999997,-0.02558203600347042,-0.021768901497125626,9.086546197067946e-05,0.0,0.0,0.0,0.0,-0.0006841296562924981,0.00017678197764325887,-0.0010049917036667466,0.9981065988540649,0.0,0.0,0.0,1.4565681219100952,0.7061200737953186,3.900362968444824,-263.6416931152344,0
1397.6260000000002,-0.025606483221054077,-0.02178957313299179,6.375975499395281e-05,0.0,0.0,0.0,0.0,0.001755269942805171,0.0008187664789147675,0.0010010835248976946,0.9967058300971985,0.0,0.0,0.0,1.4558442831039429,0.7058526277542114,3.9027225971221924,-263.5107116699219,0
1407.5290000000005,-0.025489414110779762,-0.021755291149020195,0.00025493817520327866,0.0,0.0,0.0,0.0,-0.0015095773851498961,0.0020399547647684813,0.0029459469951689243,0.9989854097366333,0.0,0.0,0.0,1.473922610282898,0.7245789766311646,3.934443473815918,-266.7829284667969,0
1417.4570000000003,-0.025509752333164215,-0.021772466599941254,0.00023650002549402416,0.0,0.0,0.0,0.0,-3.640152863226831e-05,-0.0021863121073693037,-0.0006410416681319475,0.998173177242279,0.0,0.0,0.0,1.4740550518035889,0.7298048138618469,3.9356586933135986,-266.806884765625,0
1427.353000000001,-0.02553023211658001,-0.02179124765098095,0.00021657106117345393,0.0,0.0,0.0,0.0,-0.0006758580566383898,0.0012907093623653054,0.001163841225206852,0.9992523789405823,0.0,0.0,0.0,1.472020149230957,0.7309513688087463,3.9199774265289307,-266.43853759765625,0
1437.273000000001,-0.025551199913024902,-0.02181181125342846,0.0001954475010279566,0.0,0.0,0.0,0.0,0.001999968895688653,-0.0009439478744752705,0.004330808762460947,0.9998403787612915,0.0,0.0,0.0,1.4695860147476196,0.7294917702674866,3.922869920730591,-265.9979553222656,0
1447.1820000000007,-0.025573624297976494,-0.02183261699974537,0.00017349302652291954,0.0,0.0,0.0,0.0,0.0012555788271129131,0.0035167618189007044,-1.6987643903121352e-05,1.0006814002990723,0.0,0.0,0.0,1.4681916236877441,0.7264629006385803,3.923226833343506,-265.7455749511719,0
1457.0969999999998,-0.02559845708310604,-0.02185274288058281,0.00015131698455661535,0.0,0.0,0.0,0.0,0.0026470315642654896,0.0003335138317197561,0.002262484049424529,1.001296043395996,0.0,0.0,0.0,1.4658417701721191,0.7245607376098633,3.914036273956299,-265.32025146484375,0
1467.0100000000002,-0.025624888017773628,-0.021873176097869873,0.00012967720977030694,0.0,0.0,0.0,0.0,0.003949177451431751,-0.002595511032268405,0.0018748185830190778,0.9994204044342041,0.0,0.0,0.0,1.463985562324524,0.7132955193519592,3.903703451156616,-264.9842834472656,0
1476.9220000000005,-0.02565114013850689,-0.021894095465540886,0.0001088448625523597,0.0,0.0,0.0,0.0,0.0028875048737972975,0.0018338040681555867,-0.0011925043072551489,0.9994195103645325,0.0,0.0,0.0,1.4628283977508545,0.7175959348678589,3.9015555381774902,-264.7748718261719,0
1486.8289999999997,-0.025677461177110672,-0.02191486768424511,8.808870916254818e-05,0.0,0.0,0.0,0.0,-0.0017469639424234629,-0.0017606731271371245,0.0019448086386546493,1.0011627674102783,0.0,0.0,0.0,1.461356520652771,0.7120050191879272,3.8995134830474854,-264.5084533691406,0
1496.746000000001,-0.025705449283123016,-0.021935883909463882,6.736366776749492e-05,0.0,0.0,0.0,0.0,-0.0015769549645483494,0.0023697989527136087,0.00023039779625833035,0.9980501532554626,0.0,0.0,0.0,1.4592862129211426,0.7126069068908691,3.893537998199463,-264.13372802734375,0
1506.6509999999998,-0.0257362462580204,-0.021958475932478905,4.683813313022256e-05,0.0,0.0,0.0,0.0,0.004043149296194315,0.0022016342263668776,0.0009699590154923499,0.9967070817947388,0.0,0.0,0.0,1.458831787109375,0.7147544622421265,3.8924546241760254,-264.05145263671875,0
1516.5840000000007,-0.025769509375095367,-0.0219829473644495,2.5015819119289517e-05,0.0,0.0,0.0,0.0,0.002594060730189085,0.004372759256511927,-0.0038342601619660854,0.9996265769004822,0.0,0.0,0.0,1.4586750268936157,0.7139634490013123,3.885491132736206,-264.0231018066406,0
1526.478000000001,-0.02580476924777031,-0.02200833335518837,8.500064723193645e-07,0.0,0.0,0.0,0.0,0.0015090779634192586,0.0029803479555994272,0.0021882690489292145,1.000551700592041,0.0,0.0,0.0,1.457052230834961,0.7080754041671753,3.871553421020508,-263.7293395996094,0
1536.402,-0.025842364877462387,-0.022034240886569023,-2.4387118173763156e-05,0.0,0.0,0.0,0.0,-0.00018693454330787063,-0.000919218931812793,-0.0008775360765866935,1.0000990629196167,0.0,0.0,0.0,1.4565728902816772,0.7039310336112976,3.8574717044830322,-263.642578125,0
1546.299000000001,-0.02588234655559063,-0.022059904411435127,-4.9390713684260845e-05,0.0,0.0,0.0,0.0,-0.0004953814204782248,-0.006159642711281776,-0.0022403625771403313,0.9997202157974243,0.0,0.0,0.0,1.4555035829544067,0.7063062191009521,3.8577985763549805,-263.44903564453125,0
1556.2270000000008,-0.025967376306653023,-0.0221075639128685,-9.897587005980313e-05,0.0,0.0,0.0,0.0,0.0009298264048993587,-0.0028072581626474857,0.002474002307280898,0.9999266862869263,0.0,0.0,0.0,1.4520153999328613,0.7025999426841736,3.8569176197052,-262.81768798828125,0
1566.1239999999998,-0.025967376306653023,-0.0221075639128685,-9.897587005980313e-05,0.0,0.0,0.0,0.0,0.0030620605684816837,-0.0012305761920288205,-0.0013047418324276805,0.99858158826828,0.0,0.0,0.0,1.4520153999328613,0.7025999426841736,3.8569176197052,-262.81768798828125,0
1576.054,-0.026056569069623947,-0.022152161225676537,-0.00014964950969442725,0.0,0.0,0.0,0.0,-0.0024151629768311977,-0.0011709423270076513,0.0011312986025586724,0.9990107417106628,0.0,0.0,0.0,1.4500234127044678,0.6963191032409668,3.8630127906799316,-262.4571228027344,0
1585.9570000000003,-0.025513067841529846,-0.021775729954242706,0.0004602232074830681,0.0,0.0,0.0,0.0,-4.238497422193177e-05,-0.0025031953118741512,-0.002042521722614765,0.9985555410385132,0.0,0.0,0.0,1.4930115938186646,0.774615466594696,3.988065004348755,-270.2380676269531,0
1595.8829999999998,-0.025554461404681206,-0.02178194187581539,0.0004606229776982218,0.0,0.0,0.0,0.0,-0.0006130628171376884,0.002678575459867716,-0.004358115140348673,1.000516653060913,0.0,0.0,0.0,1.4905586242675781,0.7677860260009766,3.9764552116394043,-269.7940979003906,0
1605.773000000001,-0.025554461404681206,-0.02178194187581539,0.0004606229776982218,0.0,0.0,0.0,0.0,0.0019581462256610394,0.0014208016218617558,0.0034640408121049404,1.0001589059829712,0.0,0.0,0.0,1.4905586242675781,0.7677860260009766,3.9764552116394043,-269.7940979003906,0
1615.6930000000011,-0.025602120906114578,-0.02178904600441456,0.00046018665307201445,0.0,0.0,0.0,0.0,-0.0023858705535531044,-0.001778863021172583,-0.0020437310449779034,0.999851405620575,0.0,0.0,0.0,1.4879134893417358,0.7655321359634399,3.9595792293548584,-269.3153381347656,0
1625.6080000000002,-0.025602120906114578,-0.02178904600441456,0.00046018665307201445,0.0,0.0,0.0,0.0,-0.001358033623546362,0.0028848915826529264,-0.0024303747341036797,1.0001680850982666,0.0,0.0,0.0,1.4879134893417358,0.7655321359634399,3.9595792293548584,-269.3153381347656,0
1635.5329999999994,-0.025630507618188858,-0.021794313564896584,0.0004600683751050383,0.0,0.0,0.0,0.0,0.0020562976133078337,-0.0007526280242018402,-0.0004886740352958441,1.0008970499038696,0.0,0.0,0.0,1.4867480993270874,0.7735849618911743,3.9490387439727783,-269.1043701171875,0
1645.4269999999997,-0.025658084079623222,-0.02179858833551407,0.0004601669206749648,0.0,0.0,0.0,0.0,0.0001953420724021271,0.0040510548278689384,-7.58873502491042e-05,0.9996879696846008,0.0,0.0,0.0,1.4845466613769531,0.7756802439689636,3.943357229232788,-268.7059020996094,0
1655.3430000000008,-0.025688111782073975,-0.021801933646202087,0.00046071046381257474,0.0,0.0,0.0,0.0,0.0010801790049299598,-0.0023300882894545794,0.0018360652029514313,1.0020827054977417,0.0,0.0,0.0,1.4833134412765503,0.7749173641204834,3.9369044303894043,-268.482666015625,0
1665.2569999999996,-0.02572018653154373,-0.02180417813360691,0.000461631832877174,0.0,0.0,0.0,0.0,-0.0011891452595591545,-0.003583878045901656,-0.001073205377906561,1.0009249448776245,0.0,0.0,0.0,1.481813669204712,0.7719236612319946,3.9294357299804688,-268.2112121582031,0
1675.1730000000007,-0.025754204019904137,-0.02180585078895092,0.0004638856335077435,0.0,0.0,0.0,0.0,-0.0019552800804376602,-0.0036671883426606655,-0.0006063082255423069,0.9985926151275635,0.0,0.0,0.0,1.479947566986084,0.7678025364875793,3.923415184020996,-267.87347412109375,0
1685.0900000000001,-0.02558923326432705,-0.02171703614294529,0.0005649367230944335,0.0,0.0,0.0,0.0,-0.0018802982522174716,0.0028680579271167517,0.002965966472402215,0.9985452890396118,0.0,0.0,0.0,1.5016738176345825,0.788022518157959,3.98646879196167,-271.8059387207031,0
1695.0020000000004,-0.025617606937885284,-0.021715937182307243,0.0005727547686547041,0.0,0.0,0.0,0.0,-0.0004497926274780184,0.002733249217271805,-0.00012962365872226655,0.9995457530021667,0.0,0.0,0.0,1.5016902685165405,0.7889004945755005,3.982036590576172,-271.80889892578125,0
1704.9040000000005,-0.025647474452853203,-0.021716080605983734,0.0005793569143861532,0.0,0.0,0.0,0.0,0.00010870318510569632,0.0001858597679529339,-0.005034362897276878,1.0004750490188599,0.0,0.0,0.0,1.4995867013931274,0.7884078025817871,3.9716176986694336,-271.4281921386719,0
1714.817000000001,-0.02559276483952999,-0.021457074210047722,5.183434041100554e-05,0.0,0.0,0.0,0.0,0.0018436724785715342,0.0005808328278362751,0.0002923055726569146,1.0000842809677124,0.0,0.0,0.0,1.488196849822998,0.813032329082489,3.9855146408081055,-269.3665771484375,0
1724.732,-0.025619301944971085,-0.02145034447312355,4.1046656406251714e-05,0.0,0.0,0.0,0.0,-0.0011651084059849381,-3.23933782055974e-05,0.0014898973749950528,1.0025230646133423,0.0,0.0,0.0,1.4856547117233276,0.814561128616333,3.9733617305755615,-268.9064636230469,0
1734.6399999999994,-0.025646481662988663,-0.021443957462906837,3.093234772677533e-05,0.0,0.0,0.0,0.0,-0.0005822367966175079,-0.0010735484538599849,0.0002896528458222747,0.9993481636047363,0.0,0.0,0.0,1.4843875169754028,0.818506121635437,3.971327066421509,-268.67706298828125,0
1744.5529999999999,-0.02567513845860958,-0.02143833599984646,2.1812313207192346e-05,0.0,0.0,0.0,0.0,-0.00046838176785968244,0.001123582012951374,-0.007127398159354925,1.0007693767547607,0.0,0.0,0.0,1.4827619791030884,0.8215379118919373,3.9723236560821533,-268.38287353515625,0
1754.4740000000002,-0.02570486068725586,-0.021432988345623016,1.291218723054044e-05,0.0,0.0,0.0,0.0,0.0006779333343729377,-0.0003770918701775372,0.0012771813198924065,1.0006515979766846,0.0,0.0,0.0,1.4794708490371704,0.8162040710449219,3.9737699031829834,-267.78717041015625,0
1764.3880000000008,-0.025734374299645424,-0.021427351981401443,4.329496732680127e-06,0.0,0.0,0.0,0.0,0.0036728004924952984,0.0019276670645922422,-7.472911238437518e-05,0.9991576075553894,0.0,0.0,0.0,1.4775558710098267,0.8188756108283997,3.9740121364593506,-267.4405517578125,0
1774.2890000000007,-0.025763528421521187,-0.021420525386929512,-3.691606252687052e-06,0.0,0.0,0.0,0.0,-0.0006444550235755742,-0.0013470096746459603,0.002896055579185486,1.000279426574707,0.0,0.0,0.0,1.476623773574829,0.8180184364318848,3.975247621536255,-267.2718505859375,0
1784.201000000001,-0.025567704811692238,-0.02139744907617569,0.00025778310373425484,0.0,0.0,0.0,0.0,0.00023274733393918723,-0.0009878958808258176,0.0026761554181575775,1.0010521411895752,0.0,0.0,0.0,1.5033557415008545,0.8208022117614746,4.028515338897705,-272.11041259765625,0
1794.1180000000004,-0.025585908442735672,-0.021386779844760895,0.0002623060718178749,0.0,0.0,0.0,0.0,-0.0009804597357288003,0.0011671382235363126,-0.0018795341020449996,0.99900221824646,0.0,0.0,0.0,1.5026042461395264,0.8175377249717712,4.018594264984131,-271.9743347167969,0
1804.0280000000002,-0.025604475289583206,-0.021376151591539383,0.00026736519066616893,0.0,0.0,0.0,0.0,-0.0020710648968815804,-0.0006460981094278395,0.0023772348649799824,0.9980541467666626,0.0,0.0,0.0,1.5010052919387817,0.8259117007255554,4.01703405380249,-271.6849365234375,0
1813.9400000000005,-0.02562432922422886,-0.021365132182836533,0.0002717291936278343,0.0,0.0,0.0,0.0,0.0013944683596491814,0.0019955760799348354,-0.0005581428995355964,0.9980398416519165,0.0,0.0,0.0,1.49970543384552,0.8260895013809204,4.008307933807373,-271.44964599609375,0
1823.8549999999996,-0.025645164772868156,-0.02135302498936653,0.0002744463854469359,0.0,0.0,0.0,0.0,-0.0002846845018211752,0.0017168965423479676,-0.000522497808560729,0.9983109831809998,0.0,0.0,0.0,1.4978718757629395,0.8270763158798218,4.010850429534912,-271.1177978515625,0
1833.7630000000008,-0.025665661320090294,-0.021339014172554016,0.00027519947616383433,0.0,0.0,0.0,0.0,-0.0005738676409237087,-0.00014233565889298916,-0.0025656737852841616,0.998991847038269,0.0,0.0,0.0,1.4952322244644165,0.8281520009040833,3.994248151779175,-270.6400146484375,0
1843.684000000001,-0.025685299187898636,-0.02132411301136017,0.00027433678042143583,0.0,0.0,0.0,0.0,0.0030953080859035254,-0.0007261277642101049,0.00100448087323457,1.0004618167877197,0.0,0.0,0.0,1.4933570623397827,0.8213576078414917,3.9787659645080566,-270.30059814453125,0
1853.5860000000011,-0.025704534724354744,-0.021310143172740936,0.0002726642997004092,0.0,0.0,0.0,0.0,-0.0016230848850682378,0.0026512104086577892,-0.003148566698655486,0.9998222589492798,0.0,0.0,0.0,1.4921526908874512,0.8193525671958923,3.9832539558410645,-270.0826110839844,0
1863.4979999999996,-0.0257245060056448,-0.021297352388501167,0.0002707929816097021,0.0,0.0,0.0,0.0,6.741494144080207e-05,-0.00022053052089177072,-0.0009940678719431162,0.9999437928199768,0.0,0.0,0.0,1.4899570941925049,0.8184502124786377,3.9784510135650635,-269.6851806640625,0
1873.4050000000007,-0.025745388120412827,-0.021284492686390877,0.00026904349215328693,0.0,0.0,0.0,0.0,0.0010880144545808434,-0.000541695742867887,-0.00041010614950209856,0.999580979347229,0.0,0.0,0.0,1.4888156652450562,0.8199251890182495,3.96897554397583,-269.4786071777344,0
1883.3230000000003,-0.025481706485152245,-0.021377094089984894,0.0002750314597506076,0.0,0.0,0.0,0.0,0.001408591284416616,-0.004185040947049856,0.0048859310336411,1.0001935958862305,0.0,0.0,0.0,1.5227491855621338,0.7994732856750488,4.030135631561279,-275.62066650390625,0
1893.228000000001,-0.025491030886769295,-0.02136784978210926,0.00027263638912700117,0.0,0.0,0.0,0.0,1.601927215233445e-05,0.0036506352480500937,0.000846757204271853,0.9998156428337097,0.0,0.0,0.0,1.521863341331482,0.7999638319015503,4.039480686187744,-275.4603271484375,0
1903.1509999999998,-0.025433529168367386,-0.021382411941885948,0.0002557606203481555,0.0,0.0,0.0,0.0,-0.001223359489813447,-0.0005216873832978308,0.0008411540766246617,1.0000263452529907,0.0,0.0,0.0,1.5585287809371948,0.787110447883606,4.044198036193848,-282.0968017578125,0
1913.0529999999999,-0.025435511022806168,-0.02142193913459778,0.0001674652157817036,0.0,0.0,0.0,0.0,-0.0005785974208265543,0.0031990716233849525,-0.0025254993233829737,0.9991279244422913,0.0,0.0,0.0,1.5460329055786133,0.7729671001434326,4.044869422912598,-279.83502197265625,0
1922.9770000000008,-0.025446968153119087,-0.02141640894114971,0.0001604595163371414,0.0,0.0,0.0,0.0,-0.001843810547143221,0.0018950370140373707,0.0020281770266592503,0.9983281493186951,0.0,0.0,0.0,1.5442767143249512,0.7753783464431763,4.029419898986816,-279.51715087890625,0
1932.8760000000002,-0.025478357449173927,-0.021527599543333054,0.0001868439867394045,0.0,0.0,0.0,0.0,0.00015518374857492745,0.00027898058760911226,-0.0008020075038075447,0.9991177320480347,0.0,0.0,0.0,1.5315090417861938,0.7501189708709717,4.018465518951416,-277.2061767578125,0
1942.800000000001,-0.025490909814834595,-0.021526603028178215,0.0001778381847543642,0.0,0.0,0.0,0.0,0.0018785973079502583,-0.0018185677472501993,0.00015577927115373313,0.9995192289352417,0.0,0.0,0.0,1.5297856330871582,0.7523486018180847,4.022830009460449,-276.89422607421875,0
1952.701000000001,-0.025502942502498627,-0.021524855867028236,0.0001680751593085006,0.0,0.0,0.0,0.0,0.001805624458938837,-0.0017884742701426148,0.0007051918655633926,0.9984975457191467,0.0,0.0,0.0,1.5291273593902588,0.7467542886734009,4.024364948272705,-276.7751159667969,0
1962.621000000001,-0.0255141519010067,-0.021524110808968544,0.00015773581981193274,0.0,0.0,0.0,0.0,0.0014177013654261827,-0.0033115351106971502,-0.0012852611253038049,0.9994367361068726,0.0,0.0,0.0,1.5275450944900513,0.7483397126197815,4.0214972496032715,-276.48870849609375,0
1972.5259999999998,-0.025508785620331764,-0.021572062745690346,4.1957096982514486e-05,0.0,0.0,0.0,0.0,-0.0006096407887525856,0.005477610044181347,0.0005044573335908353,0.997977614402771,0.0,0.0,0.0,1.5018850564956665,0.7314373254776001,4.029285430908203,-271.84417724609375,0
1982.464,-0.02553638443350792,-0.021501770243048668,9.674247849034145e-05,0.0,0.0,0.0,0.0,-0.0012922306777909398,-0.0005140436696819961,-0.0007279770215973258,0.9992104768753052,0.0,0.0,0.0,1.5234063863754272,0.7466451525688171,4.007595062255859,-275.7395935058594,0
1992.3540000000012,-0.025547463446855545,-0.021503480151295662,8.209198858821765e-05,0.0,0.0,0.0,0.0,0.002548971911892295,0.0017684567719697952,-0.001716533675789833,0.9994027614593506,0.0,0.0,0.0,1.5206162929534912,0.7517935037612915,4.006860733032227,-275.23455810546875,0
2002.2720000000008,-0.025558771565556526,-0.021505767479538918,6.673939788015559e-05,0.0,0.0,0.0,0.0,0.0016621664399281144,-0.0031976625323295593,-0.000610920658800751,0.9977797865867615,0.0,0.0,0.0,1.519044280052185,0.7464849948883057,4.0001630783081055,-274.9500427246094,0
2012.174000000001,-0.02554372139275074,-0.021510319784283638,-2.4838896933943033e-05,0.0,0.0,0.0,0.0,-0.001350585836917162,-0.0010527899721637368,0.003214382566511631,0.9977445602416992,0.0,0.0,0.0,1.5072380304336548,0.7399013042449951,3.995756149291992,-272.8130798339844,0
2022.1000000000004,-0.025555215775966644,-0.021514011546969414,-4.778779111802578e-05,0.0,0.0,0.0,0.0,-0.000414700189139694,-0.0017131906934082508,0.00031136974575929344,0.9992967844009399,0.0,0.0,0.0,1.507402777671814,0.739752471446991,3.9991867542266846,-272.8428955078125,0
2031.9989999999998,-0.025567814707756042,-0.021517392247915268,-7.24202545825392e-05,0.0,0.0,0.0,0.0,-0.003982272464782,-0.004424328915774822,0.0028119978960603476,0.9994731545448303,0.0,0.0,0.0,1.5059372186660767,0.7389888763427734,3.9998700618743896,-272.57763671875,0
2041.9130000000005,-0.025580789893865585,-0.02152002975344658,-9.767338633537292e-05,0.0,0.0,0.0,0.0,-0.000443668948719278,-0.002391433110460639,6.798819958930835e-05,1.0015196800231934,0.0,0.0,0.0,1.5055580139160156,0.7495859265327454,4.008002758026123,-272.509033203125,0
2051.8330000000005,-0.02559398114681244,-0.02152196690440178,-0.00012258897186256945,0.0,0.0,0.0,0.0,-0.0014347221003845334,0.0026786497328430414,0.000636131560895592,0.9982784390449524,0.0,0.0,0.0,1.5036448240280151,0.7512077689170837,4.012165546417236,-272.1627197265625,0
2061.746000000001,-0.025607317686080933,-0.021524034440517426,-0.0001470987917855382,0.0,0.0,0.0,0.0,-2.8499714971985668e-05,0.000405453669372946,-0.0022800385486334562,0.9985560178756714,0.0,0.0,0.0,1.5027121305465698,0.7583408355712891,4.003296375274658,-271.9938659667969,0
2071.6489999999994,-0.02562132105231285,-0.02152678370475769,-0.00017274075071327388,0.0,0.0,0.0,0.0,0.0008356074104085565,0.0018790514441207051,-0.000770207610912621,0.9999732971191406,0.0,0.0,0.0,1.5009739398956299,0.7591581344604492,3.996729850769043,-271.67926025390625,0
2081.567000000001,-0.02543613128364086,-0.0214838869869709,4.1817973396973684e-05,0.0,0.0,0.0,0.0,-0.0014022622490301728,0.001290578511543572,-0.0018067084020003676,0.9982890486717224,0.0,0.0,0.0,1.5298471450805664,0.7723169922828674,4.041121006011963,-276.9053649902344,0
2091.473,-0.025440992787480354,-0.021485213190317154,2.743110599112697e-05,0.0,0.0,0.0,0.0,0.0009548462694510818,-0.0022208355367183685,-0.0008499201503582299,0.9988523721694946,0.0,0.0,0.0,1.527772307395935,0.7703122496604919,4.027466297149658,-276.5298156738281,0
2101.392,-0.025446532294154167,-0.021488433703780174,1.1999876733170822e-05,0.0,0.0,0.0,0.0,-0.0011419459478929639,-0.002210633596405387,0.002834905870258808,1.0000344514846802,0.0,0.0,0.0,1.52640700340271,0.7735316157341003,4.022058010101318,-276.28271484375,0
2111.2960000000003,-0.02545270137488842,-0.02149229682981968,-3.957142325816676e-06,0.0,0.0,0.0,0.0,7.947860285639763e-05,-0.00190703384578228,-0.00014301197370514274,0.9998064637184143,0.0,0.0,0.0,1.5269960165023804,0.7712497711181641,4.019016265869141,-276.38934326171875,0
2121.219000000001,-0.02545909397304058,-0.021496862173080444,-2.0137358660576865e-05,0.0,0.0,0.0,0.0,-0.0006442791782319546,0.00016877028974704444,0.004315302241593599,0.9994943737983704,0.0,0.0,0.0,1.5250904560089111,0.7623854279518127,4.022695541381836,-276.0444030761719,0
2131.1319999999996,-0.025466686114668846,-0.021503139287233353,-3.6533117963699624e-05,0.0,0.0,0.0,0.0,-0.0014483419945463538,0.0009270983282476664,0.001207442139275372,1.001132845878601,0.0,0.0,0.0,1.5246500968933105,0.7638888955116272,4.025241851806641,-275.9646911621094,0
2141.0419999999995,-0.025476112961769104,-0.021510550752282143,-5.29349890712183e-05,0.0,0.0,0.0,0.0,0.001521237543784082,-0.0006527428049594164,0.0013257056707516313,1.0009770393371582,0.0,0.0,0.0,1.52320396900177,0.7694552540779114,4.024714946746826,-275.70294189453125,0
2150.9449999999997,-0.025485988706350327,-0.02151799015700817,-6.8684559664689e-05,0.0,0.0,0.0,0.0,0.0014193793758749962,0.001584560377523303,-0.0009701645467430353,1.0006006956100464,0.0,0.0,0.0,1.5214236974716187,0.7642574906349182,4.010552406311035,-275.3807067871094,0
2160.8639999999996,-0.02548922412097454,-0.02136801928281784,0.0001217799581354484,0.0,0.0,0.0,0.0,0.002219890709966421,-0.00017855633632279932,0.0019913262221962214,0.9976915717124939,0.0,0.0,0.0,1.5427172183990479,0.8011831045150757,4.0067596435546875,-279.2348937988281,0
