timestamp,stateEstimate.x,stateEstimate.y,stateEstimate.z,controller.cmd_thrust,controller.cmd_roll,controller.cmd_pitch,controller.cmd_yaw,controller.r_roll,controller.r_pitch,controller.r_yaw,controller.accelz,controller.actuatorThrust,controller.roll,controller.pitch,controller.yaw,controller.rollRate,controller.pitchRate,controller.yawRate,controller.ctr_yaw
0.0,-0.009784596972167492,0.06533795595169067,0.00023361318744719028,0.0,0.0,0.0,0.0,0.0002862061373889446,-0.001329342252574861,0.002967230509966612,0.9999985694885254,0.0,0.0,0.0,56.88856887817383,0.37344151735305786,5.66725492477417,-10296.9443359375,0
9.926000000001295,-0.009767924435436726,0.06528628617525101,0.00016179823433049023,0.0,0.0,0.0,0.0,0.0026112962514162064,0.006595578510314226,-0.0028535695746541023,1.0023013353347778,0.0,0.0,0.0,56.92204666137695,0.37030819058418274,5.66046142578125,-10303.00390625,0
19.82600000000093,-0.009746266528964043,0.0653855949640274,0.0002524675219319761,0.0,0.0,0.0,0.0,-0.0012962660985067487,0.00042808588477782905,0.0008900802931748331,1.0008548498153687,0.0,0.0,0.0,56.908565521240234,0.3733711838722229,5.6599884033203125,-10300.5634765625,0
29.743000000000393,-0.0097590871155262,0.06529191881418228,0.00022313672525342554,0.0,0.0,0.0,0.0,-0.002781020477414131,-2.5728191758389585e-05,-0.0032798699103295803,0.9998409152030945,0.0,0.0,0.0,56.93385314941406,0.3622526228427887,5.637497425079346,-10305.1416015625,0
39.642000000001644,-0.009807617403566837,0.06543022394180298,0.00031276262598112226,0.0,0.0,0.0,0.0,-0.0023740448523312807,0.0020764023065567017,-0.00038652107468806207,0.9989091753959656,0.0,0.0,0.0,56.922706604003906,0.388347864151001,5.651483535766602,-10303.123046875,0
49.56700000000092,-0.00980528723448515,0.06533848494291306,0.0002599393483251333,0.0,0.0,0.0,0.0,-0.0019719889387488365,0.0035946823190897703,0.0033262416254729033,1.0000231266021729,0.0,0.0,0.0,56.95408630371094,0.38210126757621765,5.642536640167236,-10308.802734375,0
59.46600000000035,-0.009835551492869854,0.06550157070159912,0.00037142529617995024,0.0,0.0,0.0,0.0,0.0022859687451273203,0.0002724753867369145,0.0004355079436209053,1.0009055137634277,0.0,0.0,0.0,56.940433502197266,0.39896726608276367,5.662034034729004,-10306.33203125,0
69.38100000000122,-0.0098702572286129,0.06536919623613358,0.00036303483648225665,0.0,0.0,0.0,0.0,-0.001136508653871715,-0.00020862321252934635,-0.0003236691700294614,1.0001020431518555,0.0,0.0,0.0,56.966346740722656,0.38847681879997253,5.638819694519043,-10311.0224609375,0
79.29700000000048,-0.00982685573399067,0.06548510491847992,0.0004789558588527143,0.0,0.0,0.0,0.0,0.000788955541793257,0.003961788024753332,-0.0003373303625266999,0.9986029863357544,0.0,0.0,0.0,56.946659088134766,0.38775333762168884,5.652342796325684,-10307.458984375,0
89.21100000000115,-0.00981798954308033,0.06545969843864441,0.0004908789996989071,0.0,0.0,0.0,0.0,-0.0008845627307891846,-0.0008019478991627693,-0.001345369964838028,1.0001074075698853,0.0,0.0,0.0,56.89305877685547,0.3920576572418213,5.648117542266846,-10297.7568359375,0
99.1150000000016,-0.009775364771485329,0.06549100577831268,0.0005528817418962717,0.0,0.0,0.0,0.0,-0.003946212586015463,0.0013934574089944363,-0.001485740183852613,0.9989793300628662,0.0,0.0,0.0,56.87868881225586,0.39150771498680115,5.656814098358154,-10295.15625,0
109.02500000000146,-0.0097634457051754,0.06541906297206879,0.0004976408090442419,0.0,0.0,0.0,0.0,-0.0019401856698095798,0.0008317363681271672,-0.002225026488304138,1.0000576972961426,0.0,0.0,0.0,56.90189743041992,0.38107797503471375,5.638435363769531,-10299.3564453125,0
118.92900000000009,-0.009782540611922741,0.06547202169895172,0.0005576895782724023,0.0,0.0,0.0,0.0,0.00038612118805758655,0.0028354160021990538,0.00012852791405748576,1.00046706199646,0.0,0.0,0.0,56.88930892944336,0.4007047414779663,5.644107341766357,-10297.078125,0
128.84800000000178,-0.009803149849176407,0.06533481180667877,0.0005306697566993535,0.0,0.0,0.0,0.0,0.002077999757602811,-0.0023916775826364756,0.0039958953857421875,1.0005314350128174,0.0,0.0,0.0,56.90728759765625,0.38890811800956726,5.609469413757324,-10300.33203125,0
138.75,-0.009792042896151543,0.06530169397592545,0.000541857851203531,0.0,0.0,0.0,0.0,0.00036324761458672583,0.00537416385486722,0.002856057370081544,0.9985052347183228,0.0,0.0,0.0,56.85299301147461,0.3933318555355072,5.60459041595459,-10290.5048828125,0
148.6760000000013,-0.009776202961802483,0.06518132984638214,0.0004741779703181237,0.0,0.0,0.0,0.0,-0.0023591523058712482,0.000471327017294243,-0.0005309453699737787,0.9995794296264648,0.0,0.0,0.0,56.889434814453125,0.3740508258342743,5.566036701202393,-10297.1015625,0
158.57300000000032,-0.00976188387721777,0.06514022499322891,0.0004786323115695268,0.0,0.0,0.0,0.0,-0.0004876565944869071,0.0051037766970694065,-0.00202371459454298,1.001408576965332,0.0,0.0,0.0,56.83390808105469,0.38310205936431885,5.564221382141113,-10287.05078125,0
168.4920000000002,-0.009732265956699848,0.06504696607589722,0.000411993358284235,0.0,0.0,0.0,0.0,0.0018531791865825653,-0.003902759635820985,-0.000995243201032281,1.0010980367660522,0.0,0.0,0.0,56.86605453491211,0.36743924021720886,5.542901992797852,-10292.8681640625,0
178.39300000000003,-0.00984275434166193,0.06524669378995895,0.0005472160992212594,0.0,0.0,0.0,0.0,-0.0015137743903324008,-0.0028948343824595213,0.0046746875159442425,1.000220537185669,0.0,0.0,0.0,56.856781005859375,0.4261775612831116,5.57520055770874,-10291.189453125,0
188.32200000000012,-0.009801364503800869,0.06521624326705933,0.0004804337804671377,0.0,0.0,0.0,0.0,-0.000303441658616066,0.0062766107730567455,-0.0007841974147595465,0.999919593334198,0.0,0.0,0.0,56.88219451904297,0.4132612645626068,5.573966979980469,-10295.7900390625,0
198.21900000000096,-0.009831525385379791,0.06532303243875504,0.000580351275857538,0.0,0.0,0.0,0.0,-0.000455038039945066,-0.0011526210000738502,-0.0012553803389891982,0.9974851012229919,0.0,0.0,0.0,56.87186050415039,0.42794132232666016,5.587667942047119,-10293.919921875,0
208.13100000000122,-0.009776962921023369,0.06528660655021667,0.0004904507659375668,0.0,0.0,0.0,0.0,0.0010498291812837124,-7.256976095959544e-05,-0.000807570293545723,0.997747004032135,0.0,0.0,0.0,56.899024963378906,0.41222262382507324,5.5879998207092285,-10298.837890625,0
218.03500000000167,-0.009757996536791325,0.06525054574012756,0.0004942535306327045,0.0,0.0,0.0,0.0,0.0024118113797158003,0.001733826706185937,0.0006616216851398349,0.9987764358520508,0.0,0.0,0.0,56.8443489074707,0.409179151058197,5.585254669189453,-10288.9404296875,0
227.95600000000013,-0.00969750713557005,0.06521368026733398,0.0003982221824117005,0.0,0.0,0.0,0.0,0.0030359607189893723,-0.004566367715597153,-0.0004513685707934201,1.000982403755188,0.0,0.0,0.0,56.877323150634766,0.39202144742012024,5.582366466522217,-10294.908203125,0
237.85800000000017,-0.009676515124738216,0.0651734322309494,0.0003920121816918254,0.0,0.0,0.0,0.0,0.0016528433188796043,0.0039840927347540855,0.0015617698663845658,0.9998184442520142,0.0,0.0,0.0,56.82282638549805,0.397793173789978,5.580268383026123,-10285.0439453125,0
247.76800000000003,-0.009631096385419369,0.06511726975440979,0.00031994591699913144,0.0,0.0,0.0,0.0,0.0011764453956857324,-0.0030111547093838453,-0.0005717137246392667,0.999556303024292,0.0,0.0,0.0,56.8560676574707,0.3859562277793884,5.586278438568115,-10291.0615234375,0
257.6780000000017,-0.009606615640223026,0.0650712251663208,0.00030933538801036775,0.0,0.0,0.0,0.0,3.870595173793845e-05,0.004213839769363403,-0.0021802678238600492,1.0005849599838257,0.0,0.0,0.0,56.80107879638672,0.3811345398426056,5.582935333251953,-10281.107421875,0
267.59500000000116,-0.009589294902980328,0.06496983021497726,0.00027723293169401586,0.0,0.0,0.0,0.0,0.003820969257503748,0.0020255199633538723,0.001576620968990028,0.9996597170829773,0.0,0.0,0.0,56.84025192260742,0.3696972727775574,5.559927940368652,-10288.19921875,0
277.5,-0.009815656580030918,0.06527142971754074,0.0003901525342371315,0.0,0.0,0.0,0.0,0.0013529629213735461,0.0005090593476779759,0.0015036595286801457,1.000194787979126,0.0,0.0,0.0,56.835140228271484,0.4680383503437042,5.594010829925537,-10287.2724609375,0
287.4180000000015,-0.009826344437897205,0.06516563892364502,0.00034148950362578034,0.0,0.0,0.0,0.0,-0.0015261421212926507,-0.00039156246930360794,-0.000902727129869163,0.9998670220375061,0.0,0.0,0.0,56.874351501464844,0.45041579008102417,5.570564270019531,-10294.3701171875,0
297.32600000000093,-0.009854088537395,0.0653071403503418,0.0004696064570453018,0.0,0.0,0.0,0.0,0.0001665717427385971,0.004655010998249054,-0.0028665128629654646,0.9997613430023193,0.0,0.0,0.0,56.866024017333984,0.46615076065063477,5.590303897857666,-10292.86328125,0
307.2360000000008,-0.009809724986553192,0.06527911126613617,0.0003839706478174776,0.0,0.0,0.0,0.0,0.0004925985704176128,0.0010562780080363154,-0.0008680240134708583,0.998411238193512,0.0,0.0,0.0,56.89681625366211,0.44976806640625,5.581888198852539,-10298.4375,0
317.14700000000084,-0.00979843083769083,0.06524155288934708,0.0003828949120361358,0.0,0.0,0.0,0.0,-0.004114548675715923,-0.005587765946984291,-0.0009061493328772485,0.998855710029602,0.0,0.0,0.0,56.84186935424805,0.45870256423950195,5.573873043060303,-10288.490234375,0
327.0570000000007,-0.009757528081536293,0.06520304828882217,0.00030770088778808713,0.0,0.0,0.0,0.0,0.004086512606590986,0.0014569088816642761,0.0009562794584780931,1.0003025531768799,0.0,0.0,0.0,56.872772216796875,0.449120432138443,5.571104049682617,-10294.083984375,0
336.96500000000015,-0.009886698797345161,0.06541764736175537,0.00042044668225571513,0.0,0.0,0.0,0.0,-0.0030351742170751095,-0.002238720189779997,-0.0014749764231964946,0.999904453754425,0.0,0.0,0.0,56.86851501464844,0.4839104115962982,5.606959819793701,-10293.3134765625,0
346.8760000000002,-0.009858653880655766,0.0653647631406784,0.000339215446729213,0.0,0.0,0.0,0.0,-0.0010864457581192255,-0.0045601618476212025,0.002616136334836483,1.0011059045791626,0.0,0.0,0.0,56.898006439208984,0.4791044294834137,5.595165252685547,-10298.65234375,0
356.7940000000017,-0.009823750704526901,0.06548045575618744,0.000456604000646621,0.0,0.0,0.0,0.0,0.000972237263340503,0.003487230511382222,-0.0016804388724267483,0.9993228912353516,0.0,0.0,0.0,56.88723373413086,0.4828251600265503,5.627431392669678,-10296.703125,0
366.6970000000001,-0.009812409989535809,0.06539592146873474,0.0003966080548707396,0.0,0.0,0.0,0.0,0.0054026576690375805,0.0011629908112809062,0.0033519351854920387,1.001265525817871,0.0,0.0,0.0,56.91725158691406,0.4697194993495941,5.616532802581787,-10302.13671875,0
376.6080000000002,-0.009837147779762745,0.06550610810518265,0.0004792039981111884,0.0,0.0,0.0,0.0,-0.001482450170442462,0.0001571307220729068,0.003206235822290182,1.0003740787506104,0.0,0.0,0.0,56.90371322631836,0.48039302229881287,5.627127170562744,-10299.685546875,0
386.52400000000125,-0.009823329746723175,0.06541823595762253,0.000414214504417032,0.0,0.0,0.0,0.0,0.0001352383551420644,-0.000349201203789562,-0.0009820469422265887,1.0000563859939575,0.0,0.0,0.0,56.93056106567383,0.4650932252407074,5.611644268035889,-10304.544921875,0
396.4330000000009,-0.009809855371713638,0.06549102067947388,0.0004917307524010539,0.0,0.0,0.0,0.0,0.002782565774396062,0.0024306296836584806,-0.0012070932425558567,1.00094473361969,0.0,0.0,0.0,56.91813659667969,0.46770334243774414,5.611572742462158,-10302.2958984375,0
406.35100000000057,-0.009793179109692574,0.0653996467590332,0.00042429412133060396,0.0,0.0,0.0,0.0,0.0018712157616391778,0.001876220339909196,-0.0003870890650432557,0.9997939467430115,0.0,0.0,0.0,56.94875717163086,0.4516045153141022,5.602142810821533,-10307.8388671875,0
416.2530000000006,-0.009796504862606525,0.06546811014413834,0.0004913428565487266,0.0,0.0,0.0,0.0,0.0027130937669426203,0.0013422317570075393,0.0012567891972139478,0.9980649948120117,0.0,0.0,0.0,56.935733795166016,0.4561028778553009,5.598703861236572,-10305.4814453125,0
426.1690000000017,-0.00977662205696106,0.06537986546754837,0.0004273250815458596,0.0,0.0,0.0,0.0,0.00036902527790516615,0.0011287018423900008,0.0005344126257114112,0.9985096454620361,0.0,0.0,0.0,56.9633903503418,0.4372769594192505,5.576356887817383,-10310.4873046875,0
436.0720000000001,-0.00978876743465662,0.06545349955558777,0.0004946442786604166,0.0,0.0,0.0,0.0,-0.0007405490032397211,0.0034037954173982143,0.001418726285919547,0.9993656277656555,0.0,0.0,0.0,56.95075225830078,0.4373233914375305,5.58474063873291,-10308.19921875,0
445.9920000000002,-0.009773919358849525,0.06536293774843216,0.0004354619886726141,0.0,0.0,0.0,0.0,0.003064356744289398,0.0012085158377885818,-0.00025869187084026635,0.9994988441467285,0.0,0.0,0.0,56.976829528808594,0.4239574372768402,5.571351051330566,-10312.919921875,0
455.89300000000003,-0.009774035774171352,0.06543787568807602,0.0005058957613073289,0.0,0.0,0.0,0.0,0.0009694762411527336,0.001050504157319665,-0.0033357511274516582,0.9999285340309143,0.0,0.0,0.0,56.95805740356445,0.43113258481025696,5.577498435974121,-10309.521484375,0
465.8060000000005,-0.00975920632481575,0.06534912437200546,0.00044574865023605525,0.0,0.0,0.0,0.0,-0.0008492935448884964,0.0006120001198723912,0.002242809860035777,0.9994039535522461,0.0,0.0,0.0,56.97917938232422,0.4147295355796814,5.563445568084717,-10313.3447265625,0
475.71700000000055,-0.00974784791469574,0.06531025469303131,0.0004456672177184373,0.0,0.0,0.0,0.0,0.0004453703877516091,-0.00026047445135191083,0.0012339081149548292,1.000223159790039,0.0,0.0,0.0,56.92343521118164,0.42139381170272827,5.556851863861084,-10303.255859375,0
485.6260000000002,-0.009706269949674606,0.06524336338043213,0.00036154998815618455,0.0,0.0,0.0,0.0,0.0009145880467258394,0.0014851129380986094,0.0023840207140892744,1.0021439790725708,0.0,0.0,0.0,56.95191192626953,0.3999215364456177,5.5506272315979,-10308.41015625,0
495.53700000000026,-0.009751389734447002,0.06538022309541702,0.000460691109765321,0.0,0.0,0.0,0.0,0.0028614529874175787,0.0017846600385382771,-0.00023412219888996333,1.0021127462387085,0.0,0.0,0.0,56.936248779296875,0.42742905020713806,5.574902057647705,-10305.57421875,0
505.4480000000003,-0.009761616587638855,0.06527360528707504,0.0004362414183560759,0.0,0.0,0.0,0.0,-0.0034462581388652325,-0.0003903155738953501,0.00015864592569414526,0.9997155666351318,0.0,0.0,0.0,56.963863372802734,0.41514062881469727,5.55077600479126,-10310.572265625,0
515.3580000000002,-0.009783376939594746,0.06538508087396622,0.0005307566025294363,0.0,0.0,0.0,0.0,-0.00145032349973917,-0.002011361997574568,0.0002148470375686884,0.9984322190284729,0.0,0.0,0.0,56.94211196899414,0.43482619524002075,5.560470104217529,-10306.6357421875,0
525.2740000000013,-0.009784793481230736,0.06529316306114197,0.0005006428109481931,0.0,0.0,0.0,0.0,0.0007048640982247889,-0.0030165889766067266,0.002253924496471882,1.0012625455856323,0.0,0.0,0.0,56.964134216308594,0.4318721890449524,5.5489959716796875,-10310.6220703125,0
535.1830000000009,-0.009787064045667648,0.06538481265306473,0.0005909682367928326,0.0,0.0,0.0,0.0,0.0009693053434602916,0.00420899735763669,0.000900224142242223,1.000473141670227,0.0,0.0,0.0,56.9422607421875,0.44305241107940674,5.5763444900512695,-10306.662109375,0
545.0900000000001,-0.009747732430696487,0.06533118337392807,0.0005142021691426635,0.0,0.0,0.0,0.0,0.0031289744656533003,-0.0021235409658402205,-0.0027295048348605633,0.999335765838623,0.0,0.0,0.0,56.961524963378906,0.43089431524276733,5.560986518859863,-10310.150390625,0
555.0020000000004,-0.009772825986146927,0.06541819870471954,0.000587880436796695,0.0,0.0,0.0,0.0,-0.00046638291678391397,-0.00046756103984080255,-0.0013591573806479573,0.9979095458984375,0.0,0.0,0.0,56.93815231323242,0.44496193528175354,5.564970016479492,-10305.9189453125,0
564.9120000000003,-0.009745844639837742,0.06534570455551147,0.0005188504583202302,0.0,0.0,0.0,0.0,-0.00029625059687532485,0.0017683657351881266,0.00023552466882392764,0.9986016750335693,0.0,0.0,0.0,56.960567474365234,0.42803603410720825,5.557399749755859,-10309.9765625,0
574.8220000000001,-0.009796751663088799,0.06546769291162491,0.000600686646066606,0.0,0.0,0.0,0.0,-0.0023586272727698088,0.001450933050364256,0.002263234928250313,0.9987089037895203,0.0,0.0,0.0,56.9398307800293,0.44887956976890564,5.5794548988342285,-10306.22265625,0
584.7330000000002,-0.009783556684851646,0.0653732568025589,0.0005311711574904621,0.0,0.0,0.0,0.0,0.000668107473757118,-0.003379017813131213,-0.0005113834049552679,1.0003342628479004,0.0,0.0,0.0,56.96427917480469,0.43352043628692627,5.553828239440918,-10310.6484375,0
594.643,-0.009856998920440674,0.06550759822130203,0.0006117986049503088,0.0,0.0,0.0,0.0,-0.00047861674102023244,0.0030986617784947157,0.0008283544448204339,0.9980895519256592,0.0,0.0,0.0,56.94620132446289,0.4570344388484955,5.566059589385986,-10307.3759765625,0
604.5540000000001,-0.009840595535933971,0.06541556119918823,0.0005333818262442946,0.0,0.0,0.0,0.0,0.0005603775498457253,-0.0049531226977705956,0.0015904447063803673,0.9962467551231384,0.0,0.0,0.0,56.971248626708984,0.43761855363845825,5.552319049835205,-10311.9091796875,0
614.4670000000006,-0.009841885417699814,0.06537581235170364,0.0005342913791537285,0.0,0.0,0.0,0.0,0.0029033522587269545,0.0056791785173118114,0.0006074043340049684,0.9980410933494568,0.0,0.0,0.0,56.91758728027344,0.43812471628189087,5.547677040100098,-10302.197265625,0
624.3760000000002,-0.009806965477764606,0.06530483067035675,0.00043455828563310206,0.0,0.0,0.0,0.0,-0.00012414735101629049,-0.003929113037884235,0.0006726783467456698,1.000368356704712,0.0,0.0,0.0,56.94028091430664,0.41923269629478455,5.535932540893555,-10306.3046875,0
634.2920000000013,-0.009809475392103195,0.06525838375091553,0.00042301983921788633,0.0,0.0,0.0,0.0,-0.0013640878023579717,0.005758131854236126,-0.0004504180105868727,1.0000154972076416,0.0,0.0,0.0,56.886085510253906,0.4173588752746582,5.531497478485107,-10296.4951171875,0
644.1970000000001,-0.009774984791874886,0.06519335508346558,0.00032627457403577864,0.0,0.0,0.0,0.0,0.003417127998545766,0.006102350540459156,-0.0019504158990457654,1.0008314847946167,0.0,0.0,0.0,56.91719055175781,0.39752867817878723,5.527065277099609,-10302.125,0
654.1190000000006,-0.009845453314483166,0.06534072756767273,0.00043789349729195237,0.0,0.0,0.0,0.0,-0.004250586498528719,-0.006634669378399849,-0.0008056280203163624,1.0003137588500977,0.0,0.0,0.0,56.90420150756836,0.4243106245994568,5.546480178833008,-10299.7734375,0
664.0240000000013,-0.009861725382506847,0.06522119790315628,0.0003745080903172493,0.0,0.0,0.0,0.0,-0.0011454246705397964,-0.0005225351778790355,0.0032250552903860807,1.00035560131073,0.0,0.0,0.0,56.93138885498047,0.41567710041999817,5.527900218963623,-10304.6943359375,0
673.9350000000013,-0.00986603181809187,0.06536142528057098,0.0005144013557583094,0.0,0.0,0.0,0.0,0.0017826800467446446,0.0013462823117151856,-0.0018750890158116817,1.0016230344772339,0.0,0.0,0.0,56.922607421875,0.43236055970191956,5.554956912994385,-10303.1064453125,0
683.8450000000012,-0.009857998229563236,0.06528244912624359,0.00045054673682898283,0.0,0.0,0.0,0.0,0.002890348667278886,0.001625739154405892,-0.0014556505484506488,1.000954270362854,0.0,0.0,0.0,56.94975280761719,0.42240050435066223,5.5452680587768555,-10308.0185546875,0
693.759,-0.009840862825512886,0.06536417454481125,0.0005510105402208865,0.0,0.0,0.0,0.0,-0.003909333609044552,0.003027840983122587,-0.0043032411485910416,1.001143455505371,0.0,0.0,0.0,56.937503814697266,0.42650553584098816,5.556723117828369,-10305.8017578125,0
703.6630000000005,-0.009837096557021141,0.065321184694767,0.0005588741041719913,0.0,0.0,0.0,0.0,0.0035180365666747093,-0.0035803690552711487,0.004776008427143097,0.9989370107650757,0.0,0.0,0.0,56.88290023803711,0.4285584092140198,5.5435051918029785,-10295.91796875,0
713.585000000001,-0.009834232740104198,0.06527584046125412,0.0005675736465491354,0.0,0.0,0.0,0.0,0.004637968260794878,0.004357438068836927,-0.0004337331047281623,0.9979034066200256,0.0,0.0,0.0,56.82770919799805,0.4349006414413452,5.53245735168457,-10285.927734375,0
723.4830000000002,-0.009771781973540783,0.06524385511875153,0.00043139001354575157,0.0,0.0,0.0,0.0,-0.0005549347843043506,-9.430302452528849e-05,-0.00043808837654069066,0.9992473721504211,0.0,0.0,0.0,56.86256790161133,0.4163599908351898,5.531506061553955,-10292.23828125,0
733.4000000000015,-0.009764442220330238,0.06519262492656708,0.0004258632252458483,0.0,0.0,0.0,0.0,-4.3680025555659086e-05,-0.00964649673551321,-0.0004883179208263755,1.0008677244186401,0.0,0.0,0.0,56.807987213134766,0.41741475462913513,5.524875640869141,-10282.3583984375,0
743.3140000000003,-0.009720392525196075,0.06514634191989899,0.0003258263459429145,0.0,0.0,0.0,0.0,-0.0034512977581471205,0.003351802472025156,0.0011377722257748246,1.0015381574630737,0.0,0.0,0.0,56.847862243652344,0.40196070075035095,5.535808563232422,-10289.5751953125,0
753.2320000000018,-0.00981287844479084,0.06532884389162064,0.00047183342394419014,0.0,0.0,0.0,0.0,-0.0009019557037390769,-0.001712299999780953,0.0012769270688295364,0.9988921880722046,0.0,0.0,0.0,56.83409881591797,0.4605180323123932,5.587270736694336,-10287.0849609375,0
763.134,-0.009787295013666153,0.06527406722307205,0.0003767589514609426,0.0,0.0,0.0,0.0,0.0002250611869385466,-0.002178741618990898,0.000278676365269348,0.9988157153129578,0.0,0.0,0.0,56.871585845947266,0.452613890171051,5.5829339027404785,-10293.869140625,0
773.0490000000009,-0.009782388806343079,0.06523146480321884,0.0003702574467752129,0.0,0.0,0.0,0.0,0.0013372026151046157,0.0009482741006650031,0.003593721892684698,0.9999766945838928,0.0,0.0,0.0,56.81748962402344,0.45500022172927856,5.583792686462402,-10284.0791015625,0
782.9490000000005,-0.009746045805513859,0.06521427631378174,0.0003010558430105448,0.0,0.0,0.0,0.0,0.0010319758439436555,-0.00035578737151809037,0.0001235099189216271,0.9998603463172913,0.0,0.0,0.0,56.84885025024414,0.4406120181083679,5.58475923538208,-10289.75390625,0
792.875,-0.009837651625275612,0.06537198275327682,0.0004067583358846605,0.0,0.0,0.0,0.0,-0.001672170590609312,0.0019314417149871588,-0.0009276106138713658,0.997532844543457,0.0,0.0,0.0,56.843074798583984,0.47593483328819275,5.610707759857178,-10288.708984375,0
802.7800000000007,-0.009781179949641228,0.06537725776433945,0.0002898063394241035,0.0,0.0,0.0,0.0,0.0036452242638915777,-0.002495737513527274,0.0005475765210576355,1.000808835029602,0.0,0.0,0.0,56.87218475341797,0.4626449942588806,5.625374794006348,-10293.978515625,0
812.6980000000003,-0.009743941947817802,0.0654822587966919,0.00041254336247220635,0.0,0.0,0.0,0.0,0.0015429341001436114,0.001208278350532055,0.00010635241778800264,0.9998887777328491,0.0,0.0,0.0,56.85927200317383,0.47452616691589355,5.648645401000977,-10291.640625,0
822.5910000000003,-0.009713830426335335,0.06544070690870285,0.00032851850846782327,0.0,0.0,0.0,0.0,-0.003401341615244746,0.0010088934795930982,-0.00169347133487463,1.000381350517273,0.0,0.0,0.0,56.8922004699707,0.46908628940582275,5.643538951873779,-10297.6025390625,0
832.5110000000004,-0.009833317250013351,0.0655672624707222,0.0003793875512201339,0.0,0.0,0.0,0.0,-0.0004949266440235078,-0.00036920190905220807,-0.0011548853944987059,0.9963671565055847,0.0,0.0,0.0,56.88408279418945,0.4910018742084503,5.646003246307373,-10296.1318359375,0
842.4120000000003,-0.009849296882748604,0.06545048952102661,0.00032569124596193433,0.0,0.0,0.0,0.0,-0.0030753305181860924,-0.0028329116757959127,0.001239030621945858,0.9981051683425903,0.0,0.0,0.0,56.913368225097656,0.48248091340065,5.624441623687744,-10301.43359375,0
852.335000000001,-0.009825236164033413,0.06553873419761658,0.00041397250606678426,0.0,0.0,0.0,0.0,0.0020676306448876858,-0.0002998569398187101,0.0004777953145094216,1.0001829862594604,0.0,0.0,0.0,56.89869689941406,0.4878908693790436,5.644644260406494,-10298.7783203125,0
862.2350000000006,-0.009838561527431011,0.06542577594518661,0.0003573906433302909,0.0,0.0,0.0,0.0,-0.0016416410217061639,-0.001307510887272656,-0.0006610432756133378,1.0009647607803345,0.0,0.0,0.0,56.92753601074219,0.479591429233551,5.630444526672363,-10303.998046875,0
872.1590000000015,-0.00984157994389534,0.06538646668195724,0.0003503326734062284,0.0,0.0,0.0,0.0,0.00272647337988019,0.0008064066641964018,-0.0023612657096236944,0.999390184879303,0.0,0.0,0.0,56.8729248046875,0.481922447681427,5.621767997741699,-10294.111328125,0
882.0590000000011,-0.009854600764811039,0.06527187675237656,0.0003057380672544241,0.0,0.0,0.0,0.0,0.002315692137926817,-0.001610949751920998,0.0008586132316850126,0.9994077682495117,0.0,0.0,0.0,56.8979606628418,0.4760093688964844,5.596667289733887,-10298.64453125,0
891.9790000000012,-0.009859038516879082,0.06522547453641891,0.00029566773446276784,0.0,0.0,0.0,0.0,8.121471910271794e-05,0.0016977721825242043,-0.00166991981677711,0.9991574883460999,0.0,0.0,0.0,56.84208297729492,0.4756675660610199,5.590668201446533,-10288.5302734375,0
901.8770000000004,-0.009856220334768295,0.06515291333198547,0.00025262130657210946,0.0,0.0,0.0,0.0,6.985528307268396e-05,0.002260858193039894,-0.0026568605098873377,1.0005050897598267,0.0,0.0,0.0,56.86389923095703,0.45772579312324524,5.590994834899902,-10292.478515625,0
911.8000000000011,-0.009865296073257923,0.06530933082103729,0.0004388590750750154,0.0,0.0,0.0,0.0,0.00040180626092478633,-0.0012118425220251083,-0.00011998411355307326,0.9995835423469543,0.0,0.0,0.0,56.8493537902832,0.47243696451187134,5.619767189025879,-10289.845703125,0
921.7020000000011,-0.009834454394876957,0.06525124609470367,0.0003522100450936705,0.0,0.0,0.0,0.0,-0.001647347817197442,-0.007073159795254469,-0.0035659174900501966,0.9975700974464417,0.0,0.0,0.0,56.882667541503906,0.4583321809768677,5.616623401641846,-10295.875,0
931.6170000000002,-0.009800020605325699,0.06534498184919357,0.0004791089741047472,0.0,0.0,0.0,0.0,0.00024330227461177856,-5.6297001719940454e-05,-0.002309950068593025,1.0018703937530518,0.0,0.0,0.0,56.872074127197266,0.4618055820465088,5.650701522827148,-10293.9580078125,0
941.5200000000004,-0.009781860746443272,0.06527269631624222,0.00040578871266916394,0.0,0.0,0.0,0.0,0.001277588657103479,0.00012424176384229213,-0.005286354571580887,1.0010546445846558,0.0,0.0,0.0,56.8978157043457,0.4474997818470001,5.641879081726074,-10298.6181640625,0
951.4420000000009,-0.009751549921929836,0.06531696021556854,0.0004827017255593091,0.0,0.0,0.0,0.0,0.000639628036879003,-0.000513159844558686,0.0029754494316875935,1.0020376443862915,0.0,0.0,0.0,56.88193130493164,0.45187708735466003,5.646047592163086,-10295.7431640625,0
961.3420000000006,-0.009773125872015953,0.0651809573173523,0.0004474203451536596,0.0,0.0,0.0,0.0,-0.001470252056606114,0.0022947851102799177,-0.0002656848810147494,0.9990993142127991,0.0,0.0,0.0,56.91258239746094,0.43906375765800476,5.62408447265625,-10301.291015625,0
971.2610000000004,-0.009769714437425137,0.06513383984565735,0.0004515799810178578,0.0,0.0,0.0,0.0,0.0030755733605474234,0.0016142046079039574,0.0039739483036100864,1.0013092756271362,0.0,0.0,0.0,56.85753631591797,0.44177761673927307,5.614963531494141,-10291.3271484375,0
981.1620000000003,-0.0097568454220891,0.06504076719284058,0.00039856843068264425,0.0,0.0,0.0,0.0,6.914911500643939e-05,-0.0005512081552296877,-0.0002911114424932748,1.0004851818084717,0.0,0.0,0.0,56.88227462768555,0.421610027551651,5.596568584442139,-10295.8046875,0
991.085000000001,-0.009752889163792133,0.06498847901821136,0.0003992978890892118,0.0,0.0,0.0,0.0,0.0002026724541792646,-0.0005783996311947703,-0.0037503675557672977,0.9983829855918884,0.0,0.0,0.0,56.82805633544922,0.423370897769928,5.59819221496582,-10285.9912109375,0
1000.9840000000004,-0.00972873903810978,0.06491506099700928,0.00034321562270633876,0.0,0.0,0.0,0.0,0.0034484099596738815,0.0019177034264430404,0.0003743229026440531,0.999455988407135,0.0,0.0,0.0,56.861656188964844,0.40647533535957336,5.5926289558410645,-10292.072265625,0
1010.9030000000002,-0.00985720381140709,0.06516022235155106,0.0005198274157010019,0.0,0.0,0.0,0.0,-0.001244422048330307,0.00015306330169551075,0.0015316884964704514,1.0000824928283691,0.0,0.0,0.0,56.84720230102539,0.46178194880485535,5.617326259613037,-10289.4560546875,0
1020.8140000000003,-0.00983448512852192,0.06510893255472183,0.0004508352722041309,0.0,0.0,0.0,0.0,0.0018498925492167473,0.0036265153903514147,0.0015529892407357693,0.9991839528083801,0.0,0.0,0.0,56.86949920654297,0.4502719044685364,5.614343166351318,-10293.4921875,0
1030.728000000001,-0.00985903199762106,0.06524450331926346,0.0005921979318372905,0.0,0.0,0.0,0.0,-0.000442226737504825,0.0014688799856230617,-0.004397465847432613,0.9985095858573914,0.0,0.0,0.0,56.85776138305664,0.4603740870952606,5.627851963043213,-10291.3671875,0
1040.6370000000006,-0.009794486686587334,0.06524044275283813,0.00047292967792600393,0.0,0.0,0.0,0.0,-0.00043205253314226866,0.0031124844681471586,-0.0017890868475660682,0.9970641732215881,0.0,0.0,0.0,56.88984680175781,0.44827988743782043,5.630823135375977,-10297.17578125,0
1050.545,-0.009790857322514057,0.06520400196313858,0.00047458126209676266,0.0,0.0,0.0,0.0,0.006198618095368147,-0.0012741844402626157,-0.0013207253068685532,1.0001920461654663,0.0,0.0,0.0,56.83547592163086,0.4517967998981476,5.621554851531982,-10287.333984375,0
1060.4550000000017,-0.009741508401930332,0.06517580151557922,0.0003695739433169365,0.0,0.0,0.0,0.0,0.00256536272354424,0.006359685678035021,-0.00012588252138812095,1.0016841888427734,0.0,0.0,0.0,56.86929702758789,0.42658111453056335,5.622814178466797,-10293.455078125,0
1070.362000000001,-0.009735292755067348,0.06513864547014236,0.0003626492980401963,0.0,0.0,0.0,0.0,-0.0008585325558669865,-0.004182320088148117,-0.0020010259468108416,1.0015619993209839,0.0,0.0,0.0,56.81512451171875,0.4249540865421295,5.59747838973999,-10283.650390625,0
1080.2810000000009,-0.009665923193097115,0.06515514105558395,0.00024328078143298626,0.0,0.0,0.0,0.0,0.001067931647412479,0.0004073308955412358,-0.0016913240542635322,1.000234603881836,0.0,0.0,0.0,56.856441497802734,0.41115307807922363,5.620485782623291,-10291.1279296875,0
1090.1900000000005,-0.009652539156377316,0.06512093544006348,0.00023064788547344506,0.0,0.0,0.0,0.0,-0.0014865091070532799,0.00016854760178830475,-0.0019584072288125753,0.9984556436538696,0.0,0.0,0.0,56.802635192871094,0.4101194739341736,5.61260461807251,-10281.3896484375,0
1100.1010000000006,-0.009638728573918343,0.06508558243513107,0.00021776717039756477,0.0,0.0,0.0,0.0,-0.001172141288407147,0.002307136543095112,0.0017855198821052909,0.9961847066879272,0.0,0.0,0.0,56.746463775634766,0.41424673795700073,5.61104679107666,-10271.22265625,0
1110.0040000000008,-0.009625026024878025,0.0650489404797554,0.0002027922892011702,0.0,0.0,0.0,0.0,0.0022396959830075502,0.0003916943387594074,0.00011884199921041727,0.999539852142334,0.0,0.0,0.0,56.69243240356445,0.4126351475715637,5.607869625091553,-10261.4423828125,0
1119.9220000000005,-0.009590698406100273,0.06500550359487534,0.00013913988368585706,0.0,0.0,0.0,0.0,-0.0010783106554299593,-0.001504289684817195,-0.0032583181746304035,1.0015126466751099,0.0,0.0,0.0,56.74609375,0.4006707966327667,5.607997894287109,-10271.1552734375,0
1129.8270000000011,-0.009575054049491882,0.06496663391590118,0.0001186000881716609,0.0,0.0,0.0,0.0,0.0004413975984789431,0.0030916621908545494,-0.0014453002950176597,1.00124990940094,0.0,0.0,0.0,56.690879821777344,0.40484723448753357,5.598977565765381,-10261.162109375,0
1139.7440000000006,-0.009537947364151478,0.0649481862783432,8.46812836243771e-05,0.0,0.0,0.0,0.0,-0.0006754790083505213,-0.003215456148609519,-0.0025533116422593594,1.0008950233459473,0.0,0.0,0.0,56.74075698852539,0.3946115970611572,5.601107120513916,-10270.189453125,0
1149.6490000000013,-0.009518370032310486,0.06490838527679443,6.589135591639206e-05,0.0,0.0,0.0,0.0,0.0003173935110680759,-0.0018492715898901224,-0.003246413776651025,1.0009005069732666,0.0,0.0,0.0,56.68584442138672,0.4015430808067322,5.602427005767822,-10260.25,0
1159.5640000000003,-0.00952537078410387,0.06485181301832199,9.381896234117448e-05,0.0,0.0,0.0,0.0,-0.0010498663177713752,0.004188690334558487,0.0030193256679922342,0.9997162222862244,0.0,0.0,0.0,56.728302001953125,0.401899129152298,5.593723297119141,-10267.935546875,0
1169.4670000000006,-0.009507018141448498,0.06480810046195984,7.960249786265194e-05,0.0,0.0,0.0,0.0,-0.0007949309074319899,0.0005149052594788373,-0.00012246797268744558,0.9968008399009705,0.0,0.0,0.0,56.67464065551758,0.4108161926269531,5.5829758644104,-10258.22265625,0
1179.3870000000006,-0.009535260498523712,0.06478413939476013,0.00016939271881710738,0.0,0.0,0.0,0.0,0.0050496431067585945,0.004783512558788061,0.0018943630857393146,0.9985159039497375,0.0,0.0,0.0,56.716739654541016,0.42459309101104736,5.577266693115234,-10265.8427734375,0
1189.291000000001,-0.009521657600998878,0.06473831832408905,0.00015901059668976814,0.0,0.0,0.0,0.0,5.2868705097353086e-05,-0.00043209645082242787,0.0006750351749360561,0.9975358843803406,0.0,0.0,0.0,56.66187286376953,0.4201688766479492,5.55472993850708,-10255.912109375,0
1199.2050000000017,-0.009538188576698303,0.0646759495139122,0.0001890530256787315,0.0,0.0,0.0,0.0,-0.0012580433394759893,0.0011302829952910542,-0.0020947440061718225,0.9985246062278748,0.0,0.0,0.0,56.70755386352539,0.42471733689308167,5.541412353515625,-10264.1796875,0
1209.1100000000006,-0.009528049267828465,0.06462480127811432,0.00017791376740206033,0.0,0.0,0.0,0.0,0.0016749107744544744,-0.0007340050069615245,-0.0021290855947881937,0.9996659159660339,0.0,0.0,0.0,56.65318298339844,0.4253643751144409,5.531617164611816,-10254.3388671875,0
1219.0290000000005,-0.009522703476250172,0.06464311480522156,0.00023766086087562144,0.0,0.0,0.0,0.0,-0.0006997903692536056,0.000530627672560513,5.5962911574169993e-05,0.999042809009552,0.0,0.0,0.0,56.703834533691406,0.4322071075439453,5.5509562492370605,-10263.5068359375,0
1228.938,-0.009515486657619476,0.06459544599056244,0.00022941597853787243,0.0,0.0,0.0,0.0,0.0003792865318246186,0.0004667577741201967,0.0017429373692721128,0.9993075132369995,0.0,0.0,0.0,56.648963928222656,0.4306229054927826,5.543182849884033,-10253.5751953125,0
1238.844000000001,-0.009481333196163177,0.06460165977478027,0.0002345807006349787,0.0,0.0,0.0,0.0,-0.001993016805499792,0.0016095723258331418,-0.00023458666692022234,0.9998745322227478,0.0,0.0,0.0,56.701759338378906,0.422869473695755,5.564173221588135,-10263.1318359375,0
1248.7530000000006,-0.00947391428053379,0.06455816328525543,0.00022591046581510454,0.0,0.0,0.0,0.0,-0.00031306620803661644,0.0021006655879318714,-0.0007809234666638076,1.0007688999176025,0.0,0.0,0.0,56.64655303955078,0.42550522089004517,5.557949066162109,-10253.138671875,0
1258.6760000000013,-0.00943715125322342,0.06458762288093567,0.0002483852731529623,0.0,0.0,0.0,0.0,-0.000848662864882499,0.0011994261294603348,-0.0021241260692477226,0.9997777938842773,0.0,0.0,0.0,56.693458557128906,0.4308323264122009,5.580896377563477,-10261.62890625,0
1268.5770000000011,-0.009428009390830994,0.06454739719629288,0.00024184907670132816,0.0,0.0,0.0,0.0,-0.002630064729601145,0.0018884686287492514,-0.004313737619668245,1.0010062456130981,0.0,0.0,0.0,56.63942337036133,0.4318367838859558,5.567637920379639,-10251.8486328125,0
1278.5,-0.009419766254723072,0.06450607627630234,0.0002358542988076806,0.0,0.0,0.0,0.0,-0.0002804310934152454,-0.0004906693357042968,4.599381554726278e-06,1.0021284818649292,0.0,0.0,0.0,56.583038330078125,0.43717074394226074,5.551758289337158,-10241.642578125,0
1288.4010000000017,-0.009411673061549664,0.06446320563554764,0.0002309672418050468,0.0,0.0,0.0,0.0,-5.464941932586953e-05,0.002679253928363323,-0.000809592311270535,1.0009645223617554,0.0,0.0,0.0,56.52799987792969,0.4341684877872467,5.54481840133667,-10231.6806640625,0
1298.3150000000005,-0.00940442830324173,0.06441836059093475,0.0002278495521750301,0.0,0.0,0.0,0.0,0.001667025382630527,-0.00047992728650569916,-0.0013006428489461541,0.9989878535270691,0.0,0.0,0.0,56.47451400756836,0.43732771277427673,5.538630962371826,-10221.9990234375,0
1308.219000000001,-0.00995585136115551,0.06508106738328934,0.0004870600823778659,0.0,0.0,0.0,0.0,0.00013796832354273647,0.0009970783721655607,-0.0004218770482111722,1.001151442527771,0.0,0.0,0.0,56.494720458984375,0.6095035672187805,5.644575119018555,-10225.6572265625,0
1318.1380000000008,-0.009975767694413662,0.06507322937250137,0.0005093226209282875,0.0,0.0,0.0,0.0,0.004436240065842867,0.0013786187628284097,3.4181198316218797e-06,0.9987097978591919,0.0,0.0,0.0,56.44084930419922,0.6127116084098816,5.639546871185303,-10215.9072265625,0
1328.0420000000013,-0.009965638630092144,0.06519050151109695,0.0007770946831442416,0.0,0.0,0.0,0.0,-0.0007694884552620351,0.002093703020364046,-0.0024383740965276957,0.9982320070266724,0.0,0.0,0.0,56.455291748046875,0.616890013217926,5.674632549285889,-10218.5205078125,0
1337.9630000000016,-0.009988455101847649,0.06519332528114319,0.0008116204990074039,0.0,0.0,0.0,0.0,0.004451610613614321,-0.00031157242483459413,-0.0008413101313635707,0.9988577961921692,0.0,0.0,0.0,56.400936126708984,0.6183258891105652,5.6692376136779785,-10208.681640625,0
1347.862000000001,-0.009947637096047401,0.06524024158716202,0.0009432309307157993,0.0,0.0,0.0,0.0,-0.0012730869930237532,-0.0002880156389437616,0.0005389669095166028,0.9981508255004883,0.0,0.0,0.0,56.41694641113281,0.6070795655250549,5.686384677886963,-10211.580078125,0
1357.7790000000005,-0.009970136918127537,0.06524664908647537,0.0009810111951082945,0.0,0.0,0.0,0.0,0.0022290439810603857,0.000550856115296483,0.002871345728635788,1.0008858442306519,0.0,0.0,0.0,56.36293029785156,0.6103686094284058,5.674560546875,-10201.8017578125,0
1367.6910000000007,-0.009993159212172031,0.06525229662656784,0.001018298091366887,0.0,0.0,0.0,0.0,-0.00029499863740056753,-0.002824254333972931,0.0032375252339988947,0.9991793036460876,0.0,0.0,0.0,56.30960464477539,0.6112484931945801,5.670257568359375,-10192.1494140625,0
1377.6040000000012,-0.010017327964305878,0.06525765359401703,0.001055956818163395,0.0,0.0,0.0,0.0,0.0014823961537331343,0.0033648647367954254,0.0071292114444077015,1.0001612901687622,0.0,0.0,0.0,56.256614685058594,0.6133500933647156,5.669965744018555,-10182.5595703125,0
1387.5040000000008,-0.010042631067335606,0.0652633011341095,0.0010936694452539086,0.0,0.0,0.0,0.0,0.0017793737351894379,-0.0011675974819809198,0.00046285547432489693,0.9996753334999084,0.0,0.0,0.0,56.20310592651367,0.613325834274292,5.647629737854004,-10172.8740234375,0
1397.4220000000005,-0.010068899020552635,0.06526892632246017,0.0011312516871839762,0.0,0.0,0.0,0.0,-0.00034925341606140137,-0.0023875858169049025,-0.00042832919280044734,0.9981586933135986,0.0,0.0,0.0,56.14866256713867,0.612036943435669,5.643732070922852,-10163.01953125,0
1407.3270000000011,-0.009921086952090263,0.06526566296815872,0.0012000564020127058,0.0,0.0,0.0,0.0,0.0012420613784343004,0.0015811873599886894,-0.008413474075496197,0.9981352090835571,0.0,0.0,0.0,56.184017181396484,0.551837146282196,5.669023513793945,-10169.4189453125,0
1417.246000000001,-0.009938312694430351,0.06526853889226913,0.0012376998784020543,0.0,0.0,0.0,0.0,-0.0021688928827643394,-0.004406332969665527,0.0029391469433903694,0.9997397661209106,0.0,0.0,0.0,56.127567291259766,0.5516414642333984,5.656118392944336,-10159.2021484375,0
1427.1510000000017,-0.009852389805018902,0.06527098268270493,0.0012974407291039824,0.0,0.0,0.0,0.0,0.0023812223225831985,0.0020405047107487917,0.0018060622969642282,1.0015000104904175,0.0,0.0,0.0,56.16419982910156,0.5227745771408081,5.665951251983643,-10165.83203125,0
1437.0660000000007,-0.009865053929388523,0.06527286022901535,0.0013359161093831062,0.0,0.0,0.0,0.0,0.0011762729845941067,0.0003162958309985697,-0.002002585446462035,0.999599039554596,0.0,0.0,0.0,56.110477447509766,0.5225638151168823,5.659623622894287,-10156.1083984375,0
1446.9800000000014,-0.009853190742433071,0.06525136530399323,0.0013617550721392035,0.0,0.0,0.0,0.0,-0.0014788673724979162,-0.00507727125659585,0.002892747987061739,1.0010583400726318,0.0,0.0,0.0,56.14888000488281,0.497786283493042,5.646903991699219,-10163.0595703125,0
1456.8900000000012,-0.009863249957561493,0.06525072455406189,0.0014002211391925812,0.0,0.0,0.0,0.0,0.003877215087413788,-0.0008599814027547836,-0.00027735019102692604,1.0007742643356323,0.0,0.0,0.0,56.09647750854492,0.49535050988197327,5.64796257019043,-10153.57421875,0
1466.7900000000009,-0.009845955297350883,0.06522154808044434,0.0014253173721954226,0.0,0.0,0.0,0.0,-0.001302360906265676,0.003599810879677534,-0.003740913700312376,0.9995337724685669,0.0,0.0,0.0,56.13397216796875,0.47448471188545227,5.648158550262451,-10160.3603515625,0
1476.7110000000011,-0.009850599803030491,0.06521642953157425,0.0014636534033343196,0.0,0.0,0.0,0.0,0.0011196094565093517,-0.0009055784321390092,0.00037390709621831775,1.0000017881393433,0.0,0.0,0.0,56.07978439331055,0.4784303307533264,5.637490749359131,-10150.552734375,0
1486.6170000000002,-0.009854891337454319,0.06517842411994934,0.0014846873236820102,0.0,0.0,0.0,0.0,0.0013779710279777646,0.002797068329527974,0.00022132955200504512,1.0009405612945557,0.0,0.0,0.0,56.11614990234375,0.45760881900787354,5.636194229125977,-10157.1357421875,0
1496.5390000000007,-0.009859214536845684,0.06516885757446289,0.0015216406900435686,0.0,0.0,0.0,0.0,0.0028507919050753117,0.0032794331200420856,0.0010451346170157194,1.001632571220398,0.0,0.0,0.0,56.0625114440918,0.45685309171676636,5.621103763580322,-10147.42578125,0
1506.438,-0.009772737510502338,0.06535851955413818,0.0009775653015822172,0.0,0.0,0.0,0.0,-0.0017478041118010879,-0.0012934317346662283,-0.00032415473833680153,1.0010356903076172,0.0,0.0,0.0,56.15673065185547,0.4348192811012268,5.633329391479492,-10164.4794921875,0
1516.3570000000018,-0.009814480319619179,0.06534316390752792,0.0010055194143205881,0.0,0.0,0.0,0.0,0.0008863737457431853,-0.000723694043699652,0.00022805111075285822,1.0010526180267334,0.0,0.0,0.0,56.192691802978516,0.4271036684513092,5.627438545227051,-10170.98828125,0
1526.255000000001,-0.009806539863348007,0.0653003379702568,0.0008501274860464036,0.0,0.0,0.0,0.0,-0.0008948962786234915,0.005633204244077206,-0.002522048307582736,0.9989064335823059,0.0,0.0,0.0,56.28081130981445,0.40583133697509766,5.609817028045654,-10186.9384765625,0
1536.1780000000017,-0.009843641892075539,0.06533567607402802,0.0009031920344568789,0.0,0.0,0.0,0.0,0.0026257855352014303,0.001344385789707303,-0.001954845152795315,1.0023175477981567,0.0,0.0,0.0,56.3033447265625,0.3997756540775299,5.611290454864502,-10191.017578125,0
1546.076000000001,-0.00982651300728321,0.06527911126613617,0.0007635617512278259,0.0,0.0,0.0,0.0,-0.002262075198814273,-0.0032876820769160986,-0.002237180946394801,1.002480387687683,0.0,0.0,0.0,56.38233947753906,0.3764861822128296,5.593235015869141,-10205.314453125,0
1556.0,-0.009829008020460606,0.06526290625333786,0.0007624760619364679,0.0,0.0,0.0,0.0,0.0018698101630434394,0.0024037642870098352,-0.0023048261646181345,1.0023101568222046,0.0,0.0,0.0,56.327144622802734,0.38682958483695984,5.5942301750183105,-10195.32421875,0
1565.9010000000017,-0.009798514656722546,0.06523067504167557,0.000642945000436157,0.0,0.0,0.0,0.0,-0.0012135193683207035,0.0007503737579099834,-0.00023785811208654195,1.002528190612793,0.0,0.0,0.0,56.4044075012207,0.3713264465332031,5.5952839851379395,-10209.310546875,0
1575.817000000001,-0.009836610406637192,0.06532464921474457,0.000732444052118808,0.0,0.0,0.0,0.0,0.002226346405223012,0.003429841250181198,-0.0031045270152390003,0.9995889067649841,0.0,0.0,0.0,56.41865921020508,0.3737052381038666,5.602801322937012,-10211.8896484375,0
1585.719000000001,-0.009774740785360336,0.06534640491008759,0.0006078507285565138,0.0,0.0,0.0,0.0,-0.0015090637607499957,0.001186989713460207,-0.004111866001039743,0.9997091889381409,0.0,0.0,0.0,56.477081298828125,0.36276304721832275,5.601077556610107,-10222.4638671875,0
1595.6410000000014,-0.009804989211261272,0.06541954725980759,0.0006616603932343423,0.0,0.0,0.0,0.0,-0.0007723249145783484,0.002179657341912389,0.0005148663185536861,0.99965900182724,0.0,0.0,0.0,56.486289978027344,0.3674674928188324,5.601136684417725,-10224.1318359375,0
1605.5420000000013,-0.009777258150279522,0.06537046283483505,0.000561711669433862,0.0,0.0,0.0,0.0,0.0025471735280007124,0.0027166956569999456,0.0015314730117097497,1.0009300708770752,0.0,0.0,0.0,56.537376403808594,0.3491626977920532,5.594661712646484,-10233.3779296875,0
1615.460000000001,-0.009795395657420158,0.06544828414916992,0.0006176293245516717,0.0,0.0,0.0,0.0,4.100217847735621e-05,0.002154367743059993,-0.0017136698588728905,0.9986247420310974,0.0,0.0,0.0,56.54253005981445,0.341723769903183,5.572789669036865,-10234.310546875,0
1625.3640000000014,-0.009783479385077953,0.06534633040428162,0.0005190475494600832,0.0,0.0,0.0,0.0,-0.0018546037608757615,0.00259248074144125,0.0028934695292264223,1.0003725290298462,0.0,0.0,0.0,56.58915710449219,0.331717312335968,5.562185287475586,-10242.7509765625,0
1635.2930000000015,-0.009773408062756062,0.06532366573810577,0.0005081277922727168,0.0,0.0,0.0,0.0,-0.001106845447793603,0.000792692182585597,-0.001927834702655673,0.9988264441490173,0.0,0.0,0.0,56.53458786010742,0.33176353573799133,5.546973705291748,-10232.873046875,0
1645.184000000001,-0.009743019938468933,0.06526941806077957,0.00042504919110797346,0.0,0.0,0.0,0.0,0.0026256234850734472,0.005623903125524521,-0.0026356857270002365,0.9975584745407104,0.0,0.0,0.0,56.58141326904297,0.3152461349964142,5.535202980041504,-10241.3486328125,0
1655.1050000000014,-0.009813878685235977,0.06540241092443466,0.0004936630139127374,0.0,0.0,0.0,0.0,-0.0006038803840056062,-0.0018372558988630772,-0.00021199282491579652,1.0006345510482788,0.0,0.0,0.0,56.58283615112305,0.330608606338501,5.5360283851623535,-10241.60546875,0
1665.0060000000012,-0.009797323495149612,0.065332792699337,0.00040643129614181817,0.0,0.0,0.0,0.0,-0.0013780391309410334,-0.0025688025634735823,-0.00018486088083591312,1.0004246234893799,0.0,0.0,0.0,56.626869201660156,0.31915342807769775,5.514300346374512,-10249.576171875,0
1674.9300000000003,-0.009846699424088001,0.06548513472080231,0.0005017436924390495,0.0,0.0,0.0,0.0,-0.0003339257091283798,0.0028935158625245094,-0.001055541099049151,1.000543475151062,0.0,0.0,0.0,56.630775451660156,0.3365616202354431,5.5354790687561035,-10250.283203125,0
1684.826000000001,-0.009830152615904808,0.065404012799263,0.0004167685401625931,0.0,0.0,0.0,0.0,-0.0017832042649388313,0.0002104048035107553,-0.0027664026711136103,1.0007195472717285,0.0,0.0,0.0,56.674434661865234,0.32651737332344055,5.516853332519531,-10258.185546875,0
1694.7490000000016,-0.009815697558224201,0.0655047595500946,0.0005028453306294978,0.0,0.0,0.0,0.0,0.0003641241346485913,0.002003495115786791,-0.0024612604174762964,1.0028584003448486,0.0,0.0,0.0,56.67340850830078,0.32980871200561523,5.521819591522217,-10257.9990234375,0
1704.648000000001,-0.009850433096289635,0.06532962620258331,0.0004619953688234091,0.0,0.0,0.0,0.0,0.0029760936740785837,0.00215985463000834,0.0020266645587980747,0.9993124604225159,0.0,0.0,0.0,56.71648025512695,0.3111315369606018,5.481403827667236,-10265.794921875,0
1714.5700000000015,-0.009836039505898952,0.06528869271278381,0.0004566512070596218,0.0,0.0,0.0,0.0,-0.0007295788964256644,0.0005404437542892992,-0.0026308924425393343,1.001556634902954,0.0,0.0,0.0,56.66249465942383,0.31099754571914673,5.47237491607666,-10256.0234375,0
1724.4730000000018,-0.009819881990551949,0.06516707688570023,0.00038725367630831897,0.0,0.0,0.0,0.0,-0.0005476467194966972,-0.002304488094523549,0.001370118116028607,1.0006364583969116,0.0,0.0,0.0,56.70595932006836,0.29457738995552063,5.447897911071777,-10263.890625,0
1734.3920000000016,-0.00986567698419094,0.06530168652534485,0.0005026098806411028,0.0,0.0,0.0,0.0,-0.0017925127176567912,0.0002113389055011794,-0.0029528408776968718,0.998771071434021,0.0,0.0,0.0,56.707820892333984,0.314037948846817,5.471266269683838,-10264.228515625,0
1744.2970000000005,-0.009835765697062016,0.06524017453193665,0.0004442500357981771,0.0,0.0,0.0,0.0,0.003837409894913435,0.0049654413014650345,0.002662223530933261,0.9999468326568604,0.0,0.0,0.0,56.75071334838867,0.3077719807624817,5.45724630355835,-10271.9912109375,0
1754.2130000000016,-0.009823035448789597,0.06534393876791,0.0005561277503147721,0.0,0.0,0.0,0.0,-0.0029549787286669016,0.003991813398897648,0.0015640098135918379,1.001956582069397,0.0,0.0,0.0,56.74276351928711,0.31112760305404663,5.464076042175293,-10270.5537109375,0
1764.121000000001,-0.009775010868906975,0.0652867928147316,0.00047440105117857456,0.0,0.0,0.0,0.0,0.002364891115576029,0.004202315118163824,0.0005559592391364276,0.9999769926071167,0.0,0.0,0.0,56.78245162963867,0.30669108033180237,5.456140041351318,-10277.736328125,0
1774.036,-0.00980872381478548,0.06537368148565292,0.0005525085143744946,0.0,0.0,0.0,0.0,-0.004330360796302557,-0.00353325461037457,-0.0018400416010990739,0.9989789724349976,0.0,0.0,0.0,56.779850006103516,0.31351086497306824,5.46183967590332,-10277.265625,0
1783.9490000000005,-0.009805195964872837,0.06524163484573364,0.0005016539944335818,0.0,0.0,0.0,0.0,0.0009315438219346106,0.0022119267378002405,-0.0026822537183761597,0.9994713664054871,0.0,0.0,0.0,56.82279586791992,0.3035655915737152,5.438718795776367,-10285.0380859375,0
1793.8480000000018,-0.009785965085029602,0.06518982350826263,0.0005038341623730958,0.0,0.0,0.0,0.0,-0.0006637366604991257,0.0017249579541385174,-0.0016763088060542941,1.0012887716293335,0.0,0.0,0.0,56.76750946044922,0.3035878539085388,5.433321952819824,-10275.0322265625,0
1803.7750000000015,-0.009759034030139446,0.06508049368858337,0.0004420205077622086,0.0,0.0,0.0,0.0,-0.001099892077036202,-4.086958506377414e-05,-0.0003592065186239779,1.0004417896270752,0.0,0.0,0.0,56.80617141723633,0.29437869787216187,5.414820671081543,-10282.029296875,0
1813.6720000000005,-0.00974096916615963,0.06502033770084381,0.00043962476775050163,0.0,0.0,0.0,0.0,-0.0023181340657174587,0.0015259901992976665,-0.002865403424948454,0.9998722076416016,0.0,0.0,0.0,56.75148391723633,0.2939826250076294,5.416179656982422,-10272.130859375,0
1823.5960000000014,-0.00970039889216423,0.06494903564453125,0.0003807710309047252,0.0,0.0,0.0,0.0,-0.0008714009891264141,0.007854945957660675,-0.00015058400458656251,1.0008341073989868,0.0,0.0,0.0,56.79258346557617,0.27753743529319763,5.418943405151367,-10279.5712890625,0
1833.4900000000016,-0.009899845346808434,0.06524360924959183,0.0005386209231801331,0.0,0.0,0.0,0.0,0.0016961946384981275,0.002885206835344434,0.003325654659420252,1.0005147457122803,0.0,0.0,0.0,56.78866195678711,0.36782532930374146,5.44058895111084,-10278.861328125,0
1843.4030000000002,-0.009826399385929108,0.06525585800409317,0.0004429973487276584,0.0,0.0,0.0,0.0,-0.0006170519045554101,0.003423321060836315,-0.0023449549917131662,1.0011776685714722,0.0,0.0,0.0,56.819393157958984,0.35408109426498413,5.440117359161377,-10284.4228515625,0
1853.3100000000013,-0.00981043465435505,0.06520683318376541,0.00044543013791553676,0.0,0.0,0.0,0.0,0.0005405810079537332,-0.00018972413090523332,0.003488524118438363,0.9988176822662354,0.0,0.0,0.0,56.76490020751953,0.35609170794487,5.426727294921875,-10274.560546875,0
1863.228000000001,-0.00975107029080391,0.0651773139834404,0.00035282998578622937,0.0,0.0,0.0,0.0,0.0017831742297858,0.0029955932404845953,-0.0009899315191432834,1.0002166032791138,0.0,0.0,0.0,56.798397064208984,0.33584505319595337,5.435983180999756,-10280.6220703125,0
1873.1310000000012,-0.009839633479714394,0.06537647545337677,0.0004986199201084673,0.0,0.0,0.0,0.0,0.001220185891725123,-0.000547208939678967,0.001269325613975525,1.0021313428878784,0.0,0.0,0.0,56.789833068847656,0.37709951400756836,5.460116386413574,-10279.0732421875,0
1883.0530000000017,-0.009802762418985367,0.06531846523284912,0.0004173943307250738,0.0,0.0,0.0,0.0,0.0019015880534425378,-0.00037969197728671134,0.0023835189640522003,1.0012391805648804,0.0,0.0,0.0,56.819828033447266,0.35824039578437805,5.4486613273620605,-10284.5009765625,0
1892.9540000000015,-0.009807000868022442,0.06543475389480591,0.0005349981947802007,0.0,0.0,0.0,0.0,0.0015512255486100912,0.004809940699487925,0.004399694502353668,1.0005784034729004,0.0,0.0,0.0,56.809532165527344,0.37410902976989746,5.471563816070557,-10282.638671875,0
1902.871000000001,-0.009748851880431175,0.06537981331348419,0.000420444761402905,0.0,0.0,0.0,0.0,0.001761983148753643,-0.0008816830231808126,0.0020916415378451347,0.9985758066177368,0.0,0.0,0.0,56.841949462890625,0.35390129685401917,5.461013317108154,-10288.5048828125,0
1912.7780000000002,-0.009761272929608822,0.06546304374933243,0.0005007458385080099,0.0,0.0,0.0,0.0,0.00035640777787193656,-0.006081155966967344,0.005125302821397781,0.9987171292304993,0.0,0.0,0.0,56.829627990722656,0.36597907543182373,5.460532188415527,-10286.275390625,0
1922.6930000000011,-0.009744265116751194,0.06536329537630081,0.00043807036126963794,0.0,0.0,0.0,0.0,0.0013242081040516496,0.004962240345776081,-0.001814105547964573,0.9999179244041443,0.0,0.0,0.0,56.86518096923828,0.34912389516830444,5.450704574584961,-10292.7109375,0
1932.6010000000006,-0.00973148737102747,0.06539946049451828,0.0004930945578962564,0.0,0.0,0.0,0.0,-0.002020088955760002,0.002532083773985505,-0.0012733429903164506,1.0014612674713135,0.0,0.0,0.0,56.85503387451172,0.35281869769096375,5.453202724456787,-10290.873046875,0
1942.5170000000016,-0.009727371856570244,0.0652603954076767,0.000432465662015602,0.0,0.0,0.0,0.0,-0.0003384106676094234,0.00011024945706594735,-0.004657660610973835,0.9995458126068115,0.0,0.0,0.0,56.88362503051758,0.33316463232040405,5.420140266418457,-10296.048828125,0
1952.4180000000015,-0.009740580804646015,0.06536173820495605,0.0005236021825112402,0.0,0.0,0.0,0.0,-0.003149985335767269,0.0008532239589840174,-0.001032859319821,0.9991957545280457,0.0,0.0,0.0,56.871238708496094,0.3471873700618744,5.4389729499816895,-10293.806640625,0
1962.3470000000016,-0.009720955975353718,0.06526270508766174,0.0004695469397120178,0.0,0.0,0.0,0.0,0.0020597376860678196,-0.001120351953431964,0.004129443317651749,0.9977198243141174,0.0,0.0,0.0,56.89475631713867,0.32817426323890686,5.425750255584717,-10298.064453125,0
1972.2540000000008,-0.009770240634679794,0.0653664842247963,0.0005470122559927404,0.0,0.0,0.0,0.0,-0.0020439275540411472,-0.00013937053154222667,0.0015942108584567904,1.000921368598938,0.0,0.0,0.0,56.88008499145508,0.34909969568252563,5.440191745758057,-10295.408203125,0
1982.1630000000005,-0.009757771156728268,0.06527943164110184,0.0005173434619791806,0.0,0.0,0.0,0.0,-0.0006587968673557043,-0.001176570076495409,0.0015573457349091768,0.9989175796508789,0.0,0.0,0.0,56.90375900268555,0.33995339274406433,5.431607246398926,-10299.6943359375,0
1992.0690000000013,-0.009743430651724339,0.06522827595472336,0.0005222337786108255,0.0,0.0,0.0,0.0,-0.0024563309270888567,-0.000397034251363948,0.00282397773116827,0.9976964592933655,0.0,0.0,0.0,56.849605560302734,0.3463318347930908,5.425515174865723,-10289.890625,0
2001.9860000000008,-0.009722406044602394,0.0651230663061142,0.0004698819248005748,0.0,0.0,0.0,0.0,-0.004642962943762541,0.0012110751122236252,-0.0029410021379590034,1.0001747608184814,0.0,0.0,0.0,56.87236404418945,0.3368440866470337,5.409170627593994,-10294.0107421875,0
2011.8820000000014,-0.00982267688959837,0.06528240442276001,0.0005785136017948389,0.0,0.0,0.0,0.0,0.0017969830660149455,-0.0026769337709993124,-9.657027840148658e-05,1.000819206237793,0.0,0.0,0.0,56.86400604248047,0.3802976608276367,5.442123889923096,-10292.4970703125,0
2021.8100000000013,-0.009811981581151485,0.06517373770475388,0.0005146501935087144,0.0,0.0,0.0,0.0,0.002304663183167577,0.0013653270434588194,0.002260510576888919,0.9984849095344543,0.0,0.0,0.0,56.89613342285156,0.359552800655365,5.433090686798096,-10298.3134765625,0
2031.7060000000001,-0.0098028052598238,0.06511537730693817,0.0005169837386347353,0.0,0.0,0.0,0.0,0.0025133362505584955,0.002270953031256795,0.002804081654176116,0.9967818260192871,0.0,0.0,0.0,56.84209060668945,0.35413798689842224,5.427453994750977,-10288.53125,0
2041.639000000001,-0.009766890667378902,0.0650331974029541,0.00043497199658304453,0.0,0.0,0.0,0.0,0.00020233789109624922,0.0004815494758076966,-0.0007614762871526182,0.997988224029541,0.0,0.0,0.0,56.87823486328125,0.340739905834198,5.424286842346191,-10295.0732421875,0
2051.531000000001,-0.009756498038768768,0.06496993452310562,0.00042653994751162827,0.0,0.0,0.0,0.0,0.0006421919097192585,-0.0015317306388169527,-0.00043863855535164475,0.9985713362693787,0.0,0.0,0.0,56.82365798950195,0.34163784980773926,5.410732746124268,-10285.1953125,0
2061.452000000001,-0.009714321233332157,0.06492339819669724,0.00036007919698022306,0.0,0.0,0.0,0.0,0.0030647835228592157,0.0009688150603324175,0.0008674899581819773,0.9986469745635986,0.0,0.0,0.0,56.853919982910156,0.32758820056915283,5.4175333976745605,-10290.671875,0
2071.354000000001,-0.009699064306914806,0.06485379487276077,0.0003438991552684456,0.0,0.0,0.0,0.0,0.0005702783237211406,0.00012272941239643842,0.002593400189653039,0.9992277026176453,0.0,0.0,0.0,56.798744201660156,0.3308565020561218,5.41211462020874,-10280.685546875,0
2081.277,-0.009649910032749176,0.06484097242355347,0.0003064087650272995,0.0,0.0,0.0,0.0,-0.0019582698587328196,-0.003031663130968809,0.001995205180719495,1.0014780759811401,0.0,0.0,0.0,56.82611083984375,0.32760483026504517,5.431241512298584,-10285.6396484375,0
2091.174000000001,-0.009893220849335194,0.06518953293561935,0.0004743177560158074,0.0,0.0,0.0,0.0,0.0010406601941213012,0.0005367439007386565,-0.0009719500667415559,1.0005433559417725,0.0,0.0,0.0,56.81655502319336,0.4496909976005554,5.495436191558838,-10283.9091796875,0
2101.0960000000014,-0.009834620170295238,0.06519210338592529,0.00035192875657230616,0.0,0.0,0.0,0.0,0.0028087140526622534,-0.0005749709671363235,0.006105436012148857,1.0008314847946167,0.0,0.0,0.0,56.85261154174805,0.43419355154037476,5.513930320739746,-10290.4345703125,0
2110.997000000001,-0.009943469427525997,0.06540493667125702,0.0004955666372552514,0.0,0.0,0.0,0.0,-0.00048018110101111233,0.0009448801283724606,0.0015549655072391033,1.0025689601898193,0.0,0.0,0.0,56.84670639038086,0.47172144055366516,5.542596817016602,-10289.3662109375,0
2120.929,-0.009901775047183037,0.06537023186683655,0.0003855437971651554,0.0,0.0,0.0,0.0,-0.00044531153980642557,0.004515382926911116,-0.00044547178549692035,0.9998025894165039,0.0,0.0,0.0,56.87923812866211,0.4564085006713867,5.538016319274902,-10295.2548828125,0
2130.8200000000015,-0.009900067001581192,0.06533102691173553,0.0003824911545962095,0.0,0.0,0.0,0.0,0.00019786800839938223,0.004812027793377638,-0.00015075730334501714,0.9998252987861633,0.0,0.0,0.0,56.82386779785156,0.46397289633750916,5.517861366271973,-10285.232421875,0
2140.745000000001,-0.009863468818366528,0.06528102606534958,0.0002794949396047741,0.0,0.0,0.0,0.0,0.0019885553047060966,0.003994650207459927,-0.0025050146505236626,0.9993928670883179,0.0,0.0,0.0,56.86255645751953,0.44895753264427185,5.510560512542725,-10292.236328125,0
2150.6450000000004,-0.009831962175667286,0.06538901478052139,0.00042413859046064317,0.0,0.0,0.0,0.0,-0.0029649233911186457,-0.0009405600721947849,-0.0010591087630018592,0.9999846816062927,0.0,0.0,0.0,56.85071563720703,0.4548831582069397,5.519506454467773,-10290.0927734375,0
2160.567000000001,-0.009861222468316555,0.06524522602558136,0.0003881064767483622,0.0,0.0,0.0,0.0,-0.0014512388734146953,0.003060122486203909,-0.000606854388024658,1.0012099742889404,0.0,0.0,0.0,56.88069152832031,0.4372138977050781,5.497306823730469,-10295.517578125,0
2170.4630000000016,-0.009765766561031342,0.06531243771314621,0.0005195247940719128,0.0,0.0,0.0,0.0,-0.0007639548857696354,0.00373527011834085,-0.0024982544127851725,1.0020073652267456,0.0,0.0,0.0,56.86579895019531,0.43667858839035034,5.5074992179870605,-10292.822265625,0
2180.388000000001,-0.009747331030666828,0.06521342694759369,0.00043777472455985844,0.0,0.0,0.0,0.0,0.0008861964452080429,-0.003951916936784983,-0.0006722327088937163,1.000745415687561,0.0,0.0,0.0,56.90055847167969,0.4212055504322052,5.4888482093811035,-10299.1142578125,0
