timestamp,stateEstimate.x,stateEstimate.y,stateEstimate.z,controller.cmd_thrust,controller.cmd_roll,controller.cmd_pitch,controller.cmd_yaw,controller.r_roll,controller.r_pitch,controller.r_yaw,controller.accelz,controller.actuatorThrust,controller.roll,controller.pitch,controller.yaw,controller.rollRate,controller.pitchRate,controller.yawRate,controller.ctr_yaw
0.0,-3.2547097362112254e-05,-0.00022914698638487607,-0.00014753654249943793,0.0,0.0,0.0,0.0,-0.0008626467897556722,0.002011156640946865,-0.0005504463915713131,0.9993201494216919,0.0,0.0,0.0,0.28557151556015015,6.128145694732666,3.140624761581421,-51.68901443481445,0
9.907999999999447,-5.106130993226543e-05,-0.0002813912578858435,-0.00014572465443052351,0.0,0.0,0.0,0.0,-3.9463753637392074e-05,-0.001388737466186285,0.0009053851244971156,0.9989185333251953,0.0,0.0,0.0,0.2853117883205414,6.1213860511779785,3.1317923069000244,-51.64200210571289,0
19.8179999999993,-0.0001294971734751016,-0.00022101691865827888,-9.139306348515674e-05,0.0,0.0,0.0,0.0,-0.002552077639847994,-0.002836493542417884,0.0007336616399697959,0.9993604421615601,0.0,0.0,0.0,0.2850993871688843,6.1207451820373535,3.1274850368499756,-51.603553771972656,0
29.73199999999997,-0.00015330077440012246,-0.00026716396678239107,-8.651712414575741e-05,0.0,0.0,0.0,0.0,0.0024203797802329063,0.0013398084556683898,0.0018685117829591036,0.9975345730781555,0.0,0.0,0.0,0.28375792503356934,6.113669395446777,3.1320767402648926,-51.360748291015625,0
39.638999999999214,-0.0001698166597634554,-0.0002417455252725631,-3.6404562706593424e-05,0.0,0.0,0.0,0.0,0.0024319346994161606,-0.0006844322197139263,-0.00022703093418385834,0.9997991919517517,0.0,0.0,0.0,0.28391116857528687,6.108407974243164,3.123033046722412,-51.38848876953125,0
49.54999999999927,-0.0001921239891089499,-0.0002856542414519936,-2.9441005608532578e-05,0.0,0.0,0.0,0.0,0.0014241790631785989,0.0014223064063116908,-0.0008264444768428802,0.9996830224990845,0.0,0.0,0.0,0.28336039185523987,6.08788537979126,3.116464853286743,-51.288795471191406,0
59.46099999999933,-0.00018601064221002162,-0.00025649694725871086,3.052634565392509e-05,0.0,0.0,0.0,0.0,-0.003144642570987344,-0.003323497949168086,0.0017448734724894166,0.9993641972541809,0.0,0.0,0.0,0.28506720066070557,6.116890907287598,3.1144957542419434,-51.59773254394531,0
69.3819999999996,-0.00020550470799207687,-0.0002975088427774608,4.1876490286085755e-05,0.0,0.0,0.0,0.0,0.0012299257796257734,0.00021888079936616123,-0.0009929498191922903,0.9983947277069092,0.0,0.0,0.0,0.28487199544906616,6.112649917602539,3.107928514480591,-51.56239700317383,0
79.28599999999824,-0.00021675588504876941,-0.0003228190471418202,0.00010541428491706029,0.0,0.0,0.0,0.0,0.0011149888159707189,-0.0035943773109465837,0.0003656405897345394,0.9998170137405396,0.0,0.0,0.0,0.2728767693042755,6.128910064697266,3.111009359359741,-49.391239166259766,0
89.20199999999932,-0.00021675588504876941,-0.0003228190471418202,0.00010541428491706029,0.0,0.0,0.0,0.0,-0.0013185751158744097,-0.00042421367834322155,-0.0028483448550105095,1.0007519721984863,0.0,0.0,0.0,0.2728767693042755,6.128910064697266,3.111009359359741,-49.391239166259766,0
99.10899999999856,-0.00021679182827938348,-0.00035666502662934363,0.00016738810518290848,0.0,0.0,0.0,0.0,0.0010039102053269744,0.0006319527165032923,0.00013572255556937307,0.999679684638977,0.0,0.0,0.0,0.2607080340385437,6.138651371002197,3.1346068382263184,-47.18867111206055,0
109.02399999999943,-0.00021679182827938348,-0.00035666502662934363,0.00016738810518290848,0.0,0.0,0.0,0.0,0.000548427109606564,0.004348262678831816,0.0015582669293507934,0.9982607364654541,0.0,0.0,0.0,0.2607080340385437,6.138651371002197,3.1346068382263184,-47.18867111206055,0
118.93899999999849,-0.00015819421969354153,-0.00041013563168235123,0.0002256303559988737,0.0,0.0,0.0,0.0,0.004713385831564665,-0.002230084501206875,0.0019792444072663784,0.9996641278266907,0.0,0.0,0.0,0.2522726356983185,6.135540962219238,3.1497364044189453,-45.66184997558594,0
128.84399999999914,-0.00015819421969354153,-0.00041013563168235123,0.0002256303559988737,0.0,0.0,0.0,0.0,-0.000985245336778462,-0.0028909207321703434,0.004001844674348831,0.9999666213989258,0.0,0.0,0.0,0.2522726356983185,6.135540962219238,3.1497364044189453,-45.66184997558594,0
138.7579999999998,-0.00011982713476754725,-0.0004185199795756489,0.0002720393822528422,0.0,0.0,0.0,0.0,-0.001339155831374228,8.990876085590571e-05,-0.0012094351695850492,1.00054931640625,0.0,0.0,0.0,0.24572508037090302,6.141725063323975,3.1657187938690186,-44.47672653198242,0
148.67499999999927,-0.00013429542013909668,-0.00045893050264567137,0.00029222917510196567,0.0,0.0,0.0,0.0,0.0038449838757514954,0.00523646455258131,-0.00046293361810967326,1.0015738010406494,0.0,0.0,0.0,0.24490508437156677,6.129942417144775,3.167046070098877,-44.328304290771484,0
158.58699999999953,-0.00011494526552269235,-0.0004721030709333718,0.00033412358607165515,0.0,0.0,0.0,0.0,-0.0013323210878297687,-0.003621302777901292,0.0005846952553838491,0.9985549449920654,0.0,0.0,0.0,0.24432305991649628,6.121838569641113,3.1616764068603516,-44.222957611083984,0
168.49299999999857,-0.00012890060315839946,-0.0005143008311279118,0.00035792545531876385,0.0,0.0,0.0,0.0,0.0016974846366792917,0.0021680216304957867,0.001032101339660585,0.9974855184555054,0.0,0.0,0.0,0.24431286752223969,6.110218524932861,3.149160146713257,-44.22111511230469,0
178.40999999999985,-0.00016606510325800627,-0.000535298022441566,0.00039067596662789583,0.0,0.0,0.0,0.0,-0.0026238267309963703,0.004157684277743101,-0.0023496460635215044,1.000907063484192,0.0,0.0,0.0,0.24472014605998993,6.102147579193115,3.163357973098755,-44.294830322265625,0
188.3139999999985,-0.00018206729146186262,-0.000582023523747921,0.0004134776536375284,0.0,0.0,0.0,0.0,0.0003618558985181153,0.00017916700744535774,0.0002707046805880964,1.0005131959915161,0.0,0.0,0.0,0.24480848014354706,6.099003314971924,3.1492066383361816,-44.31081771850586,0
198.23599999999897,-0.00021598437160719186,-0.0005887882434763014,0.00046422393643297255,0.0,0.0,0.0,0.0,0.0012526585487648845,0.0011882564285770059,0.0002881672407966107,0.9986286759376526,0.0,0.0,0.0,0.243040531873703,6.093934059143066,3.152604341506958,-43.990821838378906,0
208.14499999999862,-8.029335731407627e-05,-0.00022957059263717383,-0.00012419097765814513,0.0,0.0,0.0,0.0,0.0014424293767660856,0.003382180817425251,0.00020762899657711387,0.9999404549598694,0.0,0.0,0.0,0.252717524766922,6.162685871124268,3.1763389110565186,-45.74237060546875,0
218.0609999999997,-0.00013117243361193687,-0.00020796708122361451,-7.949246355565265e-05,0.0,0.0,0.0,0.0,-9.15004638954997e-05,0.0009538891026750207,0.001981806941330433,0.9995771646499634,0.0,0.0,0.0,0.2436797171831131,6.170172214508057,3.167018413543701,-44.10651397705078,0
227.96199999999953,-0.0001465886307414621,-0.00023675535339862108,-7.522130181314424e-05,0.0,0.0,0.0,0.0,-0.0019259643740952015,-0.006589652970433235,-0.005401058122515678,0.9969975352287292,0.0,0.0,0.0,0.2437186986207962,6.159719944000244,3.1564548015594482,-44.11356735229492,0
237.8779999999988,-7.66618104535155e-05,-0.00025141643709503114,-1.918858652061317e-05,0.0,0.0,0.0,0.0,-0.00015138422895688564,0.0018654651939868927,-0.004075551871210337,0.9975006580352783,0.0,0.0,0.0,0.2437538355588913,6.1526641845703125,3.1638991832733154,-44.11993408203125,0
247.78699999999844,-9.069478255696595e-05,-0.00028582033701241016,-1.4218991054804064e-05,0.0,0.0,0.0,0.0,0.0019154411274939775,-0.0011138562113046646,0.00020219714497216046,0.9971155524253845,0.0,0.0,0.0,0.242795929312706,6.144657611846924,3.167013168334961,-43.9465446472168,0
257.7059999999983,-6.054506593500264e-05,-0.0002967281616292894,3.229096910217777e-05,0.0,0.0,0.0,0.0,0.00041023679659701884,-0.004497620742768049,9.231644799001515e-05,0.9984952807426453,0.0,0.0,0.0,0.2428092062473297,6.1397881507873535,3.1688525676727295,-43.94894790649414,0
267.60899999999856,-7.33809793018736e-05,-0.00033492385409772396,3.608616680139676e-05,0.0,0.0,0.0,0.0,-0.0016739306738600135,0.0019089949782937765,7.403470226563513e-05,1.0004581212997437,0.0,0.0,0.0,0.2424837052822113,6.133158206939697,3.175295114517212,-43.89003372192383,0
277.5279999999984,-8.184574835468084e-05,-0.00033080324647016823,0.0001012465072562918,0.0,0.0,0.0,0.0,0.002913449425250292,-0.004677703138440847,-0.00014782870130147785,1.0002626180648804,0.0,0.0,0.0,0.2407543957233429,6.12770938873291,3.1665215492248535,-43.577022552490234,0
287.4309999999987,-9.496312122792006e-05,-0.0003719183150678873,0.00010943079541902989,0.0,0.0,0.0,0.0,-0.0012263339012861252,0.0024455564562231302,0.0010006054071709514,0.9980313777923584,0.0,0.0,0.0,0.24097564816474915,6.123360633850098,3.165698289871216,-43.617069244384766,0
297.35499999999956,-0.00016776830307208002,-0.0003796917153522372,0.00016413303092122078,0.0,0.0,0.0,0.0,-0.00034806871553882957,-0.003388783195987344,0.004465766716748476,0.9988585114479065,0.0,0.0,0.0,0.24069374799728394,6.115140914916992,3.1671087741851807,-43.56604766845703,0
307.2549999999992,-0.00018309085862711072,-0.0004239114059600979,0.0001755997072905302,0.0,0.0,0.0,0.0,0.0019014014396816492,0.0011859858641400933,-0.0010934764286503196,0.998826801776886,0.0,0.0,0.0,0.24022990465164185,6.110367774963379,3.1591224670410156,-43.48208999633789,0
317.17399999999907,-0.00021948451467324048,-0.0004319312865845859,0.00023912957112770528,0.0,0.0,0.0,0.0,-0.00024092529201880097,0.007060467731207609,0.000629428424872458,0.9975184202194214,0.0,0.0,0.0,0.2400147020816803,6.103352069854736,3.1665449142456055,-43.443138122558594,0
327.08899999999994,-0.00023648365458939224,-0.00047520309453830123,0.00025341653963550925,0.0,0.0,0.0,0.0,-0.0005055581568740308,0.0013785967603325844,-0.00034393134410493076,0.9992956519126892,0.0,0.0,0.0,0.23902590572834015,6.098334312438965,3.160709857940674,-43.264163970947266,0
337.0,-0.0002489723265171051,-0.00047835291479714215,0.00032142820418812335,0.0,0.0,0.0,0.0,0.0017297379672527313,-0.0009971308754757047,0.0023068045265972614,0.9992575645446777,0.0,0.0,0.0,0.2290167659521103,6.110249996185303,3.152012825012207,-41.45248794555664,0
346.90499999999884,-0.0002677639131434262,-0.0005233651609160006,0.000338382349582389,0.0,0.0,0.0,0.0,-0.0017187563935294747,-0.002801897469907999,-0.0009404458105564117,1.0012784004211426,0.0,0.0,0.0,0.2276867777109146,6.109729766845703,3.1467130184173584,-41.21175765991211,0
356.8229999999985,-0.00027305627008900046,-0.0005310441483743489,0.00040614415775053203,0.0,0.0,0.0,0.0,0.0020261553581804037,-0.0073168398812413216,0.0025017859879881144,1.0008105039596558,0.0,0.0,0.0,0.22781579196453094,6.106515407562256,3.1427934169769287,-41.235107421875,0
366.72399999999834,-0.00029359612381085753,-0.0005786683177575469,0.0004284587630536407,0.0,0.0,0.0,0.0,-0.0009683669195510447,-0.006960644852370024,0.0017938411328941584,1.0013747215270996,0.0,0.0,0.0,0.22876852750778198,6.109683990478516,3.1573901176452637,-41.407562255859375,0
376.6449999999986,-0.0002051140327239409,-0.0005966085009276867,0.0005046439473517239,0.0,0.0,0.0,0.0,0.0012182509526610374,-0.0037368396297097206,0.00013125517580192536,0.9973515868186951,0.0,0.0,0.0,0.22355878353118896,6.118448257446289,3.1922168731689453,-40.46458435058594,0
386.5519999999997,-0.0002212218096246943,-0.0006450552609749138,0.0005332413711585104,0.0,0.0,0.0,0.0,-0.0006741079851053655,0.002434514230117202,-0.0006174832815304399,0.9987848997116089,0.0,0.0,0.0,0.22256599366664886,6.1122846603393555,3.196526288986206,-40.284889221191406,0
396.47099999999955,-0.0002715130685828626,-0.0007187568116933107,0.0006242362433113158,0.0,0.0,0.0,0.0,0.002632660325616598,-0.003277994692325592,0.0031155585311353207,0.9980249404907227,0.0,0.0,0.0,0.22320090234279633,6.098618984222412,3.1871285438537598,-40.399810791015625,0
406.3779999999988,-0.0002715130685828626,-0.0007187568116933107,0.0006242362433113158,0.0,0.0,0.0,0.0,0.0013063079677522182,0.003281347919255495,-0.002420266391709447,0.9993892908096313,0.0,0.0,0.0,0.22320090234279633,6.098618984222412,3.1871285438537598,-40.399810791015625,0
416.29399999999987,-0.0002614149416331202,-0.0007623083656653762,0.0007540841470472515,0.0,0.0,0.0,0.0,0.0006656194454990327,0.003333504544571042,-0.00253810896538198,0.9994645714759827,0.0,0.0,0.0,0.2228565812110901,6.077867031097412,3.1733930110931396,-40.33748245239258,0
426.2069999999985,-0.0002614149416331202,-0.0007623083656653762,0.0007540841470472515,0.0,0.0,0.0,0.0,0.0006817968678660691,-0.0014478859957307577,0.0022301857825368643,0.9974724054336548,0.0,0.0,0.0,0.2228565812110901,6.077867031097412,3.1733930110931396,-40.33748245239258,0
436.125,-0.00028213311452418566,-0.0007890723645687103,0.0008185840561054647,0.0,0.0,0.0,0.0,-0.0002045247092610225,-0.000125677659525536,0.002958978759124875,0.9977768659591675,0.0,0.0,0.0,0.22202429175376892,6.065252304077148,3.1708059310913086,-40.18683624267578,0
446.0269999999982,-4.4024200178682804e-05,-0.00015044746396597475,-0.00025167781859636307,0.0,0.0,0.0,0.0,0.0017432112945243716,-0.001453770906664431,-0.0013654395006597042,0.999284565448761,0.0,0.0,0.0,0.23272064328193665,6.185448169708252,3.1972711086273193,-42.12289810180664,0
455.9429999999993,-1.989689735637512e-05,-0.00019202372641302645,-0.0002012449549511075,0.0,0.0,0.0,0.0,0.0017473724437877536,-0.001325154211372137,-0.001060035079717636,0.9992799162864685,0.0,0.0,0.0,0.2335927039384842,6.167081832885742,3.1956820487976074,-42.28074645996094,0
465.85399999999936,-1.989689735637512e-05,-0.00019202372641302645,-0.0002012449549511075,0.0,0.0,0.0,0.0,-0.005189984105527401,-0.003202382940798998,0.002108154585584998,1.001456379890442,0.0,0.0,0.0,0.2335927039384842,6.167081832885742,3.1956820487976074,-42.28074645996094,0
475.7669999999998,-3.505976565065794e-05,-0.00019763658929150552,-0.00016967668489087373,0.0,0.0,0.0,0.0,-0.0034157962072640657,-0.0013737465487793088,0.0004570949240587652,0.9998617172241211,0.0,0.0,0.0,0.2276090830564499,6.17427396774292,3.187854290008545,-41.19769287109375,0
485.6809999999987,-3.9683996874373406e-05,-0.00022028892999514937,-0.0001942131930263713,0.0,0.0,0.0,0.0,0.0028099941555410624,0.0008480819524265826,-0.0032901570666581392,1.0008573532104492,0.0,0.0,0.0,0.2372511774301529,6.18233585357666,3.197023868560791,-42.94293212890625,0
495.58599999999933,-5.1978066039737314e-05,-0.00025000693858601153,-0.00019396650895942003,0.0,0.0,0.0,0.0,0.0018741574604064226,-0.0037802301812916994,0.0039140828885138035,1.0010244846343994,0.0,0.0,0.0,0.23728697001934052,6.1786208152771,3.194096326828003,-42.94940948486328,0
505.5029999999988,-7.361960160778835e-05,-0.00028037469019182026,-0.0001551094901515171,0.0,0.0,0.0,0.0,0.0008274911087937653,0.004234641790390015,0.0014647678472101688,1.0009112358093262,0.0,0.0,0.0,0.24472291767597198,6.169865608215332,3.1978166103363037,-44.29533386230469,0
515.4159999999993,-1.7639988072915003e-05,-0.00029282525065355003,-7.479125633835793e-05,0.0,0.0,0.0,0.0,-0.003052504500374198,-0.0035105624701827765,-0.0011118673719465733,1.0005764961242676,0.0,0.0,0.0,0.25161364674568176,6.167665481567383,3.2038533687591553,-45.542572021484375,0
525.3209999999999,1.0730391295510344e-05,-0.0002487804740667343,-8.645676280139014e-05,0.0,0.0,0.0,0.0,0.002348686335608363,-0.0005356646724976599,0.000543227419257164,0.9982417225837708,0.0,0.0,0.0,0.2668438255786896,6.173956394195557,3.212043046951294,-48.29926300048828,0
535.232,-3.1325042073149234e-05,-0.00021945088519714773,-4.128411819692701e-05,0.0,0.0,0.0,0.0,0.0028343352023512125,-0.00021304503025021404,0.000696282833814621,0.9974067211151123,0.0,0.0,0.0,0.26874518394470215,6.170626640319824,3.207852602005005,-48.64341735839844,0
545.1419999999998,2.393524300714489e-05,-0.00015966071805451065,-9.502632747171447e-05,0.0,0.0,0.0,0.0,-0.00021746038692072034,-0.0038941404782235622,0.0005974890082143247,0.9976798295974731,0.0,0.0,0.0,0.27639928460121155,6.172593116760254,3.212229013442993,-50.0288200378418,0
555.0579999999991,1.5303097825380974e-05,-0.00017941583064384758,-7.150978490244597e-05,0.0,0.0,0.0,0.0,-0.0022235745564103127,0.0022684712894260883,0.000292050011921674,0.9996359348297119,0.0,0.0,0.0,0.266263484954834,6.166968822479248,3.2109715938568115,-48.194217681884766,0
564.9609999999993,9.690582373877987e-05,-0.0001028704282362014,-0.0001639149704715237,0.0,0.0,0.0,0.0,0.0018684878014028072,-0.0006715888157486916,0.00043918771552853286,0.9995313882827759,0.0,0.0,0.0,0.28082573413848877,6.177516937255859,3.2172350883483887,-50.83001708984375,0
574.8799999999992,-4.770697341882624e-05,-7.310973160201684e-05,-0.00017994333757087588,0.0,0.0,0.0,0.0,-0.0009770105825737119,-0.00027009169571101665,-0.000860695552546531,1.0003148317337036,0.0,0.0,0.0,0.2725042700767517,6.178201675415039,3.20204758644104,-49.32381057739258,0
584.7889999999989,-2.7291262085782364e-05,-7.630744221387431e-05,-0.00021795646171085536,0.0,0.0,0.0,0.0,0.001260079094208777,-0.00012301917013246566,-0.002865024609491229,0.9994281530380249,0.0,0.0,0.0,0.28076261281967163,6.178409576416016,3.20229434967041,-50.81858825683594,0
594.6949999999997,-9.738298103911802e-05,-5.042930570198223e-05,-0.00020315767324063927,0.0,0.0,0.0,0.0,2.532805774535518e-05,0.003759359708055854,-0.0038422502111643553,1.0004361867904663,0.0,0.0,0.0,0.269679456949234,6.174873352050781,3.184318780899048,-48.81251525878906,0
604.6099999999988,-9.445468458579853e-05,-9.729666635394096e-05,-0.0002489043981768191,0.0,0.0,0.0,0.0,0.002906776499003172,0.0010139350779354572,-0.00033397850347682834,0.9983290433883667,0.0,0.0,0.0,0.2672343850135803,6.169941425323486,3.1692585945129395,-48.36995315551758,0
614.521999999999,-0.00013206693984102458,-8.821867231745273e-05,-0.00023040569794829935,0.0,0.0,0.0,0.0,-0.0017540960106998682,-0.005141610745340586,0.003297914518043399,0.9975887537002563,0.0,0.0,0.0,0.26723214983940125,6.159567356109619,3.1609697341918945,-48.36955261230469,0
624.4299999999985,-0.0001148904484580271,-0.00010439473408041522,-0.0002778628550004214,0.0,0.0,0.0,0.0,0.002328733913600445,0.0021025273017585278,-0.002188194775953889,0.9997788071632385,0.0,0.0,0.0,0.27728596329689026,6.156016826629639,3.1724753379821777,-50.189308166503906,0
634.3409999999985,-7.161076064221561e-05,-9.270518057746813e-05,-0.00022359279682859778,0.0,0.0,0.0,0.0,-0.002396297175437212,0.0026886428240686655,0.0022704503498971462,0.9983611702919006,0.0,0.0,0.0,0.2672784626483917,6.157143592834473,3.1743929386138916,-48.377933502197266,0
644.2559999999994,-8.397713827434927e-06,-4.170363172306679e-05,-0.0003021311713382602,0.0,0.0,0.0,0.0,-0.0003746779402717948,-0.0021680358331650496,0.0007556657074019313,1.0006446838378906,0.0,0.0,0.0,0.2797231376171112,6.173807621002197,3.1810786724090576,-50.63044357299805,0
654.1689999999999,1.787926521501504e-05,-6.132149428594857e-05,-0.00028183963149785995,0.0,0.0,0.0,0.0,0.00087828648975119,0.0012144922511652112,0.0007588569424115121,0.9967979192733765,0.0,0.0,0.0,0.26933783292770386,6.170987606048584,3.1817822456359863,-48.75068664550781,0
664.0819999999985,1.9058941688854247e-05,-8.284805517178029e-05,-0.0002905490982811898,0.0,0.0,0.0,0.0,0.00016628757293801755,0.000917426310479641,-0.002168588573113084,0.998383641242981,0.0,0.0,0.0,0.2778390944004059,6.167232990264893,3.1856870651245117,-50.2894287109375,0
673.9899999999998,-5.1649189117597416e-05,-6.578469037776813e-05,-0.0002861851826310158,0.0,0.0,0.0,0.0,0.0018843889702111483,0.001725679379887879,-0.0015386343002319336,1.0007429122924805,0.0,0.0,0.0,0.2663414478302002,6.16767692565918,3.1626434326171875,-48.20833206176758,0
683.905999999999,-7.479421037714928e-05,-0.00010214704525424168,-0.0002658879093360156,0.0,0.0,0.0,0.0,0.002487167250365019,0.003260442754253745,-0.0013701525749638677,0.9999955892562866,0.0,0.0,0.0,0.2716921865940094,6.163205623626709,3.1522974967956543,-49.176822662353516,0
693.8109999999997,-1.2997238627576735e-05,-0.00013105021207593381,-0.00022846509818919003,0.0,0.0,0.0,0.0,-0.0002145968610420823,-0.0013014565920457244,0.0030829845927655697,0.9993818998336792,0.0,0.0,0.0,0.2700750529766083,6.148979187011719,3.142531394958496,-48.88412094116211,0
703.7309999999998,-7.381167961284518e-05,-0.00023744537611491978,-0.00017902070248965174,0.0,0.0,0.0,0.0,0.0026091220788657665,0.0007317131967283785,0.00013886261149309576,1.0001749992370605,0.0,0.0,0.0,0.27017709612846375,6.14259672164917,3.1460273265838623,-48.90259552001953,0
713.6339999999982,-4.104886465938762e-05,-0.00024895870592445135,-0.0001297651615459472,0.0,0.0,0.0,0.0,-6.384481093846262e-05,-0.0008686805958859622,-0.0003890821535605937,0.9994978904724121,0.0,0.0,0.0,0.2701679766178131,6.133925437927246,3.146217107772827,-48.90093994140625,0
723.5529999999999,-5.5637749028392136e-05,-0.0002811913436744362,-0.00010211986227659509,0.0,0.0,0.0,0.0,-0.0008589552016928792,-0.000283834058791399,0.0043709054589271545,1.0005362033843994,0.0,0.0,0.0,0.2759178578853607,6.1287360191345215,3.144740104675293,-49.941680908203125,0
733.4569999999985,-5.1293784053996205e-05,-0.0002888283634092659,-5.57996827410534e-05,0.0,0.0,0.0,0.0,-0.0025654297787696123,-0.0003207562549505383,0.0021981163881719112,1.0010154247283936,0.0,0.0,0.0,0.27647218108177185,6.124099254608154,3.142479181289673,-50.042015075683594,0
743.3809999999994,-7.097319030435756e-05,-0.0003560179902706295,-3.947868026443757e-05,0.0,0.0,0.0,0.0,0.003322715638205409,0.0044622658751904964,0.0006394408410415053,0.9994125366210938,0.0,0.0,0.0,0.2849973440170288,6.1182861328125,3.143395185470581,-51.585086822509766,0
753.280999999999,-8.941045962274075e-05,-0.00030481579597108066,4.324237670516595e-05,0.0,0.0,0.0,0.0,4.3203108361922204e-05,-0.000749765953514725,0.0026082415133714676,0.9981918931007385,0.0,0.0,0.0,0.27812156081199646,6.125635147094727,3.132566452026367,-50.34055709838867,0
763.2059999999983,-4.195996734779328e-05,-0.00027985917404294014,5.69931034988258e-06,0.0,0.0,0.0,0.0,0.003931420389562845,0.0026090515311807394,-0.0006450243527069688,0.9996124505996704,0.0,0.0,0.0,0.28969794511795044,6.133561611175537,3.1396799087524414,-52.43590545654297,0
773.1059999999998,-0.0001305145851802081,-0.00025931367417797446,3.661147638922557e-05,0.0,0.0,0.0,0.0,0.0016439813189208508,0.0016138727078214288,3.925051350961439e-05,0.9999904632568359,0.0,0.0,0.0,0.2772133946418762,6.1401472091674805,3.125119686126709,-50.17617416381836,0
783.0349999999999,-5.029509702580981e-05,-0.00021072207891847938,-5.667102232109755e-05,0.0,0.0,0.0,0.0,2.402298923698254e-05,0.00010048319381894544,-0.0009212990407831967,1.0014864206314087,0.0,0.0,0.0,0.2858542203903198,6.1410675048828125,3.1286494731903076,-51.74018478393555,0
792.9319999999989,-5.9979913203278556e-05,-0.0002608482027426362,-5.08156226715073e-05,0.0,0.0,0.0,0.0,-0.0004189730971120298,-0.0025150843430310488,0.002482466632500291,1.000684380531311,0.0,0.0,0.0,0.28556856513023376,6.131359100341797,3.1210341453552246,-51.6884765625,0
802.848,2.9490645829355344e-05,-0.00018292487948201597,-0.00015042306040413678,0.0,0.0,0.0,0.0,0.0034751608036458492,0.0026180490385740995,-3.748618473764509e-05,1.0020748376846313,0.0,0.0,0.0,0.2856985330581665,6.126485347747803,3.125870704650879,-51.71200180053711,0
812.7729999999992,8.051886106841266e-05,-0.00013728163321502507,-0.00020004500402137637,0.0,0.0,0.0,0.0,-0.0012863531010225415,-3.970433317590505e-05,-0.004480501636862755,1.001090407371521,0.0,0.0,0.0,0.2993408739566803,6.147135257720947,3.152958631515503,-54.18129348754883,0
822.6789999999983,8.07495744084008e-05,-0.00017997331451624632,-0.000201517716050148,0.0,0.0,0.0,0.0,0.002882471075281501,0.0019304989837110043,-0.00040454379632137716,1.0005334615707397,0.0,0.0,0.0,0.2995879054069519,6.143823623657227,3.1422648429870605,-54.22600555419922,0
832.5819999999985,0.00010555789776844904,-0.00016984516696538776,-0.00021126696083229035,0.0,0.0,0.0,0.0,-0.0003358316607773304,-0.0030501994770020247,0.0026374326553195715,0.9998676180839539,0.0,0.0,0.0,0.29913681745529175,6.135741233825684,3.1371495723724365,-54.14436340332031,0
842.5009999999984,0.00010592273611109704,-0.00021435212693177164,-0.0002111193462042138,0.0,0.0,0.0,0.0,-0.0018766190623864532,-0.001111789490096271,-0.0027719580102711916,0.9999880790710449,0.0,0.0,0.0,0.2992670238018036,6.131998538970947,3.1315348148345947,-54.16792297363281,0
852.3999999999996,9.765853610588238e-05,-0.00025814378750510514,-0.000196189183043316,0.0,0.0,0.0,0.0,0.0017291188705712557,0.0026700517628341913,0.0035098111256957054,0.997936487197876,0.0,0.0,0.0,0.29832348227500916,6.1319780349731445,3.130213737487793,-53.99713897705078,0
862.3189999999995,9.557028533890843e-05,-0.00030736951157450676,-0.0001951198501046747,0.0,0.0,0.0,0.0,-0.0004009163239970803,-0.0003750070172827691,0.0004591772158164531,1.0019323825836182,0.0,0.0,0.0,0.29873141646385193,6.129067897796631,3.129350185394287,-54.07098388671875,0
872.2239999999983,9.045948536368087e-05,-0.0003188883711118251,-0.00016178919759113342,0.0,0.0,0.0,0.0,0.0006591521669179201,0.002869477728381753,-0.0023691030219197273,1.0004619359970093,0.0,0.0,0.0,0.30524665117263794,6.143094062805176,3.129988193511963,-55.25025177001953,0
882.146999999999,8.658254228066653e-05,-0.0003672625171020627,-0.00015732111933175474,0.0,0.0,0.0,0.0,0.0002506930904928595,-0.004862722475081682,0.0009031981462612748,1.0006006956100464,0.0,0.0,0.0,0.3048345744609833,6.13953161239624,3.125854015350342,-55.175662994384766,0
892.0499999999993,9.635038441047072e-05,-0.00035438951454125345,-0.00011815006291726604,0.0,0.0,0.0,0.0,0.003911306150257587,-0.00032814228325150907,0.00048443666310049593,0.9997450113296509,0.0,0.0,0.0,0.3043071925640106,6.134763240814209,3.1284258365631104,-55.0802116394043,0
901.9709999999995,9.530324314255267e-05,-0.0004015571903437376,-0.00010990139708155766,0.0,0.0,0.0,0.0,-0.00028693044441752136,-0.0008090758929029107,0.001508289948105812,0.9991267919540405,0.0,0.0,0.0,0.30457180738449097,6.125728607177734,3.122960329055786,-55.12810516357422,0
911.869999999999,0.0001565049315104261,-0.0003855092800222337,-0.0001198375248350203,0.0,0.0,0.0,0.0,0.003671417012810707,-0.003559396369382739,0.0020828822162002325,0.9992809295654297,0.0,0.0,0.0,0.31234243512153625,6.153512954711914,3.135679006576538,-56.53459930419922,0
921.789999999999,0.0001613599160918966,-0.00043050202657468617,-0.00011365010868757963,0.0,0.0,0.0,0.0,-0.0014095368096604943,-0.0004583535483106971,-0.0025196888018399477,0.998950719833374,0.0,0.0,0.0,0.31258872151374817,6.142629146575928,3.14867901802063,-56.579185485839844,0
931.6939999999995,0.00022283315774984658,-0.0003669968282338232,-8.342824730789289e-05,0.0,0.0,0.0,0.0,0.0011449054582044482,-0.00023358275939244777,0.00010109121649293229,0.9988943338394165,0.0,0.0,0.0,0.315385103225708,6.184351444244385,3.172921895980835,-57.085330963134766,0
941.6209999999992,0.0002319889172213152,-0.00040483736665919423,-7.76772722019814e-05,0.0,0.0,0.0,0.0,0.0023885888513177633,-0.0051351021975278854,0.0024712251033633947,0.9988194704055786,0.0,0.0,0.0,0.3152740001678467,6.183542251586914,3.1747336387634277,-57.06521987915039,0
951.5159999999996,0.00024257448967546225,-0.00040649433503858745,-5.068343671155162e-05,0.0,0.0,0.0,0.0,0.001781853032298386,0.0004224083968438208,-0.0037497275043278933,1.0009753704071045,0.0,0.0,0.0,0.3165638744831085,6.17549991607666,3.1729700565338135,-57.2986946105957,0
961.4379999999983,0.00025165046099573374,-0.000446345831733197,-4.450242340681143e-05,0.0,0.0,0.0,0.0,0.0009299890953116119,-0.0005835086922161281,-0.005031791981309652,0.9984884858131409,0.0,0.0,0.0,0.31509074568748474,6.169191837310791,3.1637420654296875,-57.03205108642578,0
971.3409999999985,0.00026858822093345225,-0.00043329549953341484,-9.322408914158586e-06,0.0,0.0,0.0,0.0,-0.002748004626482725,-0.0021109215449541807,0.0006063648033887148,0.9977021813392639,0.0,0.0,0.0,0.32171133160591125,6.178942680358887,3.165348529815674,-58.23038864135742,0
981.2609999999986,0.0002769099082797766,-0.00047506310511380434,-2.1459281924762763e-06,0.0,0.0,0.0,0.0,-0.0007080664508976042,-0.0015551085816696286,0.004228997975587845,0.997241199016571,0.0,0.0,0.0,0.32148927450180054,6.174856662750244,3.1598312854766846,-58.19020080566406,0
991.1719999999987,0.00028528287657536566,-0.0005192610551603138,2.7495689209899865e-06,0.0,0.0,0.0,0.0,0.0010004747891798615,-0.005279653239995241,-0.0021861728746443987,0.998508870601654,0.0,0.0,0.0,0.32140636444091797,6.170386791229248,3.158803939819336,-58.17518997192383,0
1001.0829999999987,0.00029355392325669527,-0.0005655566928908229,5.510241862793919e-06,0.0,0.0,0.0,0.0,0.001354076201096177,0.0002954422088805586,-0.0009060914744623005,1.0013593435287476,0.0,0.0,0.0,0.3218833804130554,6.161726474761963,3.1651387214660645,-58.261531829833984,0
1010.9849999999988,-3.752475822693668e-05,-0.0003370449412614107,-8.522508869646117e-05,0.0,0.0,0.0,0.0,-0.0033245361410081387,-0.0034120844211429358,0.0009498002473264933,1.0009255409240723,0.0,0.0,0.0,0.3145672082901001,6.215128421783447,3.1087260246276855,-56.93729019165039,0
1020.9109999999982,-4.420556069817394e-05,-0.00037211531889624894,-8.199514559237286e-05,0.0,0.0,0.0,0.0,-0.0005717108142562211,-0.0024004890583455563,0.003368053352460265,0.9984875321388245,0.0,0.0,0.0,0.31448090076446533,6.210909366607666,3.109923839569092,-56.92167282104492,0
1030.8089999999993,-0.00011762839130824432,-0.00032224872848019004,-3.070554157602601e-05,0.0,0.0,0.0,0.0,0.002851214725524187,-0.0023538745008409023,-0.00173385429661721,0.9975811839103699,0.0,0.0,0.0,0.31441622972488403,6.203241348266602,3.1063294410705566,-56.90996551513672,0
1040.7349999999988,-0.00012612377759069204,-0.00035617686808109283,-2.4851655325619504e-05,0.0,0.0,0.0,0.0,0.0011199594009667635,-5.92634933127556e-05,0.0028280853293836117,1.0006179809570312,0.0,0.0,0.0,0.3137400448322296,6.192906379699707,3.100548267364502,-56.787567138671875,0
1050.6389999999992,-0.000109584849269595,-0.00031269853934645653,7.69889957155101e-05,0.0,0.0,0.0,0.0,0.002602922497317195,-0.0018854476511478424,0.0019190667662769556,1.0000369548797607,0.0,0.0,0.0,0.3026782274246216,6.2099809646606445,3.0998785495758057,-54.78536605834961,0
1060.5529999999999,-0.00011882295802934095,-0.0003463072353042662,8.805095421848819e-05,0.0,0.0,0.0,0.0,-0.0012813962530344725,0.006127798929810524,0.0018526341300457716,0.9968728423118591,0.0,0.0,0.0,0.3035484552383423,6.201862812042236,3.097595453262329,-54.94287109375,0
1070.4579999999987,-0.0001767010398907587,-0.0003394889354240149,0.00014524292782880366,0.0,0.0,0.0,0.0,0.0036643703933805227,0.001999028492718935,-0.00195023650303483,0.9989638924598694,0.0,0.0,0.0,0.2904360592365265,6.208352088928223,3.0741074085235596,-52.56949996948242,0
1080.3799999999992,-0.0001888848200906068,-0.0003755904035642743,0.0001578053634148091,0.0,0.0,0.0,0.0,-0.0001370386016787961,-0.00024719996144995093,0.00430650170892477,0.9987685680389404,0.0,0.0,0.0,0.2894524037837982,6.203222274780273,3.0697579383850098,-52.39146041870117,0
1090.2789999999986,-0.00021195545559749007,-0.0003782685671467334,0.00021377358643803746,0.0,0.0,0.0,0.0,-1.3419255992630497e-05,0.004277513828128576,-0.0003592094872146845,1.0000379085540771,0.0,0.0,0.0,0.2780863344669342,6.213892936706543,3.0755021572113037,-50.33418273925781,0
1100.1989999999987,-0.00022680639813188463,-0.00041653012158349156,0.00022801024897489697,0.0,0.0,0.0,0.0,0.0018685613758862019,-0.0018390208715572953,0.00162436009850353,1.001867651939392,0.0,0.0,0.0,0.2773171067237854,6.203599452972412,3.0662689208984375,-50.194950103759766,0
1110.110999999999,-0.00022868506493978202,-0.0004150821769144386,0.00029911971068941057,0.0,0.0,0.0,0.0,0.0005106428288854659,-0.0017255916027352214,0.0026094154454767704,1.0002262592315674,0.0,0.0,0.0,0.27744337916374207,6.195119380950928,3.068509340286255,-50.21780014038086,0
1120.0239999999994,-0.0002452677581459284,-0.00045465765288099647,0.00031959268380887806,0.0,0.0,0.0,0.0,0.0006879618158563972,0.0018902752781286836,-0.001307317754253745,1.0016807317733765,0.0,0.0,0.0,0.27762115001678467,6.191187381744385,3.0707902908325195,-50.249977111816406,0
1129.9259999999995,-0.0001712269731797278,-0.0004787466605193913,0.0003711509343702346,0.0,0.0,0.0,0.0,0.0014471623580902815,0.0017188487108796835,0.0012361964909359813,1.0019644498825073,0.0,0.0,0.0,0.26940494775772095,6.192139625549316,3.0766611099243164,-48.7628288269043,0
1139.8399999999983,-0.0001877584436442703,-0.0005227080546319485,0.00039690439007245004,0.0,0.0,0.0,0.0,-0.00047249600174836814,0.0015178350731730461,0.005434225779026747,1.0040525197982788,0.0,0.0,0.0,0.269150048494339,6.18167781829834,3.0733656883239746,-48.71669006347656,0
1149.7509999999984,-0.00014937922242097557,-0.000546838971786201,0.0004563516704365611,0.0,0.0,0.0,0.0,0.002304910449311137,-0.0034403232857584953,-0.0006249920115806162,1.0018324851989746,0.0,0.0,0.0,0.26008743047714233,6.181194305419922,3.0722086429595947,-47.07634353637695,0
1159.6669999999995,-0.00016635969222988933,-0.0005929925828240812,0.0004910111892968416,0.0,0.0,0.0,0.0,-7.875898154452443e-05,0.003908188547939062,-0.0006084130145609379,0.999923050403595,0.0,0.0,0.0,0.2597483992576599,6.174657821655273,3.0680463314056396,-47.014976501464844,0
1169.575999999999,-0.0001572281471453607,-0.0006176541792228818,0.0005620284355245531,0.0,0.0,0.0,0.0,-0.002157028065994382,0.0020779313053935766,0.00018379274115432054,0.9994962811470032,0.0,0.0,0.0,0.269790381193161,6.171476364135742,3.064634323120117,-48.83259582519531,0
1179.485999999999,-0.00017610086069907993,-0.000665345462039113,0.0006023203604854643,0.0,0.0,0.0,0.0,-0.0003961985057685524,-0.002864963375031948,0.0007888567633926868,1.0002977848052979,0.0,0.0,0.0,0.2683752775192261,6.169177055358887,3.0554039478302,-48.57646179199219,0
1189.396999999999,-0.00022683496354147792,-0.0006935086566954851,0.0006643274100497365,0.0,0.0,0.0,0.0,0.002739272080361843,-0.0010997067438438535,0.0018958137370646,0.9996851086616516,0.0,0.0,0.0,0.27631592750549316,6.173951625823975,3.044247627258301,-50.01373291015625,0
1199.3149999999987,-0.00025258559617213905,-0.0007178775849752128,0.0007370620151050389,0.0,0.0,0.0,0.0,-0.00362194050103426,-0.0015897889388725162,-0.0009032904054038227,0.9995490312576294,0.0,0.0,0.0,0.2768375277519226,6.160000801086426,3.0380077362060547,-50.10814666748047,0
1209.2199999999993,-6.387211033143103e-05,-0.00021557536092586815,-6.446722545661032e-05,0.0,0.0,0.0,0.0,0.00047538065700791776,0.0011243992485105991,-0.0010811398969963193,1.0003248453140259,0.0,0.0,0.0,0.28910622000694275,6.269464015960693,3.0727179050445557,-52.32880401611328,0
1219.1359999999986,-0.00012470893852878362,-0.00020259320444893092,-2.5915504011209123e-05,0.0,0.0,0.0,0.0,-0.0013124094111844897,0.005747407209128141,-0.002605652203783393,1.0016558170318604,0.0,0.0,0.0,0.27938124537467957,6.279944896697998,3.0676493644714355,-50.56855773925781,0
1229.0479999999989,-6.585850496776402e-05,-0.00010079707863042131,-0.00017850827134680003,0.0,0.0,0.0,0.0,0.000781640294007957,-0.0015289026778191328,-0.0005078264512121677,1.0013200044631958,0.0,0.0,0.0,0.2906217575073242,6.289402484893799,3.0603268146514893,-52.603111267089844,0
1238.9579999999987,-7.89576442912221e-05,-0.00011278819147264585,-0.00015466711192857474,0.0,0.0,0.0,0.0,-0.0006351427873596549,9.868908091448247e-05,-0.0036426247097551823,1.0014632940292358,0.0,0.0,0.0,0.290241539478302,6.280155658721924,3.057267189025879,-52.5342903137207,0
1248.8839999999982,-5.613855319097638e-05,-6.90244633005932e-05,-0.0002073708310490474,0.0,0.0,0.0,0.0,-0.0025653173215687275,-0.0013659370597451925,-0.0024440293200314045,1.00116765499115,0.0,0.0,0.0,0.296290785074234,6.28140115737915,3.057206153869629,-53.62921905517578,0
1258.7799999999988,-8.812947271508165e-06,-7.382572221104056e-05,-0.00014668637595605105,0.0,0.0,0.0,0.0,-0.002775216940790415,0.000333839503582567,-0.0025633799377828836,0.9987832307815552,0.0,0.0,0.0,0.2954120635986328,6.276130199432373,3.0577850341796875,-53.47017288208008,0
1268.7019999999993,4.7022131184348837e-05,7.5002531048085075e-06,-0.00021461989672388881,0.0,0.0,0.0,0.0,-0.0015242742374539375,-0.0015813081990927458,-0.0007700094138272107,0.9988270401954651,0.0,0.0,0.0,0.30402278900146484,6.282661437988281,3.069330930709839,-55.02872848510742,0
1278.607,-5.998024425935e-05,2.5653049306129105e-05,-0.00021625203953590244,0.0,0.0,0.0,0.0,-0.0021751271560788155,-0.004218302667140961,0.002815036568790674,0.9999114274978638,0.0,0.0,0.0,0.29423412680625916,6.288406848907471,3.051866054534912,-53.2569580078125,0
1288.5249999999996,-3.6477700632531196e-05,4.132211324758828e-05,-0.00027694128220900893,0.0,0.0,0.0,0.0,0.000990267493762076,0.004508153069764376,0.0004397733137011528,0.9992523193359375,0.0,0.0,0.0,0.3029550313949585,6.289148330688477,3.069685459136963,-54.83546447753906,0
1298.4269999999997,-2.5535753593430854e-05,5.2365692681632936e-05,-0.0002290937991347164,0.0,0.0,0.0,0.0,0.0003972445847466588,-0.004412833601236343,0.0035285071935504675,1.00139582157135,0.0,0.0,0.0,0.28912922739982605,6.287050247192383,3.07104229927063,-52.33296585083008,0
1308.351999999999,-4.263526716385968e-05,1.676184001553338e-05,-0.00024576697614975274,0.0,0.0,0.0,0.0,0.0016896650195121765,0.0013523678062483668,-0.0015254548052325845,0.999259352684021,0.0,0.0,0.0,0.29867085814476013,6.281243801116943,3.0689847469329834,-54.060020446777344,0
1318.25,-3.7870838696107967e-06,1.1867914508911781e-05,-0.00019403146870899945,0.0,0.0,0.0,0.0,-0.00029184462619014084,-0.0036434142384678125,-0.0026631865184754133,1.0009430646896362,0.0,0.0,0.0,0.29110193252563477,6.277271747589111,3.071990489959717,-52.690032958984375,0
1328.164999999999,-1.9358107238076627e-05,-2.6903828256763518e-05,-0.00020904515986330807,0.0,0.0,0.0,0.0,0.0015223127556964755,0.001641760696657002,0.0009413012303411961,1.000517725944519,0.0,0.0,0.0,0.2954109311103821,6.27052640914917,3.070037841796875,-53.469966888427734,0
1338.0789999999997,-8.293953578686342e-05,-2.62110770563595e-05,-0.00019201470422558486,0.0,0.0,0.0,0.0,0.0009337300434708595,0.0009048584033735096,-0.0019109976710751653,0.9979998469352722,0.0,0.0,0.0,0.28636446595191956,6.264279365539551,3.051766872406006,-51.83253479003906,0
1347.9959999999992,-8.04358278401196e-05,-3.0697465263074264e-05,-0.00021749275038018823,0.0,0.0,0.0,0.0,-0.0033930286299437284,0.0009704474359750748,0.004293177742511034,0.9979181885719299,0.0,0.0,0.0,0.29414093494415283,6.26059627532959,3.046226739883423,-53.24009704589844,0
1357.9009999999998,-7.233121868921444e-05,-6.38571655144915e-05,-0.0001964245893759653,0.0,0.0,0.0,0.0,0.0009363351273350418,-0.00030254595912992954,0.004985687788575888,0.9998412132263184,0.0,0.0,0.0,0.29287123680114746,6.254626750946045,3.0364222526550293,-53.010276794433594,0
1367.8149999999987,-5.507664172910154e-05,-3.977603046223521e-05,-0.00022859577438794076,0.0,0.0,0.0,0.0,-0.00012926034105475992,0.0020218989811837673,-0.00017455937631893903,0.9998659491539001,0.0,0.0,0.0,0.2932717502117157,6.2462053298950195,3.038757801055908,-53.08277130126953,0
1377.723,-5.9879592299694195e-05,-7.552714669145644e-05,-0.00021472637308761477,0.0,0.0,0.0,0.0,0.00031763248261995614,0.006762739270925522,0.002173475921154022,0.9972596168518066,0.0,0.0,0.0,0.2929261326789856,6.23696756362915,3.0432040691375732,-53.02021408081055,0
1387.6449999999986,-8.179073483916e-05,-9.39597375690937e-05,-0.00020607205806300044,0.0,0.0,0.0,0.0,-0.00042850140016525984,-0.0003007184132002294,0.007115409709513187,0.9990565180778503,0.0,0.0,0.0,0.3011023700237274,6.230873107910156,3.032073736190796,-54.50012969970703,0
1397.5419999999995,-1.8689794160309248e-05,-0.00014305059448815882,-0.00016680500993970782,0.0,0.0,0.0,0.0,0.004116895608603954,0.0013993850443512201,0.00014400981308426708,0.9978315830230713,0.0,0.0,0.0,0.29414892196655273,6.225615501403809,3.034595251083374,-53.24153518676758,0
1407.4629999999997,1.3296356655700947e-06,-0.0001229397748829797,-0.00020622574083972722,0.0,0.0,0.0,0.0,-0.003017114708200097,0.0014748306712135673,-0.0013722855364903808,0.9994153380393982,0.0,0.0,0.0,0.2999316155910492,6.224626064300537,3.0381031036376953,-54.2882194519043,0
1417.3669999999984,-8.041344699449837e-06,-0.000131063541630283,-0.00017886303248815238,0.0,0.0,0.0,0.0,-0.0015471498481929302,0.0003893174871336669,7.140840898500755e-05,0.9992380142211914,0.0,0.0,0.0,0.3083571791648865,6.221634387969971,3.02306866645813,-55.81326675415039,0
1427.2909999999993,-2.860287895600777e-05,-0.00016987459093797952,-0.00018719965009950101,0.0,0.0,0.0,0.0,0.0038545511197298765,-0.002684640930965543,-0.0010209003230556846,1.0019162893295288,0.0,0.0,0.0,0.3074648082256317,6.221074104309082,3.0171239376068115,-55.651737213134766,0
1437.190999999999,-4.3966832890873775e-05,-0.00018304963305126876,-0.0001568183215567842,0.0,0.0,0.0,0.0,-0.0011892806505784392,0.00012462231097742915,0.0009328339365310967,1.001309871673584,0.0,0.0,0.0,0.30752792954444885,6.21603536605835,3.018343925476074,-55.663169860839844,0
1447.1089999999986,-4.676065509556793e-05,-0.00019937277829740196,-0.00017263440531678498,0.0,0.0,0.0,0.0,-0.0005831187008880079,0.0002146872429875657,-0.0006848354241810739,0.9993011355400085,0.0,0.0,0.0,0.3135836124420166,6.2142014503479,3.0317153930664062,-56.759254455566406,0
1457.0149999999994,-4.540791633189656e-05,-0.00019364712352398783,-0.00012146174412919208,0.0,0.0,0.0,0.0,-0.0007963809184730053,0.002948059467598796,-0.0008348419214598835,0.9981687068939209,0.0,0.0,0.0,0.3128960430622101,6.215579032897949,3.024434804916382,-56.63480758666992,0
1466.9359999999997,6.044143106009869e-07,-0.00013883391511626542,-0.0001742007298162207,0.0,0.0,0.0,0.0,-0.0005154436803422868,-0.0003497515572234988,-0.0004894623998552561,0.9993749260902405,0.0,0.0,0.0,0.31959888339042664,6.227846622467041,3.030287027359009,-57.84803771972656,0
1476.8459999999995,-5.021151537221158e-06,-0.00015459071437362581,-0.0001394832943333313,0.0,0.0,0.0,0.0,-0.001692862482741475,-0.000643813400529325,-0.0015215602470561862,0.999499499797821,0.0,0.0,0.0,0.32054567337036133,6.217907428741455,3.03979754447937,-58.019405364990234,0
1486.7649999999994,-1.814660572563298e-05,-0.00018198086763732135,-0.00014908218872733414,0.0,0.0,0.0,0.0,0.0007426270749419928,0.0015975665301084518,0.0007621558615937829,0.996659517288208,0.0,0.0,0.0,0.32044291496276855,6.210870742797852,3.0278356075286865,-58.00080490112305,0
1496.6629999999986,-9.58878590608947e-05,-0.00018263411766383797,-0.00013535266043618321,0.0,0.0,0.0,0.0,-0.0005244888016022742,-0.0016674945363774896,0.0027439086697995663,0.9981247782707214,0.0,0.0,0.0,0.3201487958431244,6.2123942375183105,3.0353527069091797,-57.94757080078125,0
1506.5819999999985,-9.337237133877352e-05,-0.00018248302512802184,-0.00016375559789594263,0.0,0.0,0.0,0.0,-0.0008215113775804639,0.0006496574496850371,-0.0005497683887369931,0.9986968636512756,0.0,0.0,0.0,0.31998899579048157,6.205921173095703,3.0375733375549316,-57.918643951416016,0
1516.4899999999998,-0.00013677038077730685,-0.00016890635015442967,-0.0001246008469024673,0.0,0.0,0.0,0.0,-0.0011514629004523158,-0.0004818713932763785,-0.0005613589892163873,1.000055193901062,0.0,0.0,0.0,0.310790091753006,6.215731620788574,3.0333657264709473,-56.253623962402344,0
1526.4069999999992,-9.180424240184948e-05,-0.0001172849370050244,-0.0001983786205528304,0.0,0.0,0.0,0.0,0.0012602410279214382,-0.0004274091334082186,-0.0017240914748981595,1.000192642211914,0.0,0.0,0.0,0.31671327352523804,6.231961250305176,3.042365074157715,-57.32573318481445,0
1536.3059999999987,-0.00012423755833879113,-9.511413372820243e-05,-0.0001587117585586384,0.0,0.0,0.0,0.0,0.0022918733302503824,-0.0025687478482723236,-0.0018977578729391098,0.9995812773704529,0.0,0.0,0.0,0.31552669405937195,6.224512577056885,3.044504165649414,-57.110958099365234,0
1546.232,-9.611486893845722e-05,-6.828853656770661e-05,-0.00021926160843577236,0.0,0.0,0.0,0.0,-0.0032694232650101185,-0.003640964161604643,-0.0009105347562581301,1.0009915828704834,0.0,0.0,0.0,0.32324016094207764,6.231706619262695,3.0479509830474854,-58.507110595703125,0
1556.1359999999986,-3.256681520724669e-05,-0.00011720172187779099,-0.00018212020222563297,0.0,0.0,0.0,0.0,0.0019368859939277172,0.0001903979864437133,0.0020104714203625917,1.000704050064087,0.0,0.0,0.0,0.313222199678421,6.222336769104004,3.0642800331115723,-56.693843841552734,0
1566.0549999999985,-1.1645421182038262e-05,-9.839602716965601e-05,-0.000223283568629995,0.0,0.0,0.0,0.0,-0.001899000839330256,-5.397695986175677e-06,0.00034720939584076405,1.0000112056732178,0.0,0.0,0.0,0.3191393315792084,6.234614372253418,3.077965021133423,-57.764854431152344,0
1575.9539999999997,-7.866106170695275e-05,-8.171351510100067e-05,-0.00020117254462093115,0.0,0.0,0.0,0.0,-0.00059595110360533,0.002918749814853072,0.0013649876927956939,0.9993239641189575,0.0,0.0,0.0,0.31249046325683594,6.23891544342041,3.064298152923584,-56.561397552490234,0
1585.8859999999986,-5.941961717326194e-05,-7.011326670181006e-05,-0.0002474206266924739,0.0,0.0,0.0,0.0,0.002289587166160345,-0.00045725886593572795,-0.0015488745411857963,0.9998757243156433,0.0,0.0,0.0,0.31274738907814026,6.233923435211182,3.067230224609375,-56.6078987121582,0
1595.7829999999994,-3.9310791180469096e-05,-5.9061167121399194e-05,-0.0001920764334499836,0.0,0.0,0.0,0.0,-0.0008572548977099359,0.0003052852116525173,-0.0007182339322753251,0.9982551336288452,0.0,0.0,0.0,0.3033553957939148,6.242722034454346,3.0649049282073975,-54.907928466796875,0
1605.7039999999997,-3.5247001505922526e-05,-7.156650826800615e-05,-0.00022560759680345654,0.0,0.0,0.0,0.0,-0.0023531096521764994,0.002450100379064679,0.002099910518154502,0.9973840117454529,0.0,0.0,0.0,0.30186328291893005,6.233336448669434,3.064089059829712,-54.637855529785156,0
1615.5999999999985,-1.896054868666397e-06,-9.677013440523297e-05,-0.00019264938600827008,0.0,0.0,0.0,0.0,0.0021125252824276686,9.594997391104698e-05,0.0018652982544153929,1.0005394220352173,0.0,0.0,0.0,0.3017655909061432,6.23815393447876,3.067324638366699,-54.62016677856445,0
1625.5209999999988,-2.839049557223916e-05,-0.00012697359488811344,-0.00017851583834271878,0.0,0.0,0.0,0.0,0.0010195516515523195,-7.055413880152628e-05,-0.003598130540922284,1.0006206035614014,0.0,0.0,0.0,0.3092815577983856,6.228740215301514,3.0579440593719482,-55.9805793762207,0
1635.4249999999993,-7.466323586413637e-05,-0.00014085866860114038,-0.00016743304149713367,0.0,0.0,0.0,0.0,0.0022608675062656403,-0.00030152613180689514,-0.0016115951584652066,1.0001283884048462,0.0,0.0,0.0,0.30966880917549133,6.223372936248779,3.0601577758789062,-56.0506706237793,0
1645.3459999999995,-7.634970097569749e-05,-0.00014010567974764854,-0.0001734480174491182,0.0,0.0,0.0,0.0,-0.0038258556742221117,-0.0008990489295683801,-0.001775248209014535,1.0000450611114502,0.0,0.0,0.0,0.3160640597343445,6.218445777893066,3.0622758865356445,-57.208229064941406,0
1655.2529999999988,-3.980258770752698e-05,-0.00015080471348483115,-0.00012121580220991746,0.0,0.0,0.0,0.0,0.003194365417584777,0.0030099644791334867,-0.001568567007780075,1.001039743423462,0.0,0.0,0.0,0.3155147135257721,6.2106547355651855,3.0645713806152344,-57.10879135131836,0
1665.1719999999987,-4.164961137576029e-05,-0.00015772695769555867,-0.00012281682575121522,0.0,0.0,0.0,0.0,0.0013130709994584322,0.0027083619497716427,0.002135147340595722,1.001958966255188,0.0,0.0,0.0,0.3240582048892975,6.208148956298828,3.0547125339508057,-58.655181884765625,0
1675.074999999999,-6.223187665455043e-05,-0.00013873555872123688,-6.613528967136517e-05,0.0,0.0,0.0,0.0,0.00015016055840533227,1.7283178749494255e-05,0.0008366277324967086,1.0001919269561768,0.0,0.0,0.0,0.31221410632133484,6.213048458099365,3.043564796447754,-56.51137161254883,0
1684.9919999999984,-6.381511047948152e-05,-0.0001596242218511179,-7.647038000868633e-05,0.0,0.0,0.0,0.0,-0.00011110147170256823,0.0032632637303322554,-0.0023166362661868334,0.998384416103363,0.0,0.0,0.0,0.31825751066207886,6.211696624755859,3.0432653427124023,-57.605247497558594,0
1694.8999999999996,-0.00012664606038015336,-0.00015533874102402478,-4.1585542930988595e-05,0.0,0.0,0.0,0.0,-0.0003457546990830451,-0.00040267861913889647,0.0003312632907181978,0.9994898438453674,0.0,0.0,0.0,0.3050744831562042,6.222686290740967,3.050100803375244,-55.21908950805664,0
1704.8149999999987,-0.00010503255180083215,-0.00014920126704964787,-7.864064536988735e-05,0.0,0.0,0.0,0.0,0.000926696986425668,0.0027375707868486643,0.0006331999902613461,0.9997572898864746,0.0,0.0,0.0,0.3043380677700043,6.219346523284912,3.04371976852417,-55.085792541503906,0
1714.7209999999995,-0.00013843776832800359,-0.0001599824317963794,-4.384607746032998e-05,0.0,0.0,0.0,0.0,0.0032918897923082113,0.0016051644925028086,-0.00606923270970583,1.0006487369537354,0.0,0.0,0.0,0.29375824332237244,6.214873313903809,3.0349466800689697,-53.17082977294922,0
1724.6399999999994,-7.43328855605796e-05,-8.428311411989853e-05,-0.0001117454085033387,0.0,0.0,0.0,0.0,-0.0004976529744453728,-0.0011106050806120038,-0.001173393800854683,0.9980559945106506,0.0,0.0,0.0,0.2947908639907837,6.207888126373291,3.028975486755371,-53.35773849487305,0
1734.539999999999,-3.500792809063569e-05,-0.00014264190394897014,-8.017190702958032e-05,0.0,0.0,0.0,0.0,0.001635138876736164,-0.0028454975690692663,0.0017442499520257115,1.0001448392868042,0.0,0.0,0.0,0.2926461398601532,6.193783283233643,3.0211422443389893,-52.96953201293945,0
1744.464,-4.478399205254391e-06,-0.00012361996050458401,-0.00012622997746802866,0.0,0.0,0.0,0.0,0.001948633580468595,-0.004048718139529228,-0.003621970769017935,0.997766375541687,0.0,0.0,0.0,0.3000046908855438,6.1925506591796875,3.025207042694092,-54.30144500732422,0
1754.3629999999994,-6.786453013774008e-05,-0.00013569361180998385,-0.00012146902008680627,0.0,0.0,0.0,0.0,-0.005996320396661758,0.00046264094999060035,0.0028060302138328552,0.9999709725379944,0.0,0.0,0.0,0.30000847578048706,6.187923908233643,3.0439441204071045,-54.30213165283203,0
1764.2869999999984,-2.4889370251912624e-05,-9.629467240301892e-05,-0.0001794734998838976,0.0,0.0,0.0,0.0,-0.000986544881016016,-0.0019922060891985893,0.00041948037687689066,0.9995853304862976,0.0,0.0,0.0,0.2999674379825592,6.190805435180664,3.0420169830322266,-54.29470443725586,0
1774.187,-4.084364991285838e-05,-7.987836579559371e-05,-0.00013763092283625156,0.0,0.0,0.0,0.0,0.0010819198796525598,-0.00044967420399188995,-0.0027519811410456896,1.0003809928894043,0.0,0.0,0.0,0.2906806766986847,6.200151443481445,3.0364768505096436,-52.61377716064453,0
1784.1119999999992,1.240377878275467e-05,-5.700611654901877e-05,-0.00023010051518213004,0.0,0.0,0.0,0.0,0.001166168600320816,0.003427948337048292,5.567254265770316e-05,1.0009596347808838,0.0,0.0,0.0,0.3000606894493103,6.2089996337890625,3.050020694732666,-54.311580657958984,0
1794.0139999999992,-4.488437480176799e-05,-7.11493703420274e-05,-0.0002349553833482787,0.0,0.0,0.0,0.0,0.0009461352601647377,0.00026293235714547336,0.003957273904234171,1.0002446174621582,0.0,0.0,0.0,0.29975491762161255,6.193244457244873,3.030298948287964,-54.2562370300293,0
1803.932999999999,1.575774876982905e-05,-9.094197253034508e-07,-0.00030801683897152543,0.0,0.0,0.0,0.0,0.0006157586467452347,0.001722153159789741,0.00021804658172186464,1.0000931024551392,0.0,0.0,0.0,0.31168121099472046,6.206558704376221,3.0459091663360596,-56.414913177490234,0
1813.8359999999993,-6.2549115682486445e-06,-4.506888581090607e-05,-0.0003180287894792855,0.0,0.0,0.0,0.0,0.0005488611641339958,-0.001256030285730958,0.0019425360951572657,0.9998845458030701,0.0,0.0,0.0,0.3121751844882965,6.201027870178223,3.0402755737304688,-56.504329681396484,0
1823.7589999999982,7.666193596378434e-06,-3.597986506065354e-05,-0.0003634743334259838,0.0,0.0,0.0,0.0,-0.0021794179920107126,0.006000814028084278,0.0008033727062866092,0.9980443716049194,0.0,0.0,0.0,0.31164202094078064,6.188651084899902,3.030757427215576,-56.4078254699707,0
1833.6609999999982,1.214532403537305e-05,-3.377252141945064e-05,-0.0003249415603931993,0.0,0.0,0.0,0.0,-0.0005018053343519568,0.002024178858846426,0.0030927688349038363,1.0020415782928467,0.0,0.0,0.0,0.31222859025001526,6.183414936065674,3.0160226821899414,-56.51399612426758,0
1843.5879999999997,-3.242916818635422e-06,-5.977582259220071e-05,-0.0003314406203571707,0.0,0.0,0.0,0.0,-0.0010523971868678927,-0.0014710933901369572,-0.004484302364289761,1.0008747577667236,0.0,0.0,0.0,0.3118022382259369,6.184572696685791,3.012543201446533,-56.436824798583984,0
1853.482,-7.881726196501404e-05,-3.322619159007445e-05,-0.0003126900992356241,0.0,0.0,0.0,0.0,0.0011711698025465012,-0.0020018559880554676,-0.0021389289759099483,1.0004703998565674,0.0,0.0,0.0,0.302462637424469,6.191849708557129,2.991213321685791,-54.746341705322266,0
1863.4029999999984,-0.00010745757754193619,-5.913890709052794e-05,-0.0002987396146636456,0.0,0.0,0.0,0.0,-0.0014071122277528048,-0.0006624711095355451,0.0037460587918758392,0.9985692501068115,0.0,0.0,0.0,0.30051422119140625,6.18880033493042,2.9830896854400635,-54.3936767578125,0
1873.3049999999985,-3.567306339391507e-05,-8.147966582328081e-05,-0.00024408659373875707,0.0,0.0,0.0,0.0,-0.0015987256774678826,0.00042894575744867325,0.0002139383286703378,1.0004726648330688,0.0,0.0,0.0,0.29994434118270874,6.1758198738098145,2.9758901596069336,-54.290523529052734,0
1883.223,-6.979807949392125e-05,-0.0001402813068125397,-0.00023965748550835997,0.0,0.0,0.0,0.0,-0.0031450509559363127,0.0025325343012809753,0.002975638024508953,1.0033514499664307,0.0,0.0,0.0,0.3058784008026123,6.176752090454102,2.9784109592437744,-55.36459732055664,0
1893.128999999999,-3.559743709047325e-05,-0.00017914852651301771,-0.0001948674616869539,0.0,0.0,0.0,0.0,-0.0009500582236796618,0.004759989678859711,-0.0005237724399194121,1.0010817050933838,0.0,0.0,0.0,0.3060145378112793,6.177364826202393,2.974804639816284,-55.38923645019531,0
1903.0539999999983,-4.484630699153058e-05,-0.0002030314353760332,-0.00019676805823110044,0.0,0.0,0.0,0.0,-2.458964445395395e-05,-0.0018072713864967227,-0.0033148699440062046,0.9991036653518677,0.0,0.0,0.0,0.30562543869018555,6.170141696929932,2.9652018547058105,-55.318809509277344,0
1912.9569999999985,-4.5524091547122225e-05,-0.0002094445371767506,-0.00014709342212881893,0.0,0.0,0.0,0.0,0.0014977756654843688,-0.001497677294537425,0.00034937611781060696,1.000834584236145,0.0,0.0,0.0,0.29500746726989746,6.1718316078186035,2.966691255569458,-53.39693832397461,0
1922.8759999999984,-6.559954636031762e-05,-0.0002652925904840231,-0.0001437226455891505,0.0,0.0,0.0,0.0,0.001742291497066617,0.0010912996949627995,0.0006074787816032767,0.9999074339866638,0.0,0.0,0.0,0.2953987717628479,6.167957305908203,2.9692351818084717,-53.4677619934082,0
1932.7839999999997,-6.486922939075157e-05,-0.00025679124519228935,-8.168164640665054e-05,0.0,0.0,0.0,0.0,-0.001596342190168798,-0.000294137658784166,0.0017883654218167067,0.9997105002403259,0.0,0.0,0.0,0.2851443290710449,6.177289962768555,2.975158452987671,-51.61168670654297,0
1942.6939999999995,-5.552639777306467e-05,-0.0002658435550983995,-9.56598887569271e-05,0.0,0.0,0.0,0.0,-0.0006128776003606617,0.0002452416520100087,-0.0008528176695108414,1.0001846551895142,0.0,0.0,0.0,0.2915264666080475,6.1789679527282715,2.9775779247283936,-52.76687240600586,0
1952.6059999999998,-0.0001430971169611439,-0.0002110508066834882,-4.580418317345902e-05,0.0,0.0,0.0,0.0,0.003236386924982071,-0.0005136029794812202,0.00045338866766542196,0.9983556866645813,0.0,0.0,0.0,0.28994956612586975,6.1704630851745605,2.9701263904571533,-52.481449127197266,0
1962.5259999999998,-0.00013573304750025272,-0.00022665943833999336,-6.806416786275804e-05,0.0,0.0,0.0,0.0,0.0015618139877915382,0.00022172684839461,0.005688728764653206,1.0000189542770386,0.0,0.0,0.0,0.2901592552661896,6.153683662414551,2.967869520187378,-52.51940155029297,0
1972.4219999999987,-0.00017005983681883663,-0.00022932117281015962,-2.5992238079197705e-05,0.0,0.0,0.0,0.0,0.0001371468388242647,0.001066623954102397,-0.0019664233550429344,1.0009397268295288,0.0,0.0,0.0,0.2831043004989624,6.151887893676758,2.9584593772888184,-51.24243927001953,0
1982.3449999999993,-0.0001492387382313609,-0.00022676355729345232,-6.701413803966716e-05,0.0,0.0,0.0,0.0,0.00013007463712710887,-0.002923293737694621,-0.001956930151209235,0.9989408254623413,0.0,0.0,0.0,0.2818707525730133,6.142714500427246,2.941666603088379,-51.0191650390625,0
1992.2459999999992,-0.00018898073176387697,-0.0002206208446295932,-1.9777289708144963e-05,0.0,0.0,0.0,0.0,0.0011789309792220592,-0.002348193433135748,0.0015485277399420738,0.9975823760032654,0.0,0.0,0.0,0.2720254063606262,6.147507190704346,2.9319305419921875,-49.23714065551758,0
2002.1709999999985,-0.00011396925401641056,-0.00013076726463623345,-0.00010146424028789625,0.0,0.0,0.0,0.0,0.0002472512423992157,0.00025166815612465143,0.0038233802188187838,0.9988120794296265,0.0,0.0,0.0,0.2794349789619446,6.164964199066162,2.941415786743164,-50.57828903198242,0
2012.0689999999995,-0.00014537085371557623,-0.00015174190048128366,-7.407012890325859e-05,0.0,0.0,0.0,0.0,6.588363612536341e-05,0.0008494148496538401,0.0021824445575475693,0.9989646673202515,0.0,0.0,0.0,0.27060243487358093,6.1656084060668945,2.934377670288086,-48.97957992553711,0
2021.9899999999998,-0.00014173587260302156,-0.00017160517745651305,-0.00011102067219326273,0.0,0.0,0.0,0.0,-9.89928375929594e-05,0.0004179109528195113,-0.0012616276508197188,0.9997989535331726,0.0,0.0,0.0,0.2703556418418884,6.161041259765625,2.9255926609039307,-48.93490982055664,0
2031.9029999999984,-0.00015958270523697138,-0.00017300659965258092,-7.39958486519754e-05,0.0,0.0,0.0,0.0,0.002552448771893978,0.0011894028866663575,0.0007811059476807714,0.999210774898529,0.0,0.0,0.0,0.2688712477684021,6.156406879425049,2.918015241622925,-48.66623306274414,0
2041.8109999999997,-0.00012802434503100812,-0.00016562560631427914,-0.00014816716429777443,0.0,0.0,0.0,0.0,-0.0024433298967778683,-0.005222412757575512,0.0025635072961449623,0.9983159303665161,0.0,0.0,0.0,0.2755991816520691,6.158975124359131,2.9185731410980225,-49.88399887084961,0
2051.7219999999998,-8.273620915133506e-05,-0.00020542150014080107,-0.00010664068395271897,0.0,0.0,0.0,0.0,0.002541358582675457,-4.379005076771136e-06,0.000980247976258397,1.0009218454360962,0.0,0.0,0.0,0.2658192217350006,6.163823127746582,2.932372570037842,-48.11380386352539,0
2061.627999999999,-4.99821180710569e-05,-0.00017378298798575997,-0.00016306174802593887,0.0,0.0,0.0,0.0,-0.001275602262467146,2.577411760285031e-05,-0.0020570135675370693,1.0022180080413818,0.0,0.0,0.0,0.2666555643081665,6.151433944702148,2.9334802627563477,-48.26518630981445,0
2071.5549999999985,-3.168072726111859e-05,-0.00019035478180740029,-0.00011987589823547751,0.0,0.0,0.0,0.0,-0.0024453597143292427,-0.001557877054437995,-0.0018198139732703567,1.0006223917007446,0.0,0.0,0.0,0.25886979699134827,6.1505022048950195,2.933215379714966,-46.85594940185547,0
2081.4569999999985,-6.192361979628913e-06,-0.00016153354954440147,-0.0001593307388247922,0.0,0.0,0.0,0.0,0.002611027332022786,-0.0006713636685162783,-6.326649599941447e-05,1.0001063346862793,0.0,0.0,0.0,0.25821393728256226,6.147921085357666,2.9294424057006836,-46.73723220825195,0
2091.369999999999,-0.00011085209553129971,-0.00013515204773284495,-0.00014139591075945646,0.0,0.0,0.0,0.0,-0.00044697459088638425,-0.002190632978454232,0.0034081568010151386,0.9990667700767517,0.0,0.0,0.0,0.2497861087322235,6.144504547119141,2.9142661094665527,-45.21178436279297,0
2101.2779999999984,-8.193336543627083e-05,-0.00010505171667318791,-0.00019693181093316525,0.0,0.0,0.0,0.0,-0.000771854305639863,0.0024908415507525206,0.0010930283460766077,0.9997273683547974,0.0,0.0,0.0,0.25006213784217834,6.1389923095703125,2.9076342582702637,-45.26174545288086,0
2111.191999999999,-5.041992335463874e-05,-0.00014262847253121436,-0.000163761738804169,0.0,0.0,0.0,0.0,0.0013383752666413784,-0.004778137896209955,0.004286185838282108,1.000966191291809,0.0,0.0,0.0,0.24431291222572327,6.133418560028076,2.907160520553589,-44.22112274169922,0
