timestamp,stateEstimate.x,stateEstimate.y,stateEstimate.z,controller.cmd_thrust,controller.cmd_roll,controller.cmd_pitch,controller.cmd_yaw,controller.r_roll,controller.r_pitch,controller.r_yaw,controller.accelz,controller.actuatorThrust,controller.roll,controller.pitch,controller.yaw,controller.rollRate,controller.pitchRate,controller.yawRate,controller.ctr_yaw
0.0,-0.009860469959676266,0.07247307896614075,0.0005116710672155023,0.0,0.0,0.0,0.0,0.002548984484747052,0.0021027594339102507,-0.002160252071917057,1.0017327070236206,0.0,0.0,0.0,-15.21349048614502,3.949995517730713,4.391967296600342,2753.67236328125,0
9.923999999999069,-0.009877634234726429,0.07250667363405228,0.0005369039718061686,0.0,0.0,0.0,0.0,-0.004569194279611111,0.0014396095648407936,0.0001184524007840082,0.9998664259910583,0.0,0.0,0.0,-15.219993591308594,3.94470477104187,4.370335578918457,2754.849365234375,0
19.808999999999287,-0.009902553632855415,0.07242753356695175,0.0005140812718309462,0.0,0.0,0.0,0.0,0.0025937799364328384,-0.00235546613112092,0.0003049032238777727,0.9994069933891296,0.0,0.0,0.0,-15.236510276794434,3.9348385334014893,4.370651721954346,2757.838623046875,0
29.729999999999563,-0.009895972907543182,0.0724596381187439,0.000567990296985954,0.0,0.0,0.0,0.0,-0.0014532163040712476,0.0020138912368565798,0.0036129194777458906,0.9995802044868469,0.0,0.0,0.0,-15.23505687713623,3.9412319660186768,4.362340927124023,2757.57568359375,0
39.63799999999901,-0.00993536226451397,0.07235842943191528,0.0005645471974276006,0.0,0.0,0.0,0.0,-0.002517585176974535,0.0005054416251368821,-0.003943134564906359,1.0010817050933838,0.0,0.0,0.0,-15.265118598937988,3.930727005004883,4.360588073730469,2763.01708984375,0
49.560999999999694,-0.009973997250199318,0.07243327051401138,0.0006403860170394182,0.0,0.0,0.0,0.0,-0.0028273174539208412,-0.0005550328060053289,0.0013786860508844256,1.0018872022628784,0.0,0.0,0.0,-15.267363548278809,3.9433095455169678,4.345187187194824,2763.42333984375,0
59.45399999999972,-0.009973997250199318,0.07243327051401138,0.0006403860170394182,0.0,0.0,0.0,0.0,-0.0004461394273675978,0.00019103928934782743,-2.2837455617263913e-05,1.0000579357147217,0.0,0.0,0.0,-15.267363548278809,3.9433095455169678,4.345187187194824,2763.42333984375,0
69.38299999999981,-0.009948103688657284,0.07247846573591232,0.0007044168887659907,0.0,0.0,0.0,0.0,-0.0004430436820257455,-0.0034518088214099407,-0.001055892906151712,0.9998542666435242,0.0,0.0,0.0,-15.279284477233887,3.959360122680664,4.358371257781982,2765.5810546875,0
79.28499999999985,-0.010005836375057697,0.07236266881227493,0.000696431437972933,0.0,0.0,0.0,0.0,0.0007465565577149391,-0.004815201740711927,-0.00334384897723794,1.001509189605713,0.0,0.0,0.0,-15.279183387756348,3.9358296394348145,4.359350681304932,2765.5625,0
89.20099999999911,-0.00992623157799244,0.07236497849225998,0.0007760674343444407,0.0,0.0,0.0,0.0,-0.0005326832761056721,-0.0048806918784976006,-0.0006584547809325159,1.0022823810577393,0.0,0.0,0.0,-15.29360580444336,3.9388885498046875,4.3796706199646,2768.173095703125,0
99.10199999999895,-0.009954726323485374,0.07226726412773132,0.000722327851690352,0.0,0.0,0.0,0.0,5.527791290660389e-05,-0.005828999914228916,-0.0005962435971014202,0.9989728927612305,0.0,0.0,0.0,-15.307984352111816,3.9201316833496094,4.392085075378418,2770.775390625,0
109.02499999999964,-0.00991820078343153,0.07229933142662048,0.0008065109723247588,0.0,0.0,0.0,0.0,0.0009542101761326194,-0.004365331493318081,-0.001204200554639101,0.9998752474784851,0.0,0.0,0.0,-15.319565773010254,3.9267027378082275,4.399877548217773,2772.871826171875,0
118.92099999999846,-0.009880729019641876,0.07231126725673676,0.0007132798200473189,0.0,0.0,0.0,0.0,0.0033822832629084587,-0.0016835543792694807,0.003494617994874716,1.0008517503738403,0.0,0.0,0.0,-15.317341804504395,3.92901349067688,4.403498649597168,2772.46923828125,0
128.83599999999933,-0.009888941422104836,0.07234350591897964,0.0007681887364014983,0.0,0.0,0.0,0.0,0.0005657661240547895,-0.0023536502849310637,-0.0023941807448863983,1.000847578048706,0.0,0.0,0.0,-15.326258659362793,3.936739206314087,4.408042907714844,2774.083251953125,0
138.74199999999837,-0.009838730096817017,0.07235615700483322,0.0006515260902233422,0.0,0.0,0.0,0.0,0.003909221850335598,-4.8409270675620064e-05,0.002581335138529539,0.9990226626396179,0.0,0.0,0.0,-15.31878662109375,3.9315409660339355,4.426406383514404,2772.730712890625,0
148.67199999999866,-0.009883858263492584,0.07239741086959839,0.000683958875015378,0.0,0.0,0.0,0.0,-0.0035749070812016726,0.002333397511392832,-0.0011808340204879642,1.0009549856185913,0.0,0.0,0.0,-15.32612419128418,3.937105894088745,4.421638011932373,2774.05908203125,0
158.5679999999993,-0.009845658205449581,0.07239238917827606,0.0005752065917477012,0.0,0.0,0.0,0.0,0.0018324584234505892,-0.0007202411070466042,-0.001982670044526458,1.0003793239593506,0.0,0.0,0.0,-15.321002960205078,3.934657335281372,4.417872428894043,2773.132080078125,0
168.48300000000017,-0.009864031337201595,0.07242122292518616,0.0006050699157640338,0.0,0.0,0.0,0.0,-0.0006645797402597964,0.0005556169198825955,0.0010460353223606944,0.9988824725151062,0.0,0.0,0.0,-15.327713966369629,3.94781756401062,4.413094520568848,2774.3466796875,0
178.3889999999992,-0.009843584150075912,0.07239818572998047,0.0005131559446454048,0.0,0.0,0.0,0.0,0.001912871259264648,-0.0011535792145878077,0.0009461376466788352,0.9998071193695068,0.0,0.0,0.0,-15.322408676147461,3.9404613971710205,4.4159345626831055,2773.38671875,0
188.3149999999987,-0.009786141104996204,0.07242132723331451,0.0005698452587239444,0.0,0.0,0.0,0.0,0.0015772988554090261,-0.0036467097233980894,-0.001706009847112,1.00057852268219,0.0,0.0,0.0,-15.326578140258789,3.937690496444702,4.426184177398682,2774.14111328125,0
198.21099999999933,-0.009777544066309929,0.07238657772541046,0.0004932934534735978,0.0,0.0,0.0,0.0,-0.0002623584878165275,-0.0024306485429406166,-0.0018989958334714174,1.0011690855026245,0.0,0.0,0.0,-15.322744369506836,3.9357688426971436,4.43408203125,2773.447265625,0
208.128999999999,-0.009826932102441788,0.0724627822637558,0.0005353278829716146,0.0,0.0,0.0,0.0,0.0036346889100968838,0.00429695937782526,0.0004475052410271019,1.001901388168335,0.0,0.0,0.0,-15.331721305847168,3.9423282146453857,4.4215803146362305,2775.072021484375,0
218.02999999999884,-0.009825424291193485,0.07241731882095337,0.00046304051647894084,0.0,0.0,0.0,0.0,0.00020313853747211397,0.0005421226960606873,-0.003565414808690548,1.0006767511367798,0.0,0.0,0.0,-15.330466270446777,3.9301466941833496,4.426303863525391,2774.84521484375,0
227.96099999999933,-0.009844871237874031,0.07246528565883636,0.0005006438004784286,0.0,0.0,0.0,0.0,-0.0012166425585746765,0.003081204602494836,2.322306863788981e-05,0.9989849925041199,0.0,0.0,0.0,-15.335041046142578,3.932889699935913,4.422783374786377,2775.673095703125,0
237.85599999999977,-0.009876994416117668,0.072392538189888,0.00046934239799156785,0.0,0.0,0.0,0.0,-0.0007404571515507996,0.000291876815026626,-0.0013905325904488564,0.9988957643508911,0.0,0.0,0.0,-15.331096649169922,3.9132983684539795,4.42035436630249,2774.958984375,0
247.77899999999863,-0.009822339750826359,0.07243138551712036,0.0005364305106922984,0.0,0.0,0.0,0.0,-0.0008296081214211881,-0.0002244131756015122,0.00041223023436032236,0.9975249171257019,0.0,0.0,0.0,-15.333659172058105,3.9305331707000732,4.4206318855285645,2775.4228515625,0
257.6759999999995,-0.009842169471085072,0.07242309302091599,0.000536757055670023,0.0,0.0,0.0,0.0,0.0005365820834413171,-0.0020519690588116646,7.662370990146883e-06,0.999403178691864,0.0,0.0,0.0,-15.318199157714844,3.9325318336486816,4.419483661651611,2772.624267578125,0
267.59000000000015,-0.009859384968876839,0.07245758920907974,0.0005680667818523943,0.0,0.0,0.0,0.0,-0.0011104377917945385,-0.0021306073758751154,-0.005747539456933737,0.9983608722686768,0.0,0.0,0.0,-15.325960159301758,3.9421839714050293,4.416474342346191,2774.029296875,0
277.4989999999998,-0.009921524673700333,0.07236181944608688,0.0005781660438515246,0.0,0.0,0.0,0.0,0.0011876742355525494,0.0024271048605442047,-0.0017262762412428856,1.0007493495941162,0.0,0.0,0.0,-15.321026802062988,3.9224307537078857,4.415395736694336,2773.13671875,0
287.41100000000006,-0.009861052967607975,0.07242423295974731,0.0006772467750124633,0.0,0.0,0.0,0.0,-0.0013009860413149,-0.00353609980084002,0.003921378403902054,1.0002660751342773,0.0,0.0,0.0,-15.326581954956055,3.9454874992370605,4.415393352508545,2774.141845703125,0
297.3239999999987,-0.009906407445669174,0.07234632968902588,0.0006759214447811246,0.0,0.0,0.0,0.0,0.0003564496000763029,0.0015874365344643593,-0.0013889895053580403,0.9991567134857178,0.0,0.0,0.0,-15.321279525756836,3.92773175239563,4.414078235626221,2773.18212890625,0
307.22899999999936,-0.009970040991902351,0.07241357862949371,0.0007287755142897367,0.0,0.0,0.0,0.0,0.002790842903777957,0.0032675620168447495,-0.0034278384409844875,0.9980450868606567,0.0,0.0,0.0,-15.323923110961914,3.9353814125061035,4.3976874351501465,2773.660888671875,0
317.14899999999943,-0.009961305186152458,0.07238856703042984,0.0006473662797361612,0.0,0.0,0.0,0.0,0.0003280309902038425,0.0007899762713350356,-0.001103087211959064,0.9985236525535583,0.0,0.0,0.0,-15.318583488464355,3.9320764541625977,4.408114910125732,2772.694091796875,0
327.0529999999999,-0.009920433163642883,0.07242079824209213,0.0007452720310539007,0.0,0.0,0.0,0.0,0.0010217094095423818,0.0005775012541562319,-3.594108784454875e-05,0.9996347427368164,0.0,0.0,0.0,-15.308249473571777,3.9329278469085693,4.403375148773193,2770.82373046875,0
336.96799999999894,-0.009861798025667667,0.07242102921009064,0.0006200294592417777,0.0,0.0,0.0,0.0,-0.0006002634763717651,0.0028044574428349733,0.004145778715610504,0.999115526676178,0.0,0.0,0.0,-15.321145057678223,3.9379382133483887,4.41365385055542,2773.15771484375,0
346.878999999999,-0.009909242391586304,0.0724688470363617,0.0006780258845537901,0.0,0.0,0.0,0.0,-0.001317013637162745,-0.004711288493126631,0.0021068945061415434,0.9988171458244324,0.0,0.0,0.0,-15.313226699829102,3.951162338256836,4.400139331817627,2771.724365234375,0
356.78899999999885,-0.009866896085441113,0.07245810329914093,0.0005811693263240159,0.0,0.0,0.0,0.0,-0.0006856004474684596,-0.006409885827451944,-0.0013188786106184125,0.9980859160423279,0.0,0.0,0.0,-15.328338623046875,3.954009532928467,4.407932758331299,2774.459716796875,0
366.7019999999993,-0.009898193180561066,0.0724513977766037,0.0005994750536046922,0.0,0.0,0.0,0.0,-0.00010250053310301155,0.002590687945485115,-0.0019138687057420611,0.9973970055580139,0.0,0.0,0.0,-15.319857597351074,3.958613634109497,4.420020580291748,2772.9248046875,0
376.6129999999994,-0.009856032207608223,0.07244125008583069,0.0005037702503614128,0.0,0.0,0.0,0.0,-0.0011529693147167563,0.0032347501255571842,-0.0016142834210768342,0.9979642033576965,0.0,0.0,0.0,-15.338309288024902,3.9618334770202637,4.427626132965088,2776.264404296875,0
386.51800000000003,-0.009839377366006374,0.0724586471915245,0.0005428718868643045,0.0,0.0,0.0,0.0,0.0003196916077286005,-0.0014168674824759364,0.0014945844886824489,0.9970598220825195,0.0,0.0,0.0,-15.332573890686035,3.974414348602295,4.430112838745117,2775.226318359375,0
396.4339999999993,-0.009866263717412949,0.0723656490445137,0.0005175186670385301,0.0,0.0,0.0,0.0,0.0019523646915331483,-0.0022224162239581347,-0.0005672928527928889,0.9974448680877686,0.0,0.0,0.0,-15.349388122558594,3.9598889350891113,4.430694103240967,2778.27001953125,0
406.34299999999894,-0.00986637081950903,0.07240181416273117,0.0005574767128564417,0.0,0.0,0.0,0.0,0.0030195768922567368,0.0032148160971701145,0.0010805658530443907,0.9981958270072937,0.0,0.0,0.0,-15.355173110961914,3.969719886779785,4.438995838165283,2779.317138671875,0
416.2639999999992,-0.0098777050152421,0.07236325740814209,0.0005001186509616673,0.0,0.0,0.0,0.0,8.139961209963076e-06,-0.0003784870496019721,-0.0012579703470692039,0.9984411001205444,0.0,0.0,0.0,-15.360780715942383,3.9571073055267334,4.443488121032715,2780.33203125,0
426.1700000000001,-0.00987415760755539,0.07240047305822372,0.0005373159656301141,0.0,0.0,0.0,0.0,-8.890571916708723e-05,0.0022992317099124193,0.004453915171325207,0.9966874122619629,0.0,0.0,0.0,-15.36489200592041,3.9621262550354004,4.432201385498047,2781.076171875,0
436.08899999999994,-0.009857016615569592,0.07237889617681503,0.0004310481308493763,0.0,0.0,0.0,0.0,0.0004506352706812322,-0.0037566726095974445,-0.001092444290407002,0.9999593496322632,0.0,0.0,0.0,-15.362334251403809,3.9552500247955322,4.426766395568848,2780.61328125,0
445.9830000000002,-0.009880581870675087,0.07244215160608292,0.0004635607183445245,0.0,0.0,0.0,0.0,-0.0005037957453168929,-0.00114694912917912,-0.0022048344835639,0.99878990650177,0.0,0.0,0.0,-15.367276191711426,3.9608216285705566,4.429559230804443,2781.507568359375,0
455.90599999999904,-0.009883644059300423,0.07239507883787155,0.0003743129491340369,0.0,0.0,0.0,0.0,-0.0062852478586137295,-0.0019854293204844,-0.002993185305967927,0.9977716207504272,0.0,0.0,0.0,-15.357666015625,3.9498777389526367,4.433552265167236,2779.76806640625,0
465.8149999999987,-0.009837760590016842,0.0724567100405693,0.0004319087602198124,0.0,0.0,0.0,0.0,-0.001733986078761518,0.002252025995403528,0.0001132242105086334,0.9990627765655518,0.0,0.0,0.0,-15.360857009887695,3.9678378105163574,4.4388322830200195,2780.345703125,0
475.72400000000016,-0.00988912582397461,0.07233936339616776,0.00038926812703721225,0.0,0.0,0.0,0.0,-0.00186407461296767,-0.0032442081719636917,0.0018985263304784894,1.0000282526016235,0.0,0.0,0.0,-15.3621244430542,3.9573302268981934,4.45227575302124,2780.5751953125,0
485.6359999999986,-0.009899226017296314,0.07241041958332062,0.0004315944097470492,0.0,0.0,0.0,0.0,-0.0014482567785307765,-0.0013366611674427986,-0.0004497864283621311,1.0014111995697021,0.0,0.0,0.0,-15.36650562286377,3.9634199142456055,4.438986301422119,2781.3681640625,0
495.54699999999866,-0.009974288754165173,0.07227090746164322,0.0004192915221210569,0.0,0.0,0.0,0.0,0.0009195698075927794,-8.93675023689866e-05,0.0007842711638659239,1.0009324550628662,0.0,0.0,0.0,-15.37130355834961,3.9373574256896973,4.434441089630127,2782.236572265625,0
505.4499999999989,-0.00995275005698204,0.07234030961990356,0.0004852393176406622,0.0,0.0,0.0,0.0,-0.003604297526180744,-0.004978434648364782,-0.0064406380988657475,1.0001163482666016,0.0,0.0,0.0,-15.372958183288574,3.9532992839813232,4.446146488189697,2782.535888671875,0
515.3719999999994,-0.009998729452490807,0.07224798202514648,0.00046241527888923883,0.0,0.0,0.0,0.0,0.001942578237503767,0.0014044562121853232,0.001406611641868949,0.997874915599823,0.0,0.0,0.0,-15.368816375732422,3.9433906078338623,4.440679550170898,2781.786376953125,0
525.271999999999,-0.009878397919237614,0.07229673117399216,0.0005675414577126503,0.0,0.0,0.0,0.0,0.0015241518849506974,-0.0009721240494400263,0.002282258588820696,1.0002408027648926,0.0,0.0,0.0,-15.36793327331543,3.9656221866607666,4.468353748321533,2781.62646484375,0
535.1909999999989,-0.0098655316978693,0.07228454202413559,0.0005053845816291869,0.0,0.0,0.0,0.0,0.0022946198005229235,0.0007692243671044707,-0.000492241233587265,1.0005329847335815,0.0,0.0,0.0,-15.360428810119629,3.95959734916687,4.464183330535889,2780.26806640625,0
545.0929999999989,-0.009860208258032799,0.0723578929901123,0.0005755175370723009,0.0,0.0,0.0,0.0,-0.002774994121864438,-0.004548493307083845,0.0009135464788414538,1.0012952089309692,0.0,0.0,0.0,-15.360565185546875,3.9752750396728516,4.458305358886719,2780.292724609375,0
555.0159999999996,-0.00987864937633276,0.07234551757574081,0.0005753733566962183,0.0,0.0,0.0,0.0,-0.00043327815365046263,-0.0010349791264161468,0.0010656060185283422,1.0010992288589478,0.0,0.0,0.0,-15.344589233398438,3.9727611541748047,4.459559440612793,2777.4013671875,0
564.9259999999995,-0.009873696602880955,0.07239215821027756,0.0006226954865269363,0.0,0.0,0.0,0.0,0.001872839406132698,-0.0014514120994135737,0.0033313073217868805,0.9998154640197754,0.0,0.0,0.0,-15.34859561920166,3.99025821685791,4.462228298187256,2778.12646484375,0
574.8339999999989,-0.009843730367720127,0.07239124178886414,0.0005093629588373005,0.0,0.0,0.0,0.0,0.0001792205439414829,-0.001460419618524611,-0.0015569808892905712,1.0003180503845215,0.0,0.0,0.0,-15.343711853027344,3.991999864578247,4.47055196762085,2777.242431640625,0
584.7479999999996,-0.009854390285909176,0.0724431574344635,0.0005595800466835499,0.0,0.0,0.0,0.0,-3.609916166169569e-05,0.0007047404651530087,-0.0017906890716403723,1.0009125471115112,0.0,0.0,0.0,-15.349959373474121,4.003236770629883,4.462517261505127,2778.373291015625,0
594.6639999999989,-0.009841976687312126,0.07241050153970718,0.00047176217776723206,0.0,0.0,0.0,0.0,0.0022561303339898586,0.004140655975788832,0.000352262839442119,1.0003938674926758,0.0,0.0,0.0,-15.345630645751953,3.9965124130249023,4.469829559326172,2777.589599609375,0
604.5720000000001,-0.00987249892205,0.07245762646198273,0.0005041975528001785,0.0,0.0,0.0,0.0,-0.001131449593231082,-0.0005006623105145991,0.0014610695652663708,0.9999510049819946,0.0,0.0,0.0,-15.349725723266602,4.003414154052734,4.464127540588379,2778.330810546875,0
614.4830000000002,-0.00990639254450798,0.07235600799322128,0.0004614214412868023,0.0,0.0,0.0,0.0,-0.00040255565545521677,0.0035264515317976475,0.0001252223300980404,1.0002785921096802,0.0,0.0,0.0,-15.354862213134766,3.982516288757324,4.46171760559082,2779.260498046875,0
624.3959999999988,-0.009837105870246887,0.07241275161504745,0.0005506406887434423,0.0,0.0,0.0,0.0,0.0015429918421432376,-0.0035370008554309607,0.0024838692042976618,0.9979416131973267,0.0,0.0,0.0,-15.356281280517578,3.9968342781066895,4.4640583992004395,2779.517578125,0
634.3079999999991,-0.009851876646280289,0.07234372198581696,0.000511428399477154,0.0,0.0,0.0,0.0,0.0005981799331493676,0.0003497294383123517,-0.0014385475078597665,1.0019882917404175,0.0,0.0,0.0,-15.35843563079834,3.985640525817871,4.463702201843262,2779.907470703125,0
644.2099999999991,-0.009861767292022705,0.07233109325170517,0.0005108011537231505,0.0,0.0,0.0,0.0,-0.0003900802694261074,-0.0001554272457724437,-0.0005423547117970884,1.0008465051651,0.0,0.0,0.0,-15.343331336975098,3.9735467433929443,4.4623122215271,2777.173828125,0
654.1299999999992,-0.009830082766711712,0.0723150372505188,0.00042488425970077515,0.0,0.0,0.0,0.0,0.002839784137904644,0.0017719652969390154,-8.04462433734443e-06,1.0003515481948853,0.0,0.0,0.0,-15.338821411132812,3.982147216796875,4.478620529174805,2776.357177734375,0
664.030999999999,-0.009855490177869797,0.07240583747625351,0.0005028779269196093,0.0,0.0,0.0,0.0,-0.0028279798571020365,-0.004591567441821098,0.0031957216560840607,1.00035560131073,0.0,0.0,0.0,-15.342117309570312,3.997790575027466,4.46127462387085,2776.953857421875,0
673.9470000000001,-0.009828857146203518,0.07239818572998047,0.0004209554463159293,0.0,0.0,0.0,0.0,0.00115651311352849,0.0038463925011456013,0.0020062795374542475,1.0011076927185059,0.0,0.0,0.0,-15.345219612121582,3.9956586360931396,4.472075939178467,2777.515380859375,0
683.8539999999994,-0.009912554174661636,0.07252823561429977,0.00048492083442397416,0.0,0.0,0.0,0.0,-0.00046300372923724353,-0.008210765197873116,0.0024303316604346037,0.9998663067817688,0.0,0.0,0.0,-15.350427627563477,4.009479999542236,4.456768035888672,2778.4580078125,0
693.7779999999984,-0.009866359643638134,0.07253232598304749,0.00037999844062142074,0.0,0.0,0.0,0.0,0.001173912431113422,-0.0005102911381982267,0.0008931060438044369,1.000184416770935,0.0,0.0,0.0,-15.345817565917969,4.013114929199219,4.4727654457092285,2777.62353515625,0
703.6869999999999,-0.009856514632701874,0.07256169617176056,0.0004123872786294669,0.0,0.0,0.0,0.0,0.00043548003304749727,-0.0035566138103604317,0.0022895908914506435,0.9986127614974976,0.0,0.0,0.0,-15.349749565124512,4.019944190979004,4.4712371826171875,2778.335205078125,0
713.5900000000001,-0.00985747016966343,0.07252340763807297,0.00036458836984820664,0.0,0.0,0.0,0.0,-0.0007466359529644251,-0.0006927191861905158,-0.0013002576306462288,1.0003373622894287,0.0,0.0,0.0,-15.342720985412598,4.010961532592773,4.4759111404418945,2777.063232421875,0
723.509,-0.009793082252144814,0.07255730032920837,0.0004239051486365497,0.0,0.0,0.0,0.0,-0.003417734755203128,-0.0036311999429017305,0.001050447579473257,1.0022047758102417,0.0,0.0,0.0,-15.348600387573242,4.021695613861084,4.482821464538574,2778.127197265625,0
733.4200000000001,-0.009859920479357243,0.07241620123386383,0.00042346373084001243,0.0,0.0,0.0,0.0,0.0028880841564387083,0.0019944459199905396,0.0012147125089541078,1.0000767707824707,0.0,0.0,0.0,-15.352725982666016,4.003237247467041,4.488316059112549,2778.874267578125,0
743.3279999999995,-0.009872053749859333,0.07240870594978333,0.0004240201960783452,0.0,0.0,0.0,0.0,-0.001038702204823494,-0.0015777739463374019,0.0036192969419062138,1.0020626783370972,0.0,0.0,0.0,-15.337339401245117,3.993818521499634,4.485760688781738,2776.0888671875,0
753.2389999999996,-0.00988588947802782,0.07240118086338043,0.00042570006917230785,0.0,0.0,0.0,0.0,0.004798520356416702,-0.000368267617886886,0.002631291514262557,1.0006417036056519,0.0,0.0,0.0,-15.320666313171387,3.9883198738098145,4.4825119972229,2773.0712890625,0
763.1479999999992,-0.009773969650268555,0.07243041694164276,0.0005243584746494889,0.0,0.0,0.0,0.0,0.0021509265061467886,-0.0013314636889845133,0.0006023459718562663,1.0006216764450073,0.0,0.0,0.0,-15.326050758361816,4.006451606750488,4.505565166473389,2774.045654296875,0
773.0709999999999,-0.00985876377671957,0.07226812839508057,0.0005665033822879195,0.0,0.0,0.0,0.0,0.0006461543962359428,3.1721465347800404e-05,-0.0005096066743135452,1.0001040697097778,0.0,0.0,0.0,-15.321805953979492,3.957874298095703,4.489865303039551,2773.277587890625,0
782.9689999999991,-0.009826884604990482,0.07233723253011703,0.0006829334306530654,0.0,0.0,0.0,0.0,-0.0006742331315763295,-0.005796404555439949,0.0019783813040703535,1.0005594491958618,0.0,0.0,0.0,-15.32808780670166,3.972996950149536,4.496201992034912,2774.41455078125,0
792.8899999999994,-0.009867054410278797,0.07222793996334076,0.0006768949679099023,0.0,0.0,0.0,0.0,-0.00032779067987576127,-0.002748641883954406,-0.0012877925764769316,1.0021404027938843,0.0,0.0,0.0,-15.327606201171875,3.9517879486083984,4.507868766784668,2774.3271484375,0
802.7869999999984,-0.009895110502839088,0.07229249179363251,0.0007600486278533936,0.0,0.0,0.0,0.0,-0.00014461184036917984,2.9774704671581276e-05,0.0008858042419888079,1.0007156133651733,0.0,0.0,0.0,-15.332829475402832,3.968963623046875,4.509161949157715,2775.27294921875,0
812.7019999999993,-0.009907766245305538,0.07227916270494461,0.0007867435342632234,0.0,0.0,0.0,0.0,-0.001162921660579741,-0.00035005155950784683,0.0025738514959812164,1.0011115074157715,0.0,0.0,0.0,-15.318050384521484,3.965287923812866,4.503721714019775,2772.597412109375,0
822.616,-0.009931454434990883,0.07235701382160187,0.0008842822280712426,0.0,0.0,0.0,0.0,-0.0022568944841623306,-0.00207509845495224,-0.001439238665625453,1.0002140998840332,0.0,0.0,0.0,-15.324877738952637,3.9830515384674072,4.501890182495117,2773.83349609375,0
832.5249999999996,-0.009899372234940529,0.07235521078109741,0.0007877169409766793,0.0,0.0,0.0,0.0,0.0028425268828868866,-0.0006079876329749823,-0.0015202894574031234,1.0007470846176147,0.0,0.0,0.0,-15.320512771606445,3.988042116165161,4.508983612060547,2773.04345703125,0
842.4419999999991,-0.009924514219164848,0.0724027082324028,0.000861031177919358,0.0,0.0,0.0,0.0,-0.0003062797768507153,-0.0005287714884616435,0.002333451993763447,1.0002167224884033,0.0,0.0,0.0,-15.328381538391113,3.9884889125823975,4.5097479820251465,2774.467529296875,0
852.3469999999998,-0.009937217459082603,0.07239610701799393,0.0008915637154132128,0.0,0.0,0.0,0.0,0.0019052088027819991,-0.002981204306706786,0.0032240001019090414,1.0002188682556152,0.0,0.0,0.0,-15.313517570495605,3.9803924560546875,4.504710674285889,2771.777099609375,0
862.2649999999994,-0.00983168464154005,0.07238663733005524,0.0009500365704298019,0.0,0.0,0.0,0.0,0.0005968288751319051,-0.004116569180041552,-0.0008573670056648552,1.0008232593536377,0.0,0.0,0.0,-15.32091236114502,3.9776103496551514,4.527085304260254,2773.115966796875,0
872.1639999999989,-0.009819980710744858,0.07233840972185135,0.000852458062581718,0.0,0.0,0.0,0.0,0.000376697164028883,-0.0026823196094483137,-0.0008542904397472739,0.9990891218185425,0.0,0.0,0.0,-15.328154563903809,3.967251777648926,4.53605318069458,2774.4267578125,0
882.0879999999997,-0.009807415306568146,0.07236313819885254,0.0009243434178642929,0.0,0.0,0.0,0.0,0.001004303339868784,-0.0033533216919749975,0.0026081812102347612,0.998932421207428,0.0,0.0,0.0,-15.330079078674316,3.9721155166625977,4.541290283203125,2774.77490234375,0
891.9879999999994,-0.009756826795637608,0.07235845923423767,0.0007938918424770236,0.0,0.0,0.0,0.0,-0.002095826668664813,0.0009928088402375579,-0.0030636913143098354,0.9997818470001221,0.0,0.0,0.0,-15.32306957244873,3.9688849449157715,4.558927059173584,2773.506103515625,0
901.8959999999988,-0.009806565940380096,0.07243096083402634,0.0008581376168876886,0.0,0.0,0.0,0.0,0.0027869590558111668,-7.919871859485283e-05,0.0031043372582644224,0.9977670311927795,0.0,0.0,0.0,-15.328405380249023,3.9789328575134277,4.537817478179932,2774.471923828125,0
911.8089999999993,-0.00981628242880106,0.07233469933271408,0.0007889571134001017,0.0,0.0,0.0,0.0,0.0008562120492570102,0.003302326425909996,-0.002467355690896511,0.9998588562011719,0.0,0.0,0.0,-15.331808090209961,3.9646856784820557,4.54737663269043,2775.087890625,0
921.7199999999993,-0.00981414970010519,0.07235709577798843,0.0008337615290656686,0.0,0.0,0.0,0.0,0.00352421123534441,-0.002601303393021226,0.0044582742266356945,0.9988045692443848,0.0,0.0,0.0,-15.334147453308105,3.9671943187713623,4.528875350952148,2775.51123046875,0
931.634,-0.009809860028326511,0.07227692008018494,0.0007562331156805158,0.0,0.0,0.0,0.0,0.0004098226490896195,-0.000890147581230849,0.004243028350174427,0.998773455619812,0.0,0.0,0.0,-15.329442024230957,3.9510765075683594,4.539759159088135,2774.659423828125,0
941.5419999999995,-0.009834453463554382,0.07231853902339935,0.0007981010130606592,0.0,0.0,0.0,0.0,0.0007482316577807069,0.0018991687102243304,0.00044080507359467447,1.0000869035720825,0.0,0.0,0.0,-15.330058097839355,3.9515795707702637,4.533461570739746,2774.77099609375,0
951.4519999999993,-0.009773415513336658,0.07232345640659332,0.0006733100162819028,0.0,0.0,0.0,0.0,-0.001105662900954485,0.0009495346457697451,-0.001567141036503017,1.0013211965560913,0.0,0.0,0.0,-15.325530052185059,3.9516472816467285,4.532347679138184,2773.951416015625,0
961.3639999999996,-0.00980947446078062,0.07237835228443146,0.0007109742145985365,0.0,0.0,0.0,0.0,-0.0007002250058576465,-0.001916730310767889,0.0014280581381171942,1.000680685043335,0.0,0.0,0.0,-15.333304405212402,3.9616341590881348,4.523502826690674,2775.358642578125,0
971.2759999999998,-0.009810240939259529,0.07232268154621124,0.0006540965987369418,0.0,0.0,0.0,0.0,-0.0003924518823623657,-6.894733087392524e-05,-0.0029411441646516323,0.9993260502815247,0.0,0.0,0.0,-15.326677322387695,3.952039957046509,4.521223068237305,2774.1591796875,0
981.1869999999999,-0.009819227270781994,0.07238676398992538,0.0007099419599398971,0.0,0.0,0.0,0.0,0.0013109991559758782,-0.005607644561678171,-0.0018584980862215161,1.00053071975708,0.0,0.0,0.0,-15.335890769958496,3.9664714336395264,4.513163089752197,2775.826904296875,0
991.0969999999998,-0.009782318025827408,0.07236993312835693,0.0006047526258043945,0.0,0.0,0.0,0.0,0.002029017312452197,0.0003700442030094564,0.004899986088275909,0.9987255334854126,0.0,0.0,0.0,-15.332378387451172,3.961728811264038,4.536424160003662,2775.191162109375,0
1001.0059999999994,-0.009786723181605339,0.07242028415203094,0.0006474763504229486,0.0,0.0,0.0,0.0,-0.001863536424934864,-0.003551403759047389,-0.0003708810836542398,0.998146116733551,0.0,0.0,0.0,-15.335494995117188,3.9711999893188477,4.540599346160889,2775.755126953125,0
1010.9159999999993,-0.009767010807991028,0.07238087803125381,0.0005552715738303959,0.0,0.0,0.0,0.0,0.002393889706581831,0.002177940448746085,0.00010232323984382674,1.0009968280792236,0.0,0.0,0.0,-15.33342170715332,3.9594333171844482,4.546947479248047,2775.3798828125,0
1020.8239999999987,-0.009784297086298466,0.07243640720844269,0.0005894049536436796,0.0,0.0,0.0,0.0,0.001913590938784182,-0.00025816759443841875,0.001400584471412003,0.9993263483047485,0.0,0.0,0.0,-15.338104248046875,3.962810754776001,4.5194091796875,2776.227294921875,0
1030.7369999999992,-0.009779654443264008,0.07237974554300308,0.0005094980588182807,0.0,0.0,0.0,0.0,0.004789944738149643,0.0029884653631597757,0.0020026625134050846,0.9986104965209961,0.0,0.0,0.0,-15.332548141479492,3.9500882625579834,4.52813196182251,2775.221923828125,0
1040.6439999999984,-0.009778142906725407,0.07244353741407394,0.0005583284073509276,0.0,0.0,0.0,0.0,0.004512665793299675,0.002193775027990341,0.0028112628497183323,0.9994016289710999,0.0,0.0,0.0,-15.336302757263184,3.9581668376922607,4.5212016105651855,2775.9013671875,0
1050.5589999999993,-0.009782595559954643,0.07237835973501205,0.0004887686809524894,0.0,0.0,0.0,0.0,-0.0007961313240230083,0.004650907125324011,0.00119624356739223,0.9976826310157776,0.0,0.0,0.0,-15.328439712524414,3.9418041706085205,4.51064395904541,2774.478271484375,0
1060.4669999999987,-0.009784897789359093,0.072445809841156,0.0005371749866753817,0.0,0.0,0.0,0.0,0.001985827460885048,0.0008163194870576262,-0.0009922871831804514,0.9980171918869019,0.0,0.0,0.0,-15.3306884765625,3.9485785961151123,4.500677585601807,2774.88525390625,0
1070.3819999999996,-0.009793263860046864,0.07244082540273666,0.0005258233286440372,0.0,0.0,0.0,0.0,-0.0015031779184937477,-0.001656917273066938,0.00044358114246279,1.0011168718338013,0.0,0.0,0.0,-15.315311431884766,3.946082353591919,4.491899013519287,2772.1015625,0
1080.2889999999989,-0.009840845130383968,0.07247739285230637,0.0005385877448134124,0.0,0.0,0.0,0.0,0.0016773525858297944,-0.0008579776040278375,0.0015222309157252312,1.001515507698059,0.0,0.0,0.0,-15.322746276855469,3.9516468048095703,4.479912281036377,2773.44775390625,0
1090.2039999999997,-0.009936084970831871,0.07230578362941742,0.0005662292242050171,0.0,0.0,0.0,0.0,0.002371262526139617,-0.0017850687727332115,0.0013471542624756694,1.0024209022521973,0.0,0.0,0.0,-15.319249153137207,3.9069674015045166,4.472184658050537,2772.814453125,0
1100.1169999999984,-0.009952305816113949,0.07229061424732208,0.0005611836677417159,0.0,0.0,0.0,0.0,-0.0018223259830847383,-0.0006786496378481388,-0.0007385824574157596,0.9985708594322205,0.0,0.0,0.0,-15.303620338439941,3.9052045345306396,4.473817348480225,2769.985595703125,0
1110.0259999999998,-0.009927891194820404,0.07228969782590866,0.00047195670777000487,0.0,0.0,0.0,0.0,0.0012692795135080814,-0.0038138721138238907,-0.0007122203824110329,0.9984859824180603,0.0,0.0,0.0,-15.298881530761719,3.9114177227020264,4.495410442352295,2769.1279296875,0
1119.9339999999993,-0.00996492151170969,0.07240577042102814,0.0005797695484943688,0.0,0.0,0.0,0.0,0.0014173948438838124,-0.003390267724171281,0.00022381691087502986,1.000824213027954,0.0,0.0,0.0,-15.30392074584961,3.9352691173553467,4.48438024520874,2770.0400390625,0
1129.8439999999991,-0.009959771297872066,0.07237296551465988,0.0004933930467814207,0.0,0.0,0.0,0.0,0.003308451035991311,0.0003212651063222438,0.0016915297601372004,1.001622200012207,0.0,0.0,0.0,-15.299654960632324,3.928718090057373,4.492003917694092,2769.267822265625,0
1139.753999999999,-0.009954744949936867,0.07245946675539017,0.0005881554097868502,0.0,0.0,0.0,0.0,-0.0020544559229165316,-0.0018566719954833388,0.0018396131927147508,0.9993841052055359,0.0,0.0,0.0,-15.305970191955566,3.941105365753174,4.487504482269287,2770.4111328125,0
1149.6749999999993,-0.009936285205185413,0.07242650538682938,0.00047360447933897376,0.0,0.0,0.0,0.0,0.004217393230646849,0.0028063394129276276,-0.0030129230581223965,0.9988335371017456,0.0,0.0,0.0,-15.299108505249023,3.9437007904052734,4.498661518096924,2769.1689453125,0
1159.575999999999,-0.009881200268864632,0.07245172560214996,0.0005386709235608578,0.0,0.0,0.0,0.0,0.00016468908870592713,4.407495453051524e-06,0.0006429232889786363,0.9956434965133667,0.0,0.0,0.0,-15.306663513183594,3.9465744495391846,4.500099182128906,2770.53662109375,0
1169.4889999999996,-0.009868809022009373,0.07241012156009674,0.00044695899123325944,0.0,0.0,0.0,0.0,-0.000736286339815706,-0.0012527953367680311,-0.002744752448052168,0.9992636442184448,0.0,0.0,0.0,-15.304823875427246,3.9359138011932373,4.503334045410156,2770.203369140625,0
1179.4039999999986,-0.009878791868686676,0.07240017503499985,0.00043392032966949046,0.0,0.0,0.0,0.0,-0.00017677528376225382,-0.001866030041128397,0.0003170823911204934,0.9986028075218201,0.0,0.0,0.0,-15.289772033691406,3.932584285736084,4.502330780029297,2767.47900390625,0
1189.3099999999995,-0.009866053238511086,0.0723515972495079,0.00033990430529229343,0.0,0.0,0.0,0.0,0.0007357483264058828,-0.0016543898964300752,-0.002970073837786913,0.9984080791473389,0.0,0.0,0.0,-15.28530502319336,3.933727264404297,4.513960361480713,2766.670654296875,0
1199.2309999999998,-0.009876292198896408,0.0723392590880394,0.0003185184905305505,0.0,0.0,0.0,0.0,-0.0007590812165290117,0.0008437424548901618,0.0033448231406509876,0.9997519850730896,0.0,0.0,0.0,-15.269872665405273,3.929828643798828,4.5169596672058105,2763.877197265625,0
1209.1359999999986,-0.009867754764854908,0.0722990557551384,0.00023234871332533658,0.0,0.0,0.0,0.0,-0.0016516379546374083,0.0036831435281783342,-0.005852129776030779,0.9992767572402954,0.0,0.0,0.0,-15.266207695007324,3.9240171909332275,4.5255889892578125,2763.2138671875,0
1219.0469999999987,-0.009839728474617004,0.07241972535848618,0.0003955716674681753,0.0,0.0,0.0,0.0,-0.0005163060268387198,-0.004294429440051317,0.0016014507273212075,0.9994273781776428,0.0,0.0,0.0,-15.279072761535645,3.9641051292419434,4.510172367095947,2765.542724609375,0
1228.9539999999997,-0.009840414859354496,0.07236555218696594,0.0003149803669657558,0.0,0.0,0.0,0.0,-0.0023012240417301655,0.00043500764877535403,-0.0051841214299201965,0.9990682005882263,0.0,0.0,0.0,-15.276679992675781,3.9591026306152344,4.519006252288818,2765.109619140625,0
1238.8939999999984,-0.009812010452151299,0.0723976194858551,0.0003504393098410219,0.0,0.0,0.0,0.0,-0.00017167617625091225,0.0008545221062377095,0.0014797486364841461,1.0005507469177246,0.0,0.0,0.0,-15.298857688903809,3.975071430206299,4.522086143493652,2769.123779296875,0
1248.7759999999998,-0.009813567623496056,0.07238981872797012,0.0003342753043398261,0.0,0.0,0.0,0.0,0.00300401309505105,-0.0015859294217079878,-0.0010157638462260365,1.0010830163955688,0.0,0.0,0.0,-15.283427238464355,3.972057342529297,4.5152387619018555,2766.330810546875,0
1258.6889999999985,-0.009860602207481861,0.07242777943611145,0.0003276911156717688,0.0,0.0,0.0,0.0,-0.0008989854832179844,-0.0016283418517559767,-0.0011288233799859881,1.0024582147598267,0.0,0.0,0.0,-15.30417537689209,3.9776132106781006,4.507839202880859,2770.0859375,0
1268.598,-0.009861830621957779,0.07242263108491898,0.0003140999178867787,0.0,0.0,0.0,0.0,-0.0017870280425995588,-0.003415436716750264,0.0010974584147334099,1.0001384019851685,0.0,0.0,0.0,-15.28968334197998,3.9811630249023438,4.505700588226318,2767.462890625,0
1278.5119999999988,-0.00988411158323288,0.0724414512515068,0.0003138604515697807,0.0,0.0,0.0,0.0,-0.00041384948417544365,0.004843058064579964,-2.7092792151961476e-05,1.0000606775283813,0.0,0.0,0.0,-15.308938980102539,3.982593536376953,4.4976091384887695,2770.948486328125,0
1288.42,-0.00988547969609499,0.07243901491165161,0.0003030510270036757,0.0,0.0,0.0,0.0,0.0007415193831548095,-0.0023045430425554514,-0.001145717455074191,0.9992067813873291,0.0,0.0,0.0,-15.295215606689453,3.9775960445404053,4.494886875152588,2768.46435546875,0
1298.3369999999995,-0.009893861599266529,0.07250174134969711,0.00032576886587776244,0.0,0.0,0.0,0.0,0.0004612569755408913,0.0017801461508497596,-0.0024912534281611443,1.0005919933319092,0.0,0.0,0.0,-15.316594123840332,3.9847657680511475,4.487366199493408,2772.333984375,0
1308.241,-0.009895626455545425,0.07250184565782547,0.0003174685698468238,0.0,0.0,0.0,0.0,8.783159864833578e-05,-0.001969323493540287,0.0027825203724205494,0.9992464184761047,0.0,0.0,0.0,-15.301661491394043,3.979675054550171,4.484574794769287,2769.63134765625,0
1318.1549999999988,-0.00988156907260418,0.07250029593706131,0.0003515035496093333,0.0,0.0,0.0,0.0,-0.0010788335930556059,-0.0012132740812376142,0.003302233526483178,0.9997008442878723,0.0,0.0,0.0,-15.32205867767334,3.9753105640411377,4.482421398162842,2773.3232421875,0
1328.0639999999985,-0.00988622847944498,0.07250000536441803,0.0003457166312728077,0.0,0.0,0.0,0.0,0.000254500366281718,0.00024844249128364027,-0.0001372266124235466,1.0019428730010986,0.0,0.0,0.0,-15.30488395690918,3.970113515853882,4.486285209655762,2770.21435546875,0
1337.9809999999998,-0.00994317140430212,0.07250122725963593,0.0003860441502183676,0.0,0.0,0.0,0.0,0.002397497184574604,0.00017856522754300386,0.0007530864677391946,1.0000097751617432,0.0,0.0,0.0,-15.329200744628906,3.9700090885162354,4.477427005767822,2774.615966796875,0
1347.893,-0.009949547238647938,0.07250120490789413,0.0003849930362775922,0.0,0.0,0.0,0.0,0.002351966453716159,-0.0002408279397059232,-0.0003660033398773521,0.9992536902427673,0.0,0.0,0.0,-15.314828872680664,3.959602117538452,4.4753828048706055,2772.014404296875,0
1357.8069999999989,-0.009909404441714287,0.07243478298187256,0.0004385464999359101,0.0,0.0,0.0,0.0,0.00022075834567658603,-0.0013470760313794017,0.0009773168712854385,1.0003949403762817,0.0,0.0,0.0,-15.329794883728027,3.9442899227142334,4.479208946228027,2774.723388671875,0
1367.7189999999991,-0.009914004243910313,0.07243247330188751,0.0004416994925122708,0.0,0.0,0.0,0.0,-0.0008043419220484793,0.0004448608960956335,-0.0008752594003453851,1.0001741647720337,0.0,0.0,0.0,-15.313440322875977,3.944746255874634,4.474496364593506,2771.762939453125,0
1377.6209999999992,-0.009860757738351822,0.07247121632099152,0.0005095492815598845,0.0,0.0,0.0,0.0,-0.004210334736853838,-0.0018530420493334532,0.0029393162112683058,1.0002667903900146,0.0,0.0,0.0,-15.31784725189209,3.9537830352783203,4.47102165222168,2772.560546875,0
1387.5379999999986,-0.009862136095762253,0.07246936857700348,0.0005182884633541107,0.0,0.0,0.0,0.0,0.002244648989289999,0.002691705012694001,-0.0008116731187328696,0.9984343647956848,0.0,0.0,0.0,-15.302760124206543,3.950409412384033,4.477944850921631,2769.830078125,0
1397.441999999999,-0.00981675460934639,0.07239290326833725,0.0005510021583177149,0.0,0.0,0.0,0.0,-0.00020839145872741938,0.0016421079635620117,0.0019882824271917343,0.9987086057662964,0.0,0.0,0.0,-15.330599784851074,3.935853958129883,4.485703468322754,2774.869140625,0
1407.360999999999,-0.009815298952162266,0.07238587737083435,0.000559717183932662,0.0,0.0,0.0,0.0,-0.002976813353598118,-0.0034274377394467592,-0.00035667684278450906,0.9989508390426636,0.0,0.0,0.0,-15.316211700439453,3.93290638923645,4.473836898803711,2772.2646484375,0
1417.2699999999986,-0.009800431318581104,0.07237746566534042,0.0006013930542394519,0.0,0.0,0.0,0.0,-0.0022939974442124367,-0.005740578286349773,-0.0039025756996124983,0.9991904497146606,0.0,0.0,0.0,-15.334957122802734,3.939326286315918,4.476076126098633,2775.65771484375,0
1427.1889999999985,-0.009799350053071976,0.07237043976783752,0.000610185437835753,0.0,0.0,0.0,0.0,0.0007648625178262591,-0.004242133814841509,-0.0014685438945889473,0.9999217391014099,0.0,0.0,0.0,-15.32001781463623,3.94103741645813,4.488635540008545,2772.953857421875,0
1437.089,-0.009772274643182755,0.07237861305475235,0.0005703064962290227,0.0,0.0,0.0,0.0,0.0010150695452466607,0.0003817641700152308,-0.002072646515443921,1.0011104345321655,0.0,0.0,0.0,-15.33613395690918,3.9499027729034424,4.494284152984619,2775.870849609375,0
1447.0079999999998,-0.0097736781463027,0.07237241417169571,0.0005747803370468318,0.0,0.0,0.0,0.0,0.001264069345779717,0.003518601879477501,0.0014817359624430537,1.0017268657684326,0.0,0.0,0.0,-15.321769714355469,3.9462294578552246,4.486179828643799,2773.27099609375,0
1456.9089999999997,-0.009852028451859951,0.07243727147579193,0.000601976877078414,0.0,0.0,0.0,0.0,-0.000179767026565969,-0.002444746671244502,-0.0009461667505092919,1.0008008480072021,0.0,0.0,0.0,-15.325167655944824,3.954249620437622,4.461160182952881,2773.885986328125,0
1466.824999999999,-0.009857317432761192,0.07243535667657852,0.0006116155418567359,0.0,0.0,0.0,0.0,-0.0003246951964683831,-0.003181818872690201,6.941443280084059e-05,1.0030981302261353,0.0,0.0,0.0,-15.310262680053711,3.9452593326568604,4.469208240509033,2771.187744140625,0
1476.732,-0.009846581146121025,0.0724760964512825,0.0006617757608182728,0.0,0.0,0.0,0.0,-0.0018907496705651283,-0.0019935693126171827,9.611494897399098e-05,1.0017789602279663,0.0,0.0,0.0,-15.3189115524292,3.9527995586395264,4.471470832824707,2772.75341796875,0
1486.6629999999986,-0.009782247245311737,0.07249274849891663,0.0007022666977718472,0.0,0.0,0.0,0.0,-0.0029039031360298395,-0.0018853992223739624,-0.0012293938780203462,0.9981067776679993,0.0,0.0,0.0,-15.324897766113281,3.962911367416382,4.479442119598389,2773.837158203125,0
1496.5509999999995,-0.009813562966883183,0.07240410894155502,0.0006864610477350652,0.0,0.0,0.0,0.0,0.0006689522415399551,0.003125089220702648,-0.0018006223253905773,1.0003219842910767,0.0,0.0,0.0,-15.332209587097168,3.933539628982544,4.4906206130981445,2775.160400390625,0
1506.4789999999994,-0.009823447093367577,0.07245567440986633,0.0007569424342364073,0.0,0.0,0.0,0.0,-0.0014391659060493112,0.0005649188533425331,-0.002819559071213007,0.9978561401367188,0.0,0.0,0.0,-15.335843086242676,3.9500982761383057,4.473829746246338,2775.818359375,0
1516.3739999999998,-0.009828701615333557,0.07245227694511414,0.0007771222153678536,0.0,0.0,0.0,0.0,-0.0004938166821375489,0.0049476600252091885,0.0015039838617667556,1.0003390312194824,0.0,0.0,0.0,-15.32126235961914,3.9482171535491943,4.473535060882568,2773.178955078125,0
1526.298999999999,-0.009807631373405457,0.07245071977376938,0.0008068482857197523,0.0,0.0,0.0,0.0,0.00028382186428643763,-0.004880229011178017,0.003720042295753956,1.0004593133926392,0.0,0.0,0.0,-15.32710075378418,3.9483938217163086,4.472489356994629,2774.23583984375,0
1536.196,-0.009863889776170254,0.07232198864221573,0.0008183567551895976,0.0,0.0,0.0,0.0,-0.002674248069524765,-0.002231382764875889,-0.0018570661777630448,0.9982404708862305,0.0,0.0,0.0,-15.323193550109863,3.913896322250366,4.473837852478027,2773.528564453125,0
1546.119999999999,-0.009833992458879948,0.07233915477991104,0.0008905857685022056,0.0,0.0,0.0,0.0,-0.0038337386213243008,0.0014696777798235416,0.0011233059922233224,0.9994219541549683,0.0,0.0,0.0,-15.335073471069336,3.9238812923431396,4.480976581573486,2775.678955078125,0
1556.018,-0.0098458556458354,0.07225558906793594,0.0008445034036412835,0.0,0.0,0.0,0.0,-0.002526909578591585,-0.0002905576257035136,0.0031245872378349304,1.000022053718567,0.0,0.0,0.0,-15.334388732910156,3.9094772338867188,4.471436023712158,2775.554931640625,0
1565.9399999999987,-0.009898449294269085,0.07227806001901627,0.0008733680006116629,0.0,0.0,0.0,0.0,-0.0002448474697303027,0.0041760895401239395,-0.0024870987981557846,1.0002297163009644,0.0,0.0,0.0,-15.339818954467773,3.9133288860321045,4.461472034454346,2776.537841796875,0
1575.8459999999995,-0.009845494292676449,0.07229764759540558,0.0007734242244623601,0.0,0.0,0.0,0.0,0.0034436641726642847,-0.0010582449613139033,-0.0038906754925847054,0.9993998408317566,0.0,0.0,0.0,-15.337244033813477,3.9224305152893066,4.463640213012695,2776.07177734375,0
1585.777,-0.009895261377096176,0.07233016192913055,0.0008000286179594696,0.0,0.0,0.0,0.0,0.003012290457263589,-0.0013300031423568726,-0.0006111633847467601,1.0012140274047852,0.0,0.0,0.0,-15.342098236083984,3.9239044189453125,4.442596435546875,2776.9501953125,0
1595.6619999999984,-0.009904681704938412,0.07231974601745605,0.0008109683403745294,0.0,0.0,0.0,0.0,-0.0008106054738163948,0.00020733755081892014,0.003415621118620038,1.001209020614624,0.0,0.0,0.0,-15.327686309814453,3.919555187225342,4.440776824951172,2774.341796875,0
1605.583999999999,-0.00990388449281454,0.07233007252216339,0.0008427350549027324,0.0,0.0,0.0,0.0,0.0017802681541070342,-0.003369175363332033,0.0015188958495855331,1.0017063617706299,0.0,0.0,0.0,-15.337212562561035,3.927753448486328,4.437840461730957,2776.06591796875,0
1615.4879999999994,-0.009813275188207626,0.07241015136241913,0.0006765170255675912,0.0,0.0,0.0,0.0,-0.0009181239292956889,-0.005768876522779465,0.0009465381735935807,0.9989296793937683,0.0,0.0,0.0,-15.334646224975586,3.9474048614501953,4.456874370574951,2775.6015625,0
1625.4069999999992,-0.009822642430663109,0.07240515947341919,0.0006797092501074076,0.0,0.0,0.0,0.0,-0.0011195745319128036,-0.0006093377596698701,-0.0014949351316317916,0.9982281923294067,0.0,0.0,0.0,-15.318771362304688,3.94016695022583,4.460143089294434,2772.72802734375,0
1635.3069999999989,-0.009785457514226437,0.07239610701799393,0.000564553018193692,0.0,0.0,0.0,0.0,-0.0005337057518772781,0.0007221671403385699,0.00029840771458111703,0.9995911121368408,0.0,0.0,0.0,-15.322471618652344,3.9404385089874268,4.477880954742432,2773.39794921875,0
1645.2339999999986,-0.00979241356253624,0.07238928228616714,0.0005571863148361444,0.0,0.0,0.0,0.0,-0.0020456842612475157,0.000361331069143489,0.0022908684331923723,1.0001527070999146,0.0,0.0,0.0,-15.30711555480957,3.9357876777648926,4.4787774085998535,2770.618408203125,0
1655.128999999999,-0.009772309102118015,0.07234666496515274,0.00045596796553581953,0.0,0.0,0.0,0.0,-0.00011638077558018267,7.123911200324073e-05,-0.0006371816270984709,1.0012524127960205,0.0,0.0,0.0,-15.303871154785156,3.918405771255493,4.491537570953369,2770.031005859375,0
1665.0469999999987,-0.009777901694178581,0.0723370611667633,0.00044183008139953017,0.0,0.0,0.0,0.0,-0.0006379166152328253,0.0005290905828587711,0.0002517468819860369,0.9991796612739563,0.0,0.0,0.0,-15.28897762298584,3.9102532863616943,4.486386299133301,2767.335205078125,0
1674.949999999999,-0.00981678906828165,0.07227910310029984,0.00045221560867503285,0.0,0.0,0.0,0.0,0.0030805901624262333,0.001896406407468021,-0.0022575859911739826,0.99888676404953,0.0,0.0,0.0,-15.28681755065918,3.8847880363464355,4.464590549468994,2766.9443359375,0
1684.8779999999988,-0.009928178042173386,0.07243514060974121,0.0005451143952086568,0.0,0.0,0.0,0.0,-0.0038077756762504578,-0.00333457812666893,-0.004265631083399057,0.9991649389266968,0.0,0.0,0.0,-15.293424606323242,3.925767660140991,4.416826248168945,2768.14013671875,0
1694.7729999999992,-0.009951399639248848,0.07234719395637512,0.00045402348041534424,0.0,0.0,0.0,0.0,-0.002376075368374586,0.0007218733662739396,-0.004517803899943829,0.9989523887634277,0.0,0.0,0.0,-15.302868843078613,3.912003993988037,4.421304225921631,2769.849609375,0
1704.6949999999997,-0.009905789978802204,0.07238710671663284,0.0005419229855760932,0.0,0.0,0.0,0.0,-0.00225916993804276,0.0017198814311996102,-0.0030065434984862804,1.0001176595687866,0.0,0.0,0.0,-15.312612533569336,3.9271299839019775,4.422059059143066,2771.61328125,0
1714.5939999999991,-0.00992327556014061,0.07233142107725143,0.0004867836833000183,0.0,0.0,0.0,0.0,-0.002775780623778701,0.002665294799953699,-0.00025565261603333056,1.0010725259780884,0.0,0.0,0.0,-15.318819046020508,3.9194796085357666,4.425014972686768,2772.736572265625,0
1724.5159999999996,-0.009877166710793972,0.07235771417617798,0.000551243603695184,0.0,0.0,0.0,0.0,0.0026492164470255375,-0.0019957025069743395,-9.991254773922265e-05,1.0001949071884155,0.0,0.0,0.0,-15.330206871032715,3.925384998321533,4.426263332366943,2774.798095703125,0
1734.4159999999993,-0.009894933551549911,0.0723457932472229,0.0005488598835654557,0.0,0.0,0.0,0.0,0.0017760301707312465,-0.0037615380715578794,-0.0003023963945452124,1.0004748106002808,0.0,0.0,0.0,-15.315712928771973,3.9150142669677734,4.4285430908203125,2772.17431640625,0
1744.3369999999995,-0.009812100790441036,0.07237201929092407,0.0006015641265548766,0.0,0.0,0.0,0.0,0.001952259917743504,-0.0016979944193735719,0.0027359866071492434,1.0001128911972046,0.0,0.0,0.0,-15.328001022338867,3.926661252975464,4.44338846206665,2774.398681640625,0
1754.2419999999984,-0.009824935346841812,0.0723254531621933,0.0005525590386241674,0.0,0.0,0.0,0.0,0.0022132652811706066,0.0006367664318531752,-0.002341455314308405,0.9985420107841492,0.0,0.0,0.0,-15.323078155517578,3.91455340385437,4.4508957862854,2773.5078125,0
1764.155999999999,-0.009808246977627277,0.07235890626907349,0.0006125137442722917,0.0,0.0,0.0,0.0,-0.0030633017886430025,-0.00012239551870152354,0.0027381922118365765,1.0012205839157104,0.0,0.0,0.0,-15.336324691772461,3.9109292030334473,4.440809726715088,2775.9052734375,0
1774.062,-0.009820572100579739,0.07230774313211441,0.0005654246197082102,0.0,0.0,0.0,0.0,-0.0005060231196694076,-0.0001603861601324752,-0.00022794109827373177,0.9996960759162903,0.0,0.0,0.0,-15.3309326171875,3.909750461578369,4.4390411376953125,2774.929443359375,0
1783.973,-0.009813600219786167,0.07236412167549133,0.0006415579118765891,0.0,0.0,0.0,0.0,0.0006503206095658243,0.0012788975145667791,-0.00030943789170123637,1.0002317428588867,0.0,0.0,0.0,-15.340381622314453,3.9195809364318848,4.429717540740967,2776.6396484375,0
1793.8899999999994,-0.009799083694815636,0.07232063263654709,0.0005467707524076104,0.0,0.0,0.0,0.0,-0.002672718372195959,0.0013580790255218744,0.0004803131159860641,1.0006603002548218,0.0,0.0,0.0,-15.347360610961914,3.916897773742676,4.424652099609375,2777.903076171875,0
1803.8059999999987,-0.009815337136387825,0.07230547070503235,0.0005452536279335618,0.0,0.0,0.0,0.0,0.002276704413816333,-0.002333455253392458,0.001325027085840702,0.9990126490592957,0.0,0.0,0.0,-15.331622123718262,3.9110636711120605,4.4194746017456055,2775.05419921875,0
1813.705,-0.009783509187400341,0.07231384515762329,0.00045193382538855076,0.0,0.0,0.0,0.0,0.0015230909921228886,0.0028157164342701435,-0.0026838474441319704,0.9985617399215698,0.0,0.0,0.0,-15.334709167480469,3.91377592086792,4.423489570617676,2775.613037109375,0
1823.616,-0.00979680847376585,0.0722988024353981,0.0004427035746630281,0.0,0.0,0.0,0.0,-0.002501850016415119,-0.0006367915775626898,0.0003728896554093808,0.9991403222084045,0.0,0.0,0.0,-15.31956672668457,3.9065489768981934,4.419639587402344,2772.8720703125,0
1833.5259999999998,-0.0097565408796072,0.07231005281209946,0.0003185835375916213,0.0,0.0,0.0,0.0,0.001785043510608375,0.002446970669552684,-0.0011386715341359377,0.9979159832000732,0.0,0.0,0.0,-15.329336166381836,3.922926187515259,4.435858726501465,2774.640380859375,0
1843.437,-0.009835905395448208,0.07244449108839035,0.00039669600664637983,0.0,0.0,0.0,0.0,0.0009795731166377664,-0.0005254647694528103,0.001053111394867301,0.9978914260864258,0.0,0.0,0.0,-15.341567039489746,3.952533721923828,4.39846658706665,2776.854248046875,0
1853.348,-0.009832601062953472,0.07241582125425339,0.0003191380528733134,0.0,0.0,0.0,0.0,0.0018905573524534702,-0.0019838260486721992,0.002142405603080988,0.9990702867507935,0.0,0.0,0.0,-15.34461498260498,3.946223020553589,4.396141529083252,2777.40576171875,0
1863.2649999999994,-0.009820516221225262,0.07249929010868073,0.00039566706982441247,0.0,0.0,0.0,0.0,0.0014608973870053887,-0.0001763131149346009,-0.0023469217121601105,0.9995739459991455,0.0,0.0,0.0,-15.35154914855957,3.964362144470215,4.394040107727051,2778.6611328125,0
1873.1709999999985,-0.009835725650191307,0.07243683189153671,0.0003228112473152578,0.0,0.0,0.0,0.0,-0.0003752622287720442,-0.003393785795196891,0.00040921871550381184,0.999970555305481,0.0,0.0,0.0,-15.349433898925781,3.95173978805542,4.392704486846924,2778.2783203125,0
1883.0849999999991,-0.00980492401868105,0.07253962755203247,0.000413910805946216,0.0,0.0,0.0,0.0,-0.0017131281783804297,0.004446879029273987,0.001649131067097187,1.0012046098709106,0.0,0.0,0.0,-15.349909782409668,3.9697206020355225,4.401012420654297,2778.3642578125,0
1892.9919999999984,-0.009870339184999466,0.07241581380367279,0.00040157593321055174,0.0,0.0,0.0,0.0,-0.0009961394825950265,-0.004653986543416977,-0.0004638769314624369,0.9995828866958618,0.0,0.0,0.0,-15.3576078414917,3.9507031440734863,4.391044616699219,2779.7578125,0
1902.9029999999984,-0.009888003580272198,0.07247504591941833,0.00044457102194428444,0.0,0.0,0.0,0.0,-0.0012148807290941477,-0.004858104512095451,0.0009814498480409384,1.000235915184021,0.0,0.0,0.0,-15.36246109008789,3.9646363258361816,4.396016597747803,2780.635986328125,0
1912.8149999999987,-0.009894329123198986,0.07242649048566818,0.00037901857285760343,0.0,0.0,0.0,0.0,0.0023632526863366365,0.00041721260640770197,0.0009020989527925849,1.001220941543579,0.0,0.0,0.0,-15.356828689575195,3.9551875591278076,4.414289474487305,2779.616455078125,0
1922.7259999999987,-0.009922578930854797,0.07253485172986984,0.00044898473424836993,0.0,0.0,0.0,0.0,-0.0021161814220249653,0.0015373581554740667,-8.842760871630162e-05,1.0016403198242188,0.0,0.0,0.0,-15.360365867614746,3.9687469005584717,4.403346538543701,2780.2568359375,0
1932.6389999999992,-0.00992508977651596,0.07248357683420181,0.0003788363537751138,0.0,0.0,0.0,0.0,-0.00018800173711497337,-0.0006239227368496358,-0.0012281304225325584,1.0011192560195923,0.0,0.0,0.0,-15.353425979614258,3.9609968662261963,4.405935764312744,2779.000732421875,0
1942.5519999999997,-0.009837605990469456,0.07255113869905472,0.00047292475937865674,0.0,0.0,0.0,0.0,0.0011427260469645262,-0.0025939776096493006,0.0019054736476391554,1.0010294914245605,0.0,0.0,0.0,-15.356246948242188,3.9749789237976074,4.414590358734131,2779.51123046875,0
1952.4629999999997,-0.009850392118096352,0.07247821241617203,0.00041799439350143075,0.0,0.0,0.0,0.0,-0.0014397879131138325,-0.0003197886107955128,3.9719659980619326e-05,0.9986240267753601,0.0,0.0,0.0,-15.354093551635742,3.9611661434173584,4.417514801025391,2779.12158203125,0
1962.369999999999,-0.009790588170289993,0.07252538204193115,0.0004910328425467014,0.0,0.0,0.0,0.0,0.0007980187656357884,0.0009484776528552175,-0.002845336450263858,0.9991770386695862,0.0,0.0,0.0,-15.358675003051758,3.9749631881713867,4.418706893920898,2779.95068359375,0
1972.2849999999999,-0.009844465181231499,0.07240311801433563,0.0004783031181432307,0.0,0.0,0.0,0.0,0.001842978992499411,0.00022529067064169794,-0.0019438250456005335,1.000210165977478,0.0,0.0,0.0,-15.362472534179688,3.949404716491699,4.4116973876953125,2780.63818359375,0
1982.190999999999,-0.009822886437177658,0.07247228920459747,0.0005543178995139897,0.0,0.0,0.0,0.0,0.0015426741447299719,0.0009546800865791738,-0.0026954696513712406,0.9996029138565063,0.0,0.0,0.0,-15.364866256713867,3.9584717750549316,4.408890724182129,2781.0712890625,0
1992.1039999999994,-0.009838181547820568,0.07246558368206024,0.0005631045205518603,0.0,0.0,0.0,0.0,-0.0038871082942932844,0.004141307435929775,-0.0023558614775538445,1.0014588832855225,0.0,0.0,0.0,-15.349162101745605,3.9479005336761475,4.404913425445557,2778.22900390625,0
2002.0199999999986,-0.009835821576416492,0.0724852979183197,0.0005966972094029188,0.0,0.0,0.0,0.0,0.0008613028912805021,-0.000258840766036883,-0.003093110164627433,0.9997721314430237,0.0,0.0,0.0,-15.356803894042969,3.957679271697998,4.406186580657959,2779.612060546875,0
2011.9269999999997,-0.009867193177342415,0.0724097192287445,0.0005722600035369396,0.0,0.0,0.0,0.0,0.0007034266600385308,0.0006382014253176749,-0.0011466648429632187,0.9994416236877441,0.0,0.0,0.0,-15.350874900817871,3.9412426948547363,4.405742645263672,2778.538818359375,0
2021.8379999999997,-0.00982736051082611,0.07242263853549957,0.0006293025799095631,0.0,0.0,0.0,0.0,0.002864478388801217,0.005818570964038372,-0.0015653461450710893,0.9996790885925293,0.0,0.0,0.0,-15.3518705368042,3.9492006301879883,4.405266284942627,2778.71923828125,0
2031.7459999999992,-0.00984212663024664,0.07236281037330627,0.000592872966080904,0.0,0.0,0.0,0.0,-0.0022191861644387245,-0.003548799781128764,-0.0025848657824099064,0.9985291361808777,0.0,0.0,0.0,-15.347016334533691,3.934098243713379,4.389419078826904,2777.840576171875,0
2041.6619999999984,-0.009862367063760757,0.07239480316638947,0.0006391207571141422,0.0,0.0,0.0,0.0,0.0006908129435032606,-0.002659821417182684,-0.00013257218233775347,0.9994050860404968,0.0,0.0,0.0,-15.35252571105957,3.941856622695923,4.3759446144104,2778.837890625,0
2051.5689999999995,-0.009868714027106762,0.07234101742506027,0.000586101203225553,0.0,0.0,0.0,0.0,0.003077480476349592,3.661988739622757e-05,-0.001242317957803607,1.0004128217697144,0.0,0.0,0.0,-15.356253623962402,3.9354772567749023,4.383431434631348,2779.512451171875,0
2061.4809999999998,-0.009827225469052792,0.07238346338272095,0.0006672277231700718,0.0,0.0,0.0,0.0,-0.0001711760851321742,0.003026307327672839,0.0019800851587206125,0.9991095662117004,0.0,0.0,0.0,-15.362366676330566,3.9431405067443848,4.38999080657959,2780.619140625,0
2071.4079999999994,-0.009843634441494942,0.07237263023853302,0.000678607146255672,0.0,0.0,0.0,0.0,-0.0018621610943228006,-0.0037034391425549984,0.001148721668869257,0.9981632828712463,0.0,0.0,0.0,-15.347623825073242,3.9407150745391846,4.386219501495361,2777.950439453125,0
2081.3019999999997,-0.009874370880424976,0.0723969042301178,0.0007143066613934934,0.0,0.0,0.0,0.0,-0.0004480666830204427,-0.0004978842916898429,-0.0004775171692017466,0.9996888637542725,0.0,0.0,0.0,-15.35706615447998,3.9422805309295654,4.3817033767700195,2779.659423828125,0
2091.214,-0.009844810701906681,0.07238464802503586,0.0005842908867634833,0.0,0.0,0.0,0.0,-0.0016168624861165881,0.0010602613911032677,-0.0008777125040069222,0.9981977343559265,0.0,0.0,0.0,-15.3637056350708,3.941181182861328,4.382646560668945,2780.861328125,0
2101.1229999999996,-0.009796642698347569,0.07241103798151016,0.0006479427102021873,0.0,0.0,0.0,0.0,-0.0006075191777199507,-0.0038287427742034197,-0.00022326683392748237,0.997134268283844,0.0,0.0,0.0,-15.367395401000977,3.951310634613037,4.383888244628906,2781.529052734375,0
2111.0459999999985,-0.009821615181863308,0.07234025001525879,0.0006129450630396605,0.0,0.0,0.0,0.0,-0.0003458700666669756,-0.0042331162840127945,-0.0023657020647078753,0.9971287250518799,0.0,0.0,0.0,-15.357247352600098,3.9413816928863525,4.397250652313232,2779.692626953125,0
2120.9519999999993,-0.009872707538306713,0.07239745557308197,0.000651072128675878,0.0,0.0,0.0,0.0,0.0023101598490029573,-0.0030937190167605877,0.0004884864902123809,0.9987305402755737,0.0,0.0,0.0,-15.366446495056152,3.957376480102539,4.386598587036133,2781.357421875,0
2130.8589999999986,-0.009885183535516262,0.07232490926980972,0.0005764330853708088,0.0,0.0,0.0,0.0,0.00047768588410690427,-0.0027075179386883974,-0.00383496074937284,0.9992326498031616,0.0,0.0,0.0,-15.371447563171387,3.945345878601074,4.393218517303467,2782.2626953125,0
2140.7779999999984,-0.00990066397935152,0.07231564074754715,0.0005680962931364775,0.0,0.0,0.0,0.0,-0.0013293392257764935,0.0012094475096091628,-0.00014594320964533836,0.9996740221977234,0.0,0.0,0.0,-15.357071876525879,3.9397644996643066,4.391185760498047,2779.66064453125,0
2150.6809999999987,-0.009892680682241917,0.0722837820649147,0.0004898523329757154,0.0,0.0,0.0,0.0,0.0025442573241889477,0.0005252353148534894,-0.0031355826649814844,0.9982622265815735,0.0,0.0,0.0,-15.360908508300781,3.9369473457336426,4.392749309539795,2780.355224609375,0
2160.59,-0.009921299293637276,0.07239282131195068,0.0005826185806654394,0.0,0.0,0.0,0.0,-0.0004141023091506213,-0.0033892118372023106,0.0030606549698859453,0.9984748959541321,0.0,0.0,0.0,-15.3665771484375,3.9542605876922607,4.3752360343933105,2781.381103515625,0
2170.502999999999,-0.009925567544996738,0.07235714793205261,0.0005126114701852202,0.0,0.0,0.0,0.0,0.002029052237048745,-0.005501987878233194,-0.0011093078646808863,0.9996188282966614,0.0,0.0,0.0,-15.357232093811035,3.945305109024048,4.385199546813965,2779.689453125,0
