timestamp,stateEstimate.x,stateEstimate.y,stateEstimate.z,controller.cmd_thrust,controller.cmd_roll,controller.cmd_pitch,controller.cmd_yaw,controller.r_roll,controller.r_pitch,controller.r_yaw,controller.accelz,controller.actuatorThrust,controller.roll,controller.pitch,controller.yaw,controller.rollRate,controller.pitchRate,controller.yawRate,controller.ctr_yaw
0.0,0.02944456785917282,0.019528033211827278,0.000492999330163002,0.0,0.0,0.0,0.0,-0.0008783849189057946,-0.0006837505497969687,-0.0010818388545885682,0.9996498823165894,0.0,0.0,0.0,-3.192187547683716,2.4641566276550293,6.3753437995910645,577.7923583984375,0
9.911000000000058,0.02945319376885891,0.01944040320813656,0.00047215676750056446,0.0,0.0,0.0,0.0,0.0028934588190168142,0.0025793362874537706,0.0012427904875949025,0.9998051524162292,0.0,0.0,0.0,-3.18918776512146,2.4633610248565674,6.372147560119629,577.2493286132812,0
19.81800000000112,0.0294333528727293,0.019512400031089783,0.00045910305925644934,0.0,0.0,0.0,0.0,-0.0021140947937965393,0.0004895937745459378,-0.0011250062379986048,0.9982247948646545,0.0,0.0,0.0,-3.1934053897857666,2.4751477241516113,6.364023685455322,578.0127563476562,0
29.730999999999767,0.029446808621287346,0.019467558711767197,0.0004584777634590864,0.0,0.0,0.0,0.0,-0.0020890901796519756,0.0011018795194104314,0.005571257323026657,0.9969061017036438,0.0,0.0,0.0,-3.188997745513916,2.46535587310791,6.354596138000488,577.2149047851562,0
39.63800000000083,0.02940845489501953,0.019522016867995262,0.00046265983837656677,0.0,0.0,0.0,0.0,0.00034538257750682533,0.0011721402406692505,-0.002745880512520671,0.9990527033805847,0.0,0.0,0.0,-3.185863971710205,2.4656362533569336,6.349217414855957,576.6476440429688,0
49.55400000000009,0.029348503798246384,0.019529109820723534,0.00047525973059237003,0.0,0.0,0.0,0.0,-0.0009369807667098939,0.004131287336349487,-0.0017447893042117357,0.99825119972229,0.0,0.0,0.0,-3.1791696548461914,2.461942672729492,6.330697059631348,575.4359741210938,0
59.46300000000156,0.02940342202782631,0.019636793062090874,0.00043981478665955365,0.0,0.0,0.0,0.0,-0.0032249847427010536,0.0009209744166582823,-0.0017378696938976645,0.9993513822555542,0.0,0.0,0.0,-3.18803334236145,2.4828078746795654,6.336239337921143,577.0403442382812,0
69.3739999999998,0.029312584549188614,0.019641920924186707,0.0004319028521422297,0.0,0.0,0.0,0.0,-0.0006908620707690716,0.003032599575817585,-0.002160640200600028,1.0002102851867676,0.0,0.0,0.0,-3.1832644939422607,2.477921485900879,6.317527770996094,576.17724609375,0
79.28200000000106,0.029321007430553436,0.019695289433002472,0.00044044613605365157,0.0,0.0,0.0,0.0,-0.0017380514182150364,0.006852741818875074,-0.0026065618731081486,0.9990583658218384,0.0,0.0,0.0,-3.191718101501465,2.489954710006714,6.317516326904297,577.7073974609375,0
89.19400000000132,0.029252655804157257,0.019723976030945778,0.0004552738682832569,0.0,0.0,0.0,0.0,0.002221496542915702,0.0034296424128115177,-7.988033758010715e-05,0.9974157214164734,0.0,0.0,0.0,-3.185281276702881,2.492252826690674,6.289511680603027,576.542236328125,0
99.10300000000097,0.029252422973513603,0.019715623930096626,0.0004501937364693731,0.0,0.0,0.0,0.0,-9.530760144116357e-05,-0.00343337538652122,-0.0014411788433790207,0.998064398765564,0.0,0.0,0.0,-3.193363904953003,2.4942948818206787,6.289846897125244,578.0051879882812,0
109.01400000000103,0.02917863242328167,0.01971663534641266,0.00044277103734202683,0.0,0.0,0.0,0.0,-0.0006955244462005794,0.007182588800787926,0.0005618106224574149,1.0005829334259033,0.0,0.0,0.0,-3.1891772747039795,2.491999864578247,6.274625778198242,577.2474365234375,0
118.93000000000029,0.02917283959686756,0.019812017679214478,0.0003743460401892662,0.0,0.0,0.0,0.0,0.0005216717254370451,-0.0015993493143469095,-0.00022240840189624578,0.9994819760322571,0.0,0.0,0.0,-3.194363594055176,2.5165746212005615,6.285491943359375,578.1862182617188,0
128.83800000000156,0.029201731085777283,0.019847998395562172,0.00043294773786328733,0.0,0.0,0.0,0.0,-0.0023722858168184757,0.0018106468487530947,-0.002776934765279293,1.00105619430542,0.0,0.0,0.0,-3.191094398498535,2.510370969772339,6.275657653808594,577.5944213867188,0
138.7470000000012,0.02919074334204197,0.0199127160012722,0.0003690372686833143,0.0,0.0,0.0,0.0,0.0011917682131752372,0.0025856841821223497,-0.0008396414341405034,1.0013372898101807,0.0,0.0,0.0,-3.1965274810791016,2.5264904499053955,6.277016639709473,578.5778198242188,0
148.65800000000127,0.029125841334462166,0.019918665289878845,0.000358669669367373,0.0,0.0,0.0,0.0,-0.003499125363305211,-0.005502510350197554,0.0002693643618840724,0.9998981356620789,0.0,0.0,0.0,-3.1935722827911377,2.5224826335906982,6.275773525238037,578.04296875,0
158.56700000000092,0.029090840369462967,0.019949140027165413,0.00030669666011817753,0.0,0.0,0.0,0.0,-0.0010445548687130213,-0.002295334357768297,0.0013166486751288176,0.9995672702789307,0.0,0.0,0.0,-3.2007651329040527,2.5334737300872803,6.280087947845459,579.3448486328125,0
168.47700000000077,0.029022393748164177,0.019958272576332092,0.0002943322469945997,0.0,0.0,0.0,0.0,-0.0013590723974630237,0.00016544231039006263,0.00024511778610758483,0.9974574446678162,0.0,0.0,0.0,-3.1973180770874023,2.5331320762634277,6.27963924407959,578.720947265625,0
178.38800000000083,0.028951629996299744,0.019971344619989395,0.00028307459433563054,0.0,0.0,0.0,0.0,-0.00031711795600131154,-0.001693356898613274,0.004054287448525429,0.9978705048561096,0.0,0.0,0.0,-3.202852249145508,2.5390257835388184,6.283437728881836,579.7225952148438,0
188.2990000000009,0.029238605871796608,0.019867954775691032,0.0004521166847553104,0.0,0.0,0.0,0.0,0.0003664295363705605,-0.0014871613821014762,-0.0033375697676092386,0.9998067021369934,0.0,0.0,0.0,-3.205967664718628,2.517301321029663,6.372881889343262,580.2864990234375,0
198.21200000000135,0.029175370931625366,0.019824029877781868,0.00044081680243834853,0.0,0.0,0.0,0.0,0.00203073862940073,-0.001725794980302453,-0.0007417078013531864,1.0008556842803955,0.0,0.0,0.0,-3.2088193893432617,2.5093655586242676,6.368136882781982,580.802734375,0
208.121000000001,0.029119214043021202,0.01982385851442814,0.00043680323869921267,0.0,0.0,0.0,0.0,0.002635379321873188,-0.002002531196922064,0.0017553544603288174,0.9985705018043518,0.0,0.0,0.0,-3.2059097290039062,2.501077890396118,6.358007431030273,580.2760620117188,0
218.03800000000047,0.029075002297759056,0.019828220829367638,0.0004108294961042702,0.0,0.0,0.0,0.0,0.0018022002186626196,-0.004054113291203976,0.003961717244237661,0.9982094168663025,0.0,0.0,0.0,-3.2029271125793457,2.5010006427764893,6.35308837890625,579.7362060546875,0
227.94400000000132,0.02901417948305607,0.01982692815363407,0.0004043495864607394,0.0,0.0,0.0,0.0,-0.0013291913783177733,0.0002969340421259403,0.004129636567085981,1.0005536079406738,0.0,0.0,0.0,-3.199498176574707,2.494608163833618,6.35677433013916,579.1155395507812,0
237.85800000000017,0.028948308899998665,0.019814690575003624,0.00039745052345097065,0.0,0.0,0.0,0.0,-0.002087967935949564,0.0013823459157720208,0.0006042630411684513,0.9991984367370605,0.0,0.0,0.0,-3.207885265350342,2.4919323921203613,6.348104476928711,580.6336059570312,0
247.76500000000124,0.029276913031935692,0.01963932253420353,0.000559259089641273,0.0,0.0,0.0,0.0,-0.002288192044943571,-0.0010378208244219422,0.001563469530083239,1.000107765197754,0.0,0.0,0.0,-3.201958656311035,2.4600229263305664,6.44173526763916,579.5608520507812,0
257.6750000000011,0.02922835946083069,0.019651027396321297,0.0005796500481665134,0.0,0.0,0.0,0.0,-0.00020777166355401278,0.0013385498896241188,-0.00613704277202487,1.002027153968811,0.0,0.0,0.0,-3.2059736251831055,2.4632976055145264,6.441927909851074,580.28759765625,0
267.58500000000095,0.029177365824580193,0.019639551639556885,0.0005842959508299828,0.0,0.0,0.0,0.0,4.8834837798494846e-05,0.002353473100811243,-0.0009292695322073996,0.9987865686416626,0.0,0.0,0.0,-3.202988624572754,2.4655301570892334,6.427488327026367,579.7473754882812,0
277.496000000001,0.029165616258978844,0.0196857750415802,0.0005388717981986701,0.0,0.0,0.0,0.0,-0.0010604008566588163,0.0029065082781016827,-0.005582206882536411,0.9977056980133057,0.0,0.0,0.0,-3.2092843055725098,2.476043939590454,6.43437385559082,580.8867797851562,0
287.40800000000127,0.02911211922764778,0.01967647671699524,0.0005408531869761646,0.0,0.0,0.0,0.0,-0.001319116447120905,-0.0012467687483876944,-0.0005719996406696737,0.999872088432312,0.0,0.0,0.0,-3.205991268157959,2.4791758060455322,6.431915760040283,580.2908325195312,0
297.3190000000013,0.029094506055116653,0.01972866617143154,0.00048798086936585605,0.0,0.0,0.0,0.0,0.005327318329364061,0.00041590191540308297,-0.0009003251907415688,0.9989078640937805,0.0,0.0,0.0,-3.2128636837005615,2.4955804347991943,6.438632488250732,581.53466796875,0
307.23099999999977,0.029393551871180534,0.019504958763718605,0.0005905282450839877,0.0,0.0,0.0,0.0,-0.00010692442447179928,0.0019243002170696855,-0.004688110668212175,0.9992290139198303,0.0,0.0,0.0,-3.2152099609375,2.449894428253174,6.515255928039551,581.9593505859375,0
317.14100000000144,0.029390549287199974,0.019559968262910843,0.0005679613095708191,0.0,0.0,0.0,0.0,-0.001926796743646264,-0.004030040930956602,-0.0029468927532434464,0.9991172552108765,0.0,0.0,0.0,-3.2133102416992188,2.4405527114868164,6.507470607757568,581.615478515625,0
327.0500000000011,0.02944600023329258,0.019450727850198746,0.0005527416942641139,0.0,0.0,0.0,0.0,0.002454299246892333,0.005161079578101635,-0.0018639231566339731,1.0012158155441284,0.0,0.0,0.0,-3.2109906673431396,2.4417152404785156,6.507318496704102,581.1956787109375,0
336.96500000000015,0.029438162222504616,0.01951245777308941,0.00053362303879112,0.0,0.0,0.0,0.0,0.0028831406962126493,-0.0001222789433086291,-0.00024925023899413645,1.0025057792663574,0.0,0.0,0.0,-3.214649200439453,2.4538064002990723,6.504518032073975,581.8578491210938,0
346.8760000000002,0.029453912749886513,0.0194386038929224,0.0005227042129263282,0.0,0.0,0.0,0.0,0.00195407890714705,-0.003973560407757759,5.310628694132902e-05,1.0000169277191162,0.0,0.0,0.0,-3.2110886573791504,2.448429822921753,6.487781047821045,581.2134399414062,0
356.78300000000127,0.029447052627801895,0.019512496888637543,0.0005012216861359775,0.0,0.0,0.0,0.0,0.00013303761079441756,0.0019330796785652637,-0.0023878132924437523,0.9984014630317688,0.0,0.0,0.0,-3.2146189212799072,2.4538397789001465,6.479574680328369,581.8523559570312,0
366.6930000000011,0.02942577935755253,0.01947968825697899,0.0004972679307684302,0.0,0.0,0.0,0.0,0.0011514144716784358,-0.003917765337973833,0.00031395480618812144,0.9989946484565735,0.0,0.0,0.0,-3.211686372756958,2.448737144470215,6.485118389129639,581.3216552734375,0
376.6040000000012,0.029361596331000328,0.019507460296154022,0.0005338871851563454,0.0,0.0,0.0,0.0,-0.0020017048809677362,0.0006225979886949062,0.0008574580424465239,1.0000354051589966,0.0,0.0,0.0,-3.20898175239563,2.4469521045684814,6.484649658203125,580.8320922851562,0
386.52000000000044,0.029340876266360283,0.01945492811501026,0.0005529889604076743,0.0,0.0,0.0,0.0,0.003513603936880827,0.0033798327203840017,-0.0027756092604249716,1.0001832246780396,0.0,0.0,0.0,-3.202782392501831,2.4454169273376465,6.469672679901123,579.7099609375,0
396.4300000000003,0.02933863364160061,0.019501883536577225,0.0005747157265432179,0.0,0.0,0.0,0.0,0.0007855370058678091,-0.003496406599879265,-0.0015817006351426244,1.0008537769317627,0.0,0.0,0.0,-3.2109193801879883,2.455587863922119,6.468327522277832,581.1827392578125,0
406.33600000000115,0.029329922050237656,0.019419429823756218,0.0005925126606598496,0.0,0.0,0.0,0.0,0.00011305055522825569,-0.0004926227265968919,0.001686188392341137,1.0003291368484497,0.0,0.0,0.0,-3.205695390701294,2.449131488800049,6.449261665344238,580.2372436523438,0
416.2530000000006,0.02939363569021225,0.019533874467015266,0.0005451611941680312,0.0,0.0,0.0,0.0,-0.001876102527603507,-0.0006025908514857292,0.0021508049685508013,1.0002080202102661,0.0,0.0,0.0,-3.205695390701294,2.449131488800049,6.449261665344238,580.2372436523438,0
426.16400000000067,0.029283229261636734,0.019501149654388428,0.0005502207786776125,0.0,0.0,0.0,0.0,0.0005275378352962434,0.005255202297121286,-0.0017863487591966987,0.9989027380943298,0.0,0.0,0.0,-3.1991119384765625,2.4509572982788086,6.43503475189209,579.0455932617188,0
436.0740000000005,0.029344039037823677,0.019648058339953423,0.0005090147606097162,0.0,0.0,0.0,0.0,0.0004968125140294433,-0.005409003235399723,0.00025083933724090457,0.9995637536048889,0.0,0.0,0.0,-3.2054271697998047,2.4867494106292725,6.448771953582764,580.1886596679688,0
445.9930000000004,0.029392123222351074,0.01956557109951973,0.0005223941407166421,0.0,0.0,0.0,0.0,0.0030601874459534883,0.00585252046585083,-0.002570307580754161,1.0009989738464355,0.0,0.0,0.0,-3.2025954723358154,2.4847404956817627,6.440865516662598,579.6761474609375,0
455.89700000000084,0.02936876378953457,0.019611800089478493,0.0005010577733628452,0.0,0.0,0.0,0.0,0.0009753687772899866,0.0008725453517399728,0.0004865009104833007,0.9998567700386047,0.0,0.0,0.0,-3.2064268589019775,2.492955207824707,6.449540138244629,580.3696899414062,0
465.8110000000015,0.029385607689619064,0.019566576927900314,0.0005075801745988429,0.0,0.0,0.0,0.0,0.0021147113293409348,0.0032657941337674856,0.0012397697428241372,0.9992768168449402,0.0,0.0,0.0,-3.203319549560547,2.4770572185516357,6.431475639343262,579.8071899414062,0
475.71500000000015,0.029404375702142715,0.01969839073717594,0.00046387326437979937,0.0,0.0,0.0,0.0,0.001269180909730494,0.0022871633991599083,-0.001123654656112194,0.9975478053092957,0.0,0.0,0.0,-3.210689067840576,2.5003724098205566,6.431525707244873,581.14111328125,0
485.634,0.0293912161141634,0.019679062068462372,0.00046730414032936096,0.0,0.0,0.0,0.0,-0.0013435600558295846,0.0013095791218802333,0.0016716959653422236,0.9989297389984131,0.0,0.0,0.0,-3.2074127197265625,2.4964470863342285,6.422625541687012,580.5480346679688,0
495.53700000000026,0.029336947947740555,0.019678080454468727,0.0004643240536097437,0.0,0.0,0.0,0.0,0.00055794941727072,0.000532005331479013,0.0011028338922187686,0.9990091919898987,0.0,0.0,0.0,-3.2120723724365234,2.4911279678344727,6.410684108734131,581.3914794921875,0
505.45900000000074,0.029280878603458405,0.019670436158776283,0.0004577853251248598,0.0,0.0,0.0,0.0,0.0013531164731830359,0.003421542001888156,0.002040198538452387,1.0008894205093384,0.0,0.0,0.0,-3.208299398422241,2.491136074066162,6.396691799163818,580.7086181640625,0
515.3590000000004,0.02922878786921501,0.019676048308610916,0.00044976879144087434,0.0,0.0,0.0,0.0,-0.0016780545702204108,-0.001371916034258902,-0.0035433706361800432,1.0016275644302368,0.0,0.0,0.0,-3.211465358734131,2.491443634033203,6.396681308746338,581.2816162109375,0
525.2810000000009,0.0291712936013937,0.019668005406856537,0.00044356181751936674,0.0,0.0,0.0,0.0,0.0020708339288830757,-0.004057223442941904,0.001980731962248683,1.0006434917449951,0.0,0.0,0.0,-3.207500696182251,2.483844518661499,6.386943817138672,580.56396484375,0
535.1760000000013,0.02910429611802101,0.019688673317432404,0.0004646838060580194,0.0,0.0,0.0,0.0,0.00042443221900612116,-0.002064849017187953,0.0053291358053684235,0.9989187717437744,0.0,0.0,0.0,-3.204416275024414,2.481477737426758,6.378326892852783,580.0056762695312,0
545.0960000000014,0.029165497049689293,0.0197464507073164,0.0005950562190264463,0.0,0.0,0.0,0.0,-0.0012646869290620089,0.002202996052801609,-6.054779078112915e-05,0.9990359544754028,0.0,0.0,0.0,-3.200221538543701,2.4788689613342285,6.378012657165527,579.2465209960938,0
554.9989999999998,0.029180478304624557,0.01982809230685234,0.000524632225278765,0.0,0.0,0.0,0.0,-0.000775666965637356,-0.00175849674269557,-0.0012707571731880307,1.0000656843185425,0.0,0.0,0.0,-3.1962456703186035,2.472207546234131,6.372370719909668,578.52685546875,0
564.9189999999999,0.029124101623892784,0.019824255257844925,0.0005252072587609291,0.0,0.0,0.0,0.0,-0.00035601804847829044,-0.00034569998388178647,0.004453061614185572,1.0003492832183838,0.0,0.0,0.0,-3.193254232406616,2.469425916671753,6.373685359954834,577.9854125976562,0
574.8310000000001,0.029111940413713455,0.01986880972981453,0.0004658865509554744,0.0,0.0,0.0,0.0,0.00035592628410086036,-0.0005276689189486206,0.001957054017111659,0.9987778663635254,0.0,0.0,0.0,-3.191676139831543,2.4658215045928955,6.364976406097412,577.6997680664062,0
584.7480000000014,0.029053805395960808,0.01986621506512165,0.0004625556175597012,0.0,0.0,0.0,0.0,0.0004854633880313486,0.000727473059669137,-0.0034355975221842527,0.9993847608566284,0.0,0.0,0.0,-3.1866402626037598,2.4615895748138428,6.362858772277832,576.7882080078125,0
594.6500000000015,0.029011094942688942,0.0198435727506876,0.00041880892240442336,0.0,0.0,0.0,0.0,0.0005333342123776674,-0.0034279634710401297,-0.0009220439242199063,1.0007165670394897,0.0,0.0,0.0,-3.1917710304260254,2.4615697860717773,6.368067741394043,577.7169799804688,0
604.5590000000011,0.02917252667248249,0.019798656925559044,0.0005410772864706814,0.0,0.0,0.0,0.0,-0.002435796894133091,0.0001660306879784912,-0.0019412045367062092,0.997876763343811,0.0,0.0,0.0,-3.1861581802368164,2.4514904022216797,6.406754016876221,576.700927734375,0
614.4630000000016,0.029147198423743248,0.0197988860309124,0.0005018080119043589,0.0,0.0,0.0,0.0,-0.001995050348341465,0.00038987601874396205,-0.001086376840248704,0.997810423374176,0.0,0.0,0.0,-3.192042112350464,2.4566118717193604,6.412469387054443,577.7660522460938,0
624.3790000000008,0.02909456193447113,0.019793234765529633,0.0004991977475583553,0.0,0.0,0.0,0.0,0.0030156471766531467,0.009321444667875767,0.003071377519518137,0.99736487865448,0.0,0.0,0.0,-3.189932346343994,2.4561285972595215,6.412423133850098,577.3840942382812,0
634.2900000000009,0.02906992845237255,0.019807809963822365,0.00044735919800587,0.0,0.0,0.0,0.0,0.00181464699562639,-0.0010609886376187205,0.002674861578270793,0.9998292326927185,0.0,0.0,0.0,-3.1968791484832764,2.460705041885376,6.406490325927734,578.6414794921875,0
644.2040000000015,0.029207589104771614,0.019748466089367867,0.0005158080020919442,0.0,0.0,0.0,0.0,0.005332911852747202,0.0021591235417872667,-0.0016431487165391445,0.9999806880950928,0.0,0.0,0.0,-3.188903570175171,2.437351942062378,6.426535606384277,577.1978149414062,0
654.107,0.02916910871863365,0.019740518182516098,0.00048736983444541693,0.0,0.0,0.0,0.0,8.600435103289783e-05,0.003674762789160013,-0.0008236760040745139,0.9997742772102356,0.0,0.0,0.0,-3.195542573928833,2.437368154525757,6.414421558380127,578.3995971679688,0
664.023000000001,0.029115919023752213,0.019735613837838173,0.00048073779908008873,0.0,0.0,0.0,0.0,0.001760324346832931,-0.00022545854153577238,-0.003278010059148073,0.9999498128890991,0.0,0.0,0.0,-3.193079948425293,2.4305944442749023,6.399349689483643,577.953857421875,0
673.9330000000009,0.0290910005569458,0.019761109724640846,0.0004378360172268003,0.0,0.0,0.0,0.0,-0.0016446176450699568,-0.0027247851248830557,-0.0002751219435594976,0.9995309710502625,0.0,0.0,0.0,-3.1982650756835938,2.4294259548187256,6.399288654327393,578.892333984375,0
683.8410000000003,0.02930908463895321,0.01963501237332821,0.000508572906255722,0.0,0.0,0.0,0.0,0.002828463213518262,-0.0006388277979567647,0.0008501505362801254,0.9987586736679077,0.0,0.0,0.0,-3.192531108856201,2.4074549674987793,6.443470478057861,577.8545532226562,0
693.755000000001,0.029291924089193344,0.019665978848934174,0.0004813685663975775,0.0,0.0,0.0,0.0,0.00010657834354788065,0.003797064535319805,0.0033760673832148314,0.9996025562286377,0.0,0.0,0.0,-3.199141502380371,2.4233574867248535,6.445852279663086,579.0509643554688,0
703.6640000000007,0.02924633026123047,0.019653810188174248,0.00047500894288532436,0.0,0.0,0.0,0.0,0.003738288301974535,0.0036355487536638975,-0.00031217874493449926,1.0001457929611206,0.0,0.0,0.0,-3.196617603302002,2.4176430702209473,6.430207252502441,578.5941162109375,0
713.5700000000015,0.02921154722571373,0.019718581810593605,0.00047919267672114074,0.0,0.0,0.0,0.0,-0.00464673200622201,-0.007721261121332645,0.0006747486186213791,1.001083254814148,0.0,0.0,0.0,-3.200127124786377,2.43479585647583,6.420792579650879,579.2293701171875,0
723.496000000001,0.02916180156171322,0.019710388034582138,0.00047404153156094253,0.0,0.0,0.0,0.0,9.82363271759823e-05,0.001242569531314075,0.0014296767767518759,1.0014783143997192,0.0,0.0,0.0,-3.1964287757873535,2.4344468116760254,6.409544944763184,578.5599975585938,0
733.3990000000013,0.02913309819996357,0.019734803587198257,0.0004367917717900127,0.0,0.0,0.0,0.0,-0.0021209483966231346,0.0029749292880296707,0.0002502046409063041,0.9979044795036316,0.0,0.0,0.0,-3.192842721939087,2.4343514442443848,6.415158748626709,577.910888671875,0
743.3140000000003,0.029404036700725555,0.01948540285229683,0.0005210750387050211,0.0,0.0,0.0,0.0,-0.0001986498391488567,-0.00037750048795714974,-0.00030502339359372854,0.9990364909172058,0.0,0.0,0.0,-3.185626745223999,2.3840224742889404,6.476509094238281,576.6047973632812,0
753.2200000000012,0.029425669461488724,0.019550761207938194,0.0005194729892536998,0.0,0.0,0.0,0.0,-0.0010570224840193987,0.0012677228078246117,-1.7442211174056865e-05,0.998595654964447,0.0,0.0,0.0,-3.19295072555542,2.3994345664978027,6.47940731048584,577.9304809570312,0
763.134,0.029424969106912613,0.01941179484128952,0.00047986398567445576,0.0,0.0,0.0,0.0,0.00025776136317290366,-0.0046501546166837215,0.005681699141860008,0.9995851516723633,0.0,0.0,0.0,-3.186779737472534,2.3967480659484863,6.4603447914123535,576.8134155273438,0
773.0349999999999,0.02945287525653839,0.019499341025948524,0.00047505408292636275,0.0,0.0,0.0,0.0,-0.0020908548031002283,-0.0029216462280601263,0.005035934969782829,1.00041663646698,0.0,0.0,0.0,-3.195573091506958,2.4137110710144043,6.462426662445068,578.4051513671875,0
782.9549999999999,0.029417842626571655,0.019395237788558006,0.0004391527036204934,0.0,0.0,0.0,0.0,-0.0028451369144022465,-0.0016420666361227632,0.002407088875770569,0.9989670515060425,0.0,0.0,0.0,-3.1860885620117188,2.4162163734436035,6.464157581329346,576.6882934570312,0
792.857,0.029417842626571655,0.019395237788558006,0.0004391527036204934,0.0,0.0,0.0,0.0,-0.0017379067139700055,-0.0011235460406169295,0.004008952062577009,0.9984725117683411,0.0,0.0,0.0,-3.1860885620117188,2.4162163734436035,6.464157581329346,576.6882934570312,0
802.7790000000005,0.029406774789094925,0.01946135051548481,0.00042362953536212444,0.0,0.0,0.0,0.0,-0.0017175725661218166,0.0045280251652002335,0.0007699752459302545,0.9988573789596558,0.0,0.0,0.0,-3.189087390899658,2.4462203979492188,6.458993911743164,577.231201171875,0
812.6810000000005,0.029368486255407333,0.019444603472948074,0.0004131699388381094,0.0,0.0,0.0,0.0,0.0017745466902852058,-0.0018368877936154604,0.002358141588047147,0.9999187588691711,0.0,0.0,0.0,-3.1853132247924805,2.440190553665161,6.460546970367432,576.5479736328125,0
822.6040000000012,0.029308807104825974,0.019452674314379692,0.0004482460208237171,0.0,0.0,0.0,0.0,-0.0001285345060750842,-0.0010361972963437438,0.0007105485419742763,0.9982393383979797,0.0,0.0,0.0,-3.192119598388672,2.451756715774536,6.444758415222168,577.780029296875,0
832.5060000000012,0.029263895004987717,0.019437815994024277,0.0004401264013722539,0.0,0.0,0.0,0.0,0.0005554211675189435,0.00038248187047429383,0.0025467982050031424,0.9980122447013855,0.0,0.0,0.0,-3.1892483234405518,2.4521872997283936,6.440499782562256,577.2603759765625,0
842.4250000000011,0.029214048758149147,0.019514717161655426,0.0004710590292233974,0.0,0.0,0.0,0.0,0.002937589306384325,-0.0026832998264580965,0.0010812904220074415,0.9977027177810669,0.0,0.0,0.0,-3.1918609142303467,2.477458953857422,6.432825565338135,577.7332153320312,0
852.3310000000001,0.029165180400013924,0.01950620859861374,0.0004635700606741011,0.0,0.0,0.0,0.0,-0.0005655736895278096,0.00018223474035039544,-0.0007119372603483498,0.9987074732780457,0.0,0.0,0.0,-3.1885271072387695,2.472221851348877,6.428964138031006,577.1296997070312,0
862.2450000000008,0.029113318771123886,0.019587242975831032,0.00048642235924489796,0.0,0.0,0.0,0.0,-3.688646393129602e-05,0.0025361275766044855,-0.0007721293950453401,0.9971510171890259,0.0,0.0,0.0,-3.1845715045928955,2.468191146850586,6.435529708862305,576.4137573242188,0
872.1450000000004,0.02905852720141411,0.01958474889397621,0.0004783071344718337,0.0,0.0,0.0,0.0,0.0022171922028064728,-0.000879540340974927,0.0012664536479860544,0.9998230934143066,0.0,0.0,0.0,-3.181387424468994,2.4621481895446777,6.4198503494262695,575.83740234375,0
882.0610000000015,0.02903900109231472,0.019711952656507492,0.0004484431410674006,0.0,0.0,0.0,0.0,-0.0014810399152338505,0.00018498103599995375,-0.0011340107303112745,1.001747727394104,0.0,0.0,0.0,-3.187079668045044,2.5094759464263916,6.4318695068359375,576.8677368164062,0
891.9670000000006,0.028986040502786636,0.019719542935490608,0.0004366342618595809,0.0,0.0,0.0,0.0,-0.0011954978108406067,-0.00030907397740520537,-0.0001683342270553112,0.9991564750671387,0.0,0.0,0.0,-3.183579921722412,2.504849910736084,6.426915168762207,576.2343139648438,0
901.8880000000008,0.02893282286822796,0.019727732986211777,0.000425818347139284,0.0,0.0,0.0,0.0,0.0007890055421739817,-0.002313332399353385,0.008370895870029926,0.9990178346633911,0.0,0.0,0.0,-3.1808462142944336,2.5035738945007324,6.423880577087402,575.7394409179688,0
911.7880000000005,0.028878916054964066,0.019735462963581085,0.0004148469597566873,0.0,0.0,0.0,0.0,0.0011150280479341745,0.00016242948186118156,0.00025119277415797114,0.9983178377151489,0.0,0.0,0.0,-3.178068161010742,2.505316734313965,6.413884162902832,575.2366943359375,0
921.7060000000001,0.0288234855979681,0.019741779193282127,0.0004029338888358325,0.0,0.0,0.0,0.0,-0.0011478252708911896,0.0014978644903749228,0.001799599383957684,0.9977970123291016,0.0,0.0,0.0,-3.1750848293304443,2.498722791671753,6.4166741371154785,574.6967163085938,0
931.6140000000014,0.028765615075826645,0.01974683254957199,0.00038964097620919347,0.0,0.0,0.0,0.0,0.0020822701044380665,0.0019939392805099487,-0.0012984464410692453,0.9997144341468811,0.0,0.0,0.0,-3.1718008518218994,2.491626501083374,6.398370742797852,574.102294921875,0
941.5370000000003,0.02870454266667366,0.019750744104385376,0.00037483498454093933,0.0,0.0,0.0,0.0,0.00035773514537140727,0.0006218569469638169,0.002323274966329336,1.0000793933868408,0.0,0.0,0.0,-3.1687915325164795,2.484229326248169,6.390676021575928,573.5576171875,0
951.4290000000001,0.02864069677889347,0.01975449174642563,0.0003595702874008566,0.0,0.0,0.0,0.0,0.0005850474699400365,-0.0023242910392582417,-0.002712111920118332,1.0007261037826538,0.0,0.0,0.0,-3.166498899459839,2.4797518253326416,6.3836469650268555,573.142578125,0
961.353000000001,0.02857436053454876,0.019758645445108414,0.00034495367435738444,0.0,0.0,0.0,0.0,-0.00259507168084383,0.010089518502354622,-0.00249257474206388,0.9998531937599182,0.0,0.0,0.0,-3.1625430583953857,2.4771997928619385,6.39164924621582,572.4266357421875,0
971.2520000000004,0.028505396097898483,0.0197640061378479,0.00033108063507825136,0.0,0.0,0.0,0.0,-0.001142023247666657,-0.0006366549641825259,-0.0010934523306787014,0.9989379048347473,0.0,0.0,0.0,-3.160712242126465,2.477184534072876,6.3657965660095215,572.0952758789062,0
981.1720000000005,0.02868283912539482,0.019971024245023727,8.767213876126334e-05,0.0,0.0,0.0,0.0,-0.0005326716345734894,-0.0068837557919323444,0.00040220332448370755,1.0009928941726685,0.0,0.0,0.0,-3.1720829010009766,2.551037073135376,6.431040287017822,574.1533203125,0
991.0730000000003,0.02862684242427349,0.019992770627141,5.8914672990795225e-05,0.0,0.0,0.0,0.0,-0.0002054429642157629,0.0011623217724263668,0.0008092569769360125,1.0008575916290283,0.0,0.0,0.0,-3.169065237045288,2.5498173236846924,6.428885459899902,573.607177734375,0
1001.0,0.028568362817168236,0.020014163106679916,3.0688468541484326e-05,0.0,0.0,0.0,0.0,0.001767482841387391,0.00640147365629673,-0.0038967030122876167,1.0007824897766113,0.0,0.0,0.0,-3.167546510696411,2.546907424926758,6.41920280456543,573.332275390625,0
1010.8950000000004,0.02850763499736786,0.02003626897931099,3.447981725912541e-06,0.0,0.0,0.0,0.0,0.0011686846846714616,-0.00036457370151765645,0.005572570022195578,0.9991783499717712,0.0,0.0,0.0,-3.1635069847106934,2.54866623878479,6.410135746002197,572.60107421875,0
1020.8130000000001,0.02844519168138504,0.02005801349878311,-2.2955478925723583e-05,0.0,0.0,0.0,0.0,0.00246120011433959,0.0012736832723021507,0.001972109777852893,0.9990307092666626,0.0,0.0,0.0,-3.1605403423309326,2.540032148361206,6.39106559753418,572.0641479492188,0
1030.7150000000001,0.028380868956446648,0.02007860317826271,-4.960373189533129e-05,0.0,0.0,0.0,0.0,0.0014351801946759224,0.007324776612222195,0.00022336162510327995,1.000939965248108,0.0,0.0,0.0,-3.157649517059326,2.535529851913452,6.390105724334717,571.5408325195312,0
1040.6419999999998,0.02831444703042507,0.020098235458135605,-7.664130680495873e-05,0.0,0.0,0.0,0.0,-0.0013297625118866563,-0.0044710636138916016,0.0009596506715752184,1.0024489164352417,0.0,0.0,0.0,-3.15320086479187,2.525779962539673,6.368859767913818,570.735595703125,0
1050.5460000000003,0.02824619971215725,0.020117096602916718,-0.00010258318070555106,0.0,0.0,0.0,0.0,-0.0031827872153371572,0.0014599475543946028,-0.005505059380084276,1.0013638734817505,0.0,0.0,0.0,-3.149301767349243,2.5195958614349365,6.365206718444824,570.0298461914062,0
1060.460000000001,0.028176194056868553,0.020135989412665367,-0.0001264276506844908,0.0,0.0,0.0,0.0,0.00029971275944262743,0.003164151683449745,0.00042618767474777997,1.0004968643188477,0.0,0.0,0.0,-3.1466405391693115,2.520840644836426,6.355257511138916,569.5481567382812,0
1070.3640000000014,0.02810443565249443,0.020154908299446106,-0.0001485786633566022,0.0,0.0,0.0,0.0,-0.0009481763117946684,0.0003912349930033088,-0.0012276025954633951,0.9988219141960144,0.0,0.0,0.0,-3.1442861557006836,2.5192811489105225,6.340163707733154,569.1220092773438,0
1080.2830000000013,0.027952417731285095,0.02019275352358818,-0.00019259125110693276,0.0,0.0,0.0,0.0,0.0017162017757073045,0.0059869010001420975,-0.0028630313463509083,0.9991269111633301,0.0,0.0,0.0,-3.1405231952667236,2.5037758350372314,6.319145679473877,568.44091796875,0
1090.184000000001,0.027952417731285095,0.02019275352358818,-0.00019259125110693276,0.0,0.0,0.0,0.0,-0.0007889886619523168,-0.0067746308632195,0.0008127244072966278,1.000826358795166,0.0,0.0,0.0,-3.1405231952667236,2.5037758350372314,6.319145679473877,568.44091796875,0
1100.1130000000012,0.029324708506464958,0.019517768174409866,0.0005793568561784923,0.0,0.0,0.0,0.0,0.0028113853186368942,0.0010046984534710646,0.0011660417076200247,0.9984241724014282,0.0,0.0,0.0,-3.1394832134246826,2.406738758087158,6.540367603302002,568.2527465820312,0
1110.005000000001,0.029324708506464958,0.019517768174409866,0.0005793568561784923,0.0,0.0,0.0,0.0,-0.000439827999798581,-0.0017468312289565802,-0.0006491373060271144,0.9991127848625183,0.0,0.0,0.0,-3.1394832134246826,2.406738758087158,6.540367603302002,568.2527465820312,0
1119.9310000000005,0.02937236800789833,0.019400550052523613,0.0005230788956396282,0.0,0.0,0.0,0.0,0.0015107991639524698,0.0050195250660181046,0.00305006536655128,0.9997338652610779,0.0,0.0,0.0,-3.1336419582366943,2.3904099464416504,6.529276371002197,567.1954956054688,0
1129.8340000000007,0.02937236800789833,0.019400550052523613,0.0005230788956396282,0.0,0.0,0.0,0.0,-0.003485958557575941,0.003817823948338628,-0.0012804517755284905,1.001588225364685,0.0,0.0,0.0,-3.1336419582366943,2.3904099464416504,6.529276371002197,567.1954956054688,0
1139.7430000000004,0.029339656233787537,0.019384389743208885,0.0005178994033485651,0.0,0.0,0.0,0.0,-0.0008938657119870186,-0.0036091438960283995,-0.003877335460856557,1.000505805015564,0.0,0.0,0.0,-3.1303012371063232,2.391456365585327,6.510350227355957,566.5907592773438,0
1149.652,0.029307372868061066,0.019369248300790787,0.0005143883172422647,0.0,0.0,0.0,0.0,0.000995946116745472,0.0016093981685116887,-0.000719318981282413,0.9981763362884521,0.0,0.0,0.0,-3.127251625061035,2.38972544670105,6.494418144226074,566.0386962890625,0
1159.5660000000007,0.02927245944738388,0.019353892654180527,0.0005114852101542056,0.0,0.0,0.0,0.0,0.0023445915430784225,0.004070713650435209,-0.00025184816331602633,0.9986504912376404,0.0,0.0,0.0,-3.1253416538238525,2.3873138427734375,6.488152980804443,565.6930541992188,0
1169.4710000000014,0.029235180467367172,0.019339125603437424,0.0005077764508314431,0.0,0.0,0.0,0.0,-0.0003296502400189638,0.0004031722783111036,0.0006454437971115112,0.9988269805908203,0.0,0.0,0.0,-3.1226463317871094,2.3815860748291016,6.4819231033325195,565.2052001953125,0
1179.393,0.0291957538574934,0.019324541091918945,0.0005030434695072472,0.0,0.0,0.0,0.0,-0.0016325389733538032,0.0025937012396752834,-0.0009817059617489576,0.9999072551727295,0.0,0.0,0.0,-3.1179943084716797,2.376600980758667,6.469180583953857,564.3631591796875,0
1189.291000000001,0.029153961688280106,0.01930914632976055,0.0004975536139681935,0.0,0.0,0.0,0.0,0.002495268825441599,-0.001307364203967154,-0.001939076348207891,0.9999340176582336,0.0,0.0,0.0,-3.115007162094116,2.3765146732330322,6.462811470031738,563.822509765625,0
1199.210000000001,0.029282383620738983,0.019340021535754204,0.0005378364003263414,0.0,0.0,0.0,0.0,-0.00042253147694282234,-0.0012363228015601635,0.0031280014663934708,1.0005762577056885,0.0,0.0,0.0,-3.115715265274048,2.3852269649505615,6.507779121398926,563.9506225585938,0
1209.1149999999998,0.029247263446450233,0.01932406611740589,0.0005370549624785781,0.0,0.0,0.0,0.0,0.0037952016573399305,0.0030781091190874577,-0.0006465307669714093,0.9997264742851257,0.0,0.0,0.0,-3.1119563579559326,2.3768653869628906,6.493773937225342,563.2703247070312,0
1219.0330000000013,0.029279744252562523,0.019342074170708656,0.0005679107271134853,0.0,0.0,0.0,0.0,-0.0018685141112655401,-0.00283148349262774,-0.0016266634920611978,0.9987618923187256,0.0,0.0,0.0,-3.119377374649048,2.3869223594665527,6.513263702392578,564.6134643554688,0
1228.938,0.029288988560438156,0.019356783479452133,0.0005940145347267389,0.0,0.0,0.0,0.0,-1.4878984984534327e-05,-0.003729715012013912,0.00380956893786788,0.9998539090156555,0.0,0.0,0.0,-3.1162731647491455,2.3810174465179443,6.5056962966918945,564.0516357421875,0
1238.8520000000008,0.029314571991562843,0.019546177238225937,0.00026326189981773496,0.0,0.0,0.0,0.0,0.0015852309297770262,0.00259619252756238,-0.003053855150938034,1.0012414455413818,0.0,0.0,0.0,-3.132042169570923,2.427527666091919,6.510265350341797,566.9058837890625,0
1248.7579999999998,0.029282348230481148,0.019540784880518913,0.00025661406107246876,0.0,0.0,0.0,0.0,-0.0015763213159516454,0.000908811402041465,0.00046361799468286335,1.0007530450820923,0.0,0.0,0.0,-3.1293225288391113,2.429206132888794,6.504613876342773,566.4136352539062,0
1258.6810000000005,0.029231783002614975,0.019564520567655563,0.00032862945226952434,0.0,0.0,0.0,0.0,0.00242545991204679,0.0016071890713647008,-0.002149092499166727,0.9997572898864746,0.0,0.0,0.0,-3.144885301589966,2.4402639865875244,6.494725704193115,569.2305297851562,0
1268.5830000000005,0.029191842302680016,0.019560670480132103,0.00032876565819606185,0.0,0.0,0.0,0.0,-0.0010942784138023853,0.0018738450016826391,-0.00013236519589554518,0.998104453086853,0.0,0.0,0.0,-3.1411283016204834,2.4318389892578125,6.470260143280029,568.5504760742188,0
1278.5010000000002,0.029159298166632652,0.019629398360848427,0.0003112565027549863,0.0,0.0,0.0,0.0,-0.0006152011337690055,0.00037106641684658825,0.0032090498134493828,0.9992856383323669,0.0,0.0,0.0,-3.1545491218566895,2.4464340209960938,6.460887908935547,570.9796752929688,0
1288.4050000000007,0.029233908280730247,0.019645335152745247,0.00042590871453285217,0.0,0.0,0.0,0.0,-0.002201964147388935,0.0018266651313751936,0.0005117316031828523,0.9986149668693542,0.0,0.0,0.0,-3.151750087738037,2.440436840057373,6.44577693939209,570.4730224609375,0
1298.3160000000007,0.029215985909104347,0.019686177372932434,0.00040640163933858275,0.0,0.0,0.0,0.0,0.0007625796133652329,0.0006536914734169841,0.0003411042271181941,1.0007233619689941,0.0,0.0,0.0,-3.162545680999756,2.438685417175293,6.444633483886719,572.4270629882812,0
1308.223,0.029288247227668762,0.019703885540366173,0.00046890132944099605,0.0,0.0,0.0,0.0,0.0003490452072583139,0.0029853300657123327,-0.0014623377937823534,1.0013021230697632,0.0,0.0,0.0,-3.1601788997650146,2.4326260089874268,6.4347052574157715,571.9986572265625,0
1318.1380000000008,0.029263626784086227,0.019747141748666763,0.00047495795297436416,0.0,0.0,0.0,0.0,-0.0024737452622503042,0.0011465459829196334,-0.0014669850934296846,1.0015127658843994,0.0,0.0,0.0,-3.165205955505371,2.43619966506958,6.429049968719482,572.9085693359375,0
1328.0400000000009,0.02922600880265236,0.019745972007513046,0.00048271098057739437,0.0,0.0,0.0,0.0,-0.0001808315428206697,-0.0029724666383117437,-0.0025040865875780582,1.0005536079406738,0.0,0.0,0.0,-3.162614107131958,2.4386425018310547,6.425830841064453,572.4395141601562,0
1337.9610000000011,0.029202966019511223,0.019756225869059563,0.00047198712127283216,0.0,0.0,0.0,0.0,0.0005857562064193189,0.005154269281774759,-0.0029740980826318264,0.998762309551239,0.0,0.0,0.0,-3.1761932373046875,2.4446234703063965,6.413834095001221,574.8973388671875,0
1347.862000000001,0.029164519160985947,0.019755225628614426,0.0004800204769708216,0.0,0.0,0.0,0.0,-0.0020574131049215794,0.0026088606100529432,-0.001304824836552143,0.9995007514953613,0.0,0.0,0.0,-3.172346591949463,2.445411443710327,6.407365798950195,574.2010498046875,0
1357.7880000000005,0.02915695309638977,0.01981448195874691,0.0004360445018392056,0.0,0.0,0.0,0.0,0.003435836872085929,0.0031205355189740658,-0.000736601185053587,0.9988112449645996,0.0,0.0,0.0,-3.1808996200561523,2.462517261505127,6.4194512367248535,575.7491455078125,0
1367.687,0.029173593968153,0.01984114572405815,0.0004994467017240822,0.0,0.0,0.0,0.0,0.0008486174629069865,-0.0012137938756495714,0.0012405073503032327,0.9974559545516968,0.0,0.0,0.0,-3.1713647842407227,2.454843521118164,6.4153923988342285,574.0233764648438,0
1377.6010000000006,0.029177159070968628,0.019891303032636642,0.0004370019887574017,0.0,0.0,0.0,0.0,0.000213509367313236,0.0017923738341778517,-0.0006351027404889464,0.9992654323577881,0.0,0.0,0.0,-3.183670997619629,2.463494062423706,6.413681507110596,576.2507934570312,0
1387.509,0.029234498739242554,0.019849633798003197,0.00045340877841226757,0.0,0.0,0.0,0.0,0.0015437182737514377,-0.0017898607766255736,-0.0013066008687019348,0.9989916086196899,0.0,0.0,0.0,-3.1801249980926514,2.464156150817871,6.405363082885742,575.6089477539062,0
1397.4279999999999,0.02922016568481922,0.01987568289041519,0.0004126696730963886,0.0,0.0,0.0,0.0,-0.00039104491588659585,4.019729749416001e-05,-0.0025759567506611347,0.9986644387245178,0.0,0.0,0.0,-3.192323923110962,2.4655373096466064,6.40327787399292,577.8169555664062,0
1407.3270000000011,0.029174165800213814,0.01987936533987522,0.0004081916995346546,0.0,0.0,0.0,0.0,-0.003006324637681246,0.0016491924179717898,-0.0014502464327961206,0.9969469904899597,0.0,0.0,0.0,-3.1892130374908447,2.464996099472046,6.401060104370117,577.25390625,0
1417.246000000001,0.029116226360201836,0.019829530268907547,0.0003986982046626508,0.0,0.0,0.0,0.0,0.004327284172177315,0.0054804058745503426,0.0008810602012090385,1.0000075101852417,0.0,0.0,0.0,-3.19634747505188,2.4684174060821533,6.390018939971924,578.5452880859375,0
1427.1470000000008,0.029063349589705467,0.019831186160445213,0.00039075358654372394,0.0,0.0,0.0,0.0,-0.002541956026107073,-0.0031195415649563074,-0.0005936929956078529,0.9989674687385559,0.0,0.0,0.0,-3.193186044692993,2.459545612335205,6.368707180023193,577.9730224609375,0
1437.0700000000015,0.029013216495513916,0.01985783874988556,0.0003824771847575903,0.0,0.0,0.0,0.0,0.0011026457650586963,0.004251878242939711,-0.0020442274399101734,0.9969075322151184,0.0,0.0,0.0,-3.2014238834381104,2.471212863922119,6.367502212524414,579.464111328125,0
1446.978000000001,0.028956571593880653,0.01986050419509411,0.0003726725117303431,0.0,0.0,0.0,0.0,-0.0022152867168188095,0.002125772414728999,-0.001167722512036562,0.9993252754211426,0.0,0.0,0.0,-3.1995720863342285,2.468825101852417,6.348536014556885,579.1289672851562,0
1456.8860000000004,0.028898905962705612,0.019861647859215736,0.00036133211688138545,0.0,0.0,0.0,0.0,-0.0024672579020261765,0.0005676657892763615,-0.0009752136538736522,0.9994699954986572,0.0,0.0,0.0,-3.1968157291412354,2.466787099838257,6.3400678634643555,578.6300659179688,0
1466.800000000001,0.028840340673923492,0.019861245527863503,0.0003495196287985891,0.0,0.0,0.0,0.0,-8.057474042288959e-05,0.003290756605565548,-0.00040775639354251325,0.9973693490028381,0.0,0.0,0.0,-3.194098472595215,2.4660990238189697,6.33582878112793,578.1382446289062,0
1476.710000000001,0.028786232694983482,0.01980532519519329,0.00029334696591831744,0.0,0.0,0.0,0.0,0.00015466343029402196,-0.0006736214272677898,-0.00018391544290352613,1.0006964206695557,0.0,0.0,0.0,-3.20039439201355,2.4499406814575195,6.321956157684326,579.2777709960938,0
1486.6200000000008,0.02872476913034916,0.01980084739625454,0.0002761561772786081,0.0,0.0,0.0,0.0,0.003040273441001773,0.005201784428209066,-0.0009509128285571933,0.9986696243286133,0.0,0.0,0.0,-3.1968367099761963,2.444127321243286,6.315759658813477,578.6338500976562,0
1496.5259999999998,0.02866838127374649,0.01982107199728489,0.00025484044454060495,0.0,0.0,0.0,0.0,-0.00015246156544890255,0.0025844601914286613,0.002503864699974656,0.998291015625,0.0,0.0,0.0,-3.1935763359069824,2.4349887371063232,6.300766944885254,578.0436401367188,0
1506.446,0.02860165759921074,0.019818410277366638,0.00023622735170647502,0.0,0.0,0.0,0.0,0.0014633239479735494,-0.0038735121488571167,0.0021290455479174852,1.000212550163269,0.0,0.0,0.0,-3.189807176589966,2.433803081512451,6.283514022827148,577.3615112304688,0
1516.3540000000012,0.028531692922115326,0.019815051928162575,0.0002169085491914302,0.0,0.0,0.0,0.0,-0.0012482010060921311,0.0006586698000319302,-0.001994563266634941,0.9999110102653503,0.0,0.0,0.0,-3.185647964477539,2.4290926456451416,6.281687259674072,576.6085815429688,0
1526.2660000000014,0.028459079563617706,0.01981024630367756,0.00019788698409684002,0.0,0.0,0.0,0.0,0.0017675106646493077,0.003752203658223152,-0.001421507098712027,0.9992803931236267,0.0,0.0,0.0,-3.1830637454986572,2.433546781539917,6.283627986907959,576.1408081054688,0
1536.175000000001,0.028508778661489487,0.019945628941059113,3.184546221746132e-05,0.0,0.0,0.0,0.0,-0.0002327934926142916,0.004175815265625715,-0.0007712742662988603,0.9988533854484558,0.0,0.0,0.0,-3.190656900405884,2.489126443862915,6.324001312255859,577.5152587890625,0
1546.0860000000011,0.028443090617656708,0.01995108462870121,1.6928752302192152e-06,0.0,0.0,0.0,0.0,0.0020336925517767668,0.004254420753568411,-0.0011288097593933344,1.0002108812332153,0.0,0.0,0.0,-3.1872060298919678,2.484896659851074,6.317748069763184,576.8905639648438,0
1555.9890000000014,0.028447868302464485,0.020032860338687897,-0.000123133635497652,0.0,0.0,0.0,0.0,-0.00021880063286516815,0.0030994133558124304,-0.0022327876649796963,1.000603437423706,0.0,0.0,0.0,-3.1919631958007812,2.509275436401367,6.334306240081787,577.7517700195312,0
1565.9130000000005,0.02838423103094101,0.020043233409523964,-0.00015953397087287158,0.0,0.0,0.0,0.0,-0.000281017943052575,0.00032639276469126344,-0.004608731251209974,0.9994896650314331,0.0,0.0,0.0,-3.1900410652160645,2.5076091289520264,6.319490432739258,577.40380859375,0
1575.8110000000015,0.028368668630719185,0.020085295662283897,-0.00025821226881816983,0.0,0.0,0.0,0.0,-0.0006923222681507468,-0.00116799958050251,-0.0025468834210187197,0.9990063905715942,0.0,0.0,0.0,-3.1970601081848145,2.5263073444366455,6.32583475112915,578.6742553710938,0
1585.7340000000004,0.02830396220088005,0.02009730413556099,-0.0002991426445078105,0.0,0.0,0.0,0.0,0.0032832249999046326,0.0014656918356195092,0.0015014860546216369,0.9983168244361877,0.0,0.0,0.0,-3.1943421363830566,2.524993896484375,6.324130058288574,578.1823120117188,0
1595.6350000000002,0.028236322104930878,0.0201082956045866,-0.0003410391218494624,0.0,0.0,0.0,0.0,0.0006540305912494659,0.00038865715032443404,-0.00385804264806211,1.0010809898376465,0.0,0.0,0.0,-3.1911017894744873,2.5148165225982666,6.316950798034668,577.5957641601562,0
1605.5520000000015,0.02816658280789852,0.02011864259839058,-0.00038296301499940455,0.0,0.0,0.0,0.0,-0.0010816537542268634,-0.0024140405002981424,-0.0025995562318712473,1.0022354125976562,0.0,0.0,0.0,-3.1884572505950928,2.512359857559204,6.307675838470459,577.1170654296875,0
1615.4530000000013,0.028095798566937447,0.020127950236201286,-0.0004232554929330945,0.0,0.0,0.0,0.0,-0.0010526677360758185,-2.8412177925929427e-05,0.0044343420304358006,1.0001442432403564,0.0,0.0,0.0,-3.185455560684204,2.5168683528900146,6.306056976318359,576.57373046875,0
1625.3780000000006,0.028023360297083855,0.020135758444666862,-0.00046188454143702984,0.0,0.0,0.0,0.0,0.002158578485250473,-0.0002024717687163502,-0.001147744245827198,1.000186562538147,0.0,0.0,0.0,-3.181546688079834,2.5209500789642334,6.301608562469482,575.8662719726562,0
1635.2800000000007,0.027948956936597824,0.020142631605267525,-0.0004996543284505606,0.0,0.0,0.0,0.0,-5.120479181641713e-05,0.0028533893637359142,-0.0005034964997321367,1.0017380714416504,0.0,0.0,0.0,-3.1789376735687256,2.520395040512085,6.296361446380615,575.3939819335938,0
1645.1930000000011,0.02787286974489689,0.02014916017651558,-0.0005362234078347683,0.0,0.0,0.0,0.0,-0.0028577102348208427,0.0016265580197796226,0.0011155670508742332,1.0001771450042725,0.0,0.0,0.0,-3.1763689517974854,2.517587661743164,6.286432266235352,574.9291381835938,0
1655.098,0.02779465727508068,0.020154792815446854,-0.0005715991137549281,0.0,0.0,0.0,0.0,0.0026962822303175926,0.0028900306206196547,-0.001910370192490518,0.9995834231376648,0.0,0.0,0.0,-3.1730456352233887,2.516742706298828,6.281380653381348,574.3275756835938,0
1665.0210000000006,0.0277140811085701,0.020159371197223663,-0.0006065319757908583,0.0,0.0,0.0,0.0,0.003941147122532129,0.0009000607533380389,-0.00020668587239924818,0.9999864101409912,0.0,0.0,0.0,-3.1719675064086914,2.507547616958618,6.27148962020874,574.1323852539062,0
1674.925000000001,0.027631448581814766,0.020163850858807564,-0.0006412306101992726,0.0,0.0,0.0,0.0,-0.0025492003187537193,0.00125412130728364,0.000886781548615545,0.999350368976593,0.0,0.0,0.0,-3.169473648071289,2.498645305633545,6.259695529937744,573.6810302734375,0
1684.839,0.027547797188162804,0.020168671384453773,-0.0006759430398233235,0.0,0.0,0.0,0.0,-0.0003690414014272392,0.00145387661177665,0.0012847251491621137,0.999032199382782,0.0,0.0,0.0,-3.1657590866088867,2.5026748180389404,6.243095397949219,573.0087280273438,0
1694.7420000000002,0.02746354602277279,0.020174095407128334,-0.00071102031506598,0.0,0.0,0.0,0.0,0.002504561562091112,-0.0010419496102258563,-0.0005077319801785052,1.0012661218643188,0.0,0.0,0.0,-3.1623871326446533,2.5009634494781494,6.2307024002075195,572.3983764648438,0
1704.657000000001,0.027378162369132042,0.020180681720376015,-0.0007458094041794538,0.0,0.0,0.0,0.0,-0.0018428592011332512,0.0012561208568513393,-0.005669406149536371,0.9997508525848389,0.0,0.0,0.0,-3.159393787384033,2.492799758911133,6.223239898681641,571.8565673828125,0
1714.5600000000013,0.02729140967130661,0.020187487825751305,-0.000779789756052196,0.0,0.0,0.0,0.0,0.0027517692651599646,0.001826683757826686,-0.0005490916082635522,0.9985585808753967,0.0,0.0,0.0,-3.1585440635681152,2.4911015033721924,6.215671539306641,571.7026977539062,0
1724.4809999999998,0.027203259989619255,0.020193446427583694,-0.0008140739519149065,0.0,0.0,0.0,0.0,-0.0012529647210612893,0.0038566156290471554,0.0013665363658219576,0.9972686171531677,0.0,0.0,0.0,-3.1558048725128174,2.485954761505127,6.200529098510742,571.2069091796875,0
1734.3870000000006,0.027113698422908783,0.020198870450258255,-0.000849989359267056,0.0,0.0,0.0,0.0,-0.0013343123719096184,-0.0024724395480006933,-0.0012083628680557013,0.9978496432304382,0.0,0.0,0.0,-3.1522064208984375,2.486264228820801,6.193668842315674,570.5556030273438,0
1744.3010000000013,0.027022959664463997,0.020205244421958923,-0.0008879132801666856,0.0,0.0,0.0,0.0,-0.00047343390178866684,0.0029751283582299948,0.0028334727976471186,1.0000747442245483,0.0,0.0,0.0,-3.149022340774536,2.489656925201416,6.191452503204346,569.9793090820312,0
1754.2080000000005,0.026931291446089745,0.020211953669786453,-0.0009268117137253284,0.0,0.0,0.0,0.0,-0.0014311473350971937,-0.000979526317678392,-0.0018280763179063797,0.9991801381111145,0.0,0.0,0.0,-3.145735263824463,2.4833412170410156,6.183456897735596,569.3843383789062,0
1764.1230000000014,0.026838144287467003,0.020217405632138252,-0.0009659368079155684,0.0,0.0,0.0,0.0,0.0007583218393847346,0.001075316802598536,0.0014810936991125345,0.9987006187438965,0.0,0.0,0.0,-3.144007921218872,2.485671281814575,6.17851448059082,569.0717163085938,0
1774.0259999999998,0.02674192748963833,0.020222216844558716,-0.0010056374594569206,0.0,0.0,0.0,0.0,0.0008550051134079695,-0.0005857991054654121,-0.0023593027144670486,0.9979739785194397,0.0,0.0,0.0,-3.139955520629883,2.482281446456909,6.1696624755859375,568.3381958007812,0
1783.9480000000003,0.026641231030225754,0.020226359367370605,-0.0010465896921232343,0.0,0.0,0.0,0.0,0.00035519414814189076,-0.0007220206898637116,-0.001954189268872142,1.0006725788116455,0.0,0.0,0.0,-3.1377432346343994,2.476767063140869,6.1658172607421875,567.9378051757812,0
1793.8469999999998,0.026536976918578148,0.02023027092218399,-0.0010882570641115308,0.0,0.0,0.0,0.0,0.0009059329750016332,0.0006114375428296626,-0.0028788086492568254,0.9986075162887573,0.0,0.0,0.0,-3.1348981857299805,2.477856159210205,6.1580491065979,567.4227905273438,0
1803.7630000000008,0.02643069252371788,0.020234737545251846,-0.0011300335172563791,0.0,0.0,0.0,0.0,0.00143744598608464,0.002083556493744254,-0.0016187335131689906,1.000514268875122,0.0,0.0,0.0,-3.132080316543579,2.474810838699341,6.148009300231934,566.9127807617188,0
1813.6689999999999,0.02632226049900055,0.02023867517709732,-0.0011720051988959312,0.0,0.0,0.0,0.0,-0.003971094265580177,-0.0006073527620173991,0.0020685005001723766,1.0019780397415161,0.0,0.0,0.0,-3.1294047832489014,2.4732038974761963,6.140757083892822,566.4285278320312,0
1823.5870000000014,0.026211468502879143,0.02024194970726967,-0.0012129258830100298,0.0,0.0,0.0,0.0,-0.0020781971979886293,0.0034097512252628803,-0.00175310461781919,1.0012599229812622,0.0,0.0,0.0,-3.1264965534210205,2.4763033390045166,6.13539981842041,565.9020385742188,0
1833.491,0.026098351925611496,0.02024511620402336,-0.0012518855510279536,0.0,0.0,0.0,0.0,0.00013278356345836073,-0.0016596593195572495,-6.001363362884149e-05,0.9980875253677368,0.0,0.0,0.0,-3.1238911151885986,2.4752562046051025,6.129476547241211,565.4304809570312,0
1843.4099999999999,0.025982702150940895,0.020247818902134895,-0.0012904750183224678,0.0,0.0,0.0,0.0,0.0027463093865662813,0.00011533725773915648,-0.001110070152208209,0.9989177584648132,0.0,0.0,0.0,-3.120826482772827,2.4685137271881104,6.118823528289795,564.8757934570312,0
1853.3140000000003,0.026633696630597115,0.020746372640132904,-0.001941613620147109,0.0,0.0,0.0,0.0,0.00019188076839782298,-0.0008693955023773015,0.0022640235256403685,0.9978750348091125,0.0,0.0,0.0,-3.1380372047424316,2.5560011863708496,6.218029499053955,567.9910278320312,0
1863.2340000000004,0.02654021978378296,0.020768174901604652,-0.002006371971219778,0.0,0.0,0.0,0.0,-0.0006903128232806921,0.0022013182751834393,-7.975284825079143e-05,1.000017523765564,0.0,0.0,0.0,-3.134813070297241,2.5566890239715576,6.226503849029541,567.407470703125,0
1873.1370000000006,0.02654571644961834,0.02078733779489994,-0.002188505604863167,0.0,0.0,0.0,0.0,-0.0037118506152182817,-0.000436863541835919,-0.0004197533999104053,0.9988586902618408,0.0,0.0,0.0,-3.1544225215911865,2.561710834503174,6.231472015380859,570.9567260742188,0
1883.059000000001,0.02645016834139824,0.020810112357139587,-0.0022592670284211636,0.0,0.0,0.0,0.0,-0.00010988683061441407,0.006366127170622349,-0.0053895399905741215,0.999396026134491,0.0,0.0,0.0,-3.1523523330688477,2.5675888061523438,6.2216362953186035,570.58203125,0
1892.955,0.026345474645495415,0.020831221714615822,-0.0023522565606981516,0.0,0.0,0.0,0.0,0.002628488466143608,0.002263379981741309,0.0019090900896117091,1.0000436305999756,0.0,0.0,0.0,-3.1652719974517822,2.5595178604125977,6.211765289306641,572.9205322265625,0
1902.8739999999998,0.02624276466667652,0.020854519680142403,-0.0024247372057288885,0.0,0.0,0.0,0.0,0.0009309255983680487,0.003775337478145957,-0.0010597554501146078,1.0000874996185303,0.0,0.0,0.0,-3.16231107711792,2.5531623363494873,6.208001136779785,572.3846435546875,0
1912.782000000001,0.029295699670910835,0.019811056554317474,0.0004498775815591216,0.0,0.0,0.0,0.0,0.00033645250368863344,-0.001752817421220243,-0.0006150343688204885,1.0021209716796875,0.0,0.0,0.0,-3.1753106117248535,2.464986801147461,6.462763786315918,574.737548828125,0
1922.7030000000013,0.02926962450146675,0.019806470721960068,0.0004459265910554677,0.0,0.0,0.0,0.0,0.0009135429281741381,-0.002542344853281975,0.0009940887102857232,1.0011298656463623,0.0,0.0,0.0,-3.171104907989502,2.45763897895813,6.462606430053711,573.9762573242188,0
1932.6059999999998,0.02932845801115036,0.01981738582253456,0.0004595971549861133,0.0,0.0,0.0,0.0,-0.002465918194502592,0.0015255045145750046,-0.0027248861733824015,0.9990835189819336,0.0,0.0,0.0,-3.1895956993103027,2.4600067138671875,6.463426113128662,577.3231811523438,0
1942.5169999999998,0.02929951809346676,0.019815167412161827,0.00045827077701687813,0.0,0.0,0.0,0.0,-0.0012150994734838605,-0.002114478498697281,-0.00011652931425487623,0.9990729689598083,0.0,0.0,0.0,-3.186485528945923,2.462475299835205,6.450859546661377,576.7601928710938,0
1952.4260000000013,0.029300367459654808,0.01978357695043087,0.000520038534887135,0.0,0.0,0.0,0.0,-0.0011504500871524215,0.00593100069090724,0.0018458348931744695,0.9984999299049377,0.0,0.0,0.0,-3.203528881072998,2.4652292728424072,6.4487738609313965,579.8451538085938,0
1962.3370000000014,0.029267167672514915,0.019780268892645836,0.0005214036209508777,0.0,0.0,0.0,0.0,-0.0017927403096109629,-0.0028037058655172586,0.004310040269047022,0.9995867013931274,0.0,0.0,0.0,-3.200315475463867,2.460982322692871,6.439031600952148,579.2634887695312,0
1972.2430000000004,0.02918192557990551,0.019715573638677597,0.000574678648263216,0.0,0.0,0.0,0.0,-0.002059484366327524,-0.0010291875805705786,0.0005907006561756134,0.9969378709793091,0.0,0.0,0.0,-3.2031445503234863,2.460325002670288,6.440037250518799,579.7755126953125,0
1982.1640000000007,0.029143357649445534,0.0197098720818758,0.0005776891484856606,0.0,0.0,0.0,0.0,0.001587086240760982,0.0006629881681874394,0.0007652085623703897,0.9999715685844421,0.0,0.0,0.0,-3.200108766555786,2.463268756866455,6.444472312927246,579.2260131835938,0
1992.0730000000003,0.029108500108122826,0.01971743069589138,0.0005781949730589986,0.0,0.0,0.0,0.0,0.0012040858855471015,-0.0011610714718699455,-0.0013931271387264132,0.9997535347938538,0.0,0.0,0.0,-3.2079885005950928,2.4630377292633057,6.432382106781006,580.6522827148438,0
2001.9830000000002,0.029066035524010658,0.019710665568709373,0.0005799522623419762,0.0,0.0,0.0,0.0,-0.002121684141457081,-0.0006905804621055722,0.00041577385854907334,1.0006310939788818,0.0,0.0,0.0,-3.2056519985198975,2.4581596851348877,6.425835132598877,580.2293701171875,0
2011.8900000000012,0.029027478769421577,0.019718892872333527,0.0005765300593338907,0.0,0.0,0.0,0.0,0.0018255894538015127,0.0017670909874141216,-0.0005606787162832916,1.0001267194747925,0.0,0.0,0.0,-3.208972215652466,2.4586479663848877,6.417086601257324,580.8303833007812,0
2021.8050000000003,0.028981488198041916,0.019712988287210464,0.0005792370648123324,0.0,0.0,0.0,0.0,0.0005371974548324943,0.0011783774243667722,0.0010299176210537553,0.998887300491333,0.0,0.0,0.0,-3.2054085731506348,2.4529290199279785,6.407565116882324,580.1853637695312,0
2031.710000000001,0.02896486595273018,0.019747762009501457,0.0005145665490999818,0.0,0.0,0.0,0.0,-0.001580934040248394,-0.0008075950900092721,0.0021684609819203615,1.0015692710876465,0.0,0.0,0.0,-3.201569080352783,2.4505176544189453,6.406105995178223,579.4903564453125,0
2041.634,0.028917687013745308,0.019742300733923912,0.0005125069292262197,0.0,0.0,0.0,0.0,0.0005660342867486179,0.0023316105362027884,0.0007841265760362148,1.0009382963180542,0.0,0.0,0.0,-3.198209762573242,2.443350076675415,6.404304027557373,578.8823852539062,0
2051.5280000000002,0.028904203325510025,0.01977994665503502,0.00042722735088318586,0.0,0.0,0.0,0.0,0.004165931139141321,0.0015085249906405807,0.0020395785104483366,0.9985417127609253,0.0,0.0,0.0,-3.2091498374938965,2.453240156173706,6.410757541656494,580.8624877929688,0
2061.456,0.028856446966528893,0.019774947315454483,0.0004203320131637156,0.0,0.0,0.0,0.0,-0.0009939984884113073,0.002446303144097328,-0.00283830682747066,0.9998673796653748,0.0,0.0,0.0,-3.205604076385498,2.440361738204956,6.399048805236816,580.2207641601562,0
2071.358,0.02883736602962017,0.019792374223470688,0.0003356735687702894,0.0,0.0,0.0,0.0,-0.0002571542572695762,0.0012045998591929674,-0.0034086317755281925,0.9997023344039917,0.0,0.0,0.0,-3.2095119953155518,2.448930263519287,6.401858329772949,580.9281005859375,0
2081.2740000000013,0.02878870815038681,0.019785912707448006,0.0003222840605303645,0.0,0.0,0.0,0.0,0.000640481652226299,-0.0015259783249348402,0.002732412423938513,0.999829113483429,0.0,0.0,0.0,-3.207942247390747,2.4469285011291504,6.392241477966309,580.6439819335938,0
2091.1710000000003,0.02877330593764782,0.01981903798878193,0.00023537091328762472,0.0,0.0,0.0,0.0,-0.000530419813003391,0.0029281906317919493,0.00012378173414617777,1.0010216236114502,0.0,0.0,0.0,-3.2161383628845215,2.46579647064209,6.401130199432373,582.1273803710938,0
2101.0920000000006,0.028724750503897667,0.01981292851269245,0.00021712467423640192,0.0,0.0,0.0,0.0,-0.0016706530004739761,-0.00353273656219244,-0.0027221390046179295,0.9991121292114258,0.0,0.0,0.0,-3.212623357772827,2.4655699729919434,6.386889457702637,581.4912109375,0
2110.9980000000014,0.02870262786746025,0.01983635127544403,0.00014742770872544497,0.0,0.0,0.0,0.0,0.001152821583673358,-0.0024547232314944267,-0.0020479406230151653,0.998161792755127,0.0,0.0,0.0,-3.2110726833343506,2.4630825519561768,6.375012397766113,581.2105102539062,0
2120.911,0.02865343913435936,0.01983281783759594,0.00012522049655672163,0.0,0.0,0.0,0.0,-0.00036251035635359585,0.004092674236744642,-0.00013196990767028183,1.0013203620910645,0.0,0.0,0.0,-3.207062244415283,2.4533073902130127,6.365814208984375,580.484619140625,0
2130.8230000000003,0.02863347716629505,0.01986173912882805,5.268573295325041e-05,0.0,0.0,0.0,0.0,0.0008366580586880445,-0.00043723772978410125,-0.0012789692264050245,1.0008318424224854,0.0,0.0,0.0,-3.213001012802124,2.463695764541626,6.365232944488525,581.5595703125,0
2140.733,0.028584126383066177,0.019860757514834404,2.7338945074006915e-05,0.0,0.0,0.0,0.0,-0.002089683897793293,-0.0024889118503779173,0.0011736915912479162,1.0008370876312256,0.0,0.0,0.0,-3.2093212604522705,2.463148355484009,6.362405776977539,580.8934936523438,0
2150.638000000001,0.029379429295659065,0.019653411582112312,0.0006662964005954564,0.0,0.0,0.0,0.0,0.00021955676493234932,0.00483574066311121,0.0010377675062045455,1.0012716054916382,0.0,0.0,0.0,-3.2127647399902344,2.4427032470703125,6.562171936035156,581.516845703125,0
2160.5600000000013,0.029369190335273743,0.019644901156425476,0.0006728100124746561,0.0,0.0,0.0,0.0,0.00014331124839372933,0.0014499692479148507,0.000313661148538813,0.999861478805542,0.0,0.0,0.0,-3.209597587585449,2.4389841556549072,6.549388885498047,580.9435424804688,0
2170.461000000001,0.029444495216012,0.019571684300899506,0.0007401613984256983,0.0,0.0,0.0,0.0,6.978501915000379e-05,0.0022114792373031378,0.0016963514499366283,1.0011883974075317,0.0,0.0,0.0,-3.2134063243865967,2.436755418777466,6.532816410064697,581.6329345703125,0
